{"status":true,"message":"","result":[{"server_id":9,"name":"Uncletopia | Atlanta | 1 | All Maps","name_short":"atl-1","host":"atl-1.us.uncletopia.com","port":27015,"enabled":true,"region":"us-east","cc":"us","latitude":33.753746,"longitude":-84.38633,"reserved":0,"last_update":"0001-01-01T00:00:00Z","name_a2s":"Uncletopia | Atlanta | 1 | All Maps","protocol":17,"map":"koth_suijin","folder":"tf","game":"Team Fortress","app_id":440,"player_count":24,"max_players":24,"Bots":0,"server_type":"Dedicated","server_os":"Linux","password":true,"vac":true,"version":"7708610","steam_id":85568392924469982,"keywords":["cp","nocrits","nodmgspread","uncletopia"],"game_id":440,"stv_port":27016,"stv_name":"Uncletopia | Atlanta | 1 | All Maps | STV","players":[{"user_id":511,"name":"FancyBones","steam_id":76561198180198885,"connected_time":7552000000000,"state":"active","ping":64},{"user_id":566,"name":"joe","steam_id":76561198045781320,"connected_time":1385000000000,"state":"active","ping":62},{"user_id":550,"name":"toastman","steam_id":76561198207073088,"connected_time":4140000000000,"state":"active","ping":97},{"user_id":552,"name":"Ownniceguy","steam_id":76561199216772555,"connected_time":4059000000000,"state":"active","ping":113},{"user_id":581,"name":"Sgt","steam_id":76561198139818111,"connected_time":114000000000,"state":"active","ping":79},{"user_id":577,"name":"Adalwolfa","steam_id":76561198194671218,"connected_time":174000000000,"state":"active","ping":37},{"user_id":578,"name":"HarryjusttHarry","steam_id":76561198982810452,"connected_time":161000000000,"state":"active","ping":102},{"user_id":569,"name":"hi","steam_id":76561198378775945,"connected_time":846000000000,"state":"active","ping":71},{"user_id":571,"name":"xyt0nix","steam_id":76561199437938235,"connected_time":630000000000,"state":"active","ping":56},{"user_id":556,"name":"Quiggles","steam_id":76561199177247655,"connected_time":2724000000000,"state":"active","ping":57},{"user_id":561,"name":"Mage","steam_id":76561198285026879,"connected_time":2362000000000,"state":"active","ping":74},{"user_id":579,"name":"MrVegasAguitar","steam_id":76561198084466946,"connected_time":160000000000,"state":"active","ping":65},{"user_id":564,"name":"HARRY","steam_id":76561198842067238,"connected_time":1736000000000,"state":"active","ping":63},{"user_id":576,"name":"fi_ji","steam_id":76561198126087725,"connected_time":276000000000,"state":"active","ping":63},{"user_id":542,"name":"ly","steam_id":76561198062922146,"connected_time":4780000000000,"state":"active","ping":61},{"user_id":583,"name":"Singularity","steam_id":76561198000284742,"connected_time":54000000000,"state":"active","ping":49},{"user_id":543,"name":"Pugzilla","steam_id":76561198108088960,"connected_time":4722000000000,"state":"active","ping":46},{"user_id":562,"name":"Krissy Krampus","steam_id":76561197960848174,"connected_time":2261000000000,"state":"active","ping":70},{"user_id":582,"name":"Wolfwu - BUFF THE SPEED","steam_id":76561198864421290,"connected_time":88000000000,"state":"active","ping":40},{"user_id":565,"name":"ATL1 | Lav4ie They/Them","steam_id":76561198825997674,"connected_time":1417000000000,"state":"active","ping":66},{"user_id":484,"name":"ATL1 | a very merry ma0re","steam_id":76561199231971506,"connected_time":9533000000000,"state":"active","ping":65},{"user_id":500,"name":"FatCuddlyBear","steam_id":76561198133613253,"connected_time":9130000000000,"state":"active","ping":82},{"user_id":574,"name":"Litos","steam_id":76561198307505263,"connected_time":424000000000,"state":"active","ping":64}]},{"server_id":400,"name":"Uncletopia | Atlanta | 3 | All Maps","name_short":"atl-3","host":"atl-1.us.uncletopia.com","port":27035,"enabled":true,"region":"us-east","cc":"us","latitude":33.753746,"longitude":-84.38633,"reserved":0,"last_update":"0001-01-01T00:00:00Z","name_a2s":"Uncletopia | Atlanta | 3 | All Maps","protocol":17,"map":"pl_badwater","folder":"tf","game":"Team Fortress","app_id":440,"player_count":24,"max_players":24,"Bots":0,"server_type":"Dedicated","server_os":"Linux","password":true,"vac":true,"version":"7708610","steam_id":85568392924515187,"keywords":["nocrits","nodmgspread","payload","uncletopia"],"game_id":440,"stv_port":27036,"stv_name":"Uncletopia | Atlanta | 3 | All Maps | STV","players":[{"user_id":417,"name":"Anhkrehg","steam_id":76561197963201684,"connected_time":5920000000000,"state":"active","ping":88},{"user_id":436,"name":"Psychosis","steam_id":76561198078659070,"connected_time":4510000000000,"state":"active","ping":66},{"user_id":455,"name":"Doctor Errant","steam_id":76561198045641617,"connected_time":3041000000000,"state":"active","ping":57},{"user_id":451,"name":"triangleman","steam_id":76561198972733542,"connected_time":3488000000000,"state":"active","ping":78},{"user_id":396,"name":"Pierce","steam_id":76561198043747953,"connected_time":7679000000000,"state":"active","ping":45},{"user_id":476,"name":"jchan","steam_id":76561197990071754,"connected_time":1021000000000,"state":"active","ping":75},{"user_id":473,"name":"Wengatang","steam_id":76561198021747059,"connected_time":1399000000000,"state":"active","ping":57},{"user_id":457,"name":"Brahan","steam_id":76561198024629210,"connected_time":3027000000000,"state":"active","ping":78},{"user_id":477,"name":"MoisesNP","steam_id":76561198027957879,"connected_time":1017000000000,"state":"active","ping":89},{"user_id":419,"name":"xFactr","steam_id":76561198129007422,"connected_time":5903000000000,"state":"active","ping":59},{"user_id":474,"name":"Partner Greg","steam_id":76561198139774967,"connected_time":1159000000000,"state":"active","ping":49},{"user_id":450,"name":"The Animated Gamer","steam_id":76561198120639995,"connected_time":3599000000000,"state":"active","ping":91},{"user_id":437,"name":"ChefMike","steam_id":76561198414034069,"connected_time":4461000000000,"state":"active","ping":75},{"user_id":465,"name":"John16Mark","steam_id":76561198119445407,"connected_time":2050000000000,"state":"active","ping":79},{"user_id":466,"name":"Mr. Ruckus","steam_id":76561198339566190,"connected_time":2044000000000,"state":"active","ping":83},{"user_id":459,"name":"Andrestor","steam_id":76561198005934930,"connected_time":2977000000000,"state":"active","ping":122},{"user_id":467,"name":"vinny6","steam_id":76561198386735728,"connected_time":2041000000000,"state":"active","ping":63},{"user_id":434,"name":"❤ Ashley ❤","steam_id":76561198056428303,"connected_time":4656000000000,"state":"active","ping":114},{"user_id":470,"name":"Sir Tea","steam_id":76561198353912752,"connected_time":1949000000000,"state":"active","ping":76},{"user_id":460,"name":"sweaterfan","steam_id":76561199389567214,"connected_time":2945000000000,"state":"active","ping":64},{"user_id":475,"name":"ghostedghost","steam_id":76561198111410905,"connected_time":1069000000000,"state":"active","ping":113},{"user_id":480,"name":"garfield","steam_id":76561198114119308,"connected_time":898000000000,"state":"active","ping":45},{"user_id":462,"name":"Skipz","steam_id":76561198425244550,"connected_time":2580000000000,"state":"active","ping":81},{"user_id":395,"name":"Pixeled","steam_id":76561198088917077,"connected_time":7786000000000,"state":"active","ping":70}]},{"server_id":401,"name":"Uncletopia | Atlanta | 4 | No Payload","name_short":"atl-4","host":"atl-1.us.uncletopia.com","port":27045,"enabled":true,"region":"us-east","cc":"us","latitude":33.753746,"longitude":-84.38633,"reserved":0,"last_update":"0001-01-01T00:00:00Z","name_a2s":"Uncletopia | Atlanta | 4 | No Payload","protocol":17,"map":"plr_bananabay","folder":"tf","game":"Team Fortress","app_id":440,"player_count":0,"max_players":24,"Bots":0,"server_type":"Dedicated","server_os":"Linux","password":true,"vac":true,"version":"7708610","steam_id":85568392924515188,"keywords":["nocrits","nodmgspread","payload","uncletopia"],"game_id":440,"stv_port":27046,"stv_name":"Uncletopia | Atlanta | 4 | No Payload | STV","players":null},{"server_id":2,"name":"Uncletopia | Chicago | 1 | All Maps","name_short":"chi-1","host":"chi-1.us.uncletopia.com","port":27015,"enabled":true,"region":"us-central","cc":"us","latitude":41.881832,"longitude":-87.62318,"reserved":0,"last_update":"0001-01-01T00:00:00Z","name_a2s":"Uncletopia | Chicago | 1 | All Maps","protocol":17,"map":"pl_barnblitz","folder":"tf","game":"Team Fortress","app_id":440,"player_count":24,"max_players":24,"Bots":0,"server_type":"Dedicated","server_os":"Linux","password":true,"vac":true,"version":"7708610","steam_id":85568392924469984,"keywords":["nocrits","nodmgspread","payload","uncletopia"],"game_id":440,"stv_port":27016,"stv_name":"Uncletopia | Chicago | 1 | All Maps | STV","players":[{"user_id":434,"name":"lwyr","steam_id":76561198007982579,"connected_time":1279000000000,"state":"active","ping":59},{"user_id":370,"name":"ThatTechDude","steam_id":76561198342630635,"connected_time":5885000000000,"state":"active","ping":52},{"user_id":384,"name":"OldRavensFan","steam_id":76561198043919562,"connected_time":5054000000000,"state":"active","ping":60},{"user_id":427,"name":"Moo Guy","steam_id":76561198114598079,"connected_time":1759000000000,"state":"active","ping":65},{"user_id":447,"name":"shplunker","steam_id":76561198169291327,"connected_time":442000000000,"state":"active","ping":75},{"user_id":395,"name":"Ngsterson","steam_id":76561198162108154,"connected_time":4440000000000,"state":"active","ping":96},{"user_id":416,"name":"C papi","steam_id":76561198027779564,"connected_time":3338000000000,"state":"active","ping":55},{"user_id":423,"name":"family guy im peter","steam_id":76561199229169396,"connected_time":2078000000000,"state":"active","ping":59},{"user_id":437,"name":"festive Λlxium","steam_id":76561198131272900,"connected_time":775000000000,"state":"active","ping":50},{"user_id":411,"name":"Gheeotine","steam_id":76561198010181698,"connected_time":3980000000000,"state":"active","ping":92},{"user_id":342,"name":"Hooked","steam_id":76561198007302139,"connected_time":8220000000000,"state":"active","ping":79},{"user_id":431,"name":"Corbe","steam_id":76561198353893927,"connected_time":1494000000000,"state":"active","ping":41},{"user_id":445,"name":"PlatinumYeti","steam_id":76561198427937434,"connected_time":605000000000,"state":"active","ping":71},{"user_id":448,"name":"Mister Frank","steam_id":76561198161473385,"connected_time":402000000000,"state":"active","ping":54},{"user_id":392,"name":"Eviscerator","steam_id":76561197980073637,"connected_time":4482000000000,"state":"active","ping":62},{"user_id":440,"name":"DerpyTC","steam_id":76561198881239323,"connected_time":633000000000,"state":"active","ping":59},{"user_id":441,"name":"Nexus935115","steam_id":76561199090105638,"connected_time":632000000000,"state":"active","ping":53},{"user_id":442,"name":"Furious George","steam_id":76561198405111646,"connected_time":624000000000,"state":"active","ping":90},{"user_id":443,"name":"Cog","steam_id":76561198106174067,"connected_time":617000000000,"state":"active","ping":61},{"user_id":398,"name":"groda_spel","steam_id":76561198121349387,"connected_time":4425000000000,"state":"active","ping":49},{"user_id":399,"name":"Genius Meme","steam_id":76561198162911254,"connected_time":4422000000000,"state":"active","ping":103},{"user_id":417,"name":"chen","steam_id":76561198064872330,"connected_time":3306000000000,"state":"active","ping":65},{"user_id":446,"name":"Team mom","steam_id":76561198189330642,"connected_time":603000000000,"state":"active","ping":106},{"user_id":361,"name":"Lia_Reindeer","steam_id":76561198151569597,"connected_time":6584000000000,"state":"active","ping":143}]},{"server_id":106,"name":"Uncletopia | Chicago | 2 | All Maps","name_short":"chi-2","host":"chi-1.us.uncletopia.com","port":27025,"enabled":true,"region":"us-central","cc":"us","latitude":41.881832,"longitude":-87.62318,"reserved":0,"last_update":"0001-01-01T00:00:00Z","name_a2s":"Uncletopia | Chicago | 2 | All Maps","protocol":17,"map":"cp_mossrock","folder":"tf","game":"Team Fortress","app_id":440,"player_count":23,"max_players":24,"Bots":0,"server_type":"Dedicated","server_os":"Linux","password":true,"vac":true,"version":"7708610","steam_id":85568392924469985,"keywords":["cp","nocrits","nodmgspread","uncletopia"],"game_id":440,"stv_port":27026,"stv_name":"Uncletopia | Chicago | 2 | All Maps | STV","players":[{"user_id":391,"name":"John Darksoul","steam_id":76561198999712284,"connected_time":143000000000,"state":"spawning","ping":110},{"user_id":398,"name":"Wilhelmktx","steam_id":76561198158102295,"connected_time":1000000000,"state":"spawning","ping":219},{"user_id":357,"name":"K2f","steam_id":76561198049600563,"connected_time":3084000000000,"state":"spawning","ping":184},{"user_id":340,"name":"u/unhinged_person","steam_id":76561198085839920,"connected_time":4373000000000,"state":"spawning","ping":87},{"user_id":378,"name":"therizzmaster7421","steam_id":76561197989592141,"connected_time":1656000000000,"state":"spawning","ping":104},{"user_id":389,"name":"Onyx","steam_id":76561199033592289,"connected_time":1167000000000,"state":"spawning","ping":118},{"user_id":376,"name":"coffee bagel","steam_id":76561198141198352,"connected_time":1736000000000,"state":"spawning","ping":97},{"user_id":393,"name":"PotatoKing","steam_id":76561198302517491,"connected_time":22000000000,"state":"spawning","ping":162},{"user_id":390,"name":"sircat","steam_id":76561198255825452,"connected_time":506000000000,"state":"spawning","ping":121},{"user_id":246,"name":"a baby","steam_id":76561198008662184,"connected_time":10969000000000,"state":"spawning","ping":104},{"user_id":372,"name":"willpstackhouse","steam_id":76561199429341254,"connected_time":2352000000000,"state":"spawning","ping":100},{"user_id":383,"name":"Superbearhero","steam_id":76561198252350708,"connected_time":1575000000000,"state":"spawning","ping":139},{"user_id":292,"name":"brappy","steam_id":76561198024958319,"connected_time":7730000000000,"state":"spawning","ping":90},{"user_id":394,"name":"MidSobbes08","steam_id":76561199013101925,"connected_time":21000000000,"state":"spawning","ping":283},{"user_id":349,"name":"ballsack6000","steam_id":76561198337692867,"connected_time":3508000000000,"state":"spawning","ping":172},{"user_id":336,"name":"Tyco","steam_id":76561197978414167,"connected_time":4409000000000,"state":"spawning","ping":106},{"user_id":385,"name":"spherewithahat","steam_id":76561199122192660,"connected_time":1559000000000,"state":"spawning","ping":96},{"user_id":380,"name":"Pancreas Enjoyer","steam_id":76561199438598904,"connected_time":1635000000000,"state":"spawning","ping":131},{"user_id":392,"name":"THIRDPIERCE","steam_id":76561198405366314,"connected_time":107000000000,"state":"spawning","ping":157},{"user_id":395,"name":"Diplodocus","steam_id":76561198023323121,"connected_time":10000000000,"state":"spawning","ping":147},{"user_id":396,"name":"Banjo","steam_id":76561198004652853,"connected_time":6000000000,"state":"spawning","ping":139},{"user_id":387,"name":"CreativeUsername","steam_id":76561198186045503,"connected_time":1338000000000,"state":"spawning","ping":108},{"user_id":397,"name":"sc9r","steam_id":76561198065339248,"connected_time":4000000000,"state":"spawning","ping":156}]},{"server_id":402,"name":"Uncletopia | Chicago | 3 | All Maps","name_short":"chi-3","host":"chi-1.us.uncletopia.com","port":27035,"enabled":true,"region":"us-central","cc":"us","latitude":41.881832,"longitude":-87.62318,"reserved":0,"last_update":"0001-01-01T00:00:00Z","name_a2s":"Uncletopia | Chicago | 3 | All Maps","protocol":17,"map":"cp_snakewater_final1","folder":"tf","game":"Team Fortress","app_id":440,"player_count":0,"max_players":24,"Bots":0,"server_type":"Dedicated","server_os":"Linux","password":true,"vac":true,"version":"7708610","steam_id":85568392924515191,"keywords":["cp","nocrits","nodmgspread","uncletopia"],"game_id":440,"stv_port":27036,"stv_name":"Uncletopia | Chicago | 3 | All Maps | STV","players":null},{"server_id":403,"name":"Uncletopia | Chicago | 4 | All Maps","name_short":"chi-4","host":"chi-1.us.uncletopia.com","port":27045,"enabled":true,"region":"us-central","cc":"us","latitude":41.881832,"longitude":-87.62318,"reserved":0,"last_update":"0001-01-01T00:00:00Z","name_a2s":"Uncletopia | Chicago | 4 | All Maps","protocol":17,"map":"pl_pier","folder":"tf","game":"Team Fortress","app_id":440,"player_count":24,"max_players":24,"Bots":0,"server_type":"Dedicated","server_os":"Linux","password":true,"vac":true,"version":"7708610","steam_id":85568392924515193,"keywords":["nocrits","nodmgspread","payload","uncletopia"],"game_id":440,"stv_port":27046,"stv_name":"Uncletopia | Chicago | 4 | All Maps | STV","players":[{"user_id":318,"name":"⊰Aero⊱","steam_id":76561198084648457,"connected_time":2573000000000,"state":"active","ping":52},{"user_id":345,"name":"Clean Lines","steam_id":76561197960691518,"connected_time":1112000000000,"state":"active","ping":54},{"user_id":354,"name":"Bob the Minion","steam_id":76561197972389354,"connected_time":149000000000,"state":"active","ping":75},{"user_id":352,"name":"Tuvok Shakur","steam_id":76561198018875334,"connected_time":182000000000,"state":"active","ping":101},{"user_id":298,"name":"Skippies","steam_id":76561198131280715,"connected_time":3312000000000,"state":"active","ping":68},{"user_id":306,"name":"Koloco","steam_id":76561199022194660,"connected_time":3021000000000,"state":"active","ping":82},{"user_id":349,"name":"sebjzy","steam_id":76561198009959034,"connected_time":985000000000,"state":"active","ping":88},{"user_id":356,"name":"marcie","steam_id":76561198170642407,"connected_time":139000000000,"state":"active","ping":68},{"user_id":357,"name":"Sea4","steam_id":76561198846451551,"connected_time":62000000000,"state":"active","ping":85},{"user_id":334,"name":"Notorious_Pat","steam_id":76561198092348214,"connected_time":2182000000000,"state":"active","ping":54},{"user_id":340,"name":"barker bill","steam_id":76561198018451994,"connected_time":1987000000000,"state":"active","ping":86},{"user_id":335,"name":"Young-OG","steam_id":76561198058800479,"connected_time":2177000000000,"state":"active","ping":83},{"user_id":351,"name":"Maxxycat","steam_id":76561198194062681,"connected_time":337000000000,"state":"active","ping":68},{"user_id":355,"name":"Yayboo Bear","steam_id":76561197990770266,"connected_time":145000000000,"state":"active","ping":80},{"user_id":336,"name":"Highway Gothic","steam_id":76561198118102935,"connected_time":2171000000000,"state":"active","ping":71},{"user_id":350,"name":"valentine","steam_id":76561198131876013,"connected_time":367000000000,"state":"active","ping":61},{"user_id":326,"name":"Fancyassasin","steam_id":76561198331864258,"connected_time":2353000000000,"state":"active","ping":48},{"user_id":284,"name":"Jerry Bondle","steam_id":76561198337512213,"connected_time":4971000000000,"state":"active","ping":62},{"user_id":317,"name":"Kaluka","steam_id":76561198036861445,"connected_time":2620000000000,"state":"active","ping":82},{"user_id":273,"name":"King Cotton","steam_id":76561198292444376,"connected_time":6177000000000,"state":"active","ping":79},{"user_id":344,"name":"BullSocks","steam_id":76561198137299537,"connected_time":1135000000000,"state":"active","ping":50},{"user_id":347,"name":"hoodie (illteriate)","steam_id":76561198354284591,"connected_time":1083000000000,"state":"active","ping":53},{"user_id":337,"name":"real human bean","steam_id":76561198059535856,"connected_time":2164000000000,"state":"active","ping":75},{"user_id":348,"name":"rickrolled","steam_id":76561199401509126,"connected_time":1047000000000,"state":"active","ping":64}]},{"server_id":36,"name":"Uncletopia | Chicago | 5 | All Maps","name_short":"chi-5","host":"chi-2.us.uncletopia.com","port":27015,"enabled":true,"region":"us-central","cc":"us","latitude":41.881832,"longitude":-87.62318,"reserved":0,"last_update":"0001-01-01T00:00:00Z","name_a2s":"Uncletopia | Chicago | 5 | All Maps","protocol":17,"map":"pl_borneo","folder":"tf","game":"Team Fortress","app_id":440,"player_count":24,"max_players":24,"Bots":0,"server_type":"Dedicated","server_os":"Linux","password":true,"vac":true,"version":"7708610","steam_id":85568392924866362,"keywords":["nocrits","nodmgspread","payload","uncletopia"],"game_id":440,"stv_port":27016,"stv_name":"Uncletopia | Chicago | 5 | All Maps | STV","players":[{"user_id":137,"name":"jojobinks613","steam_id":76561198841293111,"connected_time":1514000000000,"state":"active","ping":52},{"user_id":103,"name":"Person","steam_id":76561198073885832,"connected_time":3487000000000,"state":"active","ping":113},{"user_id":82,"name":"Dr Spaceman","steam_id":76561197969755657,"connected_time":4792000000000,"state":"active","ping":45},{"user_id":130,"name":"Andrew","steam_id":76561198216167781,"connected_time":1742000000000,"state":"active","ping":64},{"user_id":114,"name":"FROYO domando","steam_id":76561199150367705,"connected_time":3178000000000,"state":"active","ping":76},{"user_id":123,"name":"Qrow","steam_id":76561198355935693,"connected_time":2386000000000,"state":"active","ping":49},{"user_id":119,"name":"scarybroccoli","steam_id":76561198296440084,"connected_time":2681000000000,"state":"active","ping":74},{"user_id":140,"name":"Saristan","steam_id":76561198093346048,"connected_time":941000000000,"state":"active","ping":73},{"user_id":147,"name":"Bob Ross","steam_id":76561198932623728,"connected_time":649000000000,"state":"active","ping":92},{"user_id":132,"name":"TheParanoidAndroid","steam_id":76561198024940715,"connected_time":1718000000000,"state":"active","ping":64},{"user_id":141,"name":"It’s hard being epic….","steam_id":76561198995733161,"connected_time":934000000000,"state":"active","ping":106},{"user_id":113,"name":"Punished Shitster","steam_id":76561198150452857,"connected_time":3257000000000,"state":"active","ping":74},{"user_id":142,"name":"mudspaw","steam_id":76561198101327448,"connected_time":916000000000,"state":"active","ping":64},{"user_id":99,"name":"ApertureCity","steam_id":76561198004153607,"connected_time":3558000000000,"state":"active","ping":75},{"user_id":143,"name":"neeko","steam_id":76561198354256072,"connected_time":914000000000,"state":"active","ping":39},{"user_id":128,"name":"Bottle","steam_id":76561198044031558,"connected_time":2269000000000,"state":"active","ping":64},{"user_id":92,"name":"asfd","steam_id":76561198012566405,"connected_time":4315000000000,"state":"active","ping":66},{"user_id":133,"name":"Hot Boy","steam_id":76561198235994316,"connected_time":1711000000000,"state":"active","ping":73},{"user_id":134,"name":"Joe Burning","steam_id":76561198208623275,"connected_time":1701000000000,"state":"active","ping":70},{"user_id":144,"name":"LerN","steam_id":76561198083463877,"connected_time":837000000000,"state":"active","ping":47},{"user_id":125,"name":"Cleric","steam_id":76561198045887994,"connected_time":2363000000000,"state":"active","ping":46},{"user_id":145,"name":"Huge","steam_id":76561199030987614,"connected_time":828000000000,"state":"active","ping":83},{"user_id":127,"name":"BojackWojack","steam_id":76561198422425920,"connected_time":2326000000000,"state":"active","ping":75},{"user_id":148,"name":"Miner2495","steam_id":76561198445904523,"connected_time":592000000000,"state":"active","ping":62}]},{"server_id":37,"name":"Uncletopia | Chicago | 6 | All Maps","name_short":"chi-6","host":"chi-2.us.uncletopia.com","port":27025,"enabled":true,"region":"us-central","cc":"us","latitude":41.881832,"longitude":-87.62318,"reserved":0,"last_update":"0001-01-01T00:00:00Z","name_a2s":"Uncletopia | Chicago | 6 | All Maps","protocol":17,"map":"cp_snakewater_final1","folder":"tf","game":"Team Fortress","app_id":440,"player_count":23,"max_players":24,"Bots":0,"server_type":"Dedicated","server_os":"Linux","password":true,"vac":true,"version":"7708610","steam_id":85568392924866363,"keywords":["cp","nocrits","nodmgspread","uncletopia"],"game_id":440,"stv_port":27026,"stv_name":"Uncletopia | Chicago | 6 | All Maps | STV","players":[{"user_id":44,"name":"Jookson","steam_id":76561198413604994,"connected_time":889000000000,"state":"active","ping":54},{"user_id":19,"name":"Shadowclaw","steam_id":76561198322511628,"connected_time":2971000000000,"state":"active","ping":63},{"user_id":21,"name":"hoOmIN","steam_id":76561198334947079,"connected_time":2263000000000,"state":"active","ping":92},{"user_id":33,"name":"qjkxkcd","steam_id":76561198035922283,"connected_time":1297000000000,"state":"active","ping":73},{"user_id":27,"name":"TheCr1msonDev1l.ttv","steam_id":76561198321086541,"connected_time":1515000000000,"state":"active","ping":85},{"user_id":56,"name":"novu","steam_id":76561198886997024,"connected_time":28000000000,"state":"active","ping":81},{"user_id":38,"name":"Chronos","steam_id":76561198126625623,"connected_time":1044000000000,"state":"active","ping":61},{"user_id":28,"name":"OrrinAtticus","steam_id":76561198072479417,"connected_time":1508000000000,"state":"active","ping":103},{"user_id":29,"name":"Alfiine","steam_id":76561198206082887,"connected_time":1500000000000,"state":"active","ping":143},{"user_id":30,"name":"Glenny✪","steam_id":76561198007942118,"connected_time":1498000000000,"state":"active","ping":137},{"user_id":31,"name":"Superplay64","steam_id":76561198172471162,"connected_time":1477000000000,"state":"active","ping":83},{"user_id":36,"name":"SuperKirby","steam_id":76561198058449669,"connected_time":1163000000000,"state":"active","ping":49},{"user_id":51,"name":"lanoc","steam_id":76561198055415367,"connected_time":657000000000,"state":"active","ping":60},{"user_id":39,"name":"IPlayGamez","steam_id":76561198041387508,"connected_time":1016000000000,"state":"active","ping":65},{"user_id":54,"name":"nebby","steam_id":76561197990815274,"connected_time":260000000000,"state":"active","ping":46},{"user_id":55,"name":"hugs for noob","steam_id":76561198063116291,"connected_time":254000000000,"state":"active","ping":67},{"user_id":42,"name":"Kinbo2487","steam_id":76561198184714198,"connected_time":940000000000,"state":"active","ping":70},{"user_id":43,"name":"taishang","steam_id":76561198065328284,"connected_time":893000000000,"state":"active","ping":108},{"user_id":52,"name":"Schuka5","steam_id":76561197995254714,"connected_time":276000000000,"state":"active","ping":80},{"user_id":46,"name":"sithreis","steam_id":76561198000564263,"connected_time":796000000000,"state":"active","ping":74},{"user_id":47,"name":"Flacco Throat GOAT","steam_id":76561198057374871,"connected_time":792000000000,"state":"active","ping":65},{"user_id":48,"name":"java","steam_id":76561198030276792,"connected_time":781000000000,"state":"active","ping":74},{"user_id":49,"name":"{[F.H]} Hydroida","steam_id":76561197999797274,"connected_time":772000000000,"state":"active","ping":59}]},{"server_id":38,"name":"Uncletopia | Chicago | 7 | No Payload","name_short":"chi-7","host":"chi-2.us.uncletopia.com","port":27035,"enabled":true,"region":"us-central","cc":"us","latitude":41.881832,"longitude":-87.62318,"reserved":0,"last_update":"0001-01-01T00:00:00Z","name_a2s":"Uncletopia | Chicago | 7 | No Payload","protocol":17,"map":"koth_viaduct","folder":"tf","game":"Team Fortress","app_id":440,"player_count":0,"max_players":24,"Bots":0,"server_type":"Dedicated","server_os":"Linux","password":true,"vac":true,"version":"7708610","steam_id":85568392924866364,"keywords":["cp","nocrits","nodmgspread","uncletopia"],"game_id":440,"stv_port":0,"stv_name":"","players":null},{"server_id":39,"name":"Uncletopia | Chicago | 8 | Community","name_short":"chi-8","host":"chi-2.us.uncletopia.com","port":27045,"enabled":true,"region":"us-central","cc":"us","latitude":41.881832,"longitude":-87.62318,"reserved":0,"last_update":"0001-01-01T00:00:00Z","name_a2s":"Uncletopia | Chicago | 8 | Community","protocol":17,"map":"workshop/koth_bagel_rc5.ugc2514036946","folder":"tf","game":"Team Fortress","app_id":440,"player_count":0,"max_players":24,"Bots":0,"server_type":"Dedicated","server_os":"Linux","password":true,"vac":true,"version":"7708610","steam_id":85568392924866365,"keywords":["cp","nocrits","nodmgspread","uncletopia"],"game_id":440,"stv_port":27046,"stv_name":"Uncletopia | Chicago | 8 | Community | STV","players":null},{"server_id":8,"name":"Uncletopia | Dallas | 1 | All Maps","name_short":"dal-1","host":"dal-1.us.uncletopia.com","port":27015,"enabled":true,"region":"us-central","cc":"us","latitude":32.779167,"longitude":-96.80889,"reserved":0,"last_update":"0001-01-01T00:00:00Z","name_a2s":"Uncletopia | Dallas | 1 | All Maps","protocol":17,"map":"pl_upward","folder":"tf","game":"Team Fortress","app_id":440,"player_count":24,"max_players":24,"Bots":0,"server_type":"Dedicated","server_os":"Linux","password":true,"vac":true,"version":"7708610","steam_id":85568392924469986,"keywords":["nocrits","nodmgspread","payload","uncletopia"],"game_id":440,"stv_port":27016,"stv_name":"Uncletopia | Dallas | 1 | All Maps | STV","players":[{"user_id":534,"name":"Bird","steam_id":76561198247484514,"connected_time":346000000000,"state":"active","ping":79},{"user_id":532,"name":"Kuyumiester","steam_id":76561198126835302,"connected_time":357000000000,"state":"active","ping":61},{"user_id":528,"name":"jerma but crying and lesbian","steam_id":76561198110661425,"connected_time":1352000000000,"state":"active","ping":72},{"user_id":533,"name":"The Ultimate Coomer","steam_id":76561199128833757,"connected_time":354000000000,"state":"active","ping":42},{"user_id":535,"name":"ansoonii","steam_id":76561198092494136,"connected_time":342000000000,"state":"active","ping":56},{"user_id":515,"name":"Eggnog","steam_id":76561197968179862,"connected_time":2318000000000,"state":"active","ping":104},{"user_id":483,"name":"paypur -rng","steam_id":76561198214370515,"connected_time":5148000000000,"state":"active","ping":75},{"user_id":516,"name":"tingle shitmouth","steam_id":76561198055109192,"connected_time":2278000000000,"state":"active","ping":91},{"user_id":540,"name":"abomination","steam_id":76561198167974713,"connected_time":103000000000,"state":"active","ping":74},{"user_id":491,"name":"Tannenbaum Trotsky","steam_id":76561199101638460,"connected_time":4833000000000,"state":"active","ping":48},{"user_id":503,"name":"Tommy Provolone","steam_id":76561198170062377,"connected_time":3497000000000,"state":"active","ping":59},{"user_id":531,"name":"plutonium isotope","steam_id":76561198319442494,"connected_time":702000000000,"state":"active","ping":88},{"user_id":539,"name":"Sigiferd","steam_id":76561198148788110,"connected_time":304000000000,"state":"active","ping":134},{"user_id":508,"name":"pt","steam_id":76561198143023330,"connected_time":3209000000000,"state":"active","ping":73},{"user_id":519,"name":"Onyx","steam_id":76561198275349640,"connected_time":2170000000000,"state":"active","ping":59},{"user_id":485,"name":"Architect","steam_id":76561198015242016,"connected_time":5028000000000,"state":"active","ping":69},{"user_id":484,"name":"ebbaxter13","steam_id":76561198839647688,"connected_time":5103000000000,"state":"active","ping":96},{"user_id":542,"name":"HeroOfTime","steam_id":76561199096218001,"connected_time":60000000000,"state":"active","ping":83},{"user_id":510,"name":"Stapler","steam_id":76561198099295077,"connected_time":3181000000000,"state":"active","ping":88},{"user_id":543,"name":"A Fruit","steam_id":76561198951830050,"connected_time":24000000000,"state":"active","ping":46},{"user_id":541,"name":"KingSteve42","steam_id":76561198409455888,"connected_time":85000000000,"state":"active","ping":100},{"user_id":538,"name":"tokemaster69","steam_id":76561198083996924,"connected_time":320000000000,"state":"active","ping":116},{"user_id":494,"name":"Vladikr1","steam_id":76561198401495362,"connected_time":4538000000000,"state":"active","ping":75},{"user_id":522,"name":"Fishstall","steam_id":76561198038126034,"connected_time":1666000000000,"state":"active","ping":69}]},{"server_id":108,"name":"Uncletopia | Dallas | 2 | All Maps","name_short":"dal-2","host":"dal-1.us.uncletopia.com","port":27025,"enabled":true,"region":"us-central","cc":"us","latitude":32.779167,"longitude":-96.80889,"reserved":0,"last_update":"0001-01-01T00:00:00Z","name_a2s":"Uncletopia | Dallas | 2 | All Maps","protocol":17,"map":"cp_process_final","folder":"tf","game":"Team Fortress","app_id":440,"player_count":21,"max_players":24,"Bots":0,"server_type":"Dedicated","server_os":"Linux","password":true,"vac":true,"version":"7708610","steam_id":85568392924469988,"keywords":["cp","nocrits","nodmgspread","uncletopia"],"game_id":440,"stv_port":27026,"stv_name":"Uncletopia | Dallas | 2 | All Maps | STV","players":[{"user_id":297,"name":"craf","steam_id":76561198163535075,"connected_time":1924000000000,"state":"active","ping":90},{"user_id":259,"name":"Viperbro_FGC #SaveTF2","steam_id":76561198140863068,"connected_time":3569000000000,"state":"active","ping":64},{"user_id":299,"name":"BuhByeFalecia","steam_id":76561198364710587,"connected_time":1829000000000,"state":"active","ping":56},{"user_id":319,"name":"ham bone","steam_id":76561198351143785,"connected_time":795000000000,"state":"active","ping":76},{"user_id":322,"name":"Jerry","steam_id":76561198851602451,"connected_time":567000000000,"state":"active","ping":61},{"user_id":336,"name":"sheep","steam_id":76561198172943006,"connected_time":1000000000,"state":"spawning","ping":65},{"user_id":307,"name":"antifa supersoldier","steam_id":76561198119651530,"connected_time":1496000000000,"state":"active","ping":88},{"user_id":265,"name":"I Swallowed Shampoo","steam_id":76561198075130050,"connected_time":3432000000000,"state":"active","ping":68},{"user_id":306,"name":"majo","steam_id":76561199443511982,"connected_time":1518000000000,"state":"active","ping":84},{"user_id":267,"name":"Rin \"Hindwing\" Redtail","steam_id":76561199074865638,"connected_time":3234000000000,"state":"active","ping":45},{"user_id":321,"name":"BLOOD !","steam_id":76561198004400850,"connected_time":607000000000,"state":"active","ping":50},{"user_id":320,"name":"Winter the Witchie","steam_id":76561198151971178,"connected_time":703000000000,"state":"active","ping":83},{"user_id":323,"name":"Gumball Comics","steam_id":76561199105258784,"connected_time":422000000000,"state":"active","ping":46},{"user_id":311,"name":"notorious glumper","steam_id":76561198045547779,"connected_time":1432000000000,"state":"active","ping":101},{"user_id":313,"name":"shrimp","steam_id":76561198092401427,"connected_time":1334000000000,"state":"active","ping":60},{"user_id":318,"name":"Riff","steam_id":76561198066921423,"connected_time":868000000000,"state":"active","ping":62},{"user_id":310,"name":"koompa_stomp","steam_id":76561198073081735,"connected_time":1466000000000,"state":"active","ping":70},{"user_id":281,"name":"Ultra\u003c3","steam_id":76561198352021493,"connected_time":2519000000000,"state":"active","ping":81},{"user_id":324,"name":"Wheatley","steam_id":76561199059006203,"connected_time":388000000000,"state":"active","ping":88},{"user_id":292,"name":"sweglord227","steam_id":76561198415510262,"connected_time":2414000000000,"state":"active","ping":69},{"user_id":335,"name":"Toottoot","steam_id":76561197992404836,"connected_time":25000000000,"state":"active","ping":59}]},{"server_id":5,"name":"Uncletopia | Frankfurt | 1 | All Maps","name_short":"frk-1","host":"frk-1.de.uncletopia.com","port":27015,"enabled":true,"region":"eu","cc":"de","latitude":50.110924,"longitude":8.682127,"reserved":0,"last_update":"0001-01-01T00:00:00Z","name_a2s":"Uncletopia | Frankfurt | 1 | All Maps","protocol":17,"map":"pl_barnblitz","folder":"tf","game":"Team Fortress","app_id":440,"player_count":24,"max_players":24,"Bots":0,"server_type":"Dedicated","server_os":"Linux","password":true,"vac":true,"version":"7708610","steam_id":85568392924469989,"keywords":["nocrits","nodmgspread","payload","uncletopia"],"game_id":440,"stv_port":27016,"stv_name":"Uncletopia | Frankfurt | 1 | All Maps | STV","players":[{"user_id":759,"name":"Greg","steam_id":76561198014131702,"connected_time":3508000000000,"state":"active","ping":127},{"user_id":805,"name":"AuroraAce","steam_id":76561198278162691,"connected_time":1099000000000,"state":"active","ping":56},{"user_id":812,"name":"glyphoglossus molossus","steam_id":76561198191291749,"connected_time":726000000000,"state":"active","ping":70},{"user_id":806,"name":"Bgm_","steam_id":76561198056452044,"connected_time":1072000000000,"state":"active","ping":63},{"user_id":682,"name":"Volterion #SaveTf2","steam_id":76561198293088484,"connected_time":8786000000000,"state":"active","ping":69},{"user_id":787,"name":"David Penus","steam_id":76561198091245948,"connected_time":1928000000000,"state":"active","ping":57},{"user_id":808,"name":"New","steam_id":76561198402195911,"connected_time":971000000000,"state":"active","ping":120},{"user_id":809,"name":"lvl. 50 honkler","steam_id":76561198061688660,"connected_time":954000000000,"state":"active","ping":96},{"user_id":784,"name":"Yilow","steam_id":76561198040036642,"connected_time":2053000000000,"state":"active","ping":80},{"user_id":794,"name":"snowi","steam_id":76561198006502679,"connected_time":1543000000000,"state":"active","ping":74},{"user_id":795,"name":"Pootis.gov.uk","steam_id":76561197970114051,"connected_time":1532000000000,"state":"active","ping":58},{"user_id":677,"name":"Spoody #JustPassing","steam_id":76561198031523769,"connected_time":9782000000000,"state":"active","ping":45},{"user_id":785,"name":"Larry Penus","steam_id":76561198207546233,"connected_time":2024000000000,"state":"active","ping":59},{"user_id":796,"name":"Charon","steam_id":76561198061714753,"connected_time":1531000000000,"state":"active","ping":81},{"user_id":801,"name":"Yaku","steam_id":76561198110734943,"connected_time":1426000000000,"state":"active","ping":78},{"user_id":780,"name":"Yus","steam_id":76561198998684199,"connected_time":2343000000000,"state":"active","ping":117},{"user_id":810,"name":"Gay Potato","steam_id":76561198018859519,"connected_time":914000000000,"state":"active","ping":62},{"user_id":813,"name":"Mr.Schnittlauch","steam_id":76561198295868113,"connected_time":26000000000,"state":"active","ping":52},{"user_id":803,"name":"♡ Spooky Lily ♡","steam_id":76561199041985544,"connected_time":1362000000000,"state":"active","ping":78},{"user_id":811,"name":"STiNGHAN","steam_id":76561198023989090,"connected_time":901000000000,"state":"active","ping":85},{"user_id":777,"name":"MadeIn2005","steam_id":76561198186929317,"connected_time":2443000000000,"state":"active","ping":135},{"user_id":800,"name":"AwterSix","steam_id":76561198042561678,"connected_time":1478000000000,"state":"active","ping":53},{"user_id":804,"name":"Jarokami","steam_id":76561199012087863,"connected_time":1360000000000,"state":"active","ping":73},{"user_id":774,"name":"foureyesfries","steam_id":76561198271831555,"connected_time":2964000000000,"state":"active","ping":66}]},{"server_id":110,"name":"Uncletopia | Frankfurt | 2 | All Maps","name_short":"frk-2","host":"frk-1.de.uncletopia.com","port":27025,"enabled":true,"region":"eu","cc":"de","latitude":50.110924,"longitude":8.682127,"reserved":0,"last_update":"0001-01-01T00:00:00Z","name_a2s":"Uncletopia | Frankfurt | 2 | All Maps","protocol":17,"map":"koth_cascade","folder":"tf","game":"Team Fortress","app_id":440,"player_count":0,"max_players":24,"Bots":0,"server_type":"Dedicated","server_os":"Linux","password":true,"vac":true,"version":"7708610","steam_id":85568392924469990,"keywords":["cp","nocrits","nodmgspread","uncletopia"],"game_id":440,"stv_port":27026,"stv_name":"Uncletopia | Frankfurt | 2 | All Maps | STV","players":null},{"server_id":308,"name":"Uncletopia | Frankfurt | 3 | All Maps","name_short":"frk-3","host":"frk-1.de.uncletopia.com","port":27035,"enabled":true,"region":"eu","cc":"de","latitude":50.110924,"longitude":8.682127,"reserved":0,"last_update":"0001-01-01T00:00:00Z","name_a2s":"Uncletopia | Frankfurt | 3 | All Maps","protocol":17,"map":"koth_viaduct","folder":"tf","game":"Team Fortress","app_id":440,"player_count":0,"max_players":24,"Bots":0,"server_type":"Dedicated","server_os":"Linux","password":true,"vac":true,"version":"7708610","steam_id":85568392924504274,"keywords":["cp","nocrits","nodmgspread","uncletopia"],"game_id":440,"stv_port":27036,"stv_name":"Uncletopia | Frankfurt | 3 | All Maps | STV","players":null},{"server_id":309,"name":"Uncletopia | Frankfurt | 4 | All Maps","name_short":"frk-4","host":"frk-1.de.uncletopia.com","port":27045,"enabled":true,"region":"eu","cc":"de","latitude":50.110924,"longitude":8.682127,"reserved":0,"last_update":"0001-01-01T00:00:00Z","name_a2s":"Uncletopia | Frankfurt | 4 | All Maps","protocol":17,"map":"cp_mountainlab","folder":"tf","game":"Team Fortress","app_id":440,"player_count":0,"max_players":24,"Bots":0,"server_type":"Dedicated","server_os":"Linux","password":true,"vac":true,"version":"7708610","steam_id":85568392924504275,"keywords":["cp","nocrits","nodmgspread","uncletopia"],"game_id":440,"stv_port":27046,"stv_name":"Uncletopia | Frankfurt | 4 | All Maps | STV","players":null},{"server_id":310,"name":"Uncletopia | Frankfurt | 5 | All Maps","name_short":"frk-5","host":"frk-1.de.uncletopia.com","port":27055,"enabled":true,"region":"eu","cc":"de","latitude":50.110924,"longitude":8.682127,"reserved":0,"last_update":"0001-01-01T00:00:00Z","name_a2s":"Uncletopia | Frankfurt | 5 | All Maps","protocol":17,"map":"pl_swiftwater_final1","folder":"tf","game":"Team Fortress","app_id":440,"player_count":22,"max_players":24,"Bots":0,"server_type":"Dedicated","server_os":"Linux","password":true,"vac":true,"version":"7708610","steam_id":85568392924504277,"keywords":["nocrits","nodmgspread","payload","uncletopia"],"game_id":440,"stv_port":27056,"stv_name":"Uncletopia | Frankfurt | 5 | All Maps | STV","players":[{"user_id":843,"name":"Wizard","steam_id":76561198088629007,"connected_time":657000000000,"state":"active","ping":58},{"user_id":666,"name":"dustee","steam_id":76561198023486582,"connected_time":13076000000000,"state":"active","ping":75},{"user_id":844,"name":"mrrobsa","steam_id":76561197971287215,"connected_time":608000000000,"state":"active","ping":71},{"user_id":850,"name":"joachym","steam_id":76561198428579761,"connected_time":77000000000,"state":"active","ping":56},{"user_id":815,"name":"Skyfoogle","steam_id":76561198027177883,"connected_time":2474000000000,"state":"active","ping":68},{"user_id":823,"name":"obama","steam_id":76561198335143890,"connected_time":1769000000000,"state":"active","ping":66},{"user_id":851,"name":"Shynii","steam_id":76561198194682105,"connected_time":48000000000,"state":"active","ping":60},{"user_id":771,"name":"traudinix","steam_id":76561198061363420,"connected_time":5439000000000,"state":"active","ping":46},{"user_id":852,"name":"rat performance","steam_id":76561198065854668,"connected_time":19000000000,"state":"active","ping":60},{"user_id":830,"name":"Mr_Pulse_","steam_id":76561198095001602,"connected_time":1600000000000,"state":"active","ping":87},{"user_id":800,"name":"BarrackOmaha","steam_id":76561198027922724,"connected_time":3418000000000,"state":"active","ping":84},{"user_id":846,"name":"gamer_","steam_id":76561198094125769,"connected_time":540000000000,"state":"active","ping":77},{"user_id":817,"name":"NotaSimp","steam_id":76561197971394640,"connected_time":2216000000000,"state":"active","ping":184},{"user_id":839,"name":"Matteo Besho","steam_id":76561199159657855,"connected_time":1057000000000,"state":"active","ping":69},{"user_id":840,"name":"Diana Ball","steam_id":76561198382533813,"connected_time":1053000000000,"state":"active","ping":60},{"user_id":827,"name":"name","steam_id":76561198152620745,"connected_time":1643000000000,"state":"active","ping":69},{"user_id":833,"name":"scout gaming","steam_id":76561199380974466,"connected_time":1147000000000,"state":"active","ping":91},{"user_id":796,"name":"meriones","steam_id":76561198034234373,"connected_time":3505000000000,"state":"active","ping":56},{"user_id":829,"name":"Zerfesh","steam_id":76561198117534358,"connected_time":1630000000000,"state":"active","ping":92},{"user_id":847,"name":"jo bidn' | ETLARTORM","steam_id":76561198869576262,"connected_time":492000000000,"state":"active","ping":98},{"user_id":776,"name":"ego944","steam_id":76561197999290923,"connected_time":5328000000000,"state":"active","ping":53},{"user_id":831,"name":"F2P gameing","steam_id":76561198834713682,"connected_time":1563000000000,"state":"active","ping":75}]},{"server_id":311,"name":"Uncletopia | Frankfurt | 6 | All Maps","name_short":"frk-6","host":"frk-1.de.uncletopia.com","port":27065,"enabled":true,"region":"eu","cc":"de","latitude":50.110924,"longitude":8.682127,"reserved":0,"last_update":"0001-01-01T00:00:00Z","name_a2s":"Uncletopia | Frankfurt | 6 | All Maps","protocol":17,"map":"cp_sunshine","folder":"tf","game":"Team Fortress","app_id":440,"player_count":24,"max_players":24,"Bots":0,"server_type":"Dedicated","server_os":"Linux","password":true,"vac":true,"version":"7708610","steam_id":85568392924504278,"keywords":["cp","nocrits","nodmgspread","uncletopia"],"game_id":440,"stv_port":27066,"stv_name":"Uncletopia | Frankfurt | 6 | All Maps | STV","players":[{"user_id":364,"name":"Pizza/Cheese/Pepperoni","steam_id":76561198174510235,"connected_time":3049000000000,"state":"active","ping":62},{"user_id":380,"name":"76561198205267113","steam_id":76561198048250715,"connected_time":1653000000000,"state":"active","ping":45},{"user_id":330,"name":"Reimu Hakurei","steam_id":76561198038078831,"connected_time":6055000000000,"state":"active","ping":46},{"user_id":381,"name":"cinny","steam_id":76561198832112629,"connected_time":1641000000000,"state":"active","ping":74},{"user_id":401,"name":"TJ","steam_id":76561198107672287,"connected_time":615000000000,"state":"active","ping":76},{"user_id":388,"name":"Tortes","steam_id":76561199049185884,"connected_time":1263000000000,"state":"active","ping":108},{"user_id":385,"name":"dinger","steam_id":76561198038748489,"connected_time":1387000000000,"state":"active","ping":67},{"user_id":394,"name":"Phalcon","steam_id":76561197987051394,"connected_time":809000000000,"state":"active","ping":80},{"user_id":390,"name":"Moon","steam_id":76561198047535132,"connected_time":1034000000000,"state":"active","ping":64},{"user_id":387,"name":"Dr3b3n","steam_id":76561199093198137,"connected_time":1280000000000,"state":"active","ping":107},{"user_id":367,"name":"noot","steam_id":76561198148074472,"connected_time":2933000000000,"state":"active","ping":41},{"user_id":368,"name":"vajezauuu... raminkis","steam_id":76561198147277460,"connected_time":2930000000000,"state":"active","ping":57},{"user_id":393,"name":"3 Italians in a trenchcoat.","steam_id":76561198094993151,"connected_time":889000000000,"state":"active","ping":58},{"user_id":402,"name":"don cheadle","steam_id":76561198032841675,"connected_time":544000000000,"state":"active","ping":63},{"user_id":391,"name":"swallowed 10 pennies please hel","steam_id":76561198055816412,"connected_time":982000000000,"state":"active","ping":64},{"user_id":403,"name":"kivinen jumala","steam_id":76561198443632133,"connected_time":467000000000,"state":"active","ping":119},{"user_id":406,"name":"Snokie Boi","steam_id":76561198081126247,"connected_time":349000000000,"state":"active","ping":76},{"user_id":395,"name":"DarthMurloc","steam_id":76561198075577711,"connected_time":805000000000,"state":"active","ping":78},{"user_id":405,"name":"stormy-chan","steam_id":76561198905911729,"connected_time":389000000000,"state":"active","ping":66},{"user_id":398,"name":"chilliga typ","steam_id":76561198035209514,"connected_time":679000000000,"state":"active","ping":54},{"user_id":400,"name":"gagalak","steam_id":76561198089979108,"connected_time":645000000000,"state":"active","ping":92},{"user_id":407,"name":"ORISHINGGG","steam_id":76561198238112744,"connected_time":279000000000,"state":"active","ping":92},{"user_id":408,"name":"mrtrollmo","steam_id":76561199175588467,"connected_time":267000000000,"state":"active","ping":84}]},{"server_id":23,"name":"Uncletopia | Frankfurt | 7 | No Payload","name_short":"frk-7","host":"frk-1.de.uncletopia.com","port":27075,"enabled":true,"region":"eu","cc":"de","latitude":50.110924,"longitude":8.682127,"reserved":0,"last_update":"0001-01-01T00:00:00Z","name_a2s":"Uncletopia | Frankfurt | 7 | No Payload","protocol":17,"map":"cp_well","folder":"tf","game":"Team Fortress","app_id":440,"player_count":0,"max_players":24,"Bots":0,"server_type":"Dedicated","server_os":"Linux","password":true,"vac":true,"version":"7708610","steam_id":85568392924742827,"keywords":["cp","nocrits","nodmgspread","uncletopia"],"game_id":440,"stv_port":27076,"stv_name":"Uncletopia | Frankfurt | 7 | No Payload | STV","players":null},{"server_id":24,"name":"Uncletopia | Frankfurt | 8 | Community","name_short":"frk-8","host":"frk-1.de.uncletopia.com","port":27085,"enabled":true,"region":"eu","cc":"de","latitude":50.110924,"longitude":8.682127,"reserved":0,"last_update":"0001-01-01T00:00:00Z","name_a2s":"Uncletopia | Frankfurt | 8 | Community","protocol":17,"map":"workshop/koth_slaughter_rc1.ugc1712845210","folder":"tf","game":"Team Fortress","app_id":440,"player_count":0,"max_players":24,"Bots":0,"server_type":"Dedicated","server_os":"Linux","password":true,"vac":true,"version":"7708610","steam_id":85568392924742828,"keywords":["cp","nocrits","nodmgspread","uncletopia"],"game_id":440,"stv_port":27086,"stv_name":"Uncletopia | Frankfurt | 8 | Community | STV","players":null},{"server_id":202,"name":"Uncletopia | Hong Kong | 1 | All Maps","name_short":"hgk-1","host":"hgk-1.hk.uncletopia.com","port":27015,"enabled":true,"region":"asia","cc":"hk","latitude":22.302711,"longitude":114.177216,"reserved":0,"last_update":"0001-01-01T00:00:00Z","name_a2s":"Uncletopia | Hong Kong | 1 | All Maps","protocol":17,"map":"pl_upward","folder":"tf","game":"Team Fortress","app_id":440,"player_count":4,"max_players":24,"Bots":0,"server_type":"Dedicated","server_os":"Linux","password":true,"vac":true,"version":"7708610","steam_id":85568392924494504,"keywords":["nocrits","nodmgspread","payload","uncletopia"],"game_id":440,"stv_port":0,"stv_name":"","players":[{"user_id":3,"name":"¿かさ?","steam_id":76561198390893986,"connected_time":1217000000000,"state":"active","ping":76},{"user_id":4,"name":"Sandwich Destroyer","steam_id":76561199221871877,"connected_time":943000000000,"state":"active","ping":54},{"user_id":5,"name":"Đảng Cộng Sản Việt Nam","steam_id":76561199113304832,"connected_time":561000000000,"state":"active","ping":63},{"user_id":6,"name":"I miss 2012","steam_id":76561199040851021,"connected_time":520000000000,"state":"active","ping":55}]},{"server_id":1,"name":"Uncletopia | Los Angeles | 1 | All Maps","name_short":"lax-1","host":"lax-1.us.uncletopia.com","port":27015,"enabled":true,"region":"us-west","cc":"us","latitude":33.94279,"longitude":-118.41004,"reserved":0,"last_update":"0001-01-01T00:00:00Z","name_a2s":"Uncletopia | Los Angeles | 1 | All Maps","protocol":17,"map":"koth_lakeside_final","folder":"tf","game":"Team Fortress","app_id":440,"player_count":0,"max_players":24,"Bots":0,"server_type":"Dedicated","server_os":"Linux","password":true,"vac":true,"version":"7708610","steam_id":85568392924469991,"keywords":["cp","nocrits","nodmgspread","uncletopia"],"game_id":440,"stv_port":27016,"stv_name":"Uncletopia | Los Angeles | 1 | All Maps | STV","players":null},{"server_id":112,"name":"Uncletopia | Los Angeles | 2 | All Maps","name_short":"lax-2","host":"lax-1.us.uncletopia.com","port":27025,"enabled":true,"region":"us-west","cc":"us","latitude":33.94279,"longitude":-118.41004,"reserved":0,"last_update":"0001-01-01T00:00:00Z","name_a2s":"Uncletopia | Los Angeles | 2 | All Maps","protocol":17,"map":"cp_steel","folder":"tf","game":"Team Fortress","app_id":440,"player_count":24,"max_players":24,"Bots":0,"server_type":"Dedicated","server_os":"Linux","password":true,"vac":true,"version":"7708610","steam_id":85568392924469992,"keywords":["cp","nocrits","nodmgspread","uncletopia"],"game_id":440,"stv_port":27026,"stv_name":"Uncletopia | Los Angeles | 2 | All Maps | STV","players":[{"user_id":91,"name":"N64Kanroji","steam_id":76561198045209288,"connected_time":2651000000000,"state":"active","ping":70},{"user_id":100,"name":"Shalom","steam_id":76561198410005222,"connected_time":1496000000000,"state":"active","ping":78},{"user_id":122,"name":"Moth Beam","steam_id":76561198005069202,"connected_time":584000000000,"state":"active","ping":76},{"user_id":125,"name":"Method","steam_id":76561198159176620,"connected_time":569000000000,"state":"active","ping":61},{"user_id":105,"name":"Jesus","steam_id":76561198018890911,"connected_time":1460000000000,"state":"active","ping":79},{"user_id":84,"name":"Feel the bern","steam_id":76561198078824519,"connected_time":3105000000000,"state":"active","ping":47},{"user_id":111,"name":"spot","steam_id":76561198151135298,"connected_time":1182000000000,"state":"active","ping":29},{"user_id":97,"name":"Zobozo","steam_id":76561198028954297,"connected_time":2455000000000,"state":"active","ping":45},{"user_id":103,"name":"dandy","steam_id":76561197967362217,"connected_time":1475000000000,"state":"active","ping":49},{"user_id":133,"name":"dearender","steam_id":76561199427644498,"connected_time":177000000000,"state":"active","ping":83},{"user_id":128,"name":"Tech","steam_id":76561198177869755,"connected_time":455000000000,"state":"active","ping":131},{"user_id":112,"name":"Better","steam_id":76561198320786565,"connected_time":1155000000000,"state":"active","ping":53},{"user_id":132,"name":"YAGOO GAMING","steam_id":76561198219019875,"connected_time":202000000000,"state":"active","ping":54},{"user_id":99,"name":"cacos","steam_id":76561199130242847,"connected_time":2082000000000,"state":"active","ping":183},{"user_id":117,"name":"[B] h r i s","steam_id":76561198088647853,"connected_time":931000000000,"state":"active","ping":50},{"user_id":136,"name":"Quietsharp","steam_id":76561198277968438,"connected_time":41000000000,"state":"active","ping":57},{"user_id":90,"name":"Fred","steam_id":76561197983870604,"connected_time":2831000000000,"state":"active","ping":46},{"user_id":118,"name":"frutiger aero","steam_id":76561198116337540,"connected_time":905000000000,"state":"active","ping":93},{"user_id":126,"name":"ELCHINOMAMON","steam_id":76561198281745224,"connected_time":568000000000,"state":"active","ping":49},{"user_id":127,"name":"Brison","steam_id":76561197993377761,"connected_time":514000000000,"state":"active","ping":53},{"user_id":124,"name":"A UsedNom","steam_id":76561198402832756,"connected_time":582000000000,"state":"active","ping":44},{"user_id":116,"name":"FireQuiz","steam_id":76561198107357249,"connected_time":1116000000000,"state":"active","ping":85},{"user_id":93,"name":"Vec","steam_id":76561198044505262,"connected_time":2642000000000,"state":"active","ping":110},{"user_id":110,"name":"CheekyMcCheek","steam_id":76561198081978491,"connected_time":1262000000000,"state":"active","ping":54}]},{"server_id":324,"name":"Uncletopia | Los Angeles | 3 | All Maps","name_short":"lax-3","host":"lax-1.us.uncletopia.com","port":27035,"enabled":true,"region":"us-west","cc":"us","latitude":33.94279,"longitude":-118.41004,"reserved":0,"last_update":"0001-01-01T00:00:00Z","name_a2s":"Uncletopia | Los Angeles | 3 | All Maps","protocol":17,"map":"koth_viaduct","folder":"tf","game":"Team Fortress","app_id":440,"player_count":0,"max_players":24,"Bots":0,"server_type":"Dedicated","server_os":"Linux","password":true,"vac":true,"version":"7708610","steam_id":85568392924510198,"keywords":["cp","nocrits","nodmgspread","uncletopia"],"game_id":440,"stv_port":27036,"stv_name":"Uncletopia | Los Angeles | 3 | All Maps | STV","players":null},{"server_id":25,"name":"Uncletopia | Los Angeles | 4 | No Payload","name_short":"lax-4","host":"lax-1.us.uncletopia.com","port":27045,"enabled":true,"region":"us-west","cc":"us","latitude":33.94279,"longitude":-118.41004,"reserved":0,"last_update":"0001-01-01T00:00:00Z","name_a2s":"Uncletopia | Los Angeles | 4 | No Payload","protocol":17,"map":"cp_freight_final1","folder":"tf","game":"Team Fortress","app_id":440,"player_count":0,"max_players":24,"Bots":0,"server_type":"Dedicated","server_os":"Linux","password":true,"vac":true,"version":"7708610","steam_id":85568392924510199,"keywords":["cp","nocrits","nodmgspread","uncletopia"],"game_id":440,"stv_port":27046,"stv_name":"Uncletopia | Los Angeles | 4 | No Payload | STV","players":null},{"server_id":11,"name":"Uncletopia | London | 1 | All Maps","name_short":"lon-1","host":"lon-1.uk.uncletopia.com","port":27015,"enabled":true,"region":"eu","cc":"gb","latitude":51.509865,"longitude":-0.118092,"reserved":0,"last_update":"0001-01-01T00:00:00Z","name_a2s":"Uncletopia | London | 1 | All Maps","protocol":17,"map":"cp_process_final","folder":"tf","game":"Team Fortress","app_id":440,"player_count":24,"max_players":24,"Bots":0,"server_type":"Dedicated","server_os":"Linux","password":true,"vac":true,"version":"7708610","steam_id":85568392924367362,"keywords":["cp","nocrits","nodmgspread","uncletopia"],"game_id":440,"stv_port":27016,"stv_name":"Uncletopia | London | 1 | All Maps | STV","players":[{"user_id":517,"name":"gnarly business","steam_id":76561198832688767,"connected_time":9482000000000,"state":"active","ping":45},{"user_id":526,"name":"festive jones","steam_id":76561198073975078,"connected_time":8725000000000,"state":"active","ping":40},{"user_id":543,"name":"ahh, eto... nya. :3","steam_id":76561198878171763,"connected_time":6687000000000,"state":"active","ping":46},{"user_id":589,"name":"JOHN GAMING (based)","steam_id":76561199085822219,"connected_time":1892000000000,"state":"active","ping":75},{"user_id":541,"name":"Krismas","steam_id":76561198021772843,"connected_time":6784000000000,"state":"active","ping":53},{"user_id":574,"name":"teddy","steam_id":76561198007436837,"connected_time":2795000000000,"state":"active","ping":30},{"user_id":597,"name":"Femboy Gaming","steam_id":76561198174108515,"connected_time":1626000000000,"state":"active","ping":60},{"user_id":572,"name":"SuperBob103","steam_id":76561199175360012,"connected_time":3313000000000,"state":"active","ping":50},{"user_id":599,"name":"Mango","steam_id":76561198139555709,"connected_time":1379000000000,"state":"active","ping":45},{"user_id":510,"name":"merry beebo","steam_id":76561199120277007,"connected_time":10903000000000,"state":"active","ping":41},{"user_id":567,"name":"outin","steam_id":76561198137734730,"connected_time":3700000000000,"state":"active","ping":61},{"user_id":548,"name":"charlotte","steam_id":76561198075129898,"connected_time":5618000000000,"state":"active","ping":45},{"user_id":601,"name":"sapphisticated","steam_id":76561199400809482,"connected_time":882000000000,"state":"active","ping":60},{"user_id":583,"name":"Davidoff","steam_id":76561199099163283,"connected_time":2125000000000,"state":"active","ping":71},{"user_id":551,"name":"Cabbch","steam_id":76561198045955679,"connected_time":5439000000000,"state":"active","ping":46},{"user_id":591,"name":"effie♡","steam_id":76561198129649478,"connected_time":1835000000000,"state":"active","ping":107},{"user_id":602,"name":"tf_staem","steam_id":76561198877590789,"connected_time":662000000000,"state":"active","ping":62},{"user_id":556,"name":"BreadBaubbles","steam_id":76561198174332826,"connected_time":4969000000000,"state":"active","ping":52},{"user_id":576,"name":"Jedi doggo","steam_id":76561198360026202,"connected_time":2682000000000,"state":"active","ping":74},{"user_id":603,"name":"ghostie","steam_id":76561199097303487,"connected_time":11000000000,"state":"active","ping":65},{"user_id":595,"name":"chrissymas","steam_id":76561198096547662,"connected_time":1820000000000,"state":"active","ping":54},{"user_id":577,"name":"✪ J","steam_id":76561198094911581,"connected_time":2673000000000,"state":"active","ping":45},{"user_id":604,"name":"ashley","steam_id":76561198448551449,"connected_time":11000000000,"state":"spawning","ping":22},{"user_id":570,"name":"SOPHIIEE","steam_id":76561198443798981,"connected_time":3458000000000,"state":"active","ping":47}]},{"server_id":114,"name":"Uncletopia | London | 2 | All Maps","name_short":"lon-2","host":"lon-1.uk.uncletopia.com","port":27025,"enabled":true,"region":"eu","cc":"gb","latitude":51.509865,"longitude":-0.118092,"reserved":0,"last_update":"0001-01-01T00:00:00Z","name_a2s":"Uncletopia | London | 2 | All Maps","protocol":17,"map":"cp_mountainlab","folder":"tf","game":"Team Fortress","app_id":440,"player_count":23,"max_players":24,"Bots":0,"server_type":"Dedicated","server_os":"Linux","password":true,"vac":true,"version":"7708610","steam_id":85568392924470941,"keywords":["cp","nocrits","nodmgspread","uncletopia"],"game_id":440,"stv_port":27026,"stv_name":"Uncletopia | London | 2 | All Maps | STV","players":[{"user_id":480,"name":"Pluto","steam_id":76561198210904271,"connected_time":294000000000,"state":"active","ping":74},{"user_id":468,"name":"Pumpkin Tutter","steam_id":76561198039725179,"connected_time":1100000000000,"state":"active","ping":51},{"user_id":494,"name":"Monke Gaming","steam_id":76561199122133427,"connected_time":24000000000,"state":"active","ping":131},{"user_id":479,"name":"Michelin Starred Chilli Pete","steam_id":76561197996149548,"connected_time":319000000000,"state":"active","ping":51},{"user_id":473,"name":"Cylinder Mann","steam_id":76561198219128033,"connected_time":869000000000,"state":"active","ping":45},{"user_id":492,"name":"it hurts","steam_id":76561198846784757,"connected_time":84000000000,"state":"active","ping":49},{"user_id":397,"name":"ACG_Dubsy","steam_id":76561198797308565,"connected_time":6370000000000,"state":"active","ping":50},{"user_id":466,"name":"cropping","steam_id":76561198026586456,"connected_time":1132000000000,"state":"active","ping":57},{"user_id":481,"name":"IndigoJones","steam_id":76561198050284262,"connected_time":279000000000,"state":"active","ping":45},{"user_id":482,"name":"bMG morlo^","steam_id":76561198249301650,"connected_time":226000000000,"state":"active","ping":46},{"user_id":484,"name":"luvny","steam_id":76561198159928154,"connected_time":208000000000,"state":"active","ping":42},{"user_id":447,"name":"jthtpth","steam_id":76561198883330245,"connected_time":1983000000000,"state":"active","ping":48},{"user_id":495,"name":"BepisR47","steam_id":76561198084515716,"connected_time":6000000000,"state":"spawning","ping":40},{"user_id":476,"name":"Gety0","steam_id":76561198044387185,"connected_time":493000000000,"state":"active","ping":83},{"user_id":437,"name":"UltimateSlayer","steam_id":76561198384109309,"connected_time":3034000000000,"state":"active","ping":58},{"user_id":493,"name":"TechAchech","steam_id":76561198304077408,"connected_time":70000000000,"state":"active","ping":59},{"user_id":475,"name":"Weeb","steam_id":76561198297928869,"connected_time":564000000000,"state":"active","ping":47},{"user_id":405,"name":"Saken","steam_id":76561198049075295,"connected_time":6172000000000,"state":"active","ping":59},{"user_id":488,"name":"iBeKelsey","steam_id":76561198426604784,"connected_time":131000000000,"state":"active","ping":38},{"user_id":489,"name":"SuperflameGP","steam_id":76561198256506294,"connected_time":130000000000,"state":"active","ping":46},{"user_id":477,"name":"Fortezza","steam_id":76561198972539903,"connected_time":488000000000,"state":"active","ping":59},{"user_id":491,"name":"ᚨᚾᛖᚢᚱ","steam_id":76561198125459690,"connected_time":104000000000,"state":"active","ping":59},{"user_id":410,"name":"lark","steam_id":76561198091724522,"connected_time":6103000000000,"state":"active","ping":50}]},{"server_id":320,"name":"Uncletopia | London | 3 | All Maps","name_short":"lon-3","host":"lon-1.uk.uncletopia.com","port":27035,"enabled":true,"region":"eu","cc":"gb","latitude":51.509865,"longitude":-0.118092,"reserved":0,"last_update":"0001-01-01T00:00:00Z","name_a2s":"Uncletopia | London | 3 | All Maps","protocol":17,"map":"pl_swiftwater_final1","folder":"tf","game":"Team Fortress","app_id":440,"player_count":0,"max_players":24,"Bots":0,"server_type":"Dedicated","server_os":"Linux","password":true,"vac":true,"version":"7708610","steam_id":85568392924510192,"keywords":["nocrits","nodmgspread","payload","uncletopia"],"game_id":440,"stv_port":27036,"stv_name":"Uncletopia | London | 3 | All Maps | STV","players":null},{"server_id":321,"name":"Uncletopia | London | 4 | All Maps","name_short":"lon-4","host":"lon-1.uk.uncletopia.com","port":27045,"enabled":true,"region":"eu","cc":"gb","latitude":51.509865,"longitude":-0.118092,"reserved":0,"last_update":"0001-01-01T00:00:00Z","name_a2s":"Uncletopia | London | 4 | All Maps","protocol":17,"map":"koth_viaduct","folder":"tf","game":"Team Fortress","app_id":440,"player_count":0,"max_players":24,"Bots":0,"server_type":"Dedicated","server_os":"Linux","password":true,"vac":true,"version":"7708610","steam_id":85568392924510193,"keywords":["cp","nocrits","nodmgspread","uncletopia"],"game_id":440,"stv_port":27046,"stv_name":"Uncletopia | London | 4 | All Maps | STV","players":null},{"server_id":21,"name":"Uncletopia | London | 5 | All Maps","name_short":"lon-5","host":"lon-1.uk.uncletopia.com","port":27055,"enabled":true,"region":"eu","cc":"gb","latitude":51.509865,"longitude":-0.118092,"reserved":0,"last_update":"0001-01-01T00:00:00Z","name_a2s":"Uncletopia | London | 5 | All Maps","protocol":17,"map":"cp_process_final","folder":"tf","game":"Team Fortress","app_id":440,"player_count":0,"max_players":24,"Bots":0,"server_type":"Dedicated","server_os":"Linux","password":true,"vac":true,"version":"7708610","steam_id":85568392924742829,"keywords":["cp","nocrits","nodmgspread","uncletopia"],"game_id":440,"stv_port":27056,"stv_name":"Uncletopia | London | 5 | All Maps | STV","players":null},{"server_id":22,"name":"Uncletopia | London | 6 | All Maps","name_short":"lon-6","host":"lon-1.uk.uncletopia.com","port":27065,"enabled":true,"region":"eu","cc":"gb","latitude":51.509865,"longitude":-0.118092,"reserved":0,"last_update":"0001-01-01T00:00:00Z","name_a2s":"Uncletopia | London | 6 | All Maps","protocol":17,"map":"koth_viaduct","folder":"tf","game":"Team Fortress","app_id":440,"player_count":0,"max_players":24,"Bots":0,"server_type":"Dedicated","server_os":"Linux","password":true,"vac":true,"version":"7708610","steam_id":85568392924742830,"keywords":["cp","nocrits","nodmgspread","uncletopia"],"game_id":440,"stv_port":27066,"stv_name":"Uncletopia | London | 6 | All Maps | STV","players":null},{"server_id":40,"name":"Uncletopia | London | 7 | No Payload","name_short":"lon-7","host":"lon-1.uk.uncletopia.com","port":27075,"enabled":true,"region":"eu","cc":"gb","latitude":51.509865,"longitude":-0.118092,"reserved":0,"last_update":"0001-01-01T00:00:00Z","name_a2s":"Uncletopia | London | 7 | No Payload","protocol":17,"map":"koth_cascade","folder":"tf","game":"Team Fortress","app_id":440,"player_count":0,"max_players":24,"Bots":0,"server_type":"Dedicated","server_os":"Linux","password":true,"vac":true,"version":"7708610","steam_id":85568392924964314,"keywords":["cp","nocrits","nodmgspread","uncletopia"],"game_id":440,"stv_port":27076,"stv_name":"Uncletopia | London | 7 | No Payload | STV","players":null},{"server_id":41,"name":"Uncletopia | London | 8 | Community","name_short":"lon-8","host":"lon-1.uk.uncletopia.com","port":27085,"enabled":true,"region":"eu","cc":"gb","latitude":51.509865,"longitude":-0.118092,"reserved":0,"last_update":"0001-01-01T00:00:00Z","name_a2s":"Uncletopia | London | 8 | Community","protocol":17,"map":"workshop/koth_synthetic_rc6a.ugc1549817316","folder":"tf","game":"Team Fortress","app_id":440,"player_count":0,"max_players":24,"Bots":0,"server_type":"Dedicated","server_os":"Linux","password":true,"vac":true,"version":"7708610","steam_id":85568392924964315,"keywords":["cp","nocrits","nodmgspread","uncletopia"],"game_id":440,"stv_port":27086,"stv_name":"Uncletopia | London | 8 | Community | STV","players":null},{"server_id":300,"name":"Uncletopia | Montréal | 1 | All Maps","name_short":"mtl-1","host":"mtl-1.ca.uncletopia.com","port":27015,"enabled":true,"region":"us-east","cc":"ca","latitude":45.50889,"longitude":-73.56167,"reserved":0,"last_update":"0001-01-01T00:00:00Z","name_a2s":"Uncletopia | Montréal | 1 | All Maps","protocol":17,"map":"cp_sunshine","folder":"tf","game":"Team Fortress","app_id":440,"player_count":0,"max_players":24,"Bots":0,"server_type":"Dedicated","server_os":"Linux","password":true,"vac":true,"version":"7708610","steam_id":85568392924500087,"keywords":["cp","nocrits","nodmgspread","uncletopia"],"game_id":440,"stv_port":27016,"stv_name":"Uncletopia | Montréal | 1 | All Maps | STV","players":null},{"server_id":301,"name":"Uncletopia | Montréal | 2 | All Maps","name_short":"mtl-2","host":"mtl-1.ca.uncletopia.com","port":27025,"enabled":true,"region":"us-east","cc":"ca","latitude":45.50889,"longitude":-73.56167,"reserved":0,"last_update":"0001-01-01T00:00:00Z","name_a2s":"Uncletopia | Montréal | 2 | All Maps","protocol":17,"map":"koth_lakeside_final","folder":"tf","game":"Team Fortress","app_id":440,"player_count":0,"max_players":24,"Bots":0,"server_type":"Dedicated","server_os":"Linux","password":true,"vac":true,"version":"7708610","steam_id":85568392924500088,"keywords":["cp","nocrits","nodmgspread","uncletopia"],"game_id":440,"stv_port":27026,"stv_name":"Uncletopia | Montréal | 2 | All Maps | STV","players":null},{"server_id":302,"name":"Uncletopia | Montréal | 3 | All Maps","name_short":"mtl-3","host":"mtl-1.ca.uncletopia.com","port":27035,"enabled":true,"region":"us-east","cc":"ca","latitude":45.50889,"longitude":-73.56167,"reserved":0,"last_update":"0001-01-01T00:00:00Z","name_a2s":"Uncletopia | Montréal | 3 | All Maps","protocol":17,"map":"koth_cascade","folder":"tf","game":"Team Fortress","app_id":440,"player_count":2,"max_players":24,"Bots":0,"server_type":"Dedicated","server_os":"Linux","password":true,"vac":true,"version":"7708610","steam_id":85568392924500089,"keywords":["cp","nocrits","nodmgspread","uncletopia"],"game_id":440,"stv_port":27036,"stv_name":"Uncletopia | Montréal | 3 | All Maps | STV","players":[{"user_id":12,"name":"Jollymore","steam_id":76561198365792942,"connected_time":136000000000,"state":"active","ping":52},{"user_id":13,"name":"LoisLongNeck","steam_id":76561199252816345,"connected_time":106000000000,"state":"active","ping":59}]},{"server_id":303,"name":"Uncletopia | Montréal | 4 | No Payload","name_short":"mtl-4","host":"mtl-1.ca.uncletopia.com","port":27045,"enabled":true,"region":"us-east","cc":"ca","latitude":45.50889,"longitude":-73.56167,"reserved":0,"last_update":"0001-01-01T00:00:00Z","name_a2s":"Uncletopia | Montréal | 4 | No Payload","protocol":17,"map":"koth_brazil","folder":"tf","game":"Team Fortress","app_id":440,"player_count":0,"max_players":24,"Bots":0,"server_type":"Dedicated","server_os":"Linux","password":true,"vac":true,"version":"7708610","steam_id":85568392924500090,"keywords":["cp","nocrits","nodmgspread","uncletopia"],"game_id":440,"stv_port":27046,"stv_name":"Uncletopia | Montréal | 4 | No Payload | STV","players":null},{"server_id":13,"name":"Uncletopia | New York City | 1 | All Maps","name_short":"nyc-1","host":"nyc-1.us.uncletopia.com","port":27015,"enabled":true,"region":"us-east","cc":"us","latitude":40.73061,"longitude":-73.93524,"reserved":0,"last_update":"0001-01-01T00:00:00Z","name_a2s":"Uncletopia | New York City | 1 | All Maps","protocol":17,"map":"cp_dustbowl","folder":"tf","game":"Team Fortress","app_id":440,"player_count":24,"max_players":24,"Bots":0,"server_type":"Dedicated","server_os":"Linux","password":true,"vac":true,"version":"7708610","steam_id":85568392924469993,"keywords":["cp","nocrits","nodmgspread","uncletopia"],"game_id":440,"stv_port":27016,"stv_name":"Uncletopia | New York City | 1 | All Maps | STV","players":[{"user_id":500,"name":"The Foolish Samurai","steam_id":76561198094494945,"connected_time":712000000000,"state":"active","ping":122},{"user_id":494,"name":"MoistPigeon","steam_id":76561198120392425,"connected_time":1054000000000,"state":"active","ping":42},{"user_id":495,"name":"That Guy","steam_id":76561197997169817,"connected_time":1042000000000,"state":"active","ping":73},{"user_id":466,"name":"Gian","steam_id":76561198041434512,"connected_time":3596000000000,"state":"active","ping":109},{"user_id":501,"name":"Ipseiit","steam_id":76561198294670312,"connected_time":694000000000,"state":"active","ping":83},{"user_id":476,"name":"Shemply","steam_id":76561198193658910,"connected_time":2992000000000,"state":"active","ping":89},{"user_id":510,"name":"nauts salt","steam_id":76561198045832398,"connected_time":330000000000,"state":"active","ping":82},{"user_id":513,"name":"Myn","steam_id":76561198055438857,"connected_time":60000000000,"state":"active","ping":62},{"user_id":502,"name":"Jaypelt","steam_id":76561198053906849,"connected_time":691000000000,"state":"active","ping":69},{"user_id":512,"name":"Ether","steam_id":76561198054806528,"connected_time":127000000000,"state":"active","ping":45},{"user_id":467,"name":"N0xferatu","steam_id":76561198013225832,"connected_time":3589000000000,"state":"active","ping":95},{"user_id":508,"name":"...","steam_id":76561198312298321,"connected_time":505000000000,"state":"active","ping":75},{"user_id":497,"name":"Pillow Man","steam_id":76561198841357708,"connected_time":1020000000000,"state":"active","ping":90},{"user_id":473,"name":"Liquid Metal Slime from DQ9","steam_id":76561198061621275,"connected_time":3443000000000,"state":"active","ping":51},{"user_id":505,"name":"dont honk @ me or ill cry","steam_id":76561198205386960,"connected_time":621000000000,"state":"active","ping":54},{"user_id":484,"name":"shiki","steam_id":76561198806235523,"connected_time":2343000000000,"state":"active","ping":44},{"user_id":463,"name":"i love nature","steam_id":76561198248636560,"connected_time":3839000000000,"state":"active","ping":89},{"user_id":491,"name":"A Bic Lighter","steam_id":76561198070606068,"connected_time":1402000000000,"state":"active","ping":78},{"user_id":511,"name":"ExtraSoap","steam_id":76561198008712409,"connected_time":325000000000,"state":"active","ping":57},{"user_id":422,"name":"Santa Claus","steam_id":76561198041437251,"connected_time":7383000000000,"state":"active","ping":65},{"user_id":507,"name":"AaroWill | Save TF2","steam_id":76561198066595014,"connected_time":573000000000,"state":"active","ping":216},{"user_id":449,"name":"duskuhhhh","steam_id":76561198179815597,"connected_time":4976000000000,"state":"active","ping":59},{"user_id":498,"name":"duck on quack","steam_id":76561198278043261,"connected_time":1020000000000,"state":"active","ping":101},{"user_id":480,"name":"BeerPowder","steam_id":76561198058129400,"connected_time":2568000000000,"state":"active","ping":50}]},{"server_id":14,"name":"Uncletopia | New York City | 2 | All Maps","name_short":"nyc-2","host":"nyc-1.us.uncletopia.com","port":27025,"enabled":true,"region":"us-east","cc":"us","latitude":40.73061,"longitude":-73.93524,"reserved":0,"last_update":"0001-01-01T00:00:00Z","name_a2s":"Uncletopia | New York City | 2 | All Maps","protocol":17,"map":"pl_goldrush","folder":"tf","game":"Team Fortress","app_id":440,"player_count":24,"max_players":24,"Bots":0,"server_type":"Dedicated","server_os":"Linux","password":true,"vac":true,"version":"7708610","steam_id":85568392924469994,"keywords":["nocrits","nodmgspread","payload","uncletopia"],"game_id":440,"stv_port":27026,"stv_name":"Uncletopia | New York City | 2 | All Maps | STV","players":[{"user_id":417,"name":"VerSaKa","steam_id":76561198052392540,"connected_time":78000000000,"state":"active","ping":61},{"user_id":381,"name":"Athrium","steam_id":76561199201940614,"connected_time":2849000000000,"state":"active","ping":68},{"user_id":388,"name":"sock","steam_id":76561199117597830,"connected_time":2705000000000,"state":"active","ping":174},{"user_id":401,"name":"inexperienced great horned owl","steam_id":76561198047077020,"connected_time":2129000000000,"state":"active","ping":54},{"user_id":394,"name":"Redaly","steam_id":76561199089493733,"connected_time":2365000000000,"state":"active","ping":36},{"user_id":418,"name":"Solomon Grundy","steam_id":76561198956823243,"connected_time":57000000000,"state":"active","ping":48},{"user_id":368,"name":"Nibelsnarf","steam_id":76561198137642054,"connected_time":3850000000000,"state":"active","ping":59},{"user_id":412,"name":"fewny","steam_id":76561198225977000,"connected_time":157000000000,"state":"active","ping":67},{"user_id":413,"name":"Taco","steam_id":76561198158621392,"connected_time":151000000000,"state":"active","ping":67},{"user_id":411,"name":"Amogus The Sussy Baka ඞ","steam_id":76561198008577961,"connected_time":326000000000,"state":"active","ping":74},{"user_id":395,"name":"Acher","steam_id":76561198117843951,"connected_time":2340000000000,"state":"active","ping":43},{"user_id":410,"name":"DSM-IVCE","steam_id":76561199438515797,"connected_time":344000000000,"state":"active","ping":107},{"user_id":370,"name":"neet","steam_id":76561197968115168,"connected_time":3793000000000,"state":"active","ping":45},{"user_id":296,"name":"stewfat","steam_id":76561198084066964,"connected_time":7946000000000,"state":"active","ping":44},{"user_id":290,"name":"Hank","steam_id":76561198094830509,"connected_time":8580000000000,"state":"active","ping":61},{"user_id":414,"name":"sansa musa","steam_id":76561198163723555,"connected_time":144000000000,"state":"active","ping":49},{"user_id":377,"name":"works cited","steam_id":76561198853297459,"connected_time":3185000000000,"state":"active","ping":117},{"user_id":415,"name":"Elias","steam_id":76561198106431732,"connected_time":115000000000,"state":"active","ping":59},{"user_id":419,"name":"LeoTheLionSlayer","steam_id":76561198085898558,"connected_time":49000000000,"state":"active","ping":50},{"user_id":396,"name":"Xbmann | Resurfed","steam_id":76561198041017977,"connected_time":2330000000000,"state":"active","ping":93},{"user_id":403,"name":"Wang of Wall St","steam_id":76561198047460598,"connected_time":2101000000000,"state":"active","ping":44},{"user_id":420,"name":"sexbom","steam_id":76561198917309036,"connected_time":42000000000,"state":"active","ping":57},{"user_id":399,"name":"Bart simpson","steam_id":76561198380666998,"connected_time":2260000000000,"state":"active","ping":95},{"user_id":407,"name":"security (plkfkr)","steam_id":76561198180004493,"connected_time":1293000000000,"state":"active","ping":52}]},{"server_id":15,"name":"Uncletopia | New York City | 3 | All Maps","name_short":"nyc-3","host":"nyc-1.us.uncletopia.com","port":27035,"enabled":true,"region":"us-east","cc":"us","latitude":40.73061,"longitude":-73.93524,"reserved":0,"last_update":"0001-01-01T00:00:00Z","name_a2s":"Uncletopia | New York City | 3 | All Maps","protocol":17,"map":"pl_pier","folder":"tf","game":"Team Fortress","app_id":440,"player_count":24,"max_players":24,"Bots":0,"server_type":"Dedicated","server_os":"Linux","password":true,"vac":true,"version":"7708610","steam_id":85568392924742820,"keywords":["nocrits","nodmgspread","payload","uncletopia"],"game_id":440,"stv_port":27036,"stv_name":"Uncletopia | New York City | 3 | All Maps | STV","players":[{"user_id":96,"name":"Bulk","steam_id":76561199009814535,"connected_time":900000000000,"state":"active","ping":48},{"user_id":87,"name":"Casual Costanza","steam_id":76561198024409325,"connected_time":1310000000000,"state":"active","ping":75},{"user_id":93,"name":"DizzyDigga","steam_id":76561198969677426,"connected_time":1118000000000,"state":"active","ping":61},{"user_id":97,"name":"C20H25N3O","steam_id":76561198976511412,"connected_time":887000000000,"state":"active","ping":76},{"user_id":85,"name":"fartmungus","steam_id":76561198120757569,"connected_time":1329000000000,"state":"active","ping":59},{"user_id":71,"name":"Tom","steam_id":76561198139202942,"connected_time":2223000000000,"state":"active","ping":75},{"user_id":107,"name":"El Dorito","steam_id":76561198044544789,"connected_time":37000000000,"state":"active","ping":66},{"user_id":25,"name":"MILF Gaming","steam_id":76561198155378170,"connected_time":3745000000000,"state":"active","ping":50},{"user_id":104,"name":"❅✿DrBlack✿❅","steam_id":76561198450541151,"connected_time":259000000000,"state":"active","ping":50},{"user_id":105,"name":"CrazyKermitRubes","steam_id":76561198009065204,"connected_time":222000000000,"state":"active","ping":55},{"user_id":102,"name":"boobichan","steam_id":76561198138560080,"connected_time":561000000000,"state":"active","ping":85},{"user_id":108,"name":"Sicko Mode (Chris Pratt Cover)","steam_id":76561198315786174,"connected_time":6000000000,"state":"connecting","ping":0},{"user_id":98,"name":"Spon","steam_id":76561198347098230,"connected_time":823000000000,"state":"active","ping":91},{"user_id":95,"name":"Smuggley","steam_id":76561198078130271,"connected_time":1036000000000,"state":"active","ping":97},{"user_id":81,"name":"McNamJam","steam_id":76561198028128686,"connected_time":1496000000000,"state":"active","ping":122},{"user_id":38,"name":"static","steam_id":76561199093261935,"connected_time":3012000000000,"state":"active","ping":56},{"user_id":79,"name":"Dukeofspook","steam_id":76561198052896687,"connected_time":1726000000000,"state":"active","ping":58},{"user_id":40,"name":"BaguetteThief","steam_id":76561197962257656,"connected_time":3004000000000,"state":"active","ping":70},{"user_id":41,"name":"azzy","steam_id":76561198825918211,"connected_time":2990000000000,"state":"active","ping":163},{"user_id":62,"name":"GeneralTso","steam_id":76561197976173093,"connected_time":2701000000000,"state":"active","ping":72},{"user_id":92,"name":"TerryGonnaTustle1973","steam_id":76561198171658214,"connected_time":1176000000000,"state":"active","ping":46},{"user_id":94,"name":"hoobichan","steam_id":76561198299094088,"connected_time":1061000000000,"state":"active","ping":64},{"user_id":99,"name":"megaboi796","steam_id":76561198122995438,"connected_time":812000000000,"state":"active","ping":72},{"user_id":78,"name":"Vaporeon","steam_id":76561198107058140,"connected_time":1729000000000,"state":"active","ping":61}]},{"server_id":16,"name":"Uncletopia | New York City | 4 | Community","name_short":"nyc-4","host":"nyc-1.us.uncletopia.com","port":27045,"enabled":true,"region":"us-east","cc":"us","latitude":40.73061,"longitude":-73.93524,"reserved":0,"last_update":"0001-01-01T00:00:00Z","name_a2s":"Uncletopia | New York City | 4 | Community","protocol":17,"map":"workshop/pl_barnblitz_pro7.ugc582280235","folder":"tf","game":"Team Fortress","app_id":440,"player_count":4,"max_players":24,"Bots":0,"server_type":"Dedicated","server_os":"Linux","password":true,"vac":true,"version":"7708610","steam_id":85568392924742821,"keywords":["nocrits","nodmgspread","payload","uncletopia"],"game_id":440,"stv_port":27046,"stv_name":"Uncletopia | New York City | 4 | Community | STV","players":[{"user_id":12,"name":"TheWallaby","steam_id":76561198948037546,"connected_time":403000000000,"state":"active","ping":51},{"user_id":13,"name":"sentient soup","steam_id":76561198887503216,"connected_time":323000000000,"state":"active","ping":80},{"user_id":14,"name":"Jolt","steam_id":76561198168669087,"connected_time":75000000000,"state":"active","ping":32},{"user_id":15,"name":"Abbreviated","steam_id":76561198088423054,"connected_time":20000000000,"state":"spawning","ping":174}]},{"server_id":142,"name":"Uncletopia | São Paulo | 1 | All Maps","name_short":"sao-1","host":"sao-1.br.uncletopia.com","port":27015,"enabled":true,"region":"sa","cc":"br","latitude":-23.533773,"longitude":-46.62529,"reserved":0,"last_update":"0001-01-01T00:00:00Z","name_a2s":"Uncletopia | São Paulo | 1 | All Maps","protocol":17,"map":"pl_swiftwater_final1","folder":"tf","game":"Team Fortress","app_id":440,"player_count":17,"max_players":24,"Bots":0,"server_type":"Dedicated","server_os":"Linux","password":true,"vac":true,"version":"7708610","steam_id":85568392924469996,"keywords":["nocrits","nodmgspread","payload","uncletopia"],"game_id":440,"stv_port":27016,"stv_name":"Uncletopia | São Paulo | 1 | All Maps | STV","players":[{"user_id":399,"name":"ayumi","steam_id":76561197977365746,"connected_time":255000000000,"state":"active","ping":45},{"user_id":398,"name":"Pan","steam_id":76561198161899287,"connected_time":725000000000,"state":"active","ping":72},{"user_id":353,"name":"mimimito","steam_id":76561198002565927,"connected_time":4884000000000,"state":"active","ping":44},{"user_id":401,"name":"Liniker","steam_id":76561198948736406,"connected_time":111000000000,"state":"active","ping":46},{"user_id":393,"name":"vpc","steam_id":76561198355770264,"connected_time":1073000000000,"state":"active","ping":57},{"user_id":334,"name":"Matheus Alves(Youtube)","steam_id":76561198163920834,"connected_time":7087000000000,"state":"active","ping":56},{"user_id":210,"name":"Cherry Cupcake","steam_id":76561198012448942,"connected_time":19039000000000,"state":"active","ping":30},{"user_id":403,"name":"Ratazana Blumenal","steam_id":76561199008043307,"connected_time":54000000000,"state":"active","ping":45},{"user_id":404,"name":"burghley","steam_id":76561199148843299,"connected_time":30000000000,"state":"active","ping":84},{"user_id":366,"name":"Pathetic","steam_id":76561198051056987,"connected_time":3981000000000,"state":"active","ping":60},{"user_id":347,"name":"Murphy!","steam_id":76561198054881743,"connected_time":5863000000000,"state":"active","ping":36},{"user_id":396,"name":"niruma","steam_id":76561198067799345,"connected_time":985000000000,"state":"active","ping":42},{"user_id":362,"name":"cocklarry 3","steam_id":76561198276113571,"connected_time":4420000000000,"state":"active","ping":36},{"user_id":372,"name":"C.w","steam_id":76561198108036395,"connected_time":3269000000000,"state":"active","ping":73},{"user_id":379,"name":"NenF | Yatosemtato","steam_id":76561199066360306,"connected_time":2806000000000,"state":"active","ping":79},{"user_id":397,"name":"Mr.Lodi","steam_id":76561198951828165,"connected_time":836000000000,"state":"active","ping":84},{"user_id":387,"name":"Milla-chan supremacy","steam_id":76561198351902011,"connected_time":2097000000000,"state":"active","ping":50}]},{"server_id":143,"name":"Uncletopia | São Paulo | 2 | All Maps","name_short":"sao-2","host":"sao-2.br.uncletopia.com","port":27015,"enabled":true,"region":"sa","cc":"br","latitude":-23.533773,"longitude":-46.62529,"reserved":0,"last_update":"0001-01-01T00:00:00Z","name_a2s":"Uncletopia | São Paulo | 2 | All Maps","protocol":17,"map":"koth_cascade","folder":"tf","game":"Team Fortress","app_id":440,"player_count":0,"max_players":24,"Bots":0,"server_type":"Dedicated","server_os":"Linux","password":true,"vac":true,"version":"7708610","steam_id":85568392924485349,"keywords":["cp","nocrits","nodmgspread","uncletopia"],"game_id":440,"stv_port":27016,"stv_name":"Uncletopia | São Paulo | 2 | All Maps | STV","players":null},{"server_id":7,"name":"Uncletopia | Seattle | 1 | All Maps","name_short":"sea-1","host":"sea-1.us.uncletopia.com","port":27015,"enabled":true,"region":"us-west","cc":"us","latitude":47.608013,"longitude":-122.33517,"reserved":0,"last_update":"0001-01-01T00:00:00Z","name_a2s":"Uncletopia | Seattle | 1 | All Maps","protocol":17,"map":"pl_frostcliff","folder":"tf","game":"Team Fortress","app_id":440,"player_count":23,"max_players":24,"Bots":0,"server_type":"Dedicated","server_os":"Linux","password":true,"vac":true,"version":"7708610","steam_id":85568392924469997,"keywords":["nocrits","nodmgspread","payload","uncletopia"],"game_id":440,"stv_port":27016,"stv_name":"Uncletopia | Seattle | 1 | All Maps | STV","players":[{"user_id":331,"name":"Plant","steam_id":76561198892328663,"connected_time":3580000000000,"state":"spawning","ping":148},{"user_id":351,"name":"triforcemack","steam_id":76561198055812400,"connected_time":2355000000000,"state":"spawning","ping":131},{"user_id":381,"name":"LOL","steam_id":76561198081568692,"connected_time":22000000000,"state":"spawning","ping":170},{"user_id":358,"name":"Melancholy Clown","steam_id":76561198110605813,"connected_time":1426000000000,"state":"spawning","ping":120},{"user_id":380,"name":"inspract","steam_id":76561199437724223,"connected_time":56000000000,"state":"spawning","ping":84},{"user_id":373,"name":"Cheezbeargur","steam_id":76561198164702899,"connected_time":736000000000,"state":"spawning","ping":135},{"user_id":329,"name":"TheMagicMrWaffle","steam_id":76561198104357256,"connected_time":3650000000000,"state":"spawning","ping":112},{"user_id":353,"name":"Shooon","steam_id":76561198006107947,"connected_time":2103000000000,"state":"spawning","ping":115},{"user_id":379,"name":"eraser cat","steam_id":76561199045570463,"connected_time":89000000000,"state":"spawning","ping":72},{"user_id":372,"name":"[Bandit]","steam_id":76561197986919852,"connected_time":754000000000,"state":"spawning","ping":109},{"user_id":337,"name":"Ahzain","steam_id":76561198035894333,"connected_time":3345000000000,"state":"spawning","ping":140},{"user_id":374,"name":"Gaming","steam_id":76561198327632113,"connected_time":731000000000,"state":"connecting","ping":75},{"user_id":378,"name":"AceSea","steam_id":76561198851176490,"connected_time":187000000000,"state":"spawning","ping":113},{"user_id":361,"name":"MrLeftTurn","steam_id":76561198856743969,"connected_time":1394000000000,"state":"spawning","ping":160},{"user_id":314,"name":"crow simpson","steam_id":76561198146228439,"connected_time":3873000000000,"state":"spawning","ping":119},{"user_id":357,"name":"Asphodel","steam_id":76561198750101819,"connected_time":1428000000000,"state":"spawning","ping":155},{"user_id":352,"name":"mega","steam_id":76561198089520959,"connected_time":2129000000000,"state":"spawning","ping":199},{"user_id":362,"name":"Mothman","steam_id":76561198050672409,"connected_time":1393000000000,"state":"spawning","ping":135},{"user_id":367,"name":"mexfrag.4 life","steam_id":76561198175961598,"connected_time":1160000000000,"state":"spawning","ping":183},{"user_id":375,"name":"ThePriceIsRice","steam_id":76561198079069543,"connected_time":598000000000,"state":"spawning","ping":151},{"user_id":355,"name":"Cheese Particle","steam_id":76561198024987233,"connected_time":1505000000000,"state":"spawning","ping":152},{"user_id":377,"name":"Your childhood","steam_id":76561198799385466,"connected_time":545000000000,"state":"spawning","ping":158},{"user_id":376,"name":"Morse","steam_id":76561198039944542,"connected_time":565000000000,"state":"spawning","ping":182}]},{"server_id":119,"name":"Uncletopia | Seattle | 2 | All Maps","name_short":"sea-2","host":"sea-1.us.uncletopia.com","port":27025,"enabled":true,"region":"us-west","cc":"us","latitude":47.608013,"longitude":-122.33517,"reserved":0,"last_update":"0001-01-01T00:00:00Z","name_a2s":"Uncletopia | Seattle | 2 | All Maps","protocol":17,"map":"koth_lakeside_final","folder":"tf","game":"Team Fortress","app_id":440,"player_count":24,"max_players":24,"Bots":0,"server_type":"Dedicated","server_os":"Linux","password":true,"vac":true,"version":"7708610","steam_id":85568392924469998,"keywords":["cp","nocrits","nodmgspread","uncletopia"],"game_id":440,"stv_port":27026,"stv_name":"Uncletopia | Seattle | 2 | All Maps | STV","players":[{"user_id":230,"name":"oil","steam_id":76561198099980149,"connected_time":5102000000000,"state":"active","ping":72},{"user_id":325,"name":"I eat cold Mac \u0026 Cheese","steam_id":76561198100385184,"connected_time":747000000000,"state":"active","ping":84},{"user_id":286,"name":"OlympicChamp_12 | Trade.tf","steam_id":76561198830574526,"connected_time":2992000000000,"state":"active","ping":141},{"user_id":339,"name":"Misclick","steam_id":76561198050855911,"connected_time":55000000000,"state":"active","ping":91},{"user_id":217,"name":"twitch.tv/HelloAnon_","steam_id":76561198109740776,"connected_time":5541000000000,"state":"active","ping":95},{"user_id":218,"name":"PROFILE NAME","steam_id":76561199438851854,"connected_time":5533000000000,"state":"active","ping":50},{"user_id":232,"name":"LIMBS","steam_id":76561198101220604,"connected_time":4984000000000,"state":"active","ping":59},{"user_id":322,"name":"Frongus","steam_id":76561197979056451,"connected_time":843000000000,"state":"active","ping":45},{"user_id":303,"name":"mub","steam_id":76561197961943948,"connected_time":2419000000000,"state":"active","ping":44},{"user_id":338,"name":"Japanese Pizza Girlfriend","steam_id":76561198044855147,"connected_time":184000000000,"state":"active","ping":42},{"user_id":333,"name":"Kenpachi","steam_id":76561198803824764,"connected_time":468000000000,"state":"active","ping":63},{"user_id":306,"name":"cielael","steam_id":76561198043971956,"connected_time":2357000000000,"state":"active","ping":77},{"user_id":340,"name":"queer linux user","steam_id":76561199208765424,"connected_time":43000000000,"state":"active","ping":125},{"user_id":260,"name":"The CEO of cement","steam_id":76561199107177460,"connected_time":3932000000000,"state":"active","ping":95},{"user_id":312,"name":"Light","steam_id":76561198009169048,"connected_time":2075000000000,"state":"active","ping":78},{"user_id":334,"name":"R5-D4","steam_id":76561198025196439,"connected_time":440000000000,"state":"active","ping":59},{"user_id":186,"name":"Oomitch","steam_id":76561198071702759,"connected_time":6745000000000,"state":"active","ping":47},{"user_id":247,"name":"sp00kydoge","steam_id":76561198097465954,"connected_time":4494000000000,"state":"active","ping":65},{"user_id":209,"name":"zeltwood","steam_id":76561198982593544,"connected_time":5841000000000,"state":"active","ping":73},{"user_id":335,"name":"OxOoxen841","steam_id":76561198297981993,"connected_time":428000000000,"state":"active","ping":84},{"user_id":320,"name":"StuartBell511","steam_id":76561198060931721,"connected_time":914000000000,"state":"active","ping":124},{"user_id":332,"name":"qiulongtao","steam_id":76561198977558717,"connected_time":480000000000,"state":"active","ping":112},{"user_id":193,"name":"ｘＸＲＡＥＰＸｘ","steam_id":76561198156292715,"connected_time":6457000000000,"state":"active","ping":71},{"user_id":329,"name":"Melvin Smelivn","steam_id":76561198880587449,"connected_time":656000000000,"state":"active","ping":110}]},{"server_id":17,"name":"Uncletopia | San Francisco | 1 | All Maps","name_short":"sfo-1","host":"sfo-1.us.uncletopia.com","port":27015,"enabled":true,"region":"us-west","cc":"us","latitude":37.77397,"longitude":-122.4313,"reserved":0,"last_update":"0001-01-01T00:00:00Z","name_a2s":"Uncletopia | San Francisco | 1 | All Maps","protocol":17,"map":"koth_cascade","folder":"tf","game":"Team Fortress","app_id":440,"player_count":0,"max_players":24,"Bots":0,"server_type":"Dedicated","server_os":"Linux","password":true,"vac":true,"version":"7708610","steam_id":85568392924469999,"keywords":["cp","nocrits","nodmgspread","uncletopia"],"game_id":440,"stv_port":27016,"stv_name":"Uncletopia | San Francisco | 1 | All Maps | STV","players":null},{"server_id":18,"name":"Uncletopia | San Francisco | 2 | All Maps","name_short":"sfo-2","host":"sfo-1.us.uncletopia.com","port":27025,"enabled":true,"region":"us-west","cc":"us","latitude":37.77397,"longitude":-122.4313,"reserved":0,"last_update":"0001-01-01T00:00:00Z","name_a2s":"Uncletopia | San Francisco | 2 | All Maps","protocol":17,"map":"koth_cascade","folder":"tf","game":"Team Fortress","app_id":440,"player_count":2,"max_players":24,"Bots":0,"server_type":"Dedicated","server_os":"Linux","password":true,"vac":true,"version":"7708610","steam_id":85568392924470000,"keywords":["cp","nocrits","nodmgspread","uncletopia"],"game_id":440,"stv_port":0,"stv_name":"","players":[{"user_id":10,"name":"LooseCannon1010","steam_id":76561198201377137,"connected_time":105000000000,"state":"active","ping":75},{"user_id":11,"name":"thob","steam_id":76561199173618294,"connected_time":73000000000,"state":"active","ping":83}]},{"server_id":19,"name":"Uncletopia | San Francisco | 3 | No Payload","name_short":"sfo-3","host":"sfo-1.us.uncletopia.com","port":27035,"enabled":true,"region":"us-west","cc":"us","latitude":37.77397,"longitude":-122.4313,"reserved":0,"last_update":"0001-01-01T00:00:00Z","name_a2s":"Uncletopia | San Francisco | 3 | No Payload","protocol":17,"map":"cp_vanguard","folder":"tf","game":"Team Fortress","app_id":440,"player_count":0,"max_players":24,"Bots":0,"server_type":"Dedicated","server_os":"Linux","password":true,"vac":true,"version":"7708610","steam_id":85568392924742824,"keywords":["cp","nocrits","nodmgspread","uncletopia"],"game_id":440,"stv_port":27036,"stv_name":"Uncletopia | San Francisco | 3 | No Payload | STV","players":null},{"server_id":20,"name":"Uncletopia | San Francisco | 4 | Community","name_short":"sfo-4","host":"sfo-1.us.uncletopia.com","port":27045,"enabled":true,"region":"us-west","cc":"us","latitude":37.77397,"longitude":-122.4313,"reserved":0,"last_update":"0001-01-01T00:00:00Z","name_a2s":"Uncletopia | San Francisco | 4 | Community","protocol":17,"map":"workshop/koth_slaughter_rc1.ugc1712845210","folder":"tf","game":"Team Fortress","app_id":440,"player_count":5,"max_players":24,"Bots":0,"server_type":"Dedicated","server_os":"Linux","password":true,"vac":true,"version":"7708610","steam_id":85568392924742826,"keywords":["cp","nocrits","nodmgspread","uncletopia"],"game_id":440,"stv_port":27046,"stv_name":"Uncletopia | San Francisco | 4 | Community | STV","players":[{"user_id":22,"name":"Iron Argus","steam_id":76561198181088245,"connected_time":686000000000,"state":"active","ping":118},{"user_id":24,"name":"dietwaterV2","steam_id":76561199222073460,"connected_time":389000000000,"state":"active","ping":111},{"user_id":4,"name":"cookypuss","steam_id":76561197961275239,"connected_time":2195000000000,"state":"active","ping":49},{"user_id":27,"name":"タケシ","steam_id":76561198052397636,"connected_time":252000000000,"state":"active","ping":98},{"user_id":25,"name":"ArchAIngel","steam_id":76561198021872175,"connected_time":365000000000,"state":"active","ping":111}]},{"server_id":141,"name":"Uncletopia | Sydney | 1 | All Maps","name_short":"syd-1","host":"syd-1.au.uncletopia.com","port":27015,"enabled":true,"region":"au","cc":"au","latitude":-33.865143,"longitude":151.2099,"reserved":0,"last_update":"0001-01-01T00:00:00Z","name_a2s":"Uncletopia | Sydney | 1 | All Maps","protocol":17,"map":"pl_borneo","folder":"tf","game":"Team Fortress","app_id":440,"player_count":24,"max_players":24,"Bots":0,"server_type":"Dedicated","server_os":"Linux","password":true,"vac":true,"version":"7708610","steam_id":85568392924470001,"keywords":["nocrits","nodmgspread","payload","uncletopia"],"game_id":440,"stv_port":27016,"stv_name":"Uncletopia | Sydney | 1 | All Maps | STV","players":[{"user_id":123,"name":"Selling Anti-Matter for $543","steam_id":76561198070708382,"connected_time":514000000000,"state":"active","ping":55},{"user_id":125,"name":"No Further Appeasement","steam_id":76561198050737972,"connected_time":351000000000,"state":"active","ping":101},{"user_id":121,"name":"Lord Headass","steam_id":76561199056409695,"connected_time":579000000000,"state":"active","ping":64},{"user_id":38,"name":"nojnosbod11","steam_id":76561199176012151,"connected_time":6582000000000,"state":"active","ping":60},{"user_id":84,"name":"Darren","steam_id":76561198988128327,"connected_time":3268000000000,"state":"active","ping":43},{"user_id":101,"name":"ree boy","steam_id":76561199024189820,"connected_time":2165000000000,"state":"active","ping":93},{"user_id":109,"name":"Void_Robin","steam_id":76561198855798566,"connected_time":1382000000000,"state":"active","ping":129},{"user_id":116,"name":"TM™","steam_id":76561198971726096,"connected_time":691000000000,"state":"active","ping":62},{"user_id":103,"name":"Blueberry Rat","steam_id":76561198149219455,"connected_time":2023000000000,"state":"active","ping":51},{"user_id":126,"name":"scuba cat... my beloved","steam_id":76561198203917953,"connected_time":316000000000,"state":"active","ping":57},{"user_id":69,"name":"hobo","steam_id":76561199046481213,"connected_time":4688000000000,"state":"active","ping":65},{"user_id":99,"name":"J''''","steam_id":76561198047565137,"connected_time":2456000000000,"state":"active","ping":58},{"user_id":117,"name":"clout","steam_id":76561198073310502,"connected_time":644000000000,"state":"active","ping":71},{"user_id":118,"name":"Performance Issues","steam_id":76561198202341454,"connected_time":596000000000,"state":"active","ping":64},{"user_id":124,"name":"The GrassMan","steam_id":76561198838503043,"connected_time":511000000000,"state":"active","ping":60},{"user_id":80,"name":"1ocalTechSuppor1","steam_id":76561198175547093,"connected_time":3608000000000,"state":"active","ping":81},{"user_id":93,"name":"gerald","steam_id":76561198274740718,"connected_time":2778000000000,"state":"active","ping":59},{"user_id":113,"name":"Match","steam_id":76561198088227748,"connected_time":1255000000000,"state":"active","ping":171},{"user_id":115,"name":"Pegan","steam_id":76561198134466451,"connected_time":1112000000000,"state":"active","ping":38},{"user_id":44,"name":"kcajnosbod","steam_id":76561198400431574,"connected_time":6381000000000,"state":"active","ping":54},{"user_id":104,"name":"Mr Asian","steam_id":76561199119648313,"connected_time":1834000000000,"state":"active","ping":73},{"user_id":97,"name":"P'pot","steam_id":76561198117278590,"connected_time":2652000000000,"state":"active","ping":49},{"user_id":98,"name":"Fireflame","steam_id":76561199163486788,"connected_time":2613000000000,"state":"active","ping":71},{"user_id":50,"name":"SBS | uber_gamer92","steam_id":76561198029766209,"connected_time":6196000000000,"state":"active","ping":55}]},{"server_id":123,"name":"Uncletopia | Sydney | 2 | All Maps","name_short":"syd-2","host":"syd-1.au.uncletopia.com","port":27025,"enabled":true,"region":"au","cc":"au","latitude":-33.865143,"longitude":151.2099,"reserved":0,"last_update":"0001-01-01T00:00:00Z","name_a2s":"Uncletopia | Sydney | 2 | All Maps","protocol":17,"map":"pl_snowycoast","folder":"tf","game":"Team Fortress","app_id":440,"player_count":0,"max_players":24,"Bots":0,"server_type":"Dedicated","server_os":"Linux","password":true,"vac":true,"version":"7708610","steam_id":85568392924470002,"keywords":["nocrits","nodmgspread","payload","uncletopia"],"game_id":440,"stv_port":0,"stv_name":"","players":null},{"server_id":395,"name":"Uncletopia | Sydney | 3 | All Maps","name_short":"syd-3","host":"syd-1.au.uncletopia.com","port":27035,"enabled":true,"region":"au","cc":"au","latitude":-33.865143,"longitude":151.2099,"reserved":0,"last_update":"0001-01-01T00:00:00Z","name_a2s":"Uncletopia | Sydney | 3 | All Maps","protocol":17,"map":"pl_snowycoast","folder":"tf","game":"Team Fortress","app_id":440,"player_count":2,"max_players":24,"Bots":0,"server_type":"Dedicated","server_os":"Linux","password":true,"vac":true,"version":"7708610","steam_id":85568392925194467,"keywords":["nocrits","nodmgspread","payload","uncletopia"],"game_id":440,"stv_port":27036,"stv_name":"Uncletopia | Sydney | 3 | All Maps | STV","players":[{"user_id":17,"name":"DIY Miracle","steam_id":76561198046228152,"connected_time":235000000000,"state":"active","ping":40},{"user_id":18,"name":"tim88435","steam_id":76561198089653987,"connected_time":59000000000,"state":"active","ping":43}]},{"server_id":396,"name":"Uncletopia | Sydney | 4 | All Maps","name_short":"syd-4","host":"syd-1.au.uncletopia.com","port":27045,"enabled":true,"region":"au","cc":"au","latitude":-33.865143,"longitude":151.2099,"reserved":0,"last_update":"0001-01-01T00:00:00Z","name_a2s":"Uncletopia | Sydney | 4 | All Maps","protocol":17,"map":"koth_lakeside_final","folder":"tf","game":"Team Fortress","app_id":440,"player_count":0,"max_players":24,"Bots":0,"server_type":"Dedicated","server_os":"Linux","password":true,"vac":true,"version":"7708610","steam_id":85568392925397958,"keywords":["cp","nocrits","nodmgspread","uncletopia"],"game_id":440,"stv_port":0,"stv_name":"","players":null},{"server_id":58,"name":"Uncletopia | Sydney | 5 | No Payload","name_short":"syd-5","host":"syd-1.au.uncletopia.com","port":27055,"enabled":true,"region":"au","cc":"au","latitude":-33.865143,"longitude":151.2099,"reserved":0,"last_update":"0001-01-01T00:00:00Z","name_a2s":"Uncletopia | Sydney | 5 | No Payload","protocol":17,"map":"koth_cascade","folder":"tf","game":"Team Fortress","app_id":440,"player_count":0,"max_players":24,"Bots":0,"server_type":"Dedicated","server_os":"Linux","password":true,"vac":true,"version":"7708610","steam_id":85568392925397959,"keywords":["cp","nocrits","nodmgspread","uncletopia"],"game_id":440,"stv_port":0,"stv_name":"","players":null},{"server_id":59,"name":"Uncletopia | Sydney | 6 | Community","name_short":"syd-6","host":"syd-1.au.uncletopia.com","port":27065,"enabled":true,"region":"au","cc":"au","latitude":-33.865143,"longitude":151.2099,"reserved":0,"last_update":"0001-01-01T00:00:00Z","name_a2s":"Uncletopia | Sydney | 6 | Community","protocol":17,"map":"pl_borneo","folder":"tf","game":"Team Fortress","app_id":440,"player_count":0,"max_players":24,"Bots":0,"server_type":"Dedicated","server_os":"Linux","password":true,"vac":true,"version":"7708610","steam_id":85568392925397960,"keywords":["nocrits","nodmgspread","payload","uncletopia"],"game_id":440,"stv_port":0,"stv_name":"","players":null},{"server_id":49,"name":"Uncletopia | Warsaw | 1 | All Maps","name_short":"waw-1","host":"waw-1.pl.uncletopia.com","port":27015,"enabled":true,"region":"eu","cc":"pl","latitude":52.2297,"longitude":21.017532,"reserved":0,"last_update":"0001-01-01T00:00:00Z","name_a2s":"Uncletopia | Warsaw | 1 | All Maps","protocol":17,"map":"cp_process_final","folder":"tf","game":"Team Fortress","app_id":440,"player_count":0,"max_players":24,"Bots":0,"server_type":"Dedicated","server_os":"Linux","password":true,"vac":true,"version":"7708610","steam_id":85568392925397850,"keywords":["cp","nocrits","nodmgspread","uncletopia"],"game_id":440,"stv_port":27016,"stv_name":"Uncletopia | Warsaw | 1 | All Maps | STV","players":null},{"server_id":50,"name":"Uncletopia | Warsaw | 2 | All Maps","name_short":"waw-2","host":"waw-1.pl.uncletopia.com","port":27025,"enabled":true,"region":"eu","cc":"pl","latitude":52.2297,"longitude":21.017532,"reserved":0,"last_update":"0001-01-01T00:00:00Z","name_a2s":"Uncletopia | Warsaw | 2 | All Maps","protocol":17,"map":"koth_highpass","folder":"tf","game":"Team Fortress","app_id":440,"player_count":0,"max_players":24,"Bots":0,"server_type":"Dedicated","server_os":"Linux","password":true,"vac":true,"version":"7708610","steam_id":85568392925397851,"keywords":["cp","nocrits","nodmgspread","uncletopia"],"game_id":440,"stv_port":27026,"stv_name":"Uncletopia | Warsaw | 2 | All Maps | STV","players":null},{"server_id":51,"name":"Uncletopia | Warsaw | 3 | All Maps","name_short":"waw-3","host":"waw-1.pl.uncletopia.com","port":27035,"enabled":true,"region":"eu","cc":"pl","latitude":52.2297,"longitude":21.017532,"reserved":0,"last_update":"0001-01-01T00:00:00Z","name_a2s":"Uncletopia | Warsaw | 3 | All Maps","protocol":17,"map":"koth_cascade","folder":"tf","game":"Team Fortress","app_id":440,"player_count":0,"max_players":24,"Bots":0,"server_type":"Dedicated","server_os":"Linux","password":true,"vac":true,"version":"7708610","steam_id":85568392925397852,"keywords":["cp","nocrits","nodmgspread","uncletopia"],"game_id":440,"stv_port":0,"stv_name":"","players":null},{"server_id":52,"name":"Uncletopia | Warsaw | 4 | All Maps","name_short":"waw-4","host":"waw-1.pl.uncletopia.com","port":27045,"enabled":true,"region":"eu","cc":"pl","latitude":52.2297,"longitude":21.017532,"reserved":0,"last_update":"0001-01-01T00:00:00Z","name_a2s":"Uncletopia | Warsaw | 4 | All Maps","protocol":17,"map":"cp_process_final","folder":"tf","game":"Team Fortress","app_id":440,"player_count":0,"max_players":24,"Bots":0,"server_type":"Dedicated","server_os":"Linux","password":true,"vac":true,"version":"7708610","steam_id":85568392925397853,"keywords":["cp","nocrits","nodmgspread","uncletopia"],"game_id":440,"stv_port":27046,"stv_name":"Uncletopia | Warsaw | 4 | All Maps | STV","players":null},{"server_id":53,"name":"Uncletopia | Warsaw | 5 | No Payload","name_short":"waw-5","host":"waw-1.pl.uncletopia.com","port":27055,"enabled":true,"region":"eu","cc":"pl","latitude":52.2297,"longitude":21.017532,"reserved":0,"last_update":"0001-01-01T00:00:00Z","name_a2s":"Uncletopia | Warsaw | 5 | No Payload","protocol":17,"map":"cp_steel","folder":"tf","game":"Team Fortress","app_id":440,"player_count":0,"max_players":24,"Bots":0,"server_type":"Dedicated","server_os":"Linux","password":true,"vac":true,"version":"7708610","steam_id":85568392925397854,"keywords":["cp","nocrits","nodmgspread","uncletopia"],"game_id":440,"stv_port":27056,"stv_name":"Uncletopia | Warsaw | 5 | No Payload | STV","players":null},{"server_id":54,"name":"Uncletopia | Warsaw | 6 | Community","name_short":"waw-6","host":"waw-1.pl.uncletopia.com","port":27065,"enabled":true,"region":"eu","cc":"pl","latitude":52.2297,"longitude":21.017532,"reserved":0,"last_update":"0001-01-01T00:00:00Z","name_a2s":"Uncletopia | Warsaw | 6 | Community","protocol":17,"map":"workshop/pl_vigil_rc9.ugc1266210012","folder":"tf","game":"Team Fortress","app_id":440,"player_count":0,"max_players":24,"Bots":0,"server_type":"Dedicated","server_os":"Linux","password":true,"vac":true,"version":"7708610","steam_id":85568392925397856,"keywords":["nocrits","nodmgspread","payload","uncletopia"],"game_id":440,"stv_port":27066,"stv_name":"Uncletopia | Warsaw | 6 | Community | STV","players":null}]}