{"status":true,"message":"","result":[{"server_id":9,"name":"Uncletopia | Atlanta | 1 | All Maps","name_short":"atl-1","host":"atl-1.us.uncletopia.com","port":27015,"enabled":true,"region":"us-east","cc":"us","latitude":33.753746,"longitude":-84.38633,"reserved":0,"last_update":"0001-01-01T00:00:00Z","name_a2s":"Uncletopia | Atlanta | 1 | All Maps","protocol":17,"map":"koth_viaduct","folder":"tf","game":"Team Fortress","app_id":440,"player_count":1,"max_players":24,"Bots":0,"server_type":"Dedicated","server_os":"Linux","password":true,"vac":true,"version":"7882260","steam_id":85568392924469982,"keywords":["cp","nocrits","nodmgspread","uncletopia"],"game_id":440,"stv_port":27016,"stv_name":"Uncletopia | Atlanta | 1 | All Maps | STV","players":[{"user_id":3,"name":"dementia gaming","steam_id":76561198432668439,"connected_time":74000000000,"state":"active","ping":73}]},{"server_id":104,"name":"Uncletopia | Atlanta | 2 | All Maps","name_short":"atl-2","host":"atl-1.us.uncletopia.com","port":27025,"enabled":true,"region":"us-east","cc":"us","latitude":33.753746,"longitude":-84.38633,"reserved":0,"last_update":"0001-01-01T00:00:00Z","name_a2s":"Uncletopia | Atlanta | 2 | All Maps","protocol":17,"map":"pl_pier","folder":"tf","game":"Team Fortress","app_id":440,"player_count":0,"max_players":24,"Bots":0,"server_type":"Dedicated","server_os":"Linux","password":true,"vac":true,"version":"7882260","steam_id":85568392924469983,"keywords":["nocrits","nodmgspread","payload","uncletopia"],"game_id":440,"stv_port":27026,"stv_name":"Uncletopia | Atlanta | 2 | All Maps | STV","players":null},{"server_id":400,"name":"Uncletopia | Atlanta | 3 | Community","name_short":"atl-3","host":"atl-1.us.uncletopia.com","port":27035,"enabled":true,"region":"us-east","cc":"us","latitude":33.753746,"longitude":-84.38633,"reserved":0,"last_update":"0001-01-01T00:00:00Z","name_a2s":"Uncletopia | Atlanta | 3 | Community","protocol":17,"map":"cp_sunshine","folder":"tf","game":"Team Fortress","app_id":440,"player_count":0,"max_players":24,"Bots":0,"server_type":"Dedicated","server_os":"Linux","password":true,"vac":true,"version":"7882260","steam_id":85568392924515187,"keywords":["cp","nocrits","nodmgspread","uncletopia"],"game_id":440,"stv_port":27036,"stv_name":"Uncletopia | Atlanta | 3 | Community | STV","players":null},{"server_id":401,"name":"Uncletopia | Atlanta | 4 | No Payload","name_short":"atl-4","host":"atl-1.us.uncletopia.com","port":27045,"enabled":true,"region":"us-east","cc":"us","latitude":33.753746,"longitude":-84.38633,"reserved":0,"last_update":"0001-01-01T00:00:00Z","name_a2s":"","protocol":0,"map":"","folder":"","game":"","app_id":0,"player_count":0,"max_players":0,"Bots":0,"server_type":"","server_os":"","password":false,"vac":false,"version":"","steam_id":0,"keywords":null,"game_id":0,"stv_port":0,"stv_name":"","players":null},{"server_id":2,"name":"Uncletopia | Chicago | 1 | All Maps","name_short":"chi-1","host":"chi-1.us.uncletopia.com","port":27015,"enabled":true,"region":"us-central","cc":"us","latitude":41.881832,"longitude":-87.62318,"reserved":0,"last_update":"0001-01-01T00:00:00Z","name_a2s":"Uncletopia | Chicago | 1 | All Maps","protocol":17,"map":"cp_snakewater_final1","folder":"tf","game":"Team Fortress","app_id":440,"player_count":0,"max_players":24,"Bots":0,"server_type":"Dedicated","server_os":"Linux","password":true,"vac":true,"version":"7882260","steam_id":85568392924469984,"keywords":["cp","nocrits","nodmgspread","uncletopia"],"game_id":440,"stv_port":27016,"stv_name":"Uncletopia | Chicago | 1 | All Maps | STV","players":null},{"server_id":106,"name":"Uncletopia | Chicago | 2 | All Maps","name_short":"chi-2","host":"chi-1.us.uncletopia.com","port":27025,"enabled":true,"region":"us-central","cc":"us","latitude":41.881832,"longitude":-87.62318,"reserved":0,"last_update":"0001-01-01T00:00:00Z","name_a2s":"Uncletopia | Chicago | 2 | All Maps","protocol":17,"map":"pl_swiftwater_final1","folder":"tf","game":"Team Fortress","app_id":440,"player_count":0,"max_players":24,"Bots":0,"server_type":"Dedicated","server_os":"Linux","password":true,"vac":true,"version":"7882260","steam_id":85568392924469985,"keywords":["nocrits","nodmgspread","payload","uncletopia"],"game_id":440,"stv_port":27026,"stv_name":"Uncletopia | Chicago | 2 | All Maps | STV","players":null},{"server_id":402,"name":"Uncletopia | Chicago | 3 | All Maps","name_short":"chi-3","host":"chi-1.us.uncletopia.com","port":27035,"enabled":true,"region":"us-central","cc":"us","latitude":41.881832,"longitude":-87.62318,"reserved":0,"last_update":"0001-01-01T00:00:00Z","name_a2s":"Uncletopia | Chicago | 3 | All Maps","protocol":17,"map":"koth_viaduct","folder":"tf","game":"Team Fortress","app_id":440,"player_count":0,"max_players":24,"Bots":0,"server_type":"Dedicated","server_os":"Linux","password":true,"vac":true,"version":"7882260","steam_id":85568392924515191,"keywords":["cp","nocrits","nodmgspread","uncletopia"],"game_id":440,"stv_port":27036,"stv_name":"Uncletopia | Chicago | 3 | All Maps | STV","players":null},{"server_id":403,"name":"Uncletopia | Chicago | 4 | All Maps","name_short":"chi-4","host":"chi-1.us.uncletopia.com","port":27045,"enabled":true,"region":"us-central","cc":"us","latitude":41.881832,"longitude":-87.62318,"reserved":0,"last_update":"0001-01-01T00:00:00Z","name_a2s":"Uncletopia | Chicago | 4 | All Maps","protocol":17,"map":"pl_barnblitz","folder":"tf","game":"Team Fortress","app_id":440,"player_count":0,"max_players":24,"Bots":0,"server_type":"Dedicated","server_os":"Linux","password":true,"vac":true,"version":"7882260","steam_id":85568392924515193,"keywords":["nocrits","nodmgspread","payload","uncletopia"],"game_id":440,"stv_port":27046,"stv_name":"Uncletopia | Chicago | 4 | All Maps | STV","players":null},{"server_id":36,"name":"Uncletopia | Chicago | 5 | All Maps","name_short":"chi-5","host":"chi-2.us.uncletopia.com","port":27015,"enabled":true,"region":"us-central","cc":"us","latitude":41.881832,"longitude":-87.62318,"reserved":0,"last_update":"0001-01-01T00:00:00Z","name_a2s":"Uncletopia | Chicago | 5 | All Maps","protocol":17,"map":"pl_badwater","folder":"tf","game":"Team Fortress","app_id":440,"player_count":24,"max_players":24,"Bots":0,"server_type":"Dedicated","server_os":"Linux","password":true,"vac":true,"version":"7882260","steam_id":85568392924866362,"keywords":["nocrits","nodmgspread","payload","uncletopia"],"game_id":440,"stv_port":27016,"stv_name":"Uncletopia | Chicago | 5 | All Maps | STV","players":[{"user_id":676,"name":"watchfull","steam_id":76561198433266742,"connected_time":2051000000000,"state":"active","ping":89},{"user_id":689,"name":"roo the observer","steam_id":76561198120684348,"connected_time":1045000000000,"state":"active","ping":52},{"user_id":696,"name":"Ahams","steam_id":76561197985572587,"connected_time":626000000000,"state":"active","ping":166},{"user_id":704,"name":"'93","steam_id":76561198069979962,"connected_time":104000000000,"state":"active","ping":58},{"user_id":671,"name":"Scooter O'Boyl","steam_id":76561197971687069,"connected_time":2470000000000,"state":"active","ping":69},{"user_id":643,"name":"Smoker Lung","steam_id":76561198077167395,"connected_time":5057000000000,"state":"active","ping":46},{"user_id":657,"name":"inin de benninging","steam_id":76561199234026881,"connected_time":3828000000000,"state":"active","ping":81},{"user_id":658,"name":"mexico2020","steam_id":76561198872675645,"connected_time":3805000000000,"state":"active","ping":86},{"user_id":693,"name":"2003 chevy malibu","steam_id":76561199075669125,"connected_time":794000000000,"state":"active","ping":71},{"user_id":700,"name":"x3 ♡","steam_id":76561198132011077,"connected_time":279000000000,"state":"active","ping":59},{"user_id":681,"name":".Cassius.","steam_id":76561199181383832,"connected_time":1855000000000,"state":"active","ping":55},{"user_id":703,"name":"Meurik","steam_id":76561198078032795,"connected_time":248000000000,"state":"active","ping":163},{"user_id":692,"name":"cobble_stun","steam_id":76561198826748850,"connected_time":812000000000,"state":"active","ping":63},{"user_id":694,"name":"sylvyy","steam_id":76561198976976583,"connected_time":782000000000,"state":"active","ping":78},{"user_id":701,"name":"Dr. Chad Feelgood","steam_id":76561198454077219,"connected_time":274000000000,"state":"active","ping":62},{"user_id":687,"name":"biblo","steam_id":76561198413125750,"connected_time":1190000000000,"state":"active","ping":70},{"user_id":627,"name":"KunveX","steam_id":76561197978022896,"connected_time":5756000000000,"state":"active","ping":58},{"user_id":628,"name":"MeowMeth","steam_id":76561198056620931,"connected_time":5756000000000,"state":"active","ping":76},{"user_id":668,"name":"you will answer for your sins","steam_id":76561198008332777,"connected_time":2741000000000,"state":"active","ping":76},{"user_id":698,"name":"Kamin","steam_id":76561198255299559,"connected_time":542000000000,"state":"active","ping":90},{"user_id":669,"name":"GoatVHS","steam_id":76561198050859478,"connected_time":2701000000000,"state":"active","ping":53},{"user_id":705,"name":"Deltaco","steam_id":76561198094572694,"connected_time":88000000000,"state":"active","ping":114},{"user_id":706,"name":"UnknownError42","steam_id":76561198087467339,"connected_time":33000000000,"state":"active","ping":66},{"user_id":674,"name":"On The Bright Side...","steam_id":76561198168785883,"connected_time":2421000000000,"state":"active","ping":48}]},{"server_id":37,"name":"Uncletopia | Chicago | 6 | All Maps","name_short":"chi-6","host":"chi-2.us.uncletopia.com","port":27025,"enabled":true,"region":"us-central","cc":"us","latitude":41.881832,"longitude":-87.62318,"reserved":0,"last_update":"0001-01-01T00:00:00Z","name_a2s":"Uncletopia | Chicago | 6 | All Maps","protocol":17,"map":"cp_altitude","folder":"tf","game":"Team Fortress","app_id":440,"player_count":0,"max_players":24,"Bots":0,"server_type":"Dedicated","server_os":"Linux","password":true,"vac":true,"version":"7882260","steam_id":85568392924866363,"keywords":["cp","nocrits","nodmgspread","uncletopia"],"game_id":440,"stv_port":27026,"stv_name":"Uncletopia | Chicago | 6 | All Maps | STV","players":null},{"server_id":38,"name":"Uncletopia | Chicago | 7 | Stopwatch Beta","name_short":"chi-7","host":"chi-2.us.uncletopia.com","port":27035,"enabled":true,"region":"us-central","cc":"us","latitude":41.881832,"longitude":-87.62318,"reserved":0,"last_update":"0001-01-01T00:00:00Z","name_a2s":"Uncletopia | Chicago | 7 | Stopwatch Beta","protocol":17,"map":"workshop/koth_ramjam_rc1.ugc459778887","folder":"tf","game":"Team Fortress","app_id":440,"player_count":0,"max_players":24,"Bots":0,"server_type":"Dedicated","server_os":"Linux","password":true,"vac":true,"version":"7882260","steam_id":85568392924866364,"keywords":["cp","nocrits","nodmgspread","uncletopia"],"game_id":440,"stv_port":27036,"stv_name":"Uncletopia | Chicago | 7 | Stopwatch Beta | STV","players":null},{"server_id":39,"name":"Uncletopia | Chicago | 8 | Community","name_short":"chi-8","host":"chi-2.us.uncletopia.com","port":27045,"enabled":true,"region":"us-central","cc":"us","latitude":41.881832,"longitude":-87.62318,"reserved":0,"last_update":"0001-01-01T00:00:00Z","name_a2s":"Uncletopia | Chicago | 8 | Community","protocol":17,"map":"workshop/koth_synthetic_rc6a.ugc1549817316","folder":"tf","game":"Team Fortress","app_id":440,"player_count":0,"max_players":24,"Bots":0,"server_type":"Dedicated","server_os":"Linux","password":true,"vac":true,"version":"7882260","steam_id":85568392924866365,"keywords":["cp","nocrits","nodmgspread","uncletopia"],"game_id":440,"stv_port":27046,"stv_name":"Uncletopia | Chicago | 8 | Community | STV","players":null},{"server_id":8,"name":"Uncletopia | Dallas | 1 | All Maps","name_short":"dal-1","host":"dal-1.us.uncletopia.com","port":27015,"enabled":true,"region":"us-central","cc":"us","latitude":32.779167,"longitude":-96.80889,"reserved":0,"last_update":"0001-01-01T00:00:00Z","name_a2s":"Uncletopia | Dallas | 1 | All Maps","protocol":17,"map":"pl_pier","folder":"tf","game":"Team Fortress","app_id":440,"player_count":24,"max_players":24,"Bots":0,"server_type":"Dedicated","server_os":"Linux","password":true,"vac":true,"version":"7882260","steam_id":85568392924469986,"keywords":["nocrits","nodmgspread","payload","uncletopia"],"game_id":440,"stv_port":27016,"stv_name":"Uncletopia | Dallas | 1 | All Maps | STV","players":[{"user_id":790,"name":"Doc{MDW}","steam_id":76561198075049640,"connected_time":1684000000000,"state":"active","ping":75},{"user_id":773,"name":"Sartupial","steam_id":76561198443169940,"connected_time":2772000000000,"state":"active","ping":48},{"user_id":655,"name":"Joe Swanson","steam_id":76561199089907740,"connected_time":14656000000000,"state":"active","ping":767},{"user_id":750,"name":"Victor","steam_id":76561198848984975,"connected_time":5488000000000,"state":"active","ping":83},{"user_id":809,"name":"soupy","steam_id":76561197974283797,"connected_time":253000000000,"state":"active","ping":60},{"user_id":762,"name":"Kazmirl [Youtube]","steam_id":76561198116008410,"connected_time":4279000000000,"state":"active","ping":107},{"user_id":778,"name":"Jimmy","steam_id":76561198133680783,"connected_time":2283000000000,"state":"active","ping":177},{"user_id":791,"name":"Satan-2","steam_id":76561199231742764,"connected_time":1509000000000,"state":"active","ping":88},{"user_id":760,"name":"76561198145451856","steam_id":76561198145451856,"connected_time":4617000000000,"state":"active","ping":96},{"user_id":805,"name":"BLANKE","steam_id":76561198129610485,"connected_time":269000000000,"state":"active","ping":58},{"user_id":775,"name":"farrapo","steam_id":76561198031088039,"connected_time":2474000000000,"state":"active","ping":182},{"user_id":803,"name":"a chicken","steam_id":76561198313121580,"connected_time":306000000000,"state":"active","ping":89},{"user_id":802,"name":"Darling","steam_id":76561198127525888,"connected_time":473000000000,"state":"active","ping":59},{"user_id":807,"name":"saggysage","steam_id":76561198249808678,"connected_time":260000000000,"state":"active","ping":71},{"user_id":798,"name":"ChaoticAngel","steam_id":76561198293528217,"connected_time":907000000000,"state":"active","ping":81},{"user_id":799,"name":"@ᴡɪʟᴅsɴᴀʏᴋ (real)","steam_id":76561198115175633,"connected_time":674000000000,"state":"active","ping":77},{"user_id":808,"name":"HTA","steam_id":76561198043879140,"connected_time":258000000000,"state":"active","ping":76},{"user_id":801,"name":"Vespen","steam_id":76561198259984019,"connected_time":547000000000,"state":"active","ping":86},{"user_id":811,"name":"BoxMan","steam_id":76561198316541559,"connected_time":164000000000,"state":"active","ping":69},{"user_id":783,"name":"wugmup","steam_id":76561199096287734,"connected_time":2195000000000,"state":"active","ping":96},{"user_id":744,"name":"dobby","steam_id":76561198012274834,"connected_time":5712000000000,"state":"active","ping":70},{"user_id":787,"name":"slimjim557","steam_id":76561199094710853,"connected_time":1939000000000,"state":"active","ping":91},{"user_id":788,"name":"melatoninpeek^_^","steam_id":76561198126358045,"connected_time":1927000000000,"state":"active","ping":76},{"user_id":792,"name":"floofy","steam_id":76561198389769098,"connected_time":1507000000000,"state":"active","ping":79}]},{"server_id":108,"name":"Uncletopia | Dallas | 2 | All Maps","name_short":"dal-2","host":"dal-1.us.uncletopia.com","port":27025,"enabled":true,"region":"us-central","cc":"us","latitude":32.779167,"longitude":-96.80889,"reserved":0,"last_update":"0001-01-01T00:00:00Z","name_a2s":"Uncletopia | Dallas | 2 | All Maps","protocol":17,"map":"pl_upward","folder":"tf","game":"Team Fortress","app_id":440,"player_count":0,"max_players":24,"Bots":0,"server_type":"Dedicated","server_os":"Linux","password":true,"vac":true,"version":"7882260","steam_id":85568392924469988,"keywords":["nocrits","nodmgspread","payload","uncletopia"],"game_id":440,"stv_port":27026,"stv_name":"Uncletopia | Dallas | 2 | All Maps | STV","players":null},{"server_id":5,"name":"Uncletopia | Frankfurt | 1 | All Maps","name_short":"frk-1","host":"frk-1.de.uncletopia.com","port":27015,"enabled":true,"region":"eu","cc":"de","latitude":50.110924,"longitude":8.682127,"reserved":0,"last_update":"0001-01-01T00:00:00Z","name_a2s":"Uncletopia | Frankfurt | 1 | All Maps","protocol":17,"map":"pl_pier","folder":"tf","game":"Team Fortress","app_id":440,"player_count":6,"max_players":24,"Bots":0,"server_type":"Dedicated","server_os":"Linux","password":true,"vac":true,"version":"7882260","steam_id":85568392924469989,"keywords":["nocrits","nodmgspread","payload","uncletopia"],"game_id":440,"stv_port":27016,"stv_name":"Uncletopia | Frankfurt | 1 | All Maps | STV","players":[{"user_id":5,"name":"FanFish","steam_id":76561199389558024,"connected_time":1618000000000,"state":"connecting","ping":71},{"user_id":6,"name":"♥ImWithMilk","steam_id":76561198269577569,"connected_time":1508000000000,"state":"connecting","ping":96},{"user_id":7,"name":"V60","steam_id":76561198133192305,"connected_time":1132000000000,"state":"connecting","ping":138},{"user_id":9,"name":"Alen","steam_id":76561199036330383,"connected_time":598000000000,"state":"connecting","ping":166},{"user_id":10,"name":"Fat Pigeon","steam_id":76561198817940142,"connected_time":383000000000,"state":"connecting","ping":63},{"user_id":11,"name":"☞LaZe☜","steam_id":76561198202191400,"connected_time":361000000000,"state":"connecting","ping":79}]},{"server_id":110,"name":"Uncletopia | Frankfurt | 2 | All Maps","name_short":"frk-2","host":"frk-1.de.uncletopia.com","port":27025,"enabled":true,"region":"eu","cc":"de","latitude":50.110924,"longitude":8.682127,"reserved":0,"last_update":"0001-01-01T00:00:00Z","name_a2s":"Uncletopia | Frankfurt | 2 | All Maps","protocol":17,"map":"cp_dustbowl","folder":"tf","game":"Team Fortress","app_id":440,"player_count":0,"max_players":24,"Bots":0,"server_type":"Dedicated","server_os":"Linux","password":true,"vac":true,"version":"7882260","steam_id":85568392924469990,"keywords":["cp","nocrits","nodmgspread","uncletopia"],"game_id":440,"stv_port":27026,"stv_name":"Uncletopia | Frankfurt | 2 | All Maps | STV","players":null},{"server_id":308,"name":"Uncletopia | Frankfurt | 3 | All Maps","name_short":"frk-3","host":"frk-1.de.uncletopia.com","port":27035,"enabled":true,"region":"eu","cc":"de","latitude":50.110924,"longitude":8.682127,"reserved":0,"last_update":"0001-01-01T00:00:00Z","name_a2s":"Uncletopia | Frankfurt | 3 | All Maps","protocol":17,"map":"pl_borneo","folder":"tf","game":"Team Fortress","app_id":440,"player_count":24,"max_players":24,"Bots":0,"server_type":"Dedicated","server_os":"Linux","password":true,"vac":true,"version":"7882260","steam_id":85568392924504274,"keywords":["nocrits","nodmgspread","payload","uncletopia"],"game_id":440,"stv_port":27036,"stv_name":"Uncletopia | Frankfurt | 3 | All Maps | STV","players":[{"user_id":81,"name":"Choirboy (He/Hymn)","steam_id":76561198183949987,"connected_time":4191000000000,"state":"active","ping":71},{"user_id":108,"name":"Rahu 'Siebren' Godless","steam_id":76561198276259175,"connected_time":413000000000,"state":"active","ping":97},{"user_id":73,"name":"Carrot (woman)","steam_id":76561198139404261,"connected_time":5253000000000,"state":"active","ping":63},{"user_id":109,"name":"Chambersite","steam_id":76561198197022399,"connected_time":400000000000,"state":"active","ping":62},{"user_id":110,"name":"Sandvich","steam_id":76561199079493666,"connected_time":344000000000,"state":"active","ping":92},{"user_id":8,"name":"nemelex","steam_id":76561198958005865,"connected_time":9418000000000,"state":"active","ping":61},{"user_id":89,"name":"M2rtRa","steam_id":76561198111036466,"connected_time":3350000000000,"state":"active","ping":60},{"user_id":52,"name":"Psychicpie","steam_id":76561198126065206,"connected_time":7358000000000,"state":"active","ping":46},{"user_id":53,"name":"Rin-Nakaret","steam_id":76561197971051188,"connected_time":7344000000000,"state":"active","ping":71},{"user_id":111,"name":"engie?","steam_id":76561198331852832,"connected_time":325000000000,"state":"active","ping":62},{"user_id":112,"name":"Marky","steam_id":76561199474556920,"connected_time":311000000000,"state":"active","ping":108},{"user_id":113,"name":"ridback","steam_id":76561198006728845,"connected_time":268000000000,"state":"active","ping":82},{"user_id":100,"name":"Carrot","steam_id":76561198119340863,"connected_time":1689000000000,"state":"active","ping":61},{"user_id":94,"name":".::[SerafeTTiN]::.","steam_id":76561198009471724,"connected_time":2254000000000,"state":"active","ping":84},{"user_id":106,"name":"2B || !2B","steam_id":76561198012116676,"connected_time":734000000000,"state":"active","ping":46},{"user_id":105,"name":"Renolox","steam_id":76561198036590182,"connected_time":869000000000,"state":"active","ping":67},{"user_id":34,"name":"Tison","steam_id":76561199127635841,"connected_time":8732000000000,"state":"active","ping":44},{"user_id":84,"name":"Varsk","steam_id":76561198061398890,"connected_time":4015000000000,"state":"active","ping":61},{"user_id":104,"name":"Cookies and Bakies","steam_id":76561198017442928,"connected_time":945000000000,"state":"active","ping":62},{"user_id":114,"name":"Morshu #SaveTF2","steam_id":76561198867155456,"connected_time":246000000000,"state":"active","ping":110},{"user_id":115,"name":"Voxtec_panzer","steam_id":76561198041995688,"connected_time":163000000000,"state":"active","ping":61},{"user_id":101,"name":"csnipery","steam_id":76561199435280050,"connected_time":1174000000000,"state":"active","ping":69},{"user_id":59,"name":"Dabman","steam_id":76561199207417437,"connected_time":7145000000000,"state":"active","ping":112},{"user_id":103,"name":"yangus","steam_id":76561198075157560,"connected_time":1033000000000,"state":"active","ping":59}]},{"server_id":309,"name":"Uncletopia | Frankfurt | 4 | All Maps","name_short":"frk-4","host":"frk-1.de.uncletopia.com","port":27045,"enabled":true,"region":"eu","cc":"de","latitude":50.110924,"longitude":8.682127,"reserved":0,"last_update":"0001-01-01T00:00:00Z","name_a2s":"Uncletopia | Frankfurt | 4 | All Maps","protocol":17,"map":"koth_lakeside_final","folder":"tf","game":"Team Fortress","app_id":440,"player_count":0,"max_players":24,"Bots":0,"server_type":"Dedicated","server_os":"Linux","password":true,"vac":true,"version":"7882260","steam_id":85568392924504275,"keywords":["cp","nocrits","nodmgspread","uncletopia"],"game_id":440,"stv_port":27046,"stv_name":"Uncletopia | Frankfurt | 4 | All Maps | STV","players":null},{"server_id":310,"name":"Uncletopia | Frankfurt | 5 | All Maps","name_short":"frk-5","host":"frk-1.de.uncletopia.com","port":27055,"enabled":true,"region":"eu","cc":"de","latitude":50.110924,"longitude":8.682127,"reserved":0,"last_update":"0001-01-01T00:00:00Z","name_a2s":"Uncletopia | Frankfurt | 5 | All Maps","protocol":17,"map":"cp_mountainlab","folder":"tf","game":"Team Fortress","app_id":440,"player_count":0,"max_players":24,"Bots":0,"server_type":"Dedicated","server_os":"Linux","password":true,"vac":true,"version":"7882260","steam_id":85568392924504277,"keywords":["cp","nocrits","nodmgspread","uncletopia"],"game_id":440,"stv_port":27056,"stv_name":"Uncletopia | Frankfurt | 5 | All Maps | STV","players":null},{"server_id":311,"name":"Uncletopia | Frankfurt | 6 | All Maps","name_short":"frk-6","host":"frk-1.de.uncletopia.com","port":27065,"enabled":true,"region":"eu","cc":"de","latitude":50.110924,"longitude":8.682127,"reserved":0,"last_update":"0001-01-01T00:00:00Z","name_a2s":"Uncletopia | Frankfurt | 6 | All Maps","protocol":17,"map":"pl_barnblitz","folder":"tf","game":"Team Fortress","app_id":440,"player_count":24,"max_players":24,"Bots":0,"server_type":"Dedicated","server_os":"Linux","password":true,"vac":true,"version":"7882260","steam_id":85568392924504278,"keywords":["nocrits","nodmgspread","payload","uncletopia"],"game_id":440,"stv_port":27066,"stv_name":"Uncletopia | Frankfurt | 6 | All Maps | STV","players":[{"user_id":190,"name":"quickfast","steam_id":76561199438900919,"connected_time":1559000000000,"state":"active","ping":59},{"user_id":193,"name":"✪ qua ✪","steam_id":76561198066408333,"connected_time":1347000000000,"state":"active","ping":61},{"user_id":192,"name":"WaterFk??","steam_id":76561198080419334,"connected_time":1449000000000,"state":"active","ping":53},{"user_id":178,"name":"Pipper","steam_id":76561197970326616,"connected_time":2231000000000,"state":"active","ping":68},{"user_id":194,"name":"SaltyCupcakes","steam_id":76561198256386417,"connected_time":956000000000,"state":"active","ping":61},{"user_id":169,"name":"G/3","steam_id":76561198234844188,"connected_time":3064000000000,"state":"active","ping":62},{"user_id":197,"name":"majorcviklje","steam_id":76561198107648667,"connected_time":461000000000,"state":"active","ping":73},{"user_id":95,"name":"Charmedelf","steam_id":76561197993611881,"connected_time":8309000000000,"state":"active","ping":60},{"user_id":183,"name":"Qubyte","steam_id":76561199476788495,"connected_time":2110000000000,"state":"active","ping":61},{"user_id":189,"name":"XPullaHiiri","steam_id":76561198031652375,"connected_time":1878000000000,"state":"active","ping":97},{"user_id":182,"name":"Ennard777","steam_id":76561198965409493,"connected_time":2119000000000,"state":"active","ping":118},{"user_id":116,"name":"hungry burger","steam_id":76561198064342804,"connected_time":6432000000000,"state":"active","ping":75},{"user_id":196,"name":"Pruff","steam_id":76561198377084417,"connected_time":647000000000,"state":"active","ping":60},{"user_id":170,"name":"Panique","steam_id":76561197993239675,"connected_time":2825000000000,"state":"active","ping":73},{"user_id":144,"name":"hichem","steam_id":76561198056197307,"connected_time":4897000000000,"state":"active","ping":64},{"user_id":174,"name":"Mac Bean","steam_id":76561198133782205,"connected_time":2257000000000,"state":"active","ping":120},{"user_id":172,"name":"Deacon Dracul","steam_id":76561198046880663,"connected_time":2363000000000,"state":"active","ping":107},{"user_id":136,"name":"NitPig","steam_id":76561198212991935,"connected_time":5396000000000,"state":"active","ping":154},{"user_id":171,"name":"The Butterman#SaveTF2","steam_id":76561198065057086,"connected_time":2819000000000,"state":"active","ping":93},{"user_id":186,"name":"DoDonPachi","steam_id":76561199085984801,"connected_time":2052000000000,"state":"active","ping":74},{"user_id":198,"name":"i look at gay people","steam_id":76561198078032019,"connected_time":387000000000,"state":"active","ping":99},{"user_id":188,"name":"sugma","steam_id":76561198091486930,"connected_time":2016000000000,"state":"active","ping":84},{"user_id":165,"name":"ijustsmokeandcry","steam_id":76561198044189114,"connected_time":3415000000000,"state":"active","ping":61},{"user_id":176,"name":"G6 sherlock","steam_id":76561198802967796,"connected_time":2234000000000,"state":"active","ping":122}]},{"server_id":23,"name":"Uncletopia | Frankfurt | 7 | Stopwatch Beta","name_short":"frk-7","host":"frk-1.de.uncletopia.com","port":27075,"enabled":true,"region":"eu","cc":"de","latitude":50.110924,"longitude":8.682127,"reserved":0,"last_update":"0001-01-01T00:00:00Z","name_a2s":"Uncletopia | Frankfurt | 7 | Stopwatch Beta","protocol":17,"map":"cp_dustbowl","folder":"tf","game":"Team Fortress","app_id":440,"player_count":0,"max_players":24,"Bots":0,"server_type":"Dedicated","server_os":"Linux","password":true,"vac":true,"version":"7882260","steam_id":85568392924742827,"keywords":["cp","nocrits","nodmgspread","uncletopia"],"game_id":440,"stv_port":27076,"stv_name":"Uncletopia | Frankfurt | 7 | Stopwatch Beta | STV","players":null},{"server_id":24,"name":"Uncletopia | Frankfurt | 8 | Community","name_short":"frk-8","host":"frk-1.de.uncletopia.com","port":27085,"enabled":true,"region":"eu","cc":"de","latitude":50.110924,"longitude":8.682127,"reserved":0,"last_update":"0001-01-01T00:00:00Z","name_a2s":"Uncletopia | Frankfurt | 8 | Community","protocol":17,"map":"koth_cascade","folder":"tf","game":"Team Fortress","app_id":440,"player_count":0,"max_players":24,"Bots":0,"server_type":"Dedicated","server_os":"Linux","password":true,"vac":true,"version":"7882260","steam_id":85568392924742828,"keywords":["cp","nocrits","nodmgspread","uncletopia"],"game_id":440,"stv_port":27086,"stv_name":"Uncletopia | Frankfurt | 8 | Community | STV","players":null},{"server_id":202,"name":"Uncletopia | Hong Kong | 1 | All Maps","name_short":"hgk-1","host":"hgk-1.hk.uncletopia.com","port":27015,"enabled":true,"region":"asia","cc":"hk","latitude":22.302711,"longitude":114.177216,"reserved":0,"last_update":"0001-01-01T00:00:00Z","name_a2s":"Uncletopia | Hong Kong | 1 | All Maps","protocol":17,"map":"pl_upward","folder":"tf","game":"Team Fortress","app_id":440,"player_count":24,"max_players":24,"Bots":0,"server_type":"Dedicated","server_os":"Linux","password":true,"vac":true,"version":"7882260","steam_id":85568392924494504,"keywords":["nocrits","nodmgspread","payload","uncletopia"],"game_id":440,"stv_port":27016,"stv_name":"Uncletopia | Hong Kong | 1 | All Maps | STV","players":[{"user_id":204,"name":"Milk❤","steam_id":76561198163911560,"connected_time":1607000000000,"state":"active","ping":183},{"user_id":212,"name":"cellum95","steam_id":76561198172146871,"connected_time":631000000000,"state":"active","ping":71},{"user_id":188,"name":"MeetTeMedic99","steam_id":76561199208706868,"connected_time":2701000000000,"state":"active","ping":71},{"user_id":213,"name":"Kairos","steam_id":76561198079927520,"connected_time":630000000000,"state":"active","ping":37},{"user_id":176,"name":"DellToNite","steam_id":76561199068666377,"connected_time":3332000000000,"state":"active","ping":120},{"user_id":172,"name":"Lynax","steam_id":76561198384987334,"connected_time":3536000000000,"state":"active","ping":87},{"user_id":209,"name":"tunathefish","steam_id":76561198805998419,"connected_time":1239000000000,"state":"active","ping":97},{"user_id":210,"name":"Batbob","steam_id":76561198999413123,"connected_time":929000000000,"state":"active","ping":76},{"user_id":197,"name":"Worst player ever","steam_id":76561199245124028,"connected_time":1944000000000,"state":"active","ping":136},{"user_id":185,"name":"FAKESOUND","steam_id":76561199076712919,"connected_time":2907000000000,"state":"active","ping":143},{"user_id":196,"name":"E","steam_id":76561199173781370,"connected_time":1985000000000,"state":"active","ping":102},{"user_id":163,"name":"phd in ejaculation and foodpand","steam_id":76561198138187921,"connected_time":4028000000000,"state":"active","ping":48},{"user_id":129,"name":"FragmantizedLemon","steam_id":76561198313580674,"connected_time":7904000000000,"state":"active","ping":73},{"user_id":202,"name":"Sophia the librarian werewolf","steam_id":76561199131651798,"connected_time":1697000000000,"state":"active","ping":79},{"user_id":214,"name":"Lu","steam_id":76561198320532821,"connected_time":405000000000,"state":"active","ping":91},{"user_id":192,"name":"i am a F2P and my aim is shit","steam_id":76561199475974790,"connected_time":2372000000000,"state":"active","ping":84},{"user_id":199,"name":"ConHoshi","steam_id":76561199387718733,"connected_time":1884000000000,"state":"active","ping":83},{"user_id":183,"name":"Ivan Dickevich Rektanov","steam_id":76561198201473205,"connected_time":2972000000000,"state":"active","ping":100},{"user_id":189,"name":"flying rocket","steam_id":76561199401766251,"connected_time":2645000000000,"state":"active","ping":78},{"user_id":206,"name":"ksvk","steam_id":76561198152588681,"connected_time":1540000000000,"state":"active","ping":100},{"user_id":150,"name":"TomCat","steam_id":76561198133744053,"connected_time":4848000000000,"state":"active","ping":120},{"user_id":144,"name":"urotsuki with da doobie","steam_id":76561198074339034,"connected_time":6069000000000,"state":"active","ping":78},{"user_id":203,"name":"ChoboUnjeon","steam_id":76561198806095977,"connected_time":1689000000000,"state":"active","ping":91},{"user_id":208,"name":"bamboozled","steam_id":76561199032258535,"connected_time":1297000000000,"state":"active","ping":59}]},{"server_id":1,"name":"Uncletopia | Los Angeles | 1 | All Maps","name_short":"lax-1","host":"lax-1.us.uncletopia.com","port":27015,"enabled":true,"region":"us-west","cc":"us","latitude":33.94279,"longitude":-118.41004,"reserved":0,"last_update":"0001-01-01T00:00:00Z","name_a2s":"Uncletopia | Los Angeles | 1 | All Maps","protocol":17,"map":"pl_upward","folder":"tf","game":"Team Fortress","app_id":440,"player_count":0,"max_players":24,"Bots":0,"server_type":"Dedicated","server_os":"Linux","password":true,"vac":true,"version":"7882260","steam_id":85568392924469991,"keywords":["nocrits","nodmgspread","payload","uncletopia"],"game_id":440,"stv_port":27016,"stv_name":"Uncletopia | Los Angeles | 1 | All Maps | STV","players":null},{"server_id":112,"name":"Uncletopia | Los Angeles | 2 | All Maps","name_short":"lax-2","host":"lax-1.us.uncletopia.com","port":27025,"enabled":true,"region":"us-west","cc":"us","latitude":33.94279,"longitude":-118.41004,"reserved":0,"last_update":"0001-01-01T00:00:00Z","name_a2s":"Uncletopia | Los Angeles | 2 | All Maps","protocol":17,"map":"pl_pier","folder":"tf","game":"Team Fortress","app_id":440,"player_count":10,"max_players":24,"Bots":0,"server_type":"Dedicated","server_os":"Linux","password":true,"vac":true,"version":"7882260","steam_id":85568392924469992,"keywords":["cp","nocrits","nodmgspread","uncletopia"],"game_id":440,"stv_port":27026,"stv_name":"Uncletopia | Los Angeles | 2 | All Maps | STV","players":[{"user_id":1049,"name":"Duane","steam_id":76561198078392272,"connected_time":241000000000,"state":"connecting","ping":63},{"user_id":1047,"name":"Sim","steam_id":76561198991904637,"connected_time":372000000000,"state":"connecting","ping":111},{"user_id":1045,"name":"Dob Bole","steam_id":76561198056367220,"connected_time":496000000000,"state":"connecting","ping":50},{"user_id":1007,"name":"Jimmy","steam_id":76561198857959855,"connected_time":4303000000000,"state":"connecting","ping":63},{"user_id":1050,"name":"Sebas MarcaToons","steam_id":76561198853420295,"connected_time":219000000000,"state":"connecting","ping":153},{"user_id":1051,"name":"Ecksbox","steam_id":76561198352502577,"connected_time":194000000000,"state":"spawning","ping":64},{"user_id":1052,"name":"Giant Rat","steam_id":76561198133242690,"connected_time":50000000000,"state":"connecting","ping":192},{"user_id":1042,"name":"Ferrin","steam_id":76561198071757444,"connected_time":954000000000,"state":"connecting","ping":105}]},{"server_id":324,"name":"Uncletopia | Los Angeles | 3 | All Maps","name_short":"lax-3","host":"lax-1.us.uncletopia.com","port":27035,"enabled":true,"region":"us-west","cc":"us","latitude":33.94279,"longitude":-118.41004,"reserved":0,"last_update":"0001-01-01T00:00:00Z","name_a2s":"Uncletopia | Los Angeles | 3 | All Maps","protocol":17,"map":"pl_barnblitz","folder":"tf","game":"Team Fortress","app_id":440,"player_count":0,"max_players":24,"Bots":0,"server_type":"Dedicated","server_os":"Linux","password":true,"vac":true,"version":"7882260","steam_id":85568392924510198,"keywords":["nocrits","nodmgspread","payload","uncletopia"],"game_id":440,"stv_port":27036,"stv_name":"Uncletopia | Los Angeles | 3 | All Maps | STV","players":null},{"server_id":25,"name":"Uncletopia | Los Angeles | 4 | Stopwatch Beta","name_short":"lax-4","host":"lax-1.us.uncletopia.com","port":27045,"enabled":true,"region":"us-west","cc":"us","latitude":33.94279,"longitude":-118.41004,"reserved":0,"last_update":"0001-01-01T00:00:00Z","name_a2s":"Uncletopia | Los Angeles | 4 | Stopwatch Beta","protocol":17,"map":"workshop/pl_barnblitz_pro7.ugc582280235","folder":"tf","game":"Team Fortress","app_id":440,"player_count":0,"max_players":24,"Bots":0,"server_type":"Dedicated","server_os":"Linux","password":true,"vac":true,"version":"7882260","steam_id":85568392924510199,"keywords":["nocrits","nodmgspread","payload","uncletopia"],"game_id":440,"stv_port":27046,"stv_name":"Uncletopia | Los Angeles | 4 | Stopwatch Beta | STV","players":null},{"server_id":11,"name":"Uncletopia | London | 1 | All Maps","name_short":"lon-1","host":"lon-1.uk.uncletopia.com","port":27015,"enabled":true,"region":"eu","cc":"gb","latitude":51.509865,"longitude":-0.118092,"reserved":0,"last_update":"0001-01-01T00:00:00Z","name_a2s":"Uncletopia | London | 1 | All Maps","protocol":17,"map":"pl_badwater","folder":"tf","game":"Team Fortress","app_id":440,"player_count":20,"max_players":24,"Bots":0,"server_type":"Dedicated","server_os":"Linux","password":true,"vac":true,"version":"7882260","steam_id":85568392924367362,"keywords":["nocrits","nodmgspread","payload","uncletopia"],"game_id":440,"stv_port":27016,"stv_name":"Uncletopia | London | 1 | All Maps | STV","players":[{"user_id":44,"name":"|-DeathTroll-|","steam_id":76561199102688046,"connected_time":74000000000,"state":"active","ping":170},{"user_id":46,"name":"επιλέγω","steam_id":76561198076639682,"connected_time":57000000000,"state":"active","ping":126},{"user_id":9,"name":"1 toke 4 mars bars","steam_id":76561198056460000,"connected_time":1420000000000,"state":"active","ping":37},{"user_id":45,"name":"Voks_","steam_id":76561198159687785,"connected_time":66000000000,"state":"active","ping":76},{"user_id":47,"name":"Cillian","steam_id":76561199046965320,"connected_time":38000000000,"state":"active","ping":61},{"user_id":11,"name":"cherri","steam_id":76561198146570384,"connected_time":1356000000000,"state":"active","ping":90},{"user_id":12,"name":"Gordon","steam_id":76561198303652059,"connected_time":1336000000000,"state":"active","ping":70},{"user_id":40,"name":"YinYang Ivy","steam_id":76561198319862585,"connected_time":353000000000,"state":"active","ping":45},{"user_id":16,"name":"Hans","steam_id":76561198030061999,"connected_time":1214000000000,"state":"active","ping":88},{"user_id":17,"name":"Alice can't hit pipes","steam_id":76561198052410860,"connected_time":1206000000000,"state":"active","ping":154},{"user_id":18,"name":"InfamousAxe","steam_id":76561198099504739,"connected_time":1180000000000,"state":"active","ping":129},{"user_id":19,"name":"Lario","steam_id":76561199194109193,"connected_time":1084000000000,"state":"active","ping":62},{"user_id":20,"name":"favela_fan","steam_id":76561198086464040,"connected_time":1021000000000,"state":"active","ping":60},{"user_id":22,"name":"Dio","steam_id":76561198117685434,"connected_time":920000000000,"state":"active","ping":98},{"user_id":25,"name":"Kokos","steam_id":76561198085501501,"connected_time":818000000000,"state":"active","ping":84},{"user_id":34,"name":"Mon pote est un femboy","steam_id":76561198173218318,"connected_time":584000000000,"state":"active","ping":48},{"user_id":35,"name":"waffle toaster","steam_id":76561198799089628,"connected_time":563000000000,"state":"active","ping":41},{"user_id":28,"name":"doopsuiker","steam_id":76561198025916703,"connected_time":763000000000,"state":"active","ping":65},{"user_id":29,"name":"One-Punch Retard","steam_id":76561198029932939,"connected_time":744000000000,"state":"active","ping":101},{"user_id":39,"name":"Mong","steam_id":76561198254497427,"connected_time":418000000000,"state":"active","ping":36}]},{"server_id":114,"name":"Uncletopia | London | 2 | All Maps","name_short":"lon-2","host":"lon-1.uk.uncletopia.com","port":27025,"enabled":true,"region":"eu","cc":"gb","latitude":51.509865,"longitude":-0.118092,"reserved":0,"last_update":"0001-01-01T00:00:00Z","name_a2s":"Uncletopia | London | 2 | All Maps","protocol":17,"map":"pl_swiftwater_final1","folder":"tf","game":"Team Fortress","app_id":440,"player_count":0,"max_players":24,"Bots":0,"server_type":"Dedicated","server_os":"Linux","password":true,"vac":true,"version":"7882260","steam_id":85568392924470941,"keywords":["nocrits","nodmgspread","payload","uncletopia"],"game_id":440,"stv_port":27026,"stv_name":"Uncletopia | London | 2 | All Maps | STV","players":null},{"server_id":320,"name":"Uncletopia | London | 3 | All Maps","name_short":"lon-3","host":"lon-1.uk.uncletopia.com","port":27035,"enabled":true,"region":"eu","cc":"gb","latitude":51.509865,"longitude":-0.118092,"reserved":0,"last_update":"0001-01-01T00:00:00Z","name_a2s":"Uncletopia | London | 3 | All Maps","protocol":17,"map":"pl_pier","folder":"tf","game":"Team Fortress","app_id":440,"player_count":23,"max_players":24,"Bots":0,"server_type":"Dedicated","server_os":"Linux","password":true,"vac":true,"version":"7882260","steam_id":85568392924510192,"keywords":["nocrits","nodmgspread","payload","uncletopia"],"game_id":440,"stv_port":27036,"stv_name":"Uncletopia | London | 3 | All Maps | STV","players":[{"user_id":83,"name":"Ｒ Ｏ Ｂ Ｂ Ｅ Ｒ Ｔ","steam_id":76561198134404830,"connected_time":396000000000,"state":"active","ping":116},{"user_id":84,"name":"Egg","steam_id":76561199360189459,"connected_time":372000000000,"state":"active","ping":74},{"user_id":85,"name":"Svilar","steam_id":76561198828348612,"connected_time":317000000000,"state":"active","ping":89},{"user_id":86,"name":"b_a1Ln","steam_id":76561198135213739,"connected_time":311000000000,"state":"active","ping":105},{"user_id":61,"name":"Hedge Knight","steam_id":76561198989449047,"connected_time":2061000000000,"state":"active","ping":129},{"user_id":18,"name":"plont","steam_id":76561198060105180,"connected_time":5003000000000,"state":"active","ping":60},{"user_id":87,"name":"Honest Tom's Discount Beef","steam_id":76561198029971392,"connected_time":282000000000,"state":"active","ping":50},{"user_id":63,"name":"sokige","steam_id":76561198167112371,"connected_time":1842000000000,"state":"active","ping":105},{"user_id":58,"name":"Show me your gun","steam_id":76561198368339225,"connected_time":2209000000000,"state":"active","ping":129},{"user_id":62,"name":"astra","steam_id":76561198042980579,"connected_time":1910000000000,"state":"active","ping":67},{"user_id":95,"name":"dnljns","steam_id":76561198085091752,"connected_time":23000000000,"state":"spawning","ping":75},{"user_id":70,"name":"The SEX Master","steam_id":76561198812424933,"connected_time":1466000000000,"state":"active","ping":67},{"user_id":89,"name":"Brinier","steam_id":76561199012604288,"connected_time":131000000000,"state":"active","ping":81},{"user_id":74,"name":"Noosie","steam_id":76561198108612349,"connected_time":1261000000000,"state":"active","ping":67},{"user_id":90,"name":"Lyell","steam_id":76561198350329389,"connected_time":116000000000,"state":"active","ping":86},{"user_id":57,"name":"lol","steam_id":76561198104438656,"connected_time":2224000000000,"state":"active","ping":72},{"user_id":66,"name":"Dark ^^","steam_id":76561198036241064,"connected_time":1753000000000,"state":"active","ping":75},{"user_id":92,"name":"schmick h_stt 0","steam_id":76561198039537958,"connected_time":91000000000,"state":"active","ping":45},{"user_id":51,"name":"Stayprone","steam_id":76561197963491785,"connected_time":2621000000000,"state":"active","ping":65},{"user_id":93,"name":"Cypher","steam_id":76561197996967254,"connected_time":56000000000,"state":"active","ping":58},{"user_id":79,"name":"Sylvanas","steam_id":76561198154904165,"connected_time":940000000000,"state":"active","ping":118},{"user_id":94,"name":"lore","steam_id":76561198120984188,"connected_time":53000000000,"state":"active","ping":85},{"user_id":75,"name":"Sonic","steam_id":76561198081692577,"connected_time":1255000000000,"state":"active","ping":60}]},{"server_id":321,"name":"Uncletopia | London | 4 | All Maps","name_short":"lon-4","host":"lon-1.uk.uncletopia.com","port":27045,"enabled":true,"region":"eu","cc":"gb","latitude":51.509865,"longitude":-0.118092,"reserved":0,"last_update":"0001-01-01T00:00:00Z","name_a2s":"Uncletopia | London | 4 | All Maps","protocol":17,"map":"pl_upward","folder":"tf","game":"Team Fortress","app_id":440,"player_count":0,"max_players":24,"Bots":0,"server_type":"Dedicated","server_os":"Linux","password":true,"vac":true,"version":"7882260","steam_id":85568392924510193,"keywords":["nocrits","nodmgspread","payload","uncletopia"],"game_id":440,"stv_port":27046,"stv_name":"Uncletopia | London | 4 | All Maps | STV","players":null},{"server_id":21,"name":"Uncletopia | London | 5 | All Maps","name_short":"lon-5","host":"lon-1.uk.uncletopia.com","port":27055,"enabled":true,"region":"eu","cc":"gb","latitude":51.509865,"longitude":-0.118092,"reserved":0,"last_update":"0001-01-01T00:00:00Z","name_a2s":"Uncletopia | London | 5 | All Maps","protocol":17,"map":"pl_frontier_final","folder":"tf","game":"Team Fortress","app_id":440,"player_count":0,"max_players":24,"Bots":0,"server_type":"Dedicated","server_os":"Linux","password":true,"vac":true,"version":"7882260","steam_id":85568392924742829,"keywords":["nocrits","nodmgspread","payload","uncletopia"],"game_id":440,"stv_port":27056,"stv_name":"Uncletopia | London | 5 | All Maps | STV","players":null},{"server_id":22,"name":"Uncletopia | London | 6 | All Maps","name_short":"lon-6","host":"lon-1.uk.uncletopia.com","port":27065,"enabled":true,"region":"eu","cc":"gb","latitude":51.509865,"longitude":-0.118092,"reserved":0,"last_update":"0001-01-01T00:00:00Z","name_a2s":"Uncletopia | London | 6 | All Maps","protocol":17,"map":"cp_altitude","folder":"tf","game":"Team Fortress","app_id":440,"player_count":0,"max_players":24,"Bots":0,"server_type":"Dedicated","server_os":"Linux","password":true,"vac":true,"version":"7882260","steam_id":85568392924742830,"keywords":["cp","nocrits","nodmgspread","uncletopia"],"game_id":440,"stv_port":27066,"stv_name":"Uncletopia | London | 6 | All Maps | STV","players":null},{"server_id":40,"name":"Uncletopia | London | 7 | No Payload","name_short":"lon-7","host":"lon-1.uk.uncletopia.com","port":27075,"enabled":true,"region":"eu","cc":"gb","latitude":51.509865,"longitude":-0.118092,"reserved":0,"last_update":"0001-01-01T00:00:00Z","name_a2s":"Uncletopia | London | 7 | No Payload","protocol":17,"map":"koth_harvest_final","folder":"tf","game":"Team Fortress","app_id":440,"player_count":0,"max_players":24,"Bots":0,"server_type":"Dedicated","server_os":"Linux","password":true,"vac":true,"version":"7882260","steam_id":85568392924964314,"keywords":["cp","nocrits","nodmgspread","uncletopia"],"game_id":440,"stv_port":27076,"stv_name":"Uncletopia | London | 7 | No Payload | STV","players":null},{"server_id":41,"name":"Uncletopia | London | 8 | Community","name_short":"lon-8","host":"lon-1.uk.uncletopia.com","port":27085,"enabled":true,"region":"eu","cc":"gb","latitude":51.509865,"longitude":-0.118092,"reserved":0,"last_update":"0001-01-01T00:00:00Z","name_a2s":"Uncletopia | London | 8 | Community","protocol":17,"map":"pl_swiftwater_final1","folder":"tf","game":"Team Fortress","app_id":440,"player_count":0,"max_players":24,"Bots":0,"server_type":"Dedicated","server_os":"Linux","password":true,"vac":true,"version":"7882260","steam_id":85568392924964315,"keywords":["nocrits","nodmgspread","payload","uncletopia"],"game_id":440,"stv_port":27086,"stv_name":"Uncletopia | London | 8 | Community | STV","players":null},{"server_id":300,"name":"Uncletopia | Montréal | 1 | All Maps","name_short":"mtl-1","host":"mtl-1.ca.uncletopia.com","port":27015,"enabled":true,"region":"us-east","cc":"ca","latitude":45.50889,"longitude":-73.56167,"reserved":0,"last_update":"0001-01-01T00:00:00Z","name_a2s":"Uncletopia | Montréal | 1 | All Maps","protocol":17,"map":"pl_snowycoast","folder":"tf","game":"Team Fortress","app_id":440,"player_count":0,"max_players":24,"Bots":0,"server_type":"Dedicated","server_os":"Linux","password":true,"vac":true,"version":"7882260","steam_id":85568392924500087,"keywords":["nocrits","nodmgspread","payload","uncletopia"],"game_id":440,"stv_port":27016,"stv_name":"Uncletopia | Montréal | 1 | All Maps | STV","players":null},{"server_id":301,"name":"Uncletopia | Montréal | 2 | All Maps","name_short":"mtl-2","host":"mtl-1.ca.uncletopia.com","port":27025,"enabled":true,"region":"us-east","cc":"ca","latitude":45.50889,"longitude":-73.56167,"reserved":0,"last_update":"0001-01-01T00:00:00Z","name_a2s":"Uncletopia | Montréal | 2 | All Maps","protocol":17,"map":"cp_sunshine","folder":"tf","game":"Team Fortress","app_id":440,"player_count":0,"max_players":24,"Bots":0,"server_type":"Dedicated","server_os":"Linux","password":true,"vac":true,"version":"7882260","steam_id":85568392924500088,"keywords":["cp","nocrits","nodmgspread","uncletopia"],"game_id":440,"stv_port":27026,"stv_name":"Uncletopia | Montréal | 2 | All Maps | STV","players":null},{"server_id":302,"name":"Uncletopia | Montréal | 3 | All Maps","name_short":"mtl-3","host":"mtl-1.ca.uncletopia.com","port":27035,"enabled":true,"region":"us-east","cc":"ca","latitude":45.50889,"longitude":-73.56167,"reserved":0,"last_update":"0001-01-01T00:00:00Z","name_a2s":"Uncletopia | Montréal | 3 | All Maps","protocol":17,"map":"pl_borneo","folder":"tf","game":"Team Fortress","app_id":440,"player_count":0,"max_players":24,"Bots":0,"server_type":"Dedicated","server_os":"Linux","password":true,"vac":true,"version":"7882260","steam_id":85568392924500089,"keywords":["nocrits","nodmgspread","payload","uncletopia"],"game_id":440,"stv_port":27036,"stv_name":"Uncletopia | Montréal | 3 | All Maps | STV","players":null},{"server_id":303,"name":"Uncletopia | Montréal | 4 | No Payload","name_short":"mtl-4","host":"mtl-1.ca.uncletopia.com","port":27045,"enabled":true,"region":"us-east","cc":"ca","latitude":45.50889,"longitude":-73.56167,"reserved":0,"last_update":"0001-01-01T00:00:00Z","name_a2s":"Uncletopia | Montréal | 4 | No Payload","protocol":17,"map":"cp_altitude","folder":"tf","game":"Team Fortress","app_id":440,"player_count":0,"max_players":24,"Bots":0,"server_type":"Dedicated","server_os":"Linux","password":true,"vac":true,"version":"7882260","steam_id":85568392924500090,"keywords":["cp","nocrits","nodmgspread","uncletopia"],"game_id":440,"stv_port":27046,"stv_name":"Uncletopia | Montréal | 4 | No Payload | STV","players":null},{"server_id":13,"name":"Uncletopia | New York City | 1 | All Maps","name_short":"nyc-1","host":"nyc-1.us.uncletopia.com","port":27015,"enabled":true,"region":"us-east","cc":"us","latitude":40.73061,"longitude":-73.93524,"reserved":0,"last_update":"0001-01-01T00:00:00Z","name_a2s":"Uncletopia | New York City | 1 | All Maps","protocol":17,"map":"pl_borneo","folder":"tf","game":"Team Fortress","app_id":440,"player_count":0,"max_players":24,"Bots":0,"server_type":"Dedicated","server_os":"Linux","password":true,"vac":true,"version":"7882260","steam_id":85568392924469993,"keywords":["nocrits","nodmgspread","payload","uncletopia"],"game_id":440,"stv_port":27016,"stv_name":"Uncletopia | New York City | 1 | All Maps | STV","players":null},{"server_id":14,"name":"Uncletopia | New York City | 2 | All Maps","name_short":"nyc-2","host":"nyc-1.us.uncletopia.com","port":27025,"enabled":true,"region":"us-east","cc":"us","latitude":40.73061,"longitude":-73.93524,"reserved":0,"last_update":"0001-01-01T00:00:00Z","name_a2s":"Uncletopia | New York City | 2 | All Maps","protocol":17,"map":"pl_upward","folder":"tf","game":"Team Fortress","app_id":440,"player_count":0,"max_players":24,"Bots":0,"server_type":"Dedicated","server_os":"Linux","password":true,"vac":true,"version":"7882260","steam_id":85568392924469994,"keywords":["nocrits","nodmgspread","payload","uncletopia"],"game_id":440,"stv_port":27026,"stv_name":"Uncletopia | New York City | 2 | All Maps | STV","players":null},{"server_id":15,"name":"Uncletopia | New York City | 3 | Stopwatch Beta","name_short":"nyc-3","host":"nyc-1.us.uncletopia.com","port":27035,"enabled":true,"region":"us-east","cc":"us","latitude":40.73061,"longitude":-73.93524,"reserved":0,"last_update":"0001-01-01T00:00:00Z","name_a2s":"Uncletopia | New York City | 3 | Stopwatch Beta","protocol":17,"map":"koth_lakeside_final","folder":"tf","game":"Team Fortress","app_id":440,"player_count":0,"max_players":24,"Bots":0,"server_type":"Dedicated","server_os":"Linux","password":true,"vac":true,"version":"7882260","steam_id":85568392924742820,"keywords":["cp","nocrits","nodmgspread","uncletopia"],"game_id":440,"stv_port":27036,"stv_name":"Uncletopia | New York City | 3 | Stopwatch Beta | STV","players":null},{"server_id":16,"name":"Uncletopia | New York City | 4 | Community","name_short":"nyc-4","host":"nyc-1.us.uncletopia.com","port":27045,"enabled":true,"region":"us-east","cc":"us","latitude":40.73061,"longitude":-73.93524,"reserved":0,"last_update":"0001-01-01T00:00:00Z","name_a2s":"Uncletopia | New York City | 4 | Community","protocol":17,"map":"pl_badwater","folder":"tf","game":"Team Fortress","app_id":440,"player_count":0,"max_players":24,"Bots":0,"server_type":"Dedicated","server_os":"Linux","password":true,"vac":true,"version":"7882260","steam_id":85568392924742821,"keywords":["nocrits","nodmgspread","payload","uncletopia"],"game_id":440,"stv_port":27046,"stv_name":"Uncletopia | New York City | 4 | Community | STV","players":null},{"server_id":142,"name":"Uncletopia | São Paulo | 1 | All Maps","name_short":"sao-1","host":"sao-1.br.uncletopia.com","port":27015,"enabled":true,"region":"sa","cc":"br","latitude":-23.533773,"longitude":-46.62529,"reserved":0,"last_update":"0001-01-01T00:00:00Z","name_a2s":"Uncletopia | São Paulo | 1 | All Maps","protocol":17,"map":"cp_process_final","folder":"tf","game":"Team Fortress","app_id":440,"player_count":0,"max_players":24,"Bots":0,"server_type":"Dedicated","server_os":"Linux","password":true,"vac":true,"version":"7882260","steam_id":85568392924469996,"keywords":["cp","nocrits","nodmgspread","uncletopia"],"game_id":440,"stv_port":27016,"stv_name":"Uncletopia | São Paulo | 1 | All Maps | STV","players":null},{"server_id":143,"name":"Uncletopia | São Paulo | 2 | All Maps","name_short":"sao-2","host":"sao-2.br.uncletopia.com","port":27015,"enabled":true,"region":"sa","cc":"br","latitude":-23.533773,"longitude":-46.62529,"reserved":0,"last_update":"0001-01-01T00:00:00Z","name_a2s":"Uncletopia | São Paulo | 2 | All Maps","protocol":17,"map":"pl_pier","folder":"tf","game":"Team Fortress","app_id":440,"player_count":0,"max_players":24,"Bots":0,"server_type":"Dedicated","server_os":"Linux","password":true,"vac":true,"version":"7882260","steam_id":85568392924485349,"keywords":["nocrits","nodmgspread","payload","uncletopia"],"game_id":440,"stv_port":27016,"stv_name":"Uncletopia | São Paulo | 2 | All Maps | STV","players":null},{"server_id":7,"name":"Uncletopia | Seattle | 1 | All Maps","name_short":"sea-1","host":"sea-1.us.uncletopia.com","port":27015,"enabled":true,"region":"us-west","cc":"us","latitude":47.608013,"longitude":-122.33517,"reserved":0,"last_update":"0001-01-01T00:00:00Z","name_a2s":"Uncletopia | Seattle | 1 | All Maps","protocol":17,"map":"pl_pier","folder":"tf","game":"Team Fortress","app_id":440,"player_count":15,"max_players":24,"Bots":0,"server_type":"Dedicated","server_os":"Linux","password":true,"vac":true,"version":"7882260","steam_id":85568392924469997,"keywords":["nocrits","nodmgspread","payload","uncletopia"],"game_id":440,"stv_port":27016,"stv_name":"Uncletopia | Seattle | 1 | All Maps | STV","players":[{"user_id":733,"name":"paj","steam_id":76561198080026026,"connected_time":704000000000,"state":"active","ping":89},{"user_id":727,"name":"Katie4","steam_id":76561198041841960,"connected_time":1281000000000,"state":"active","ping":42},{"user_id":728,"name":"ASINISTERTACO","steam_id":76561198101919157,"connected_time":1267000000000,"state":"active","ping":86},{"user_id":729,"name":"piner","steam_id":76561198051635910,"connected_time":1255000000000,"state":"active","ping":78},{"user_id":730,"name":"Rain","steam_id":76561198065612273,"connected_time":1226000000000,"state":"active","ping":44},{"user_id":731,"name":"acab","steam_id":76561198062240177,"connected_time":1192000000000,"state":"active","ping":92},{"user_id":734,"name":"Joker","steam_id":76561198092711050,"connected_time":682000000000,"state":"active","ping":105},{"user_id":735,"name":"Griffin","steam_id":76561198159339442,"connected_time":631000000000,"state":"active","ping":125},{"user_id":739,"name":"Qrowniniee","steam_id":76561198273028245,"connected_time":321000000000,"state":"active","ping":82},{"user_id":737,"name":"Dunkin' Ponuts","steam_id":76561198082382465,"connected_time":491000000000,"state":"active","ping":59},{"user_id":740,"name":"mawji","steam_id":76561199147740808,"connected_time":225000000000,"state":"active","ping":52},{"user_id":741,"name":"fancyfreak","steam_id":76561198326466375,"connected_time":183000000000,"state":"active","ping":83},{"user_id":742,"name":"beaten to mental retardation","steam_id":76561198152139282,"connected_time":139000000000,"state":"active","ping":121},{"user_id":743,"name":"「Moody-Blues」","steam_id":76561198026558681,"connected_time":47000000000,"state":"active","ping":94},{"user_id":705,"name":"Underscore Paul","steam_id":76561198070300902,"connected_time":4135000000000,"state":"active","ping":65}]},{"server_id":119,"name":"Uncletopia | Seattle | 2 | All Maps","name_short":"sea-2","host":"sea-1.us.uncletopia.com","port":27025,"enabled":true,"region":"us-west","cc":"us","latitude":47.608013,"longitude":-122.33517,"reserved":0,"last_update":"0001-01-01T00:00:00Z","name_a2s":"Uncletopia | Seattle | 2 | All Maps","protocol":17,"map":"pl_barnblitz","folder":"tf","game":"Team Fortress","app_id":440,"player_count":0,"max_players":24,"Bots":0,"server_type":"Dedicated","server_os":"Linux","password":true,"vac":true,"version":"7882260","steam_id":85568392924469998,"keywords":["nocrits","nodmgspread","payload","uncletopia"],"game_id":440,"stv_port":27026,"stv_name":"Uncletopia | Seattle | 2 | All Maps | STV","players":null},{"server_id":406,"name":"Uncletopia | Seattle | 3 | Stopwatch Beta","name_short":"sea-3","host":"sea-1.us.uncletopia.com","port":27035,"enabled":true,"region":"us-west","cc":"us","latitude":47.608013,"longitude":-122.33517,"reserved":0,"last_update":"0001-01-01T00:00:00Z","name_a2s":"Uncletopia | Seattle | 3 | Stopwatch Beta","protocol":17,"map":"workshop/koth_product_final.ugc454272353","folder":"tf","game":"Team Fortress","app_id":440,"player_count":0,"max_players":24,"Bots":0,"server_type":"Dedicated","server_os":"Linux","password":true,"vac":true,"version":"7882260","steam_id":85568392924515217,"keywords":["cp","nocrits","nodmgspread","uncletopia"],"game_id":440,"stv_port":27036,"stv_name":"Uncletopia | Seattle | 3 | Stopwatch Beta | STV","players":null},{"server_id":17,"name":"Uncletopia | San Francisco | 1 | All Maps","name_short":"sfo-1","host":"sfo-1.us.uncletopia.com","port":27015,"enabled":true,"region":"us-west","cc":"us","latitude":37.77397,"longitude":-122.4313,"reserved":0,"last_update":"0001-01-01T00:00:00Z","name_a2s":"Uncletopia | San Francisco | 1 | All Maps","protocol":17,"map":"cp_process_final","folder":"tf","game":"Team Fortress","app_id":440,"player_count":0,"max_players":24,"Bots":0,"server_type":"Dedicated","server_os":"Linux","password":true,"vac":true,"version":"7757534","steam_id":85568392924469999,"keywords":["cp","nocrits","nodmgspread","uncletopia"],"game_id":440,"stv_port":27016,"stv_name":"Uncletopia | San Francisco | 1 | All Maps | STV","players":null},{"server_id":18,"name":"Uncletopia | San Francisco | 2 | All Maps","name_short":"sfo-2","host":"sfo-1.us.uncletopia.com","port":27025,"enabled":true,"region":"us-west","cc":"us","latitude":37.77397,"longitude":-122.4313,"reserved":0,"last_update":"0001-01-01T00:00:00Z","name_a2s":"Uncletopia | San Francisco | 2 | All Maps","protocol":17,"map":"koth_highpass","folder":"tf","game":"Team Fortress","app_id":440,"player_count":0,"max_players":24,"Bots":0,"server_type":"Dedicated","server_os":"Linux","password":true,"vac":true,"version":"7757534","steam_id":85568392924470000,"keywords":["cp","nocrits","nodmgspread","uncletopia"],"game_id":440,"stv_port":27026,"stv_name":"Uncletopia | San Francisco | 2 | All Maps | STV","players":null},{"server_id":19,"name":"Uncletopia | San Francisco | 3 | Stopwatch Beta","name_short":"sfo-3","host":"sfo-1.us.uncletopia.com","port":27035,"enabled":true,"region":"us-west","cc":"us","latitude":37.77397,"longitude":-122.4313,"reserved":0,"last_update":"0001-01-01T00:00:00Z","name_a2s":"Uncletopia | San Francisco | 3 | Stopwatch Beta","protocol":17,"map":"koth_lakeside_final","folder":"tf","game":"Team Fortress","app_id":440,"player_count":0,"max_players":24,"Bots":0,"server_type":"Dedicated","server_os":"Linux","password":true,"vac":true,"version":"7757534","steam_id":85568392924742824,"keywords":["cp","nocrits","nodmgspread","uncletopia"],"game_id":440,"stv_port":27036,"stv_name":"Uncletopia | San Francisco | 3 | Stopwatch Beta | STV","players":null},{"server_id":20,"name":"Uncletopia | San Francisco | 4 | Community","name_short":"sfo-4","host":"sfo-1.us.uncletopia.com","port":27045,"enabled":true,"region":"us-west","cc":"us","latitude":37.77397,"longitude":-122.4313,"reserved":0,"last_update":"0001-01-01T00:00:00Z","name_a2s":"Uncletopia | San Francisco | 4 | Community","protocol":17,"map":"cp_altitude","folder":"tf","game":"Team Fortress","app_id":440,"player_count":0,"max_players":24,"Bots":0,"server_type":"Dedicated","server_os":"Linux","password":true,"vac":true,"version":"7757534","steam_id":85568392924742826,"keywords":["cp","nocrits","nodmgspread","uncletopia"],"game_id":440,"stv_port":27046,"stv_name":"Uncletopia | San Francisco | 4 | Community | STV","players":null},{"server_id":141,"name":"Uncletopia | Sydney | 1 | All Maps","name_short":"syd-1","host":"syd-1.au.uncletopia.com","port":27015,"enabled":true,"region":"au","cc":"au","latitude":-33.865143,"longitude":151.2099,"reserved":0,"last_update":"0001-01-01T00:00:00Z","name_a2s":"Uncletopia | Sydney | 1 | All Maps","protocol":17,"map":"pl_upward","folder":"tf","game":"Team Fortress","app_id":440,"player_count":22,"max_players":24,"Bots":0,"server_type":"Dedicated","server_os":"Linux","password":true,"vac":true,"version":"7882260","steam_id":85568392924470001,"keywords":["nocrits","nodmgspread","payload","uncletopia"],"game_id":440,"stv_port":27016,"stv_name":"Uncletopia | Sydney | 1 | All Maps | STV","players":[{"user_id":361,"name":"tim88435","steam_id":76561198089653987,"connected_time":139000000000,"state":"active","ping":61},{"user_id":324,"name":"toblue","steam_id":76561198189137465,"connected_time":3043000000000,"state":"active","ping":82},{"user_id":317,"name":"bingus","steam_id":76561198110899890,"connected_time":4257000000000,"state":"active","ping":130},{"user_id":353,"name":"little raw meat boy","steam_id":76561199248254676,"connected_time":524000000000,"state":"active","ping":53},{"user_id":333,"name":"SamK #AnnexTF2","steam_id":76561198149051619,"connected_time":2019000000000,"state":"active","ping":65},{"user_id":362,"name":"Winter Contingency","steam_id":76561198182437450,"connected_time":131000000000,"state":"active","ping":95},{"user_id":337,"name":"burfdae boi","steam_id":76561199000827969,"connected_time":1592000000000,"state":"active","ping":39},{"user_id":354,"name":"whiteshaq","steam_id":76561198131988811,"connected_time":484000000000,"state":"active","ping":88},{"user_id":328,"name":"iSmile02","steam_id":76561198003851119,"connected_time":2776000000000,"state":"active","ping":44},{"user_id":344,"name":"Kenos234","steam_id":76561199183803664,"connected_time":806000000000,"state":"active","ping":175},{"user_id":345,"name":"tom :D","steam_id":76561198073393715,"connected_time":755000000000,"state":"active","ping":98},{"user_id":341,"name":"R","steam_id":76561197996963023,"connected_time":1234000000000,"state":"active","ping":67},{"user_id":332,"name":"Ganome Chilled","steam_id":76561198064898965,"connected_time":2575000000000,"state":"active","ping":77},{"user_id":321,"name":"Quatz","steam_id":76561198048810399,"connected_time":3111000000000,"state":"active","ping":58},{"user_id":351,"name":"Leekduck","steam_id":76561198201978381,"connected_time":637000000000,"state":"active","ping":66},{"user_id":355,"name":"YOU'RE WRONG ! SULFIRIC ACID!","steam_id":76561199174449723,"connected_time":439000000000,"state":"active","ping":145},{"user_id":308,"name":"ToxicImpulse","steam_id":76561198329937988,"connected_time":4953000000000,"state":"active","ping":82},{"user_id":323,"name":"BamBoozled","steam_id":76561199065491364,"connected_time":3053000000000,"state":"active","ping":70},{"user_id":329,"name":"Jiffy360","steam_id":76561198149550772,"connected_time":2757000000000,"state":"active","ping":95},{"user_id":334,"name":"[FTW] RonnieD'","steam_id":76561197993957267,"connected_time":1999000000000,"state":"active","ping":50},{"user_id":358,"name":"qhohh","steam_id":76561198042494076,"connected_time":401000000000,"state":"active","ping":38},{"user_id":360,"name":"Capt. Dea'Claw","steam_id":76561198025419320,"connected_time":317000000000,"state":"active","ping":47}]},{"server_id":123,"name":"Uncletopia | Sydney | 2 | All Maps","name_short":"syd-2","host":"syd-1.au.uncletopia.com","port":27025,"enabled":true,"region":"au","cc":"au","latitude":-33.865143,"longitude":151.2099,"reserved":0,"last_update":"0001-01-01T00:00:00Z","name_a2s":"Uncletopia | Sydney | 2 | All Maps","protocol":17,"map":"pl_swiftwater_final1","folder":"tf","game":"Team Fortress","app_id":440,"player_count":8,"max_players":24,"Bots":0,"server_type":"Dedicated","server_os":"Linux","password":true,"vac":true,"version":"7882260","steam_id":85568392924470002,"keywords":["nocrits","nodmgspread","payload","uncletopia"],"game_id":440,"stv_port":27026,"stv_name":"Uncletopia | Sydney | 2 | All Maps | STV","players":[{"user_id":205,"name":"ox","steam_id":76561198072382387,"connected_time":85000000000,"state":"active","ping":57},{"user_id":206,"name":"Giant Rat","steam_id":76561198110170714,"connected_time":41000000000,"state":"active","ping":56},{"user_id":185,"name":"Infinite Realm of Incomprehensi","steam_id":76561199099744527,"connected_time":2579000000000,"state":"active","ping":44},{"user_id":187,"name":"Gnat","steam_id":76561198109747863,"connected_time":2073000000000,"state":"active","ping":98},{"user_id":202,"name":"ArcticDolphin","steam_id":76561198203626319,"connected_time":590000000000,"state":"active","ping":171},{"user_id":193,"name":"Hawk","steam_id":76561198135164277,"connected_time":1196000000000,"state":"active","ping":64},{"user_id":125,"name":"Kremmen","steam_id":76561198051368641,"connected_time":7160000000000,"state":"active","ping":67},{"user_id":184,"name":"Weak","steam_id":76561198161322716,"connected_time":2901000000000,"state":"active","ping":57}]},{"server_id":395,"name":"Uncletopia | Sydney | 3 | All Maps","name_short":"syd-3","host":"syd-1.au.uncletopia.com","port":27035,"enabled":true,"region":"au","cc":"au","latitude":-33.865143,"longitude":151.2099,"reserved":0,"last_update":"0001-01-01T00:00:00Z","name_a2s":"Uncletopia | Sydney | 3 | All Maps","protocol":17,"map":"koth_cascade","folder":"tf","game":"Team Fortress","app_id":440,"player_count":0,"max_players":24,"Bots":0,"server_type":"Dedicated","server_os":"Linux","password":true,"vac":true,"version":"7882260","steam_id":85568392925194467,"keywords":["cp","nocrits","nodmgspread","uncletopia"],"game_id":440,"stv_port":27036,"stv_name":"Uncletopia | Sydney | 3 | All Maps | STV","players":null},{"server_id":396,"name":"Uncletopia | Sydney | 4 | All Maps","name_short":"syd-4","host":"syd-1.au.uncletopia.com","port":27045,"enabled":true,"region":"au","cc":"au","latitude":-33.865143,"longitude":151.2099,"reserved":0,"last_update":"0001-01-01T00:00:00Z","name_a2s":"Uncletopia | Sydney | 4 | All Maps","protocol":17,"map":"cp_dustbowl","folder":"tf","game":"Team Fortress","app_id":440,"player_count":0,"max_players":24,"Bots":0,"server_type":"Dedicated","server_os":"Linux","password":true,"vac":true,"version":"7882260","steam_id":85568392925397958,"keywords":["cp","nocrits","nodmgspread","uncletopia"],"game_id":440,"stv_port":27046,"stv_name":"Uncletopia | Sydney | 4 | All Maps | STV","players":null},{"server_id":58,"name":"Uncletopia | Sydney | 5 | Stopwatch Beta","name_short":"syd-5","host":"syd-1.au.uncletopia.com","port":27055,"enabled":true,"region":"au","cc":"au","latitude":-33.865143,"longitude":151.2099,"reserved":0,"last_update":"0001-01-01T00:00:00Z","name_a2s":"Uncletopia | Sydney | 5 | Stopwatch Beta","protocol":17,"map":"workshop/pl_barnblitz_pro7.ugc582280235","folder":"tf","game":"Team Fortress","app_id":440,"player_count":0,"max_players":24,"Bots":0,"server_type":"Dedicated","server_os":"Linux","password":true,"vac":true,"version":"7882260","steam_id":85568392925397959,"keywords":["nocrits","nodmgspread","payload","uncletopia"],"game_id":440,"stv_port":27056,"stv_name":"Uncletopia | Sydney | 5 | Stopwatch Beta | STV","players":null},{"server_id":59,"name":"Uncletopia | Sydney | 6 | Community","name_short":"syd-6","host":"syd-1.au.uncletopia.com","port":27065,"enabled":true,"region":"au","cc":"au","latitude":-33.865143,"longitude":151.2099,"reserved":0,"last_update":"0001-01-01T00:00:00Z","name_a2s":"Uncletopia | Sydney | 6 | Community","protocol":17,"map":"workshop/rd_asteroid_redux_b1.ugc2154902912","folder":"tf","game":"Team Fortress","app_id":440,"player_count":0,"max_players":24,"Bots":0,"server_type":"Dedicated","server_os":"Linux","password":true,"vac":true,"version":"7882260","steam_id":85568392925397960,"keywords":["beta","nocrits","nodmgspread","rd","uncletopia"],"game_id":440,"stv_port":27066,"stv_name":"Uncletopia | Sydney | 6 | Community | STV","players":null},{"server_id":49,"name":"Uncletopia | Warsaw | 1 | All Maps","name_short":"waw-1","host":"waw-1.pl.uncletopia.com","port":27015,"enabled":true,"region":"eu","cc":"pl","latitude":52.2297,"longitude":21.017532,"reserved":0,"last_update":"0001-01-01T00:00:00Z","name_a2s":"","protocol":0,"map":"","folder":"","game":"","app_id":0,"player_count":0,"max_players":0,"Bots":0,"server_type":"","server_os":"","password":false,"vac":false,"version":"","steam_id":0,"keywords":null,"game_id":0,"stv_port":0,"stv_name":"","players":null},{"server_id":50,"name":"Uncletopia | Warsaw | 2 | All Maps","name_short":"waw-2","host":"waw-1.pl.uncletopia.com","port":27025,"enabled":true,"region":"eu","cc":"pl","latitude":52.2297,"longitude":21.017532,"reserved":0,"last_update":"0001-01-01T00:00:00Z","name_a2s":"Uncletopia | Warsaw | 2 | All Maps","protocol":17,"map":"pl_swiftwater_final1","folder":"tf","game":"Team Fortress","app_id":440,"player_count":0,"max_players":24,"Bots":0,"server_type":"Dedicated","server_os":"Linux","password":true,"vac":true,"version":"7882260","steam_id":85568392925397851,"keywords":["nocrits","nodmgspread","payload","uncletopia"],"game_id":440,"stv_port":27026,"stv_name":"Uncletopia | Warsaw | 2 | All Maps | STV","players":null},{"server_id":51,"name":"Uncletopia | Warsaw | 3 | All Maps","name_short":"waw-3","host":"waw-1.pl.uncletopia.com","port":27035,"enabled":true,"region":"eu","cc":"pl","latitude":52.2297,"longitude":21.017532,"reserved":0,"last_update":"0001-01-01T00:00:00Z","name_a2s":"Uncletopia | Warsaw | 3 | All Maps","protocol":17,"map":"koth_viaduct","folder":"tf","game":"Team Fortress","app_id":440,"player_count":0,"max_players":24,"Bots":0,"server_type":"Dedicated","server_os":"Linux","password":true,"vac":true,"version":"7882260","steam_id":85568392925397852,"keywords":["cp","nocrits","nodmgspread","uncletopia"],"game_id":440,"stv_port":27036,"stv_name":"Uncletopia | Warsaw | 3 | All Maps | STV","players":null},{"server_id":52,"name":"Uncletopia | Warsaw | 4 | All Maps","name_short":"waw-4","host":"waw-1.pl.uncletopia.com","port":27045,"enabled":true,"region":"eu","cc":"pl","latitude":52.2297,"longitude":21.017532,"reserved":0,"last_update":"0001-01-01T00:00:00Z","name_a2s":"Uncletopia | Warsaw | 4 | All Maps","protocol":17,"map":"koth_highpass","folder":"tf","game":"Team Fortress","app_id":440,"player_count":0,"max_players":24,"Bots":0,"server_type":"Dedicated","server_os":"Linux","password":true,"vac":true,"version":"7882260","steam_id":85568392925397853,"keywords":["cp","nocrits","nodmgspread","uncletopia"],"game_id":440,"stv_port":27046,"stv_name":"Uncletopia | Warsaw | 4 | All Maps | STV","players":null},{"server_id":53,"name":"Uncletopia | Warsaw | 5 | Stopwatch Beta","name_short":"waw-5","host":"waw-1.pl.uncletopia.com","port":27055,"enabled":true,"region":"eu","cc":"pl","latitude":52.2297,"longitude":21.017532,"reserved":0,"last_update":"0001-01-01T00:00:00Z","name_a2s":"Uncletopia | Warsaw | 5 | Stopwatch Beta","protocol":17,"map":"cp_mountainlab","folder":"tf","game":"Team Fortress","app_id":440,"player_count":0,"max_players":24,"Bots":0,"server_type":"Dedicated","server_os":"Linux","password":true,"vac":true,"version":"7882260","steam_id":85568392925397854,"keywords":["cp","nocrits","nodmgspread","uncletopia"],"game_id":440,"stv_port":27056,"stv_name":"Uncletopia | Warsaw | 5 | Stopwatch Beta | STV","players":null},{"server_id":54,"name":"Uncletopia | Warsaw | 6 | Community","name_short":"waw-6","host":"waw-1.pl.uncletopia.com","port":27065,"enabled":true,"region":"eu","cc":"pl","latitude":52.2297,"longitude":21.017532,"reserved":0,"last_update":"0001-01-01T00:00:00Z","name_a2s":"Uncletopia | Warsaw | 6 | Community","protocol":17,"map":"koth_viaduct","folder":"tf","game":"Team Fortress","app_id":440,"player_count":0,"max_players":24,"Bots":0,"server_type":"Dedicated","server_os":"Linux","password":true,"vac":true,"version":"7882260","steam_id":85568392925397856,"keywords":["cp","nocrits","nodmgspread","uncletopia"],"game_id":440,"stv_port":27066,"stv_name":"Uncletopia | Warsaw | 6 | Community | STV","players":null}]}