{"status":true,"message":"","result":[{"server_id":9,"name":"Uncletopia | Atlanta | 1 | All Maps","name_short":"atl-1","host":"atl-1.us.uncletopia.com","port":27015,"enabled":true,"region":"us-east","cc":"us","latitude":33.753746,"longitude":-84.38633,"reserved":0,"last_update":"0001-01-01T00:00:00Z","name_a2s":"Uncletopia | Atlanta | 1 | All Maps","protocol":17,"map":"pl_badwater","folder":"tf","game":"Team Fortress","app_id":440,"player_count":25,"max_players":24,"Bots":0,"server_type":"Dedicated","server_os":"Linux","password":true,"vac":true,"version":"7701286","steam_id":85568392924469982,"keywords":["nocrits","nodmgspread","payload","uncletopia"],"game_id":440,"stv_port":27016,"stv_name":"Uncletopia | Atlanta | 1 | All Maps | STV","players":[{"user_id":120,"name":"VerociousVee","steam_id":76561198289106015,"connected_time":4732000000000,"state":"active","ping":105},{"user_id":153,"name":"BIGGEST MAC","steam_id":76561198847517098,"connected_time":2423000000000,"state":"active","ping":95},{"user_id":158,"name":"noelle","steam_id":76561198386344068,"connected_time":2308000000000,"state":"active","ping":70},{"user_id":148,"name":"dmdr1969","steam_id":76561198080469611,"connected_time":2699000000000,"state":"active","ping":49},{"user_id":173,"name":"Throckmorton","steam_id":76561198083636412,"connected_time":1285000000000,"state":"active","ping":91},{"user_id":156,"name":"chad","steam_id":76561198216109017,"connected_time":2365000000000,"state":"active","ping":75},{"user_id":176,"name":"Zee❤","steam_id":76561198274550638,"connected_time":700000000000,"state":"active","ping":64},{"user_id":138,"name":"bimbo blow up doll! \u003c3","steam_id":76561198959541006,"connected_time":3521000000000,"state":"active","ping":63},{"user_id":171,"name":"mechiimi","steam_id":76561198321627268,"connected_time":1715000000000,"state":"active","ping":101},{"user_id":172,"name":"Granola","steam_id":76561198312513800,"connected_time":1424000000000,"state":"active","ping":78},{"user_id":163,"name":"toq","steam_id":76561198400316620,"connected_time":1914000000000,"state":"active","ping":59},{"user_id":139,"name":"William Wallace","steam_id":76561199343316814,"connected_time":3510000000000,"state":"active","ping":48},{"user_id":177,"name":"JobsDone2","steam_id":76561198159158870,"connected_time":660000000000,"state":"active","ping":69},{"user_id":132,"name":"ExtraSoap","steam_id":76561198008712409,"connected_time":3824000000000,"state":"active","ping":75},{"user_id":161,"name":"bdkaine1","steam_id":76561198133545467,"connected_time":2070000000000,"state":"active","ping":52},{"user_id":164,"name":"Beefcake","steam_id":76561198125514840,"connected_time":1911000000000,"state":"active","ping":64},{"user_id":165,"name":"eepy bee","steam_id":76561198068642437,"connected_time":1877000000000,"state":"active","ping":62},{"user_id":175,"name":"ATL1 | Phestive Pango","steam_id":76561198069811545,"connected_time":1016000000000,"state":"active","ping":33},{"user_id":134,"name":"[slug]","steam_id":76561197989592178,"connected_time":3628000000000,"state":"active","ping":88},{"user_id":159,"name":"google docs extraordinaire","steam_id":76561198124174061,"connected_time":2260000000000,"state":"active","ping":75},{"user_id":179,"name":"theeternalgasmask","steam_id":76561198394005165,"connected_time":280000000000,"state":"active","ping":58},{"user_id":167,"name":"Basically a free kill","steam_id":76561198002162167,"connected_time":1754000000000,"state":"active","ping":161},{"user_id":178,"name":"AceDeuce","steam_id":76561198049904924,"connected_time":360000000000,"state":"active","ping":75},{"user_id":183,"name":"barry from jetpack joyride","steam_id":76561198881575174,"connected_time":72000000000,"state":"active","ping":193},{"user_id":147,"name":"upside down cat","steam_id":76561198028288349,"connected_time":2902000000000,"state":"active","ping":83}]},{"server_id":400,"name":"Uncletopia | Atlanta | 3 | All Maps","name_short":"atl-3","host":"atl-1.us.uncletopia.com","port":27035,"enabled":true,"region":"us-east","cc":"us","latitude":33.753746,"longitude":-84.38633,"reserved":0,"last_update":"0001-01-01T00:00:00Z","name_a2s":"Uncletopia | Atlanta | 3 | All Maps","protocol":17,"map":"koth_highpass","folder":"tf","game":"Team Fortress","app_id":440,"player_count":0,"max_players":24,"Bots":0,"server_type":"Dedicated","server_os":"Linux","password":true,"vac":true,"version":"7701286","steam_id":85568392924515187,"keywords":["cp","nocrits","nodmgspread","uncletopia"],"game_id":440,"stv_port":0,"stv_name":"","players":null},{"server_id":401,"name":"Uncletopia | Atlanta | 4 | No Payload","name_short":"atl-4","host":"atl-1.us.uncletopia.com","port":27045,"enabled":true,"region":"us-east","cc":"us","latitude":33.753746,"longitude":-84.38633,"reserved":0,"last_update":"0001-01-01T00:00:00Z","name_a2s":"Uncletopia | Atlanta | 4 | No Payload","protocol":17,"map":"pl_pier","folder":"tf","game":"Team Fortress","app_id":440,"player_count":0,"max_players":24,"Bots":0,"server_type":"Dedicated","server_os":"Linux","password":true,"vac":true,"version":"7701286","steam_id":85568392924515188,"keywords":["nocrits","nodmgspread","payload","uncletopia"],"game_id":440,"stv_port":0,"stv_name":"","players":null},{"server_id":2,"name":"Uncletopia | Chicago | 1 | All Maps","name_short":"chi-1","host":"chi-1.us.uncletopia.com","port":27015,"enabled":true,"region":"us-central","cc":"us","latitude":41.881832,"longitude":-87.62318,"reserved":0,"last_update":"0001-01-01T00:00:00Z","name_a2s":"Uncletopia | Chicago | 1 | All Maps","protocol":17,"map":"pl_upward","folder":"tf","game":"Team Fortress","app_id":440,"player_count":10,"max_players":24,"Bots":0,"server_type":"Dedicated","server_os":"Linux","password":true,"vac":true,"version":"7701286","steam_id":85568392924469984,"keywords":["nocrits","nodmgspread","payload","uncletopia"],"game_id":440,"stv_port":27016,"stv_name":"Uncletopia | Chicago | 1 | All Maps | STV","players":[{"user_id":8,"name":"Menlymen","steam_id":76561198046508051,"connected_time":473000000000,"state":"active","ping":62},{"user_id":9,"name":"PKBEAST_7","steam_id":76561198177136537,"connected_time":425000000000,"state":"active","ping":81},{"user_id":17,"name":"amagicowl","steam_id":76561199060487814,"connected_time":157000000000,"state":"active","ping":74},{"user_id":11,"name":"whalord","steam_id":76561198340903567,"connected_time":314000000000,"state":"active","ping":63},{"user_id":12,"name":"kayky21","steam_id":76561198330638899,"connected_time":274000000000,"state":"active","ping":140},{"user_id":13,"name":"Tyler\u0026Fingers","steam_id":76561198085154485,"connected_time":266000000000,"state":"active","ping":80},{"user_id":14,"name":"Dert","steam_id":76561198883014990,"connected_time":233000000000,"state":"active","ping":52},{"user_id":15,"name":"paj","steam_id":76561198080026026,"connected_time":214000000000,"state":"active","ping":99},{"user_id":16,"name":"tame","steam_id":76561198925005855,"connected_time":182000000000,"state":"active","ping":172},{"user_id":19,"name":"Chicanery","steam_id":76561199097748885,"connected_time":9000000000,"state":"spawning","ping":153}]},{"server_id":106,"name":"Uncletopia | Chicago | 2 | All Maps","name_short":"chi-2","host":"chi-1.us.uncletopia.com","port":27025,"enabled":true,"region":"us-central","cc":"us","latitude":41.881832,"longitude":-87.62318,"reserved":0,"last_update":"0001-01-01T00:00:00Z","name_a2s":"Uncletopia | Chicago | 2 | All Maps","protocol":17,"map":"pl_snowycoast","folder":"tf","game":"Team Fortress","app_id":440,"player_count":0,"max_players":24,"Bots":0,"server_type":"Dedicated","server_os":"Linux","password":true,"vac":true,"version":"7701286","steam_id":85568392924469985,"keywords":["nocrits","nodmgspread","payload","uncletopia"],"game_id":440,"stv_port":0,"stv_name":"","players":null},{"server_id":402,"name":"Uncletopia | Chicago | 3 | All Maps","name_short":"chi-3","host":"chi-1.us.uncletopia.com","port":27035,"enabled":true,"region":"us-central","cc":"us","latitude":41.881832,"longitude":-87.62318,"reserved":0,"last_update":"0001-01-01T00:00:00Z","name_a2s":"Uncletopia | Chicago | 3 | All Maps","protocol":17,"map":"koth_lakeside_final","folder":"tf","game":"Team Fortress","app_id":440,"player_count":0,"max_players":24,"Bots":0,"server_type":"Dedicated","server_os":"Linux","password":true,"vac":true,"version":"7701286","steam_id":85568392924515191,"keywords":["cp","nocrits","nodmgspread","uncletopia"],"game_id":440,"stv_port":0,"stv_name":"","players":null},{"server_id":403,"name":"Uncletopia | Chicago | 4 | All Maps","name_short":"chi-4","host":"chi-1.us.uncletopia.com","port":27045,"enabled":true,"region":"us-central","cc":"us","latitude":41.881832,"longitude":-87.62318,"reserved":0,"last_update":"0001-01-01T00:00:00Z","name_a2s":"Uncletopia | Chicago | 4 | All Maps","protocol":17,"map":"pl_borneo","folder":"tf","game":"Team Fortress","app_id":440,"player_count":0,"max_players":24,"Bots":0,"server_type":"Dedicated","server_os":"Linux","password":true,"vac":true,"version":"7701286","steam_id":85568392924515193,"keywords":["nocrits","nodmgspread","payload","uncletopia"],"game_id":440,"stv_port":27046,"stv_name":"Uncletopia | Chicago | 4 | All Maps | STV","players":null},{"server_id":36,"name":"Uncletopia | Chicago | 5 | All Maps","name_short":"chi-5","host":"chi-2.us.uncletopia.com","port":27015,"enabled":true,"region":"us-central","cc":"us","latitude":41.881832,"longitude":-87.62318,"reserved":0,"last_update":"0001-01-01T00:00:00Z","name_a2s":"Uncletopia | Chicago | 5 | All Maps","protocol":17,"map":"cp_altitude","folder":"tf","game":"Team Fortress","app_id":440,"player_count":0,"max_players":24,"Bots":0,"server_type":"Dedicated","server_os":"Linux","password":true,"vac":true,"version":"7701286","steam_id":85568392924866362,"keywords":["cp","nocrits","nodmgspread","uncletopia"],"game_id":440,"stv_port":0,"stv_name":"","players":null},{"server_id":37,"name":"Uncletopia | Chicago | 6 | All Maps","name_short":"chi-6","host":"chi-2.us.uncletopia.com","port":27025,"enabled":true,"region":"us-central","cc":"us","latitude":41.881832,"longitude":-87.62318,"reserved":0,"last_update":"0001-01-01T00:00:00Z","name_a2s":"Uncletopia | Chicago | 6 | All Maps","protocol":17,"map":"cp_mountainlab","folder":"tf","game":"Team Fortress","app_id":440,"player_count":0,"max_players":24,"Bots":0,"server_type":"Dedicated","server_os":"Linux","password":true,"vac":true,"version":"7701286","steam_id":85568392924866363,"keywords":["cp","nocrits","nodmgspread","uncletopia"],"game_id":440,"stv_port":0,"stv_name":"","players":null},{"server_id":38,"name":"Uncletopia | Chicago | 7 | No Payload","name_short":"chi-7","host":"chi-2.us.uncletopia.com","port":27035,"enabled":true,"region":"us-central","cc":"us","latitude":41.881832,"longitude":-87.62318,"reserved":0,"last_update":"0001-01-01T00:00:00Z","name_a2s":"Uncletopia | Chicago | 7 | No Payload","protocol":17,"map":"cp_snakewater_final1","folder":"tf","game":"Team Fortress","app_id":440,"player_count":0,"max_players":24,"Bots":0,"server_type":"Dedicated","server_os":"Linux","password":true,"vac":true,"version":"7701286","steam_id":85568392924866364,"keywords":["cp","nocrits","nodmgspread","uncletopia"],"game_id":440,"stv_port":0,"stv_name":"","players":null},{"server_id":39,"name":"Uncletopia | Chicago | 8 | Community","name_short":"chi-8","host":"chi-2.us.uncletopia.com","port":27045,"enabled":true,"region":"us-central","cc":"us","latitude":41.881832,"longitude":-87.62318,"reserved":0,"last_update":"0001-01-01T00:00:00Z","name_a2s":"Uncletopia | Chicago | 8 | Community","protocol":17,"map":"koth_cascade","folder":"tf","game":"Team Fortress","app_id":440,"player_count":0,"max_players":24,"Bots":0,"server_type":"Dedicated","server_os":"Linux","password":true,"vac":true,"version":"7701286","steam_id":85568392924866365,"keywords":["cp","nocrits","nodmgspread","uncletopia"],"game_id":440,"stv_port":0,"stv_name":"","players":null},{"server_id":8,"name":"Uncletopia | Dallas | 1 | All Maps","name_short":"dal-1","host":"dal-1.us.uncletopia.com","port":27015,"enabled":true,"region":"us-central","cc":"us","latitude":32.779167,"longitude":-96.80889,"reserved":0,"last_update":"0001-01-01T00:00:00Z","name_a2s":"Uncletopia | Dallas | 1 | All Maps","protocol":17,"map":"pl_swiftwater_final1","folder":"tf","game":"Team Fortress","app_id":440,"player_count":0,"max_players":24,"Bots":0,"server_type":"Dedicated","server_os":"Linux","password":true,"vac":true,"version":"7701286","steam_id":85568392924469986,"keywords":["nocrits","nodmgspread","payload","uncletopia"],"game_id":440,"stv_port":27016,"stv_name":"Uncletopia | Dallas | 1 | All Maps | STV","players":null},{"server_id":108,"name":"Uncletopia | Dallas | 2 | All Maps","name_short":"dal-2","host":"dal-1.us.uncletopia.com","port":27025,"enabled":true,"region":"us-central","cc":"us","latitude":32.779167,"longitude":-96.80889,"reserved":0,"last_update":"0001-01-01T00:00:00Z","name_a2s":"Uncletopia | Dallas | 2 | All Maps","protocol":17,"map":"koth_lakeside_final","folder":"tf","game":"Team Fortress","app_id":440,"player_count":0,"max_players":24,"Bots":0,"server_type":"Dedicated","server_os":"Linux","password":true,"vac":true,"version":"7701286","steam_id":85568392924469988,"keywords":["cp","nocrits","nodmgspread","uncletopia"],"game_id":440,"stv_port":27026,"stv_name":"Uncletopia | Dallas | 2 | All Maps | STV","players":null},{"server_id":5,"name":"Uncletopia | Frankfurt | 1 | All Maps","name_short":"frk-1","host":"frk-1.de.uncletopia.com","port":27015,"enabled":true,"region":"eu","cc":"de","latitude":50.110924,"longitude":8.682127,"reserved":0,"last_update":"0001-01-01T00:00:00Z","name_a2s":"Uncletopia | Frankfurt | 1 | All Maps","protocol":17,"map":"cp_process_final","folder":"tf","game":"Team Fortress","app_id":440,"player_count":24,"max_players":24,"Bots":0,"server_type":"Dedicated","server_os":"Linux","password":true,"vac":true,"version":"7701286","steam_id":85568392924469989,"keywords":["cp","nocrits","nodmgspread","uncletopia"],"game_id":440,"stv_port":27016,"stv_name":"Uncletopia | Frankfurt | 1 | All Maps | STV","players":[{"user_id":209,"name":"Alberico","steam_id":76561198083830166,"connected_time":177000000000,"state":"active","ping":85},{"user_id":143,"name":"Sneaky boi","steam_id":76561199195985387,"connected_time":4053000000000,"state":"active","ping":83},{"user_id":130,"name":"Zerfesh","steam_id":76561198117534358,"connected_time":4513000000000,"state":"active","ping":82},{"user_id":154,"name":"Icarus300","steam_id":76561198015125766,"connected_time":3373000000000,"state":"active","ping":89},{"user_id":195,"name":"Tywhip","steam_id":76561199207545191,"connected_time":1285000000000,"state":"active","ping":56},{"user_id":189,"name":"Bullito","steam_id":76561198307055208,"connected_time":1562000000000,"state":"active","ping":77},{"user_id":146,"name":"Taewinzer","steam_id":76561198261820803,"connected_time":3601000000000,"state":"active","ping":63},{"user_id":210,"name":"Dudboi","steam_id":76561199166486303,"connected_time":147000000000,"state":"active","ping":85},{"user_id":153,"name":"Gui","steam_id":76561198072054467,"connected_time":3375000000000,"state":"active","ping":79},{"user_id":192,"name":"Mondocane","steam_id":76561199233979726,"connected_time":1323000000000,"state":"active","ping":82},{"user_id":124,"name":"Appelflap64","steam_id":76561198012819017,"connected_time":5730000000000,"state":"active","ping":65},{"user_id":178,"name":"Team Dim Sun Grunt","steam_id":76561198393596975,"connected_time":2547000000000,"state":"active","ping":52},{"user_id":199,"name":"disposablesuperbread","steam_id":76561199074703607,"connected_time":1216000000000,"state":"active","ping":64},{"user_id":193,"name":"Speibsackerl","steam_id":76561198058135257,"connected_time":1304000000000,"state":"active","ping":58},{"user_id":213,"name":"Karl","steam_id":76561198070959239,"connected_time":46000000000,"state":"active","ping":47},{"user_id":207,"name":"Nick","steam_id":76561198036109469,"connected_time":836000000000,"state":"active","ping":82},{"user_id":188,"name":"MazterEclipse gaming","steam_id":76561199051838422,"connected_time":1608000000000,"state":"active","ping":45},{"user_id":205,"name":"Avoonix","steam_id":76561198186954897,"connected_time":1031000000000,"state":"active","ping":82},{"user_id":208,"name":"Chiefuz","steam_id":76561198015535215,"connected_time":535000000000,"state":"active","ping":62},{"user_id":185,"name":"Miatthew","steam_id":76561198034102895,"connected_time":2004000000000,"state":"active","ping":61},{"user_id":212,"name":"Pronton","steam_id":76561198082502910,"connected_time":116000000000,"state":"active","ping":61},{"user_id":201,"name":"Mlanky","steam_id":76561198047796778,"connected_time":1119000000000,"state":"active","ping":46},{"user_id":214,"name":"warpless.gravitos","steam_id":76561199087055541,"connected_time":31000000000,"state":"active","ping":115},{"user_id":113,"name":"Recurracy","steam_id":76561197993421597,"connected_time":6265000000000,"state":"active","ping":58}]},{"server_id":110,"name":"Uncletopia | Frankfurt | 2 | All Maps","name_short":"frk-2","host":"frk-1.de.uncletopia.com","port":27025,"enabled":true,"region":"eu","cc":"de","latitude":50.110924,"longitude":8.682127,"reserved":0,"last_update":"0001-01-01T00:00:00Z","name_a2s":"Uncletopia | Frankfurt | 2 | All Maps","protocol":17,"map":"koth_lakeside_final","folder":"tf","game":"Team Fortress","app_id":440,"player_count":0,"max_players":24,"Bots":0,"server_type":"Dedicated","server_os":"Linux","password":true,"vac":true,"version":"7701286","steam_id":85568392924469990,"keywords":["cp","nocrits","nodmgspread","uncletopia"],"game_id":440,"stv_port":27026,"stv_name":"Uncletopia | Frankfurt | 2 | All Maps | STV","players":null},{"server_id":308,"name":"Uncletopia | Frankfurt | 3 | All Maps","name_short":"frk-3","host":"frk-1.de.uncletopia.com","port":27035,"enabled":true,"region":"eu","cc":"de","latitude":50.110924,"longitude":8.682127,"reserved":0,"last_update":"0001-01-01T00:00:00Z","name_a2s":"Uncletopia | Frankfurt | 3 | All Maps","protocol":17,"map":"pl_pier","folder":"tf","game":"Team Fortress","app_id":440,"player_count":24,"max_players":24,"Bots":0,"server_type":"Dedicated","server_os":"Linux","password":true,"vac":true,"version":"7701286","steam_id":85568392924504274,"keywords":["nocrits","nodmgspread","payload","uncletopia"],"game_id":440,"stv_port":27036,"stv_name":"Uncletopia | Frankfurt | 3 | All Maps | STV","players":[{"user_id":222,"name":"mr.MR","steam_id":76561198151980974,"connected_time":536000000000,"state":"active","ping":61},{"user_id":231,"name":"privatedullz","steam_id":76561198147184049,"connected_time":169000000000,"state":"active","ping":92},{"user_id":217,"name":"Nag","steam_id":76561197970488206,"connected_time":1075000000000,"state":"active","ping":89},{"user_id":224,"name":"Rover","steam_id":76561198046267597,"connected_time":386000000000,"state":"active","ping":45},{"user_id":189,"name":"Daginberth","steam_id":76561198043811437,"connected_time":2160000000000,"state":"active","ping":58},{"user_id":196,"name":"Salih","steam_id":76561198287934839,"connected_time":1993000000000,"state":"active","ping":51},{"user_id":225,"name":"kurlyk","steam_id":76561198837861763,"connected_time":366000000000,"state":"active","ping":187},{"user_id":207,"name":"Deacon Dracul","steam_id":76561198046880663,"connected_time":1617000000000,"state":"active","ping":115},{"user_id":175,"name":"MAKENTAKEN","steam_id":76561199127359587,"connected_time":2876000000000,"state":"active","ping":94},{"user_id":206,"name":"Enigmus","steam_id":76561197994063627,"connected_time":1700000000000,"state":"active","ping":90},{"user_id":226,"name":"hipster_doofus","steam_id":76561197970902697,"connected_time":354000000000,"state":"active","ping":60},{"user_id":184,"name":":)","steam_id":76561198039964082,"connected_time":2311000000000,"state":"active","ping":64},{"user_id":221,"name":"freemantel30","steam_id":76561198065669800,"connected_time":568000000000,"state":"active","ping":50},{"user_id":212,"name":"csnipery","steam_id":76561199435280050,"connected_time":1556000000000,"state":"active","ping":62},{"user_id":232,"name":"Raiden from Metal Gear","steam_id":76561198365479202,"connected_time":104000000000,"state":"active","ping":82},{"user_id":195,"name":"Brainlet","steam_id":76561198862617163,"connected_time":2019000000000,"state":"active","ping":65},{"user_id":209,"name":"ToniGAM3S","steam_id":76561198128605351,"connected_time":1597000000000,"state":"active","ping":61},{"user_id":233,"name":"plomp","steam_id":76561198387521850,"connected_time":8000000000,"state":"spawning","ping":154},{"user_id":178,"name":"Kanny","steam_id":76561198058810184,"connected_time":2567000000000,"state":"active","ping":60},{"user_id":210,"name":"BarrackOmaha","steam_id":76561198027922724,"connected_time":1582000000000,"state":"active","ping":62},{"user_id":213,"name":"Accident","steam_id":76561198115160396,"connected_time":1550000000000,"state":"active","ping":74},{"user_id":211,"name":"0xDEADBEEF","steam_id":76561199075416111,"connected_time":1580000000000,"state":"active","ping":77},{"user_id":229,"name":"JP3","steam_id":76561197970963576,"connected_time":219000000000,"state":"active","ping":63},{"user_id":230,"name":"greg's mom","steam_id":76561198050525471,"connected_time":209000000000,"state":"active","ping":65}]},{"server_id":309,"name":"Uncletopia | Frankfurt | 4 | All Maps","name_short":"frk-4","host":"frk-1.de.uncletopia.com","port":27045,"enabled":true,"region":"eu","cc":"de","latitude":50.110924,"longitude":8.682127,"reserved":0,"last_update":"0001-01-01T00:00:00Z","name_a2s":"Uncletopia | Frankfurt | 4 | All Maps","protocol":17,"map":"koth_viaduct","folder":"tf","game":"Team Fortress","app_id":440,"player_count":0,"max_players":24,"Bots":0,"server_type":"Dedicated","server_os":"Linux","password":true,"vac":true,"version":"7701286","steam_id":85568392924504275,"keywords":["cp","nocrits","nodmgspread","uncletopia"],"game_id":440,"stv_port":27046,"stv_name":"Uncletopia | Frankfurt | 4 | All Maps | STV","players":null},{"server_id":310,"name":"Uncletopia | Frankfurt | 5 | All Maps","name_short":"frk-5","host":"frk-1.de.uncletopia.com","port":27055,"enabled":true,"region":"eu","cc":"de","latitude":50.110924,"longitude":8.682127,"reserved":0,"last_update":"0001-01-01T00:00:00Z","name_a2s":"Uncletopia | Frankfurt | 5 | All Maps","protocol":17,"map":"koth_viaduct","folder":"tf","game":"Team Fortress","app_id":440,"player_count":0,"max_players":24,"Bots":0,"server_type":"Dedicated","server_os":"Linux","password":true,"vac":true,"version":"7701286","steam_id":85568392924504277,"keywords":["cp","nocrits","nodmgspread","uncletopia"],"game_id":440,"stv_port":0,"stv_name":"","players":null},{"server_id":311,"name":"Uncletopia | Frankfurt | 6 | All Maps","name_short":"frk-6","host":"frk-1.de.uncletopia.com","port":27065,"enabled":true,"region":"eu","cc":"de","latitude":50.110924,"longitude":8.682127,"reserved":0,"last_update":"0001-01-01T00:00:00Z","name_a2s":"Uncletopia | Frankfurt | 6 | All Maps","protocol":17,"map":"cp_sunshine","folder":"tf","game":"Team Fortress","app_id":440,"player_count":0,"max_players":24,"Bots":0,"server_type":"Dedicated","server_os":"Linux","password":true,"vac":true,"version":"7701286","steam_id":85568392924504278,"keywords":["cp","nocrits","nodmgspread","uncletopia"],"game_id":440,"stv_port":27066,"stv_name":"Uncletopia | Frankfurt | 6 | All Maps | STV","players":null},{"server_id":23,"name":"Uncletopia | Frankfurt | 7 | No Payload","name_short":"frk-7","host":"frk-1.de.uncletopia.com","port":27075,"enabled":true,"region":"eu","cc":"de","latitude":50.110924,"longitude":8.682127,"reserved":0,"last_update":"0001-01-01T00:00:00Z","name_a2s":"Uncletopia | Frankfurt | 7 | No Payload","protocol":17,"map":"plr_hightower","folder":"tf","game":"Team Fortress","app_id":440,"player_count":24,"max_players":24,"Bots":0,"server_type":"Dedicated","server_os":"Linux","password":true,"vac":true,"version":"7701286","steam_id":85568392924742827,"keywords":["nocrits","nodmgspread","payload","uncletopia"],"game_id":440,"stv_port":27076,"stv_name":"Uncletopia | Frankfurt | 7 | No Payload | STV","players":[{"user_id":373,"name":"DrStudi","steam_id":76561198043449268,"connected_time":637000000000,"state":"active","ping":78},{"user_id":383,"name":"BEAST MODE 24/7","steam_id":76561198089227864,"connected_time":291000000000,"state":"active","ping":53},{"user_id":269,"name":"Vashontrash99","steam_id":76561199250946319,"connected_time":5256000000000,"state":"active","ping":121},{"user_id":374,"name":"Kid named download","steam_id":76561199192074448,"connected_time":611000000000,"state":"active","ping":160},{"user_id":375,"name":"conradknitter #savetf2","steam_id":76561198900177514,"connected_time":468000000000,"state":"active","ping":49},{"user_id":277,"name":"Him","steam_id":76561198086400484,"connected_time":5019000000000,"state":"active","ping":65},{"user_id":368,"name":"Breeze","steam_id":76561198892979594,"connected_time":1275000000000,"state":"active","ping":59},{"user_id":377,"name":"๖乡Ðe·SexyLion乡","steam_id":76561198123539320,"connected_time":414000000000,"state":"active","ping":109},{"user_id":337,"name":"Rodrygo","steam_id":76561199047345001,"connected_time":2239000000000,"state":"active","ping":85},{"user_id":384,"name":"Yochi gaming","steam_id":76561199439107966,"connected_time":258000000000,"state":"active","ping":79},{"user_id":385,"name":"Jar","steam_id":76561198156384007,"connected_time":126000000000,"state":"active","ping":50},{"user_id":276,"name":"Only my weapon understand me","steam_id":76561198799097492,"connected_time":5116000000000,"state":"active","ping":48},{"user_id":358,"name":"val","steam_id":76561198324316160,"connected_time":1457000000000,"state":"active","ping":60},{"user_id":379,"name":"CODSWOLOP","steam_id":76561199114598660,"connected_time":404000000000,"state":"active","ping":125},{"user_id":359,"name":"FlyingGorilla12","steam_id":76561198330292748,"connected_time":1430000000000,"state":"active","ping":73},{"user_id":388,"name":"Nagi","steam_id":76561199429044952,"connected_time":22000000000,"state":"spawning","ping":160},{"user_id":353,"name":"player","steam_id":76561198054474684,"connected_time":1681000000000,"state":"active","ping":74},{"user_id":360,"name":"radiohead fan","steam_id":76561199163260578,"connected_time":1396000000000,"state":"active","ping":66},{"user_id":361,"name":"Mor'du","steam_id":76561198274105878,"connected_time":1389000000000,"state":"active","ping":74},{"user_id":389,"name":"kurcina","steam_id":76561198070838632,"connected_time":9000000000,"state":"spawning","ping":59},{"user_id":363,"name":"Hebeflif","steam_id":76561198277329141,"connected_time":1385000000000,"state":"active","ping":46},{"user_id":297,"name":"Frank","steam_id":76561198086672774,"connected_time":4452000000000,"state":"active","ping":62},{"user_id":387,"name":"Listkowy","steam_id":76561199082872202,"connected_time":72000000000,"state":"active","ping":86},{"user_id":380,"name":"san fierro","steam_id":76561198067159902,"connected_time":392000000000,"state":"active","ping":108}]},{"server_id":24,"name":"Uncletopia | Frankfurt | 8 | Community","name_short":"frk-8","host":"frk-1.de.uncletopia.com","port":27085,"enabled":true,"region":"eu","cc":"de","latitude":50.110924,"longitude":8.682127,"reserved":0,"last_update":"0001-01-01T00:00:00Z","name_a2s":"Uncletopia | Frankfurt | 8 | Community","protocol":17,"map":"workshop/koth_ashville_final.ugc2130459942","folder":"tf","game":"Team Fortress","app_id":440,"player_count":0,"max_players":24,"Bots":0,"server_type":"Dedicated","server_os":"Linux","password":true,"vac":true,"version":"7701286","steam_id":85568392924742828,"keywords":["cp","nocrits","nodmgspread","uncletopia"],"game_id":440,"stv_port":27086,"stv_name":"Uncletopia | Frankfurt | 8 | Community | STV","players":null},{"server_id":202,"name":"Uncletopia | Hong Kong | 1 | All Maps","name_short":"hgk-1","host":"hgk-1.hk.uncletopia.com","port":27015,"enabled":true,"region":"asia","cc":"hk","latitude":22.302711,"longitude":114.177216,"reserved":0,"last_update":"0001-01-01T00:00:00Z","name_a2s":"Uncletopia | Hong Kong | 1 | All Maps","protocol":17,"map":"pl_upward","folder":"tf","game":"Team Fortress","app_id":440,"player_count":24,"max_players":24,"Bots":0,"server_type":"Dedicated","server_os":"Linux","password":true,"vac":true,"version":"7701286","steam_id":85568392924494504,"keywords":["nocrits","nodmgspread","payload","uncletopia"],"game_id":440,"stv_port":27016,"stv_name":"Uncletopia | Hong Kong | 1 | All Maps | STV","players":[{"user_id":369,"name":"RandomGuy1085","steam_id":76561199053910995,"connected_time":3798000000000,"state":"active","ping":92},{"user_id":389,"name":"Saggle","steam_id":76561198056075147,"connected_time":2192000000000,"state":"active","ping":121},{"user_id":377,"name":"+W+","steam_id":76561197997220367,"connected_time":2771000000000,"state":"active","ping":44},{"user_id":307,"name":"ArcticDolphin","steam_id":76561198203626319,"connected_time":10663000000000,"state":"active","ping":119},{"user_id":403,"name":"Toygar","steam_id":76561198023679830,"connected_time":679000000000,"state":"active","ping":46},{"user_id":393,"name":"paga","steam_id":76561198296718007,"connected_time":1188000000000,"state":"active","ping":104},{"user_id":402,"name":"nick","steam_id":76561198400698408,"connected_time":808000000000,"state":"active","ping":93},{"user_id":342,"name":"Momoxhien","steam_id":76561198414997429,"connected_time":6665000000000,"state":"active","ping":62},{"user_id":378,"name":"moo","steam_id":76561198055553140,"connected_time":2724000000000,"state":"active","ping":87},{"user_id":398,"name":"I like miners (from CR)","steam_id":76561199104552936,"connected_time":1172000000000,"state":"active","ping":68},{"user_id":344,"name":"雪ノ下雪乃のoppai","steam_id":76561198008307645,"connected_time":6599000000000,"state":"active","ping":78},{"user_id":397,"name":"killman47","steam_id":76561198348487408,"connected_time":1180000000000,"state":"active","ping":41},{"user_id":399,"name":"Cum","steam_id":76561199244428779,"connected_time":1170000000000,"state":"active","ping":75},{"user_id":292,"name":"yhn","steam_id":76561198413116920,"connected_time":11437000000000,"state":"active","ping":100},{"user_id":379,"name":"母の肉団子","steam_id":76561198069561896,"connected_time":2701000000000,"state":"active","ping":46},{"user_id":387,"name":"char siew pau","steam_id":76561198108851779,"connected_time":2207000000000,"state":"active","ping":72},{"user_id":401,"name":"tiden2000","steam_id":76561198092969425,"connected_time":1096000000000,"state":"active","ping":82},{"user_id":400,"name":"mufat","steam_id":76561199205514309,"connected_time":1169000000000,"state":"active","ping":76},{"user_id":314,"name":"Lúd","steam_id":76561198828840546,"connected_time":8907000000000,"state":"active","ping":104},{"user_id":390,"name":"TouchWeed","steam_id":76561198451235659,"connected_time":1991000000000,"state":"active","ping":70},{"user_id":410,"name":"Timo010","steam_id":76561198832395256,"connected_time":58000000000,"state":"active","ping":330},{"user_id":350,"name":"lk❆","steam_id":76561199077602424,"connected_time":5436000000000,"state":"active","ping":59},{"user_id":405,"name":"AzureWares","steam_id":76561199439340850,"connected_time":536000000000,"state":"active","ping":69},{"user_id":409,"name":"Diavolo Diablo","steam_id":76561198166295333,"connected_time":276000000000,"state":"active","ping":64}]},{"server_id":1,"name":"Uncletopia | Los Angeles | 1 | All Maps","name_short":"lax-1","host":"lax-1.us.uncletopia.com","port":27015,"enabled":true,"region":"us-west","cc":"us","latitude":33.94279,"longitude":-118.41004,"reserved":0,"last_update":"0001-01-01T00:00:00Z","name_a2s":"Uncletopia | Los Angeles | 1 | All Maps","protocol":17,"map":"koth_lakeside_final","folder":"tf","game":"Team Fortress","app_id":440,"player_count":0,"max_players":24,"Bots":0,"server_type":"Dedicated","server_os":"Linux","password":true,"vac":true,"version":"7701286","steam_id":85568392924469991,"keywords":["cp","nocrits","nodmgspread","uncletopia"],"game_id":440,"stv_port":0,"stv_name":"","players":null},{"server_id":112,"name":"Uncletopia | Los Angeles | 2 | All Maps","name_short":"lax-2","host":"lax-1.us.uncletopia.com","port":27025,"enabled":true,"region":"us-west","cc":"us","latitude":33.94279,"longitude":-118.41004,"reserved":0,"last_update":"0001-01-01T00:00:00Z","name_a2s":"Uncletopia | Los Angeles | 2 | All Maps","protocol":17,"map":"cp_snakewater_final1","folder":"tf","game":"Team Fortress","app_id":440,"player_count":0,"max_players":24,"Bots":0,"server_type":"Dedicated","server_os":"Linux","password":true,"vac":true,"version":"7701286","steam_id":85568392924469992,"keywords":["cp","nocrits","nodmgspread","uncletopia"],"game_id":440,"stv_port":0,"stv_name":"","players":null},{"server_id":324,"name":"Uncletopia | Los Angeles | 3 | All Maps","name_short":"lax-3","host":"lax-1.us.uncletopia.com","port":27035,"enabled":true,"region":"us-west","cc":"us","latitude":33.94279,"longitude":-118.41004,"reserved":0,"last_update":"0001-01-01T00:00:00Z","name_a2s":"Uncletopia | Los Angeles | 3 | All Maps","protocol":17,"map":"cp_mountainlab","folder":"tf","game":"Team Fortress","app_id":440,"player_count":0,"max_players":24,"Bots":0,"server_type":"Dedicated","server_os":"Linux","password":true,"vac":true,"version":"7701286","steam_id":85568392924510198,"keywords":["cp","nocrits","nodmgspread","uncletopia"],"game_id":440,"stv_port":0,"stv_name":"","players":null},{"server_id":25,"name":"Uncletopia | Los Angeles | 4 | No Payload","name_short":"lax-4","host":"lax-1.us.uncletopia.com","port":27045,"enabled":true,"region":"us-west","cc":"us","latitude":33.94279,"longitude":-118.41004,"reserved":0,"last_update":"0001-01-01T00:00:00Z","name_a2s":"Uncletopia | Los Angeles | 4 | No Payload","protocol":17,"map":"pl_badwater","folder":"tf","game":"Team Fortress","app_id":440,"player_count":0,"max_players":24,"Bots":0,"server_type":"Dedicated","server_os":"Linux","password":true,"vac":true,"version":"7701286","steam_id":85568392924510199,"keywords":["nocrits","nodmgspread","payload","uncletopia"],"game_id":440,"stv_port":0,"stv_name":"","players":null},{"server_id":11,"name":"Uncletopia | London | 1 | All Maps","name_short":"lon-1","host":"lon-1.uk.uncletopia.com","port":27015,"enabled":true,"region":"eu","cc":"gb","latitude":51.509865,"longitude":-0.118092,"reserved":0,"last_update":"0001-01-01T00:00:00Z","name_a2s":"Uncletopia | London | 1 | All Maps","protocol":17,"map":"pl_pier","folder":"tf","game":"Team Fortress","app_id":440,"player_count":24,"max_players":24,"Bots":0,"server_type":"Dedicated","server_os":"Linux","password":true,"vac":true,"version":"7701286","steam_id":85568392924367362,"keywords":["nocrits","nodmgspread","payload","uncletopia"],"game_id":440,"stv_port":27016,"stv_name":"Uncletopia | London | 1 | All Maps | STV","players":[{"user_id":43,"name":"✪ J","steam_id":76561198094911581,"connected_time":4149000000000,"state":"active","ping":48},{"user_id":106,"name":"GreeN","steam_id":76561197975108306,"connected_time":417000000000,"state":"active","ping":49},{"user_id":95,"name":"Kurage","steam_id":76561198021221288,"connected_time":1251000000000,"state":"active","ping":75},{"user_id":37,"name":"Arizona Pootis","steam_id":76561198982674420,"connected_time":4389000000000,"state":"active","ping":48},{"user_id":94,"name":"Monke","steam_id":76561198066994468,"connected_time":1383000000000,"state":"active","ping":76},{"user_id":97,"name":"Saken","steam_id":76561198049075295,"connected_time":609000000000,"state":"active","ping":63},{"user_id":41,"name":"festive jones","steam_id":76561198073975078,"connected_time":4265000000000,"state":"active","ping":40},{"user_id":74,"name":"Toaster1337","steam_id":76561198103706881,"connected_time":2742000000000,"state":"active","ping":60},{"user_id":48,"name":"ciliorkun18","steam_id":76561198228942500,"connected_time":3981000000000,"state":"active","ping":93},{"user_id":101,"name":"stuntz","steam_id":76561197974814348,"connected_time":582000000000,"state":"active","ping":74},{"user_id":100,"name":"name","steam_id":76561198152620745,"connected_time":599000000000,"state":"active","ping":48},{"user_id":110,"name":"Megamain","steam_id":76561198923772036,"connected_time":48000000000,"state":"spawning","ping":149},{"user_id":96,"name":"psychogoat101","steam_id":76561198156146805,"connected_time":613000000000,"state":"active","ping":40},{"user_id":84,"name":"Nedge","steam_id":76561197963549701,"connected_time":2039000000000,"state":"active","ping":49},{"user_id":103,"name":"Goldgalaxy","steam_id":76561198037291167,"connected_time":535000000000,"state":"active","ping":74},{"user_id":85,"name":"Boki","steam_id":76561198044553351,"connected_time":2014000000000,"state":"active","ping":74},{"user_id":109,"name":"nudjura","steam_id":76561198281986139,"connected_time":254000000000,"state":"active","ping":38},{"user_id":58,"name":"Dolcelatte","steam_id":76561198038501770,"connected_time":3622000000000,"state":"active","ping":60},{"user_id":105,"name":"be gay do crime","steam_id":76561198254450468,"connected_time":448000000000,"state":"active","ping":75},{"user_id":92,"name":"Koele Bonen","steam_id":76561198073326820,"connected_time":1507000000000,"state":"active","ping":47},{"user_id":77,"name":"moon","steam_id":76561199212557251,"connected_time":2362000000000,"state":"active","ping":122},{"user_id":102,"name":"OhMyGrosch","steam_id":76561198361193051,"connected_time":566000000000,"state":"active","ping":67},{"user_id":108,"name":"jop","steam_id":76561198075583081,"connected_time":307000000000,"state":"active","ping":50},{"user_id":79,"name":"Poor Fucking Infantry","steam_id":76561198055978522,"connected_time":2306000000000,"state":"active","ping":50}]},{"server_id":114,"name":"Uncletopia | London | 2 | All Maps","name_short":"lon-2","host":"lon-1.uk.uncletopia.com","port":27025,"enabled":true,"region":"eu","cc":"gb","latitude":51.509865,"longitude":-0.118092,"reserved":0,"last_update":"0001-01-01T00:00:00Z","name_a2s":"Uncletopia | London | 2 | All Maps","protocol":17,"map":"koth_lakeside_final","folder":"tf","game":"Team Fortress","app_id":440,"player_count":23,"max_players":24,"Bots":0,"server_type":"Dedicated","server_os":"Linux","password":true,"vac":true,"version":"7701286","steam_id":85568392924470941,"keywords":["cp","nocrits","nodmgspread","uncletopia"],"game_id":440,"stv_port":27026,"stv_name":"Uncletopia | London | 2 | All Maps | STV","players":[{"user_id":8,"name":"One armed fiddle enthusiast","steam_id":76561198045847051,"connected_time":2078000000000,"state":"active","ping":58},{"user_id":9,"name":"I-I","steam_id":76561198267969436,"connected_time":1983000000000,"state":"active","ping":65},{"user_id":37,"name":"N64","steam_id":76561199077495290,"connected_time":789000000000,"state":"active","ping":66},{"user_id":13,"name":"Jofest1","steam_id":76561198013789719,"connected_time":1302000000000,"state":"active","ping":96},{"user_id":14,"name":"Default","steam_id":76561198233380552,"connected_time":1164000000000,"state":"active","ping":126},{"user_id":15,"name":"imWafflly","steam_id":76561198969739584,"connected_time":1120000000000,"state":"active","ping":164},{"user_id":16,"name":"Coldynator","steam_id":76561198042224175,"connected_time":1066000000000,"state":"active","ping":76},{"user_id":19,"name":"Billus","steam_id":76561199001397854,"connected_time":956000000000,"state":"active","ping":104},{"user_id":38,"name":"Lego","steam_id":76561198064536870,"connected_time":787000000000,"state":"active","ping":158},{"user_id":21,"name":"A delicious Phô","steam_id":76561198859709451,"connected_time":948000000000,"state":"active","ping":34},{"user_id":23,"name":"Mr.Schnittlauch","steam_id":76561198295868113,"connected_time":920000000000,"state":"active","ping":67},{"user_id":47,"name":"qq","steam_id":76561198404802175,"connected_time":595000000000,"state":"active","ping":155},{"user_id":55,"name":"beeb","steam_id":76561198211644077,"connected_time":227000000000,"state":"active","ping":63},{"user_id":52,"name":"markus","steam_id":76561198186791643,"connected_time":362000000000,"state":"active","ping":81},{"user_id":35,"name":"CASUAL F2P","steam_id":76561199431459351,"connected_time":856000000000,"state":"active","ping":78},{"user_id":53,"name":"miko polo","steam_id":76561198430649064,"connected_time":290000000000,"state":"active","ping":69},{"user_id":40,"name":"S164","steam_id":76561198802694108,"connected_time":754000000000,"state":"active","ping":69},{"user_id":41,"name":"JimBowBlade","steam_id":76561198018620946,"connected_time":750000000000,"state":"active","ping":44},{"user_id":42,"name":"Oysterhead","steam_id":76561198034055215,"connected_time":707000000000,"state":"active","ping":47},{"user_id":43,"name":"Archie","steam_id":76561199061232100,"connected_time":695000000000,"state":"active","ping":73},{"user_id":48,"name":"Mr.O the ENTP demoman","steam_id":76561198039567498,"connected_time":587000000000,"state":"active","ping":62},{"user_id":50,"name":"bucket hat larry","steam_id":76561198136511793,"connected_time":488000000000,"state":"active","ping":63},{"user_id":51,"name":"V1","steam_id":76561198339269403,"connected_time":488000000000,"state":"active","ping":75}]},{"server_id":320,"name":"Uncletopia | London | 3 | All Maps","name_short":"lon-3","host":"lon-1.uk.uncletopia.com","port":27035,"enabled":true,"region":"eu","cc":"gb","latitude":51.509865,"longitude":-0.118092,"reserved":0,"last_update":"0001-01-01T00:00:00Z","name_a2s":"Uncletopia | London | 3 | All Maps","protocol":17,"map":"koth_viaduct","folder":"tf","game":"Team Fortress","app_id":440,"player_count":0,"max_players":24,"Bots":0,"server_type":"Dedicated","server_os":"Linux","password":true,"vac":true,"version":"7701286","steam_id":85568392924510192,"keywords":["cp","nocrits","nodmgspread","uncletopia"],"game_id":440,"stv_port":27036,"stv_name":"Uncletopia | London | 3 | All Maps | STV","players":null},{"server_id":321,"name":"Uncletopia | London | 4 | All Maps","name_short":"lon-4","host":"lon-1.uk.uncletopia.com","port":27045,"enabled":true,"region":"eu","cc":"gb","latitude":51.509865,"longitude":-0.118092,"reserved":0,"last_update":"0001-01-01T00:00:00Z","name_a2s":"Uncletopia | London | 4 | All Maps","protocol":17,"map":"koth_viaduct","folder":"tf","game":"Team Fortress","app_id":440,"player_count":0,"max_players":24,"Bots":0,"server_type":"Dedicated","server_os":"Linux","password":true,"vac":true,"version":"7701286","steam_id":85568392924510193,"keywords":["cp","nocrits","nodmgspread","uncletopia"],"game_id":440,"stv_port":0,"stv_name":"","players":null},{"server_id":21,"name":"Uncletopia | London | 5 | All Maps","name_short":"lon-5","host":"lon-1.uk.uncletopia.com","port":27055,"enabled":true,"region":"eu","cc":"gb","latitude":51.509865,"longitude":-0.118092,"reserved":0,"last_update":"0001-01-01T00:00:00Z","name_a2s":"Uncletopia | London | 5 | All Maps","protocol":17,"map":"cp_mountainlab","folder":"tf","game":"Team Fortress","app_id":440,"player_count":0,"max_players":24,"Bots":0,"server_type":"Dedicated","server_os":"Linux","password":true,"vac":true,"version":"7701286","steam_id":85568392924742829,"keywords":["cp","nocrits","nodmgspread","uncletopia"],"game_id":440,"stv_port":27056,"stv_name":"Uncletopia | London | 5 | All Maps | STV","players":null},{"server_id":22,"name":"Uncletopia | London | 6 | All Maps","name_short":"lon-6","host":"lon-1.uk.uncletopia.com","port":27065,"enabled":true,"region":"eu","cc":"gb","latitude":51.509865,"longitude":-0.118092,"reserved":0,"last_update":"0001-01-01T00:00:00Z","name_a2s":"Uncletopia | London | 6 | All Maps","protocol":17,"map":"pl_snowycoast","folder":"tf","game":"Team Fortress","app_id":440,"player_count":0,"max_players":24,"Bots":0,"server_type":"Dedicated","server_os":"Linux","password":true,"vac":true,"version":"7701286","steam_id":85568392924742830,"keywords":["nocrits","nodmgspread","payload","uncletopia"],"game_id":440,"stv_port":27066,"stv_name":"Uncletopia | London | 6 | All Maps | STV","players":null},{"server_id":40,"name":"Uncletopia | London | 7 | No Payload","name_short":"lon-7","host":"lon-1.uk.uncletopia.com","port":27075,"enabled":true,"region":"eu","cc":"gb","latitude":51.509865,"longitude":-0.118092,"reserved":0,"last_update":"0001-01-01T00:00:00Z","name_a2s":"Uncletopia | London | 7 | No Payload","protocol":17,"map":"cp_snakewater_final1","folder":"tf","game":"Team Fortress","app_id":440,"player_count":24,"max_players":24,"Bots":0,"server_type":"Dedicated","server_os":"Linux","password":true,"vac":true,"version":"7701286","steam_id":85568392924964314,"keywords":["cp","nocrits","nodmgspread","uncletopia"],"game_id":440,"stv_port":27076,"stv_name":"Uncletopia | London | 7 | No Payload | STV","players":[{"user_id":127,"name":"Minimi","steam_id":76561198873850443,"connected_time":879000000000,"state":"active","ping":37},{"user_id":121,"name":"Bottomest","steam_id":76561198091734693,"connected_time":1299000000000,"state":"active","ping":63},{"user_id":67,"name":"Flare","steam_id":76561198039098320,"connected_time":4512000000000,"state":"active","ping":55},{"user_id":114,"name":"Kahvi","steam_id":76561198723244199,"connected_time":1507000000000,"state":"active","ping":75},{"user_id":132,"name":"Zeylik","steam_id":76561198112938014,"connected_time":479000000000,"state":"active","ping":51},{"user_id":106,"name":"Naga","steam_id":76561198133196222,"connected_time":1667000000000,"state":"active","ping":63},{"user_id":107,"name":"Rin-Nakaret","steam_id":76561197971051188,"connected_time":1646000000000,"state":"active","ping":62},{"user_id":115,"name":"some edgy nickname","steam_id":76561198040241299,"connected_time":1495000000000,"state":"active","ping":66},{"user_id":71,"name":"gorrian","steam_id":76561198278199225,"connected_time":4200000000000,"state":"active","ping":65},{"user_id":108,"name":"frozenwasanokmovie","steam_id":76561198157407952,"connected_time":1629000000000,"state":"active","ping":180},{"user_id":69,"name":"ahh, eto... nya. :3","steam_id":76561198878171763,"connected_time":4288000000000,"state":"active","ping":48},{"user_id":135,"name":"average ultiduo medic","steam_id":76561198103285012,"connected_time":363000000000,"state":"active","ping":60},{"user_id":133,"name":"Toast","steam_id":76561198278121752,"connected_time":456000000000,"state":"active","ping":77},{"user_id":125,"name":"Persephone \u003c3","steam_id":76561198045694137,"connected_time":1038000000000,"state":"active","ping":64},{"user_id":136,"name":"cof","steam_id":76561199128417805,"connected_time":288000000000,"state":"active","ping":57},{"user_id":27,"name":"merry beebo","steam_id":76561199120277007,"connected_time":6536000000000,"state":"active","ping":41},{"user_id":134,"name":"you (DK)","steam_id":76561198061472971,"connected_time":413000000000,"state":"active","ping":61},{"user_id":84,"name":"biohazard","steam_id":76561198162873354,"connected_time":3296000000000,"state":"active","ping":92},{"user_id":137,"name":"Ben UFO","steam_id":76561198001648348,"connected_time":66000000000,"state":"active","ping":60},{"user_id":105,"name":"Pingus","steam_id":76561198164880756,"connected_time":1768000000000,"state":"active","ping":70},{"user_id":117,"name":"Godot","steam_id":76561198339980449,"connected_time":1447000000000,"state":"active","ping":70},{"user_id":126,"name":"Olybes","steam_id":76561198285471251,"connected_time":1004000000000,"state":"active","ping":140},{"user_id":130,"name":"partizan","steam_id":76561198440837262,"connected_time":784000000000,"state":"active","ping":46},{"user_id":79,"name":"эмо бой 2007","steam_id":76561198243917964,"connected_time":3814000000000,"state":"active","ping":105}]},{"server_id":41,"name":"Uncletopia | London | 8 | Community","name_short":"lon-8","host":"lon-1.uk.uncletopia.com","port":27085,"enabled":true,"region":"eu","cc":"gb","latitude":51.509865,"longitude":-0.118092,"reserved":0,"last_update":"0001-01-01T00:00:00Z","name_a2s":"Uncletopia | London | 8 | Community","protocol":17,"map":"workshop/koth_ramjam_v2_b2.ugc2865676487","folder":"tf","game":"Team Fortress","app_id":440,"player_count":0,"max_players":24,"Bots":0,"server_type":"Dedicated","server_os":"Linux","password":true,"vac":true,"version":"7701286","steam_id":85568392924964315,"keywords":["cp","nocrits","nodmgspread","uncletopia"],"game_id":440,"stv_port":27086,"stv_name":"Uncletopia | London | 8 | Community | STV","players":null},{"server_id":300,"name":"Uncletopia | Montréal | 1 | All Maps","name_short":"mtl-1","host":"mtl-1.ca.uncletopia.com","port":27015,"enabled":true,"region":"us-east","cc":"ca","latitude":45.50889,"longitude":-73.56167,"reserved":0,"last_update":"0001-01-01T00:00:00Z","name_a2s":"Uncletopia | Montréal | 1 | All Maps","protocol":17,"map":"koth_lakeside_final","folder":"tf","game":"Team Fortress","app_id":440,"player_count":0,"max_players":24,"Bots":0,"server_type":"Dedicated","server_os":"Linux","password":true,"vac":true,"version":"7701286","steam_id":85568392924500087,"keywords":["cp","nocrits","nodmgspread","uncletopia"],"game_id":440,"stv_port":0,"stv_name":"","players":null},{"server_id":301,"name":"Uncletopia | Montréal | 2 | All Maps","name_short":"mtl-2","host":"mtl-1.ca.uncletopia.com","port":27025,"enabled":true,"region":"us-east","cc":"ca","latitude":45.50889,"longitude":-73.56167,"reserved":0,"last_update":"0001-01-01T00:00:00Z","name_a2s":"Uncletopia | Montréal | 2 | All Maps","protocol":17,"map":"pl_upward","folder":"tf","game":"Team Fortress","app_id":440,"player_count":0,"max_players":24,"Bots":0,"server_type":"Dedicated","server_os":"Linux","password":true,"vac":true,"version":"7701286","steam_id":85568392924500088,"keywords":["nocrits","nodmgspread","payload","uncletopia"],"game_id":440,"stv_port":27026,"stv_name":"Uncletopia | Montréal | 2 | All Maps | STV","players":null},{"server_id":302,"name":"Uncletopia | Montréal | 3 | All Maps","name_short":"mtl-3","host":"mtl-1.ca.uncletopia.com","port":27035,"enabled":true,"region":"us-east","cc":"ca","latitude":45.50889,"longitude":-73.56167,"reserved":0,"last_update":"0001-01-01T00:00:00Z","name_a2s":"Uncletopia | Montréal | 3 | All Maps","protocol":17,"map":"pl_pier","folder":"tf","game":"Team Fortress","app_id":440,"player_count":0,"max_players":24,"Bots":0,"server_type":"Dedicated","server_os":"Linux","password":true,"vac":true,"version":"7701286","steam_id":85568392924500089,"keywords":["nocrits","nodmgspread","payload","uncletopia"],"game_id":440,"stv_port":0,"stv_name":"","players":null},{"server_id":303,"name":"Uncletopia | Montréal | 4 | No Payload","name_short":"mtl-4","host":"mtl-1.ca.uncletopia.com","port":27045,"enabled":true,"region":"us-east","cc":"ca","latitude":45.50889,"longitude":-73.56167,"reserved":0,"last_update":"0001-01-01T00:00:00Z","name_a2s":"Uncletopia | Montréal | 4 | No Payload","protocol":17,"map":"pl_upward","folder":"tf","game":"Team Fortress","app_id":440,"player_count":0,"max_players":24,"Bots":0,"server_type":"Dedicated","server_os":"Linux","password":true,"vac":true,"version":"7701286","steam_id":85568392924500090,"keywords":["nocrits","nodmgspread","payload","uncletopia"],"game_id":440,"stv_port":0,"stv_name":"","players":null},{"server_id":13,"name":"Uncletopia | New York City | 1 | All Maps","name_short":"nyc-1","host":"nyc-1.us.uncletopia.com","port":27015,"enabled":true,"region":"us-east","cc":"us","latitude":40.73061,"longitude":-73.93524,"reserved":0,"last_update":"0001-01-01T00:00:00Z","name_a2s":"Uncletopia | New York City | 1 | All Maps","protocol":17,"map":"pl_frontier_final","folder":"tf","game":"Team Fortress","app_id":440,"player_count":0,"max_players":24,"Bots":0,"server_type":"Dedicated","server_os":"Linux","password":true,"vac":true,"version":"7701286","steam_id":85568392924469993,"keywords":["nocrits","nodmgspread","payload","uncletopia"],"game_id":440,"stv_port":27016,"stv_name":"Uncletopia | New York City | 1 | All Maps | STV","players":null},{"server_id":14,"name":"Uncletopia | New York City | 2 | All Maps","name_short":"nyc-2","host":"nyc-1.us.uncletopia.com","port":27025,"enabled":true,"region":"us-east","cc":"us","latitude":40.73061,"longitude":-73.93524,"reserved":0,"last_update":"0001-01-01T00:00:00Z","name_a2s":"Uncletopia | New York City | 2 | All Maps","protocol":17,"map":"cp_process_final","folder":"tf","game":"Team Fortress","app_id":440,"player_count":0,"max_players":24,"Bots":0,"server_type":"Dedicated","server_os":"Linux","password":true,"vac":true,"version":"7701286","steam_id":85568392924469994,"keywords":["cp","nocrits","nodmgspread","uncletopia"],"game_id":440,"stv_port":27026,"stv_name":"Uncletopia | New York City | 2 | All Maps | STV","players":null},{"server_id":15,"name":"Uncletopia | New York City | 3 | All Maps","name_short":"nyc-3","host":"nyc-1.us.uncletopia.com","port":27035,"enabled":true,"region":"us-east","cc":"us","latitude":40.73061,"longitude":-73.93524,"reserved":0,"last_update":"0001-01-01T00:00:00Z","name_a2s":"Uncletopia | New York City | 3 | All Maps","protocol":17,"map":"pl_badwater","folder":"tf","game":"Team Fortress","app_id":440,"player_count":0,"max_players":24,"Bots":0,"server_type":"Dedicated","server_os":"Linux","password":true,"vac":true,"version":"7701286","steam_id":85568392924742820,"keywords":["nocrits","nodmgspread","payload","uncletopia"],"game_id":440,"stv_port":0,"stv_name":"","players":null},{"server_id":16,"name":"Uncletopia | New York City | 4 | Community","name_short":"nyc-4","host":"nyc-1.us.uncletopia.com","port":27045,"enabled":true,"region":"us-east","cc":"us","latitude":40.73061,"longitude":-73.93524,"reserved":0,"last_update":"0001-01-01T00:00:00Z","name_a2s":"Uncletopia | New York City | 4 | Community","protocol":17,"map":"pl_snowycoast","folder":"tf","game":"Team Fortress","app_id":440,"player_count":0,"max_players":24,"Bots":0,"server_type":"Dedicated","server_os":"Linux","password":true,"vac":true,"version":"7701286","steam_id":85568392924742821,"keywords":["nocrits","nodmgspread","payload","uncletopia"],"game_id":440,"stv_port":0,"stv_name":"","players":null},{"server_id":142,"name":"Uncletopia | São Paulo | 1 | All Maps","name_short":"sao-1","host":"sao-1.br.uncletopia.com","port":27015,"enabled":true,"region":"sa","cc":"br","latitude":-23.533773,"longitude":-46.62529,"reserved":0,"last_update":"0001-01-01T00:00:00Z","name_a2s":"Uncletopia | São Paulo | 1 | All Maps","protocol":17,"map":"pl_pier","folder":"tf","game":"Team Fortress","app_id":440,"player_count":2,"max_players":24,"Bots":0,"server_type":"Dedicated","server_os":"Linux","password":true,"vac":true,"version":"7701286","steam_id":85568392924469996,"keywords":["nocrits","nodmgspread","payload","uncletopia"],"game_id":440,"stv_port":0,"stv_name":"","players":[{"user_id":6,"name":"Pirata Vorak","steam_id":76561198229509208,"connected_time":418000000000,"state":"active","ping":70},{"user_id":7,"name":"pee man","steam_id":76561199243684443,"connected_time":15000000000,"state":"spawning","ping":109}]},{"server_id":143,"name":"Uncletopia | São Paulo | 2 | All Maps","name_short":"sao-2","host":"sao-2.br.uncletopia.com","port":27015,"enabled":true,"region":"sa","cc":"br","latitude":-23.533773,"longitude":-46.62529,"reserved":0,"last_update":"0001-01-01T00:00:00Z","name_a2s":"Uncletopia | São Paulo | 2 | All Maps","protocol":17,"map":"koth_lakeside_final","folder":"tf","game":"Team Fortress","app_id":440,"player_count":0,"max_players":24,"Bots":0,"server_type":"Dedicated","server_os":"Linux","password":true,"vac":true,"version":"7701286","steam_id":85568392924485349,"keywords":["cp","nocrits","nodmgspread","uncletopia"],"game_id":440,"stv_port":27016,"stv_name":"Uncletopia | São Paulo | 2 | All Maps | STV","players":null},{"server_id":7,"name":"Uncletopia | Seattle | 1 | All Maps","name_short":"sea-1","host":"sea-1.us.uncletopia.com","port":27015,"enabled":true,"region":"us-west","cc":"us","latitude":47.608013,"longitude":-122.33517,"reserved":0,"last_update":"0001-01-01T00:00:00Z","name_a2s":"Uncletopia | Seattle | 1 | All Maps","protocol":17,"map":"cp_process_final","folder":"tf","game":"Team Fortress","app_id":440,"player_count":0,"max_players":24,"Bots":0,"server_type":"Dedicated","server_os":"Linux","password":true,"vac":true,"version":"7701286","steam_id":85568392924469997,"keywords":["cp","nocrits","nodmgspread","uncletopia"],"game_id":440,"stv_port":0,"stv_name":"","players":null},{"server_id":119,"name":"Uncletopia | Seattle | 2 | All Maps","name_short":"sea-2","host":"sea-1.us.uncletopia.com","port":27025,"enabled":true,"region":"us-west","cc":"us","latitude":47.608013,"longitude":-122.33517,"reserved":0,"last_update":"0001-01-01T00:00:00Z","name_a2s":"Uncletopia | Seattle | 2 | All Maps","protocol":17,"map":"koth_lakeside_final","folder":"tf","game":"Team Fortress","app_id":440,"player_count":0,"max_players":24,"Bots":0,"server_type":"Dedicated","server_os":"Linux","password":true,"vac":true,"version":"7701286","steam_id":85568392924469998,"keywords":["cp","nocrits","nodmgspread","uncletopia"],"game_id":440,"stv_port":0,"stv_name":"","players":null},{"server_id":17,"name":"Uncletopia | San Francisco | 1 | All Maps","name_short":"sfo-1","host":"sfo-1.us.uncletopia.com","port":27015,"enabled":true,"region":"us-west","cc":"us","latitude":37.77397,"longitude":-122.4313,"reserved":0,"last_update":"0001-01-01T00:00:00Z","name_a2s":"Uncletopia | San Francisco | 1 | All Maps","protocol":17,"map":"pl_frontier_final","folder":"tf","game":"Team Fortress","app_id":440,"player_count":0,"max_players":24,"Bots":0,"server_type":"Dedicated","server_os":"Linux","password":true,"vac":true,"version":"7701286","steam_id":85568392924469999,"keywords":["nocrits","nodmgspread","payload","uncletopia"],"game_id":440,"stv_port":0,"stv_name":"","players":null},{"server_id":18,"name":"Uncletopia | San Francisco | 2 | All Maps","name_short":"sfo-2","host":"sfo-1.us.uncletopia.com","port":27025,"enabled":true,"region":"us-west","cc":"us","latitude":37.77397,"longitude":-122.4313,"reserved":0,"last_update":"0001-01-01T00:00:00Z","name_a2s":"Uncletopia | San Francisco | 2 | All Maps","protocol":17,"map":"pl_upward","folder":"tf","game":"Team Fortress","app_id":440,"player_count":0,"max_players":24,"Bots":0,"server_type":"Dedicated","server_os":"Linux","password":true,"vac":true,"version":"7701286","steam_id":85568392924470000,"keywords":["nocrits","nodmgspread","payload","uncletopia"],"game_id":440,"stv_port":0,"stv_name":"","players":null},{"server_id":19,"name":"Uncletopia | San Francisco | 3 | No Payload","name_short":"sfo-3","host":"sfo-1.us.uncletopia.com","port":27035,"enabled":true,"region":"us-west","cc":"us","latitude":37.77397,"longitude":-122.4313,"reserved":0,"last_update":"0001-01-01T00:00:00Z","name_a2s":"Uncletopia | San Francisco | 3 | No Payload","protocol":17,"map":"cp_mountainlab","folder":"tf","game":"Team Fortress","app_id":440,"player_count":0,"max_players":24,"Bots":0,"server_type":"Dedicated","server_os":"Linux","password":true,"vac":true,"version":"7701286","steam_id":85568392924742824,"keywords":["cp","nocrits","nodmgspread","uncletopia"],"game_id":440,"stv_port":0,"stv_name":"","players":null},{"server_id":20,"name":"Uncletopia | San Francisco | 4 | Community","name_short":"sfo-4","host":"sfo-1.us.uncletopia.com","port":27045,"enabled":true,"region":"us-west","cc":"us","latitude":37.77397,"longitude":-122.4313,"reserved":0,"last_update":"0001-01-01T00:00:00Z","name_a2s":"Uncletopia | San Francisco | 4 | Community","protocol":17,"map":"cp_altitude","folder":"tf","game":"Team Fortress","app_id":440,"player_count":0,"max_players":24,"Bots":0,"server_type":"Dedicated","server_os":"Linux","password":true,"vac":true,"version":"7701286","steam_id":85568392924742826,"keywords":["cp","nocrits","nodmgspread","uncletopia"],"game_id":440,"stv_port":0,"stv_name":"","players":null},{"server_id":141,"name":"Uncletopia | Sydney | 1 | All Maps","name_short":"syd-1","host":"syd-1.au.uncletopia.com","port":27015,"enabled":true,"region":"au","cc":"au","latitude":-33.865143,"longitude":151.2099,"reserved":0,"last_update":"0001-01-01T00:00:00Z","name_a2s":"Uncletopia | Sydney | 1 | All Maps","protocol":17,"map":"cp_dustbowl","folder":"tf","game":"Team Fortress","app_id":440,"player_count":13,"max_players":24,"Bots":0,"server_type":"Dedicated","server_os":"Linux","password":true,"vac":true,"version":"7701286","steam_id":85568392924470001,"keywords":["cp","nocrits","nodmgspread","uncletopia"],"game_id":440,"stv_port":27016,"stv_name":"Uncletopia | Sydney | 1 | All Maps | STV","players":[{"user_id":697,"name":"i like balls","steam_id":76561199010558927,"connected_time":664000000000,"state":"active","ping":149},{"user_id":693,"name":"Awesomeguy002","steam_id":76561198070497067,"connected_time":938000000000,"state":"active","ping":50},{"user_id":694,"name":"Luuvan","steam_id":76561198846610729,"connected_time":892000000000,"state":"active","ping":215},{"user_id":698,"name":"Jad","steam_id":76561198453862581,"connected_time":642000000000,"state":"active","ping":75},{"user_id":702,"name":"foreskinwalker","steam_id":76561198058880888,"connected_time":477000000000,"state":"active","ping":50},{"user_id":699,"name":"Pizzaray","steam_id":76561198005075102,"connected_time":629000000000,"state":"active","ping":30},{"user_id":700,"name":"51iq","steam_id":76561199168126231,"connected_time":589000000000,"state":"active","ping":100},{"user_id":701,"name":"Martial","steam_id":76561198071597924,"connected_time":527000000000,"state":"active","ping":72},{"user_id":705,"name":"Joe Biden","steam_id":76561198120460119,"connected_time":298000000000,"state":"active","ping":80},{"user_id":704,"name":"Pookie","steam_id":76561198812306030,"connected_time":388000000000,"state":"active","ping":56},{"user_id":706,"name":"Bunnings_Warehouse","steam_id":76561198154323370,"connected_time":250000000000,"state":"active","ping":46},{"user_id":707,"name":"Night","steam_id":76561198371839412,"connected_time":3000000000,"state":"spawning","ping":52},{"user_id":666,"name":"fourjaf","steam_id":76561198163147051,"connected_time":2574000000000,"state":"active","ping":42}]},{"server_id":123,"name":"Uncletopia | Sydney | 2 | All Maps","name_short":"syd-2","host":"syd-1.au.uncletopia.com","port":27025,"enabled":true,"region":"au","cc":"au","latitude":-33.865143,"longitude":151.2099,"reserved":0,"last_update":"0001-01-01T00:00:00Z","name_a2s":"Uncletopia | Sydney | 2 | All Maps","protocol":17,"map":"pl_badwater","folder":"tf","game":"Team Fortress","app_id":440,"player_count":0,"max_players":24,"Bots":0,"server_type":"Dedicated","server_os":"Linux","password":true,"vac":true,"version":"7701286","steam_id":85568392924470002,"keywords":["nocrits","nodmgspread","payload","uncletopia"],"game_id":440,"stv_port":27026,"stv_name":"Uncletopia | Sydney | 2 | All Maps | STV","players":null},{"server_id":395,"name":"Uncletopia | Sydney | 3 | All Maps","name_short":"syd-3","host":"syd-1.au.uncletopia.com","port":27035,"enabled":true,"region":"au","cc":"au","latitude":-33.865143,"longitude":151.2099,"reserved":0,"last_update":"0001-01-01T00:00:00Z","name_a2s":"Uncletopia | Sydney | 3 | All Maps","protocol":17,"map":"cp_dustbowl","folder":"tf","game":"Team Fortress","app_id":440,"player_count":0,"max_players":24,"Bots":0,"server_type":"Dedicated","server_os":"Linux","password":true,"vac":true,"version":"7701286","steam_id":85568392925194467,"keywords":["cp","nocrits","nodmgspread","uncletopia"],"game_id":440,"stv_port":27036,"stv_name":"Uncletopia | Sydney | 3 | All Maps | STV","players":null},{"server_id":396,"name":"Uncletopia | Sydney | 4 | All Maps","name_short":"syd-4","host":"syd-1.au.uncletopia.com","port":27045,"enabled":true,"region":"au","cc":"au","latitude":-33.865143,"longitude":151.2099,"reserved":0,"last_update":"0001-01-01T00:00:00Z","name_a2s":"Uncletopia | Sydney | 4 | All Maps","protocol":17,"map":"pl_swiftwater_final1","folder":"tf","game":"Team Fortress","app_id":440,"player_count":0,"max_players":24,"Bots":0,"server_type":"Dedicated","server_os":"Linux","password":true,"vac":true,"version":"7701286","steam_id":85568392925397958,"keywords":["nocrits","nodmgspread","payload","uncletopia"],"game_id":440,"stv_port":27046,"stv_name":"Uncletopia | Sydney | 4 | All Maps | STV","players":null},{"server_id":58,"name":"Uncletopia | Sydney | 5 | No Payload","name_short":"syd-5","host":"syd-1.au.uncletopia.com","port":27055,"enabled":true,"region":"au","cc":"au","latitude":-33.865143,"longitude":151.2099,"reserved":0,"last_update":"0001-01-01T00:00:00Z","name_a2s":"Uncletopia | Sydney | 5 | No Payload","protocol":17,"map":"koth_lazarus","folder":"tf","game":"Team Fortress","app_id":440,"player_count":0,"max_players":24,"Bots":0,"server_type":"Dedicated","server_os":"Linux","password":true,"vac":true,"version":"7701286","steam_id":85568392925397959,"keywords":["cp","nocrits","nodmgspread","uncletopia"],"game_id":440,"stv_port":27056,"stv_name":"Uncletopia | Sydney | 5 | No Payload | STV","players":null},{"server_id":59,"name":"Uncletopia | Sydney | 6 | Community","name_short":"syd-6","host":"syd-1.au.uncletopia.com","port":27065,"enabled":true,"region":"au","cc":"au","latitude":-33.865143,"longitude":151.2099,"reserved":0,"last_update":"0001-01-01T00:00:00Z","name_a2s":"Uncletopia | Sydney | 6 | Community","protocol":17,"map":"workshop/cp_reckoner_rc6.ugc674719999","folder":"tf","game":"Team Fortress","app_id":440,"player_count":1,"max_players":24,"Bots":0,"server_type":"Dedicated","server_os":"Linux","password":true,"vac":true,"version":"7701286","steam_id":85568392925397960,"keywords":["cp","nocrits","nodmgspread","uncletopia"],"game_id":440,"stv_port":27066,"stv_name":"Uncletopia | Sydney | 6 | Community | STV","players":[{"user_id":8,"name":"France🔥","steam_id":76561199439211121,"connected_time":109000000000,"state":"spawning","ping":519}]},{"server_id":49,"name":"Uncletopia | Warsaw | 1 | All Maps","name_short":"waw-1","host":"waw-1.pl.uncletopia.com","port":27015,"enabled":true,"region":"eu","cc":"pl","latitude":52.2297,"longitude":21.017532,"reserved":0,"last_update":"0001-01-01T00:00:00Z","name_a2s":"Uncletopia | Warsaw | 1 | All Maps","protocol":17,"map":"koth_lakeside_final","folder":"tf","game":"Team Fortress","app_id":440,"player_count":0,"max_players":24,"Bots":0,"server_type":"Dedicated","server_os":"Linux","password":true,"vac":true,"version":"7701286","steam_id":85568392925397850,"keywords":["cp","nocrits","nodmgspread","uncletopia"],"game_id":440,"stv_port":27016,"stv_name":"Uncletopia | Warsaw | 1 | All Maps | STV","players":null},{"server_id":50,"name":"Uncletopia | Warsaw | 2 | All Maps","name_short":"waw-2","host":"waw-1.pl.uncletopia.com","port":27025,"enabled":true,"region":"eu","cc":"pl","latitude":52.2297,"longitude":21.017532,"reserved":0,"last_update":"0001-01-01T00:00:00Z","name_a2s":"Uncletopia | Warsaw | 2 | All Maps","protocol":17,"map":"koth_highpass","folder":"tf","game":"Team Fortress","app_id":440,"player_count":0,"max_players":24,"Bots":0,"server_type":"Dedicated","server_os":"Linux","password":true,"vac":true,"version":"7701286","steam_id":85568392925397851,"keywords":["cp","nocrits","nodmgspread","uncletopia"],"game_id":440,"stv_port":0,"stv_name":"","players":null},{"server_id":51,"name":"Uncletopia | Warsaw | 3 | All Maps","name_short":"waw-3","host":"waw-1.pl.uncletopia.com","port":27035,"enabled":true,"region":"eu","cc":"pl","latitude":52.2297,"longitude":21.017532,"reserved":0,"last_update":"0001-01-01T00:00:00Z","name_a2s":"Uncletopia | Warsaw | 3 | All Maps","protocol":17,"map":"koth_lakeside_final","folder":"tf","game":"Team Fortress","app_id":440,"player_count":0,"max_players":24,"Bots":0,"server_type":"Dedicated","server_os":"Linux","password":true,"vac":true,"version":"7701286","steam_id":85568392925397852,"keywords":["cp","nocrits","nodmgspread","uncletopia"],"game_id":440,"stv_port":27036,"stv_name":"Uncletopia | Warsaw | 3 | All Maps | STV","players":null},{"server_id":52,"name":"Uncletopia | Warsaw | 4 | All Maps","name_short":"waw-4","host":"waw-1.pl.uncletopia.com","port":27045,"enabled":true,"region":"eu","cc":"pl","latitude":52.2297,"longitude":21.017532,"reserved":0,"last_update":"0001-01-01T00:00:00Z","name_a2s":"Uncletopia | Warsaw | 4 | All Maps","protocol":17,"map":"pl_borneo","folder":"tf","game":"Team Fortress","app_id":440,"player_count":0,"max_players":24,"Bots":0,"server_type":"Dedicated","server_os":"Linux","password":true,"vac":true,"version":"7701286","steam_id":85568392925397853,"keywords":["nocrits","nodmgspread","payload","uncletopia"],"game_id":440,"stv_port":0,"stv_name":"","players":null},{"server_id":53,"name":"Uncletopia | Warsaw | 5 | No Payload","name_short":"waw-5","host":"waw-1.pl.uncletopia.com","port":27055,"enabled":true,"region":"eu","cc":"pl","latitude":52.2297,"longitude":21.017532,"reserved":0,"last_update":"0001-01-01T00:00:00Z","name_a2s":"Uncletopia | Warsaw | 5 | No Payload","protocol":17,"map":"cp_gravelpit","folder":"tf","game":"Team Fortress","app_id":440,"player_count":0,"max_players":24,"Bots":0,"server_type":"Dedicated","server_os":"Linux","password":true,"vac":true,"version":"7701286","steam_id":85568392925397854,"keywords":["cp","nocrits","nodmgspread","uncletopia"],"game_id":440,"stv_port":27056,"stv_name":"Uncletopia | Warsaw | 5 | No Payload | STV","players":null},{"server_id":54,"name":"Uncletopia | Warsaw | 6 | Community","name_short":"waw-6","host":"waw-1.pl.uncletopia.com","port":27065,"enabled":true,"region":"eu","cc":"pl","latitude":52.2297,"longitude":21.017532,"reserved":0,"last_update":"0001-01-01T00:00:00Z","name_a2s":"Uncletopia | Warsaw | 6 | Community","protocol":17,"map":"workshop/rd_asteroid_redux_rc9.ugc2154902912","folder":"tf","game":"Team Fortress","app_id":440,"player_count":0,"max_players":24,"Bots":0,"server_type":"Dedicated","server_os":"Linux","password":true,"vac":true,"version":"7701286","steam_id":85568392925397856,"keywords":["beta","nocrits","nodmgspread","rd","uncletopia"],"game_id":440,"stv_port":27066,"stv_name":"Uncletopia | Warsaw | 6 | Community | STV","players":null}]}