{"status":true,"message":"","result":[{"server_id":9,"name":"Uncletopia | Atlanta | 1 | All Maps","name_short":"atl-1","host":"atl-1.us.uncletopia.com","port":27015,"enabled":true,"region":"us-east","cc":"us","latitude":33.753746,"longitude":-84.38633,"reserved":0,"last_update":"0001-01-01T00:00:00Z","name_a2s":"Uncletopia | Atlanta | 1 | All Maps","protocol":17,"map":"koth_lakeside_final","folder":"tf","game":"Team Fortress","app_id":440,"player_count":1,"max_players":24,"Bots":0,"server_type":"Dedicated","server_os":"Linux","password":true,"vac":true,"version":"7961495","steam_id":85568392924469982,"keywords":["cp","nocrits","nodmgspread","uncletopia"],"game_id":440,"stv_port":27016,"stv_name":"Uncletopia | Atlanta | 1 | All Maps | STV","players":null},{"server_id":104,"name":"Uncletopia | Atlanta | 2 | All Maps","name_short":"atl-2","host":"atl-1.us.uncletopia.com","port":27025,"enabled":true,"region":"us-east","cc":"us","latitude":33.753746,"longitude":-84.38633,"reserved":0,"last_update":"0001-01-01T00:00:00Z","name_a2s":"Uncletopia | Atlanta | 2 | All Maps","protocol":17,"map":"koth_highpass","folder":"tf","game":"Team Fortress","app_id":440,"player_count":0,"max_players":24,"Bots":0,"server_type":"Dedicated","server_os":"Linux","password":true,"vac":true,"version":"7961495","steam_id":85568392924469983,"keywords":["cp","nocrits","nodmgspread","uncletopia"],"game_id":440,"stv_port":27026,"stv_name":"Uncletopia | Atlanta | 2 | All Maps | STV","players":null},{"server_id":400,"name":"Uncletopia | Atlanta | 3 | All Maps","name_short":"atl-3","host":"atl-1.us.uncletopia.com","port":27035,"enabled":true,"region":"us-east","cc":"us","latitude":33.753746,"longitude":-84.38633,"reserved":0,"last_update":"0001-01-01T00:00:00Z","name_a2s":"Uncletopia | Atlanta | 3 | All Maps","protocol":17,"map":"koth_cascade","folder":"tf","game":"Team Fortress","app_id":440,"player_count":0,"max_players":24,"Bots":0,"server_type":"Dedicated","server_os":"Linux","password":true,"vac":true,"version":"7961495","steam_id":85568392924515187,"keywords":["cp","nocrits","nodmgspread","uncletopia"],"game_id":440,"stv_port":27036,"stv_name":"Uncletopia | Atlanta | 3 | All Maps | STV","players":null},{"server_id":401,"name":"Uncletopia | Atlanta | 4 | Community","name_short":"atl-4","host":"atl-1.us.uncletopia.com","port":27045,"enabled":true,"region":"us-east","cc":"us","latitude":33.753746,"longitude":-84.38633,"reserved":0,"last_update":"0001-01-01T00:00:00Z","name_a2s":"Uncletopia | Atlanta | 4 | Community","protocol":17,"map":"cp_sunshine","folder":"tf","game":"Team Fortress","app_id":440,"player_count":0,"max_players":24,"Bots":0,"server_type":"Dedicated","server_os":"Linux","password":true,"vac":true,"version":"7961495","steam_id":85568392924515188,"keywords":["cp","nocrits","nodmgspread","uncletopia"],"game_id":440,"stv_port":27046,"stv_name":"Uncletopia | Atlanta | 4 | Community | STV","players":null},{"server_id":2,"name":"Uncletopia | Chicago | 1 | All Maps","name_short":"chi-1","host":"chi-1.us.uncletopia.com","port":27015,"enabled":true,"region":"us-central","cc":"us","latitude":41.881832,"longitude":-87.62318,"reserved":0,"last_update":"0001-01-01T00:00:00Z","name_a2s":"Uncletopia | Chicago | 1 | All Maps","protocol":17,"map":"cp_junction_final","folder":"tf","game":"Team Fortress","app_id":440,"player_count":24,"max_players":24,"Bots":0,"server_type":"Dedicated","server_os":"Linux","password":true,"vac":true,"version":"7961495","steam_id":85568392924469984,"keywords":["cp","nocrits","nodmgspread","uncletopia"],"game_id":440,"stv_port":27016,"stv_name":"Uncletopia | Chicago | 1 | All Maps | STV","players":[{"user_id":125,"name":"kite","steam_id":76561198346516392,"connected_time":854000000000,"state":"active","ping":68},{"user_id":113,"name":"Looking for BBW in stanfield nc","steam_id":76561199207371234,"connected_time":1019000000000,"state":"active","ping":82},{"user_id":41,"name":"Sergeant Snowflake","steam_id":76561198041474489,"connected_time":5066000000000,"state":"active","ping":54},{"user_id":118,"name":"Space Lizard","steam_id":76561198056798193,"connected_time":978000000000,"state":"active","ping":75},{"user_id":117,"name":"The Dreamer","steam_id":76561198047638312,"connected_time":993000000000,"state":"active","ping":58},{"user_id":110,"name":"BarrowBaron","steam_id":76561198013633236,"connected_time":1023000000000,"state":"active","ping":54},{"user_id":93,"name":"Braindawg","steam_id":76561197988531991,"connected_time":2991000000000,"state":"active","ping":91},{"user_id":50,"name":"Magma Leader Maxie","steam_id":76561198341537452,"connected_time":3911000000000,"state":"active","ping":77},{"user_id":115,"name":"schlingo","steam_id":76561199087243980,"connected_time":1004000000000,"state":"active","ping":98},{"user_id":114,"name":"Mcfighter2","steam_id":76561198168073956,"connected_time":1009000000000,"state":"active","ping":61},{"user_id":127,"name":"Butters495","steam_id":76561197998689042,"connected_time":329000000000,"state":"active","ping":80},{"user_id":129,"name":"FunGi","steam_id":76561198881418662,"connected_time":173000000000,"state":"active","ping":84},{"user_id":111,"name":"Barbados Slim","steam_id":76561199483183459,"connected_time":1022000000000,"state":"active","ping":89},{"user_id":120,"name":"Chargable_water","steam_id":76561199190556009,"connected_time":972000000000,"state":"active","ping":81},{"user_id":131,"name":"google docs extraordinaire","steam_id":76561198124174061,"connected_time":115000000000,"state":"active","ping":58},{"user_id":126,"name":"BlueTubeBlue","steam_id":76561198394326200,"connected_time":818000000000,"state":"active","ping":78},{"user_id":102,"name":"Soy","steam_id":76561198050605191,"connected_time":2024000000000,"state":"active","ping":76},{"user_id":96,"name":"cool guy","steam_id":76561198204995668,"connected_time":2822000000000,"state":"active","ping":80},{"user_id":124,"name":"Cellus","steam_id":76561198067204847,"connected_time":919000000000,"state":"active","ping":68},{"user_id":37,"name":"Ice Queen","steam_id":76561198012747028,"connected_time":5122000000000,"state":"active","ping":60},{"user_id":76,"name":"ุ","steam_id":76561198118480346,"connected_time":3315000000000,"state":"active","ping":71},{"user_id":130,"name":"fear_the-penguins","steam_id":76561199013292217,"connected_time":142000000000,"state":"active","ping":71},{"user_id":43,"name":"BladeTheSaltyBeard","steam_id":76561198089468426,"connected_time":5030000000000,"state":"active","ping":97},{"user_id":89,"name":"Maverick","steam_id":76561198322829814,"connected_time":3042000000000,"state":"active","ping":80}]},{"server_id":106,"name":"Uncletopia | Chicago | 2 | All Maps","name_short":"chi-2","host":"chi-1.us.uncletopia.com","port":27025,"enabled":true,"region":"us-central","cc":"us","latitude":41.881832,"longitude":-87.62318,"reserved":0,"last_update":"0001-01-01T00:00:00Z","name_a2s":"Uncletopia | Chicago | 2 | All Maps","protocol":17,"map":"cp_sunshine","folder":"tf","game":"Team Fortress","app_id":440,"player_count":0,"max_players":24,"Bots":0,"server_type":"Dedicated","server_os":"Linux","password":true,"vac":true,"version":"7961495","steam_id":85568392924469985,"keywords":["cp","nocrits","nodmgspread","uncletopia"],"game_id":440,"stv_port":27026,"stv_name":"Uncletopia | Chicago | 2 | All Maps | STV","players":null},{"server_id":402,"name":"Uncletopia | Chicago | 3 | All Maps","name_short":"chi-3","host":"chi-1.us.uncletopia.com","port":27035,"enabled":true,"region":"us-central","cc":"us","latitude":41.881832,"longitude":-87.62318,"reserved":0,"last_update":"0001-01-01T00:00:00Z","name_a2s":"Uncletopia | Chicago | 3 | All Maps","protocol":17,"map":"pl_upward","folder":"tf","game":"Team Fortress","app_id":440,"player_count":24,"max_players":24,"Bots":0,"server_type":"Dedicated","server_os":"Linux","password":true,"vac":true,"version":"7961495","steam_id":85568392924515191,"keywords":["nocrits","nodmgspread","payload","uncletopia"],"game_id":440,"stv_port":27036,"stv_name":"Uncletopia | Chicago | 3 | All Maps | STV","players":[{"user_id":50,"name":"Mikhaila (She/Her)","steam_id":76561198065005979,"connected_time":580000000000,"state":"active","ping":87},{"user_id":7,"name":"BrickDiggity","steam_id":76561198297548684,"connected_time":2921000000000,"state":"active","ping":87},{"user_id":44,"name":"Mr. Tickle","steam_id":76561198126684647,"connected_time":1026000000000,"state":"active","ping":56},{"user_id":11,"name":"King Spaghetti","steam_id":76561198027067890,"connected_time":2651000000000,"state":"active","ping":59},{"user_id":40,"name":"Mavrick","steam_id":76561198039678150,"connected_time":1451000000000,"state":"active","ping":60},{"user_id":13,"name":"maS","steam_id":76561198033846407,"connected_time":2570000000000,"state":"active","ping":46},{"user_id":14,"name":"baguette","steam_id":76561198066048980,"connected_time":2509000000000,"state":"active","ping":42},{"user_id":18,"name":"Mocanthl","steam_id":76561198043778324,"connected_time":2228000000000,"state":"active","ping":65},{"user_id":51,"name":"crackwhorexplosion","steam_id":76561199043015477,"connected_time":196000000000,"state":"active","ping":58},{"user_id":20,"name":"Insert_User_","steam_id":76561199229663997,"connected_time":2201000000000,"state":"active","ping":77},{"user_id":21,"name":"Lucon","steam_id":76561198067147724,"connected_time":2177000000000,"state":"active","ping":65},{"user_id":22,"name":"mr.sapyoursentry","steam_id":76561199202571828,"connected_time":2153000000000,"state":"active","ping":85},{"user_id":23,"name":"Cjmanjanson","steam_id":76561198048553474,"connected_time":2150000000000,"state":"active","ping":45},{"user_id":25,"name":"november","steam_id":76561198368460175,"connected_time":2107000000000,"state":"active","ping":84},{"user_id":26,"name":"sal","steam_id":76561198814096380,"connected_time":2099000000000,"state":"active","ping":75},{"user_id":27,"name":"Cosmic Torgue","steam_id":76561198828724945,"connected_time":2023000000000,"state":"active","ping":81},{"user_id":31,"name":"Drachma","steam_id":76561198007310514,"connected_time":1893000000000,"state":"active","ping":57},{"user_id":30,"name":"tiananmensquare1989","steam_id":76561199076837870,"connected_time":1923000000000,"state":"active","ping":99},{"user_id":32,"name":"RuinLucky","steam_id":76561199481172481,"connected_time":1890000000000,"state":"active","ping":99},{"user_id":48,"name":"LunarrD","steam_id":76561198811220107,"connected_time":618000000000,"state":"active","ping":84},{"user_id":41,"name":"tris","steam_id":76561198160335315,"connected_time":1089000000000,"state":"active","ping":45},{"user_id":46,"name":"King's Disease","steam_id":76561198076639682,"connected_time":1007000000000,"state":"active","ping":72},{"user_id":37,"name":"Roz257","steam_id":76561198842844532,"connected_time":1827000000000,"state":"active","ping":59},{"user_id":38,"name":"Lia_Rein TTV","steam_id":76561198151569597,"connected_time":1780000000000,"state":"active","ping":146}]},{"server_id":403,"name":"Uncletopia | Chicago | 4 | All Maps","name_short":"chi-4","host":"chi-1.us.uncletopia.com","port":27045,"enabled":true,"region":"us-central","cc":"us","latitude":41.881832,"longitude":-87.62318,"reserved":0,"last_update":"0001-01-01T00:00:00Z","name_a2s":"Uncletopia | Chicago | 4 | All Maps","protocol":17,"map":"cp_altitude","folder":"tf","game":"Team Fortress","app_id":440,"player_count":0,"max_players":24,"Bots":0,"server_type":"Dedicated","server_os":"Linux","password":true,"vac":true,"version":"7961495","steam_id":85568392924515193,"keywords":["cp","nocrits","nodmgspread","uncletopia"],"game_id":440,"stv_port":27046,"stv_name":"Uncletopia | Chicago | 4 | All Maps | STV","players":null},{"server_id":36,"name":"Uncletopia | Chicago | 5 | All Maps","name_short":"chi-5","host":"chi-2.us.uncletopia.com","port":27015,"enabled":true,"region":"us-central","cc":"us","latitude":41.881832,"longitude":-87.62318,"reserved":0,"last_update":"0001-01-01T00:00:00Z","name_a2s":"Uncletopia | Chicago | 5 | All Maps","protocol":17,"map":"pl_barnblitz","folder":"tf","game":"Team Fortress","app_id":440,"player_count":0,"max_players":24,"Bots":0,"server_type":"Dedicated","server_os":"Linux","password":true,"vac":true,"version":"7961495","steam_id":85568392924866362,"keywords":["nocrits","nodmgspread","payload","uncletopia"],"game_id":440,"stv_port":27016,"stv_name":"Uncletopia | Chicago | 5 | All Maps | STV","players":null},{"server_id":37,"name":"Uncletopia | Chicago | 6 | All Maps","name_short":"chi-6","host":"chi-2.us.uncletopia.com","port":27025,"enabled":true,"region":"us-central","cc":"us","latitude":41.881832,"longitude":-87.62318,"reserved":0,"last_update":"0001-01-01T00:00:00Z","name_a2s":"Uncletopia | Chicago | 6 | All Maps","protocol":17,"map":"pl_borneo","folder":"tf","game":"Team Fortress","app_id":440,"player_count":0,"max_players":24,"Bots":0,"server_type":"Dedicated","server_os":"Linux","password":true,"vac":true,"version":"7961495","steam_id":85568392924866363,"keywords":["nocrits","nodmgspread","payload","uncletopia"],"game_id":440,"stv_port":27026,"stv_name":"Uncletopia | Chicago | 6 | All Maps | STV","players":null},{"server_id":38,"name":"Uncletopia | Chicago | 7 | Stopwatch Beta","name_short":"chi-7","host":"chi-2.us.uncletopia.com","port":27035,"enabled":true,"region":"us-central","cc":"us","latitude":41.881832,"longitude":-87.62318,"reserved":0,"last_update":"0001-01-01T00:00:00Z","name_a2s":"Uncletopia | Chicago | 7 | Stopwatch Beta","protocol":17,"map":"pl_badwater","folder":"tf","game":"Team Fortress","app_id":440,"player_count":0,"max_players":24,"Bots":0,"server_type":"Dedicated","server_os":"Linux","password":true,"vac":true,"version":"7961495","steam_id":85568392924866364,"keywords":["nocrits","nodmgspread","payload","uncletopia"],"game_id":440,"stv_port":27036,"stv_name":"Uncletopia | Chicago | 7 | Stopwatch Beta | STV","players":null},{"server_id":39,"name":"Uncletopia | Chicago | 8 | Community","name_short":"chi-8","host":"chi-2.us.uncletopia.com","port":27045,"enabled":true,"region":"us-central","cc":"us","latitude":41.881832,"longitude":-87.62318,"reserved":0,"last_update":"0001-01-01T00:00:00Z","name_a2s":"Uncletopia | Chicago | 8 | Community","protocol":17,"map":"workshop/pl_cashworks_final1.ugc2904065412","folder":"tf","game":"Team Fortress","app_id":440,"player_count":24,"max_players":24,"Bots":0,"server_type":"Dedicated","server_os":"Linux","password":true,"vac":true,"version":"7961495","steam_id":85568392924866365,"keywords":["nocrits","nodmgspread","payload","uncletopia"],"game_id":440,"stv_port":27046,"stv_name":"Uncletopia | Chicago | 8 | Community | STV","players":[{"user_id":46,"name":"evegioyidechadab","steam_id":76561198075991626,"connected_time":1824000000000,"state":"active","ping":167},{"user_id":68,"name":"PieTheMan","steam_id":76561198027825469,"connected_time":169000000000,"state":"active","ping":96},{"user_id":69,"name":"Zhenaj","steam_id":76561199209016136,"connected_time":145000000000,"state":"active","ping":53},{"user_id":8,"name":"AndrewP","steam_id":76561198991129355,"connected_time":3675000000000,"state":"active","ping":94},{"user_id":24,"name":"Master Roshi","steam_id":76561198104954286,"connected_time":2836000000000,"state":"active","ping":173},{"user_id":54,"name":"[]{}#^*+=","steam_id":76561198127039453,"connected_time":1101000000000,"state":"active","ping":97},{"user_id":61,"name":"zeeette","steam_id":76561198325344637,"connected_time":611000000000,"state":"active","ping":89},{"user_id":71,"name":"CerealKiller","steam_id":76561198995741281,"connected_time":121000000000,"state":"active","ping":64},{"user_id":65,"name":"Squope","steam_id":76561198983129293,"connected_time":414000000000,"state":"active","ping":72},{"user_id":60,"name":"PaintingSky","steam_id":76561198315973318,"connected_time":684000000000,"state":"active","ping":73},{"user_id":67,"name":"to sem ideia #savetf2","steam_id":76561199052177486,"connected_time":198000000000,"state":"active","ping":189},{"user_id":19,"name":"GalacticHero2068","steam_id":76561199063612661,"connected_time":3144000000000,"state":"active","ping":91},{"user_id":20,"name":"summerlis","steam_id":76561198165324438,"connected_time":3090000000000,"state":"active","ping":83},{"user_id":41,"name":"submackeen","steam_id":76561198799855913,"connected_time":2246000000000,"state":"active","ping":72},{"user_id":66,"name":"La Tabda","steam_id":76561198120364620,"connected_time":201000000000,"state":"active","ping":99},{"user_id":51,"name":"pop7up","steam_id":76561198159869674,"connected_time":1358000000000,"state":"active","ping":66},{"user_id":31,"name":"jon.cinnamon","steam_id":76561198127316418,"connected_time":2544000000000,"state":"active","ping":70},{"user_id":70,"name":"Erndoo","steam_id":76561198031106685,"connected_time":143000000000,"state":"active","ping":58},{"user_id":34,"name":"filthy white trash","steam_id":76561198154176367,"connected_time":2492000000000,"state":"active","ping":73},{"user_id":72,"name":"Seller of Waffles","steam_id":76561198296018138,"connected_time":95000000000,"state":"active","ping":65},{"user_id":73,"name":"Master of Trolling","steam_id":76561198861356537,"connected_time":25000000000,"state":"active","ping":151},{"user_id":74,"name":"CourierZero","steam_id":76561198118449828,"connected_time":8000000000,"state":"spawning","ping":84},{"user_id":75,"name":"e","steam_id":76561198137759797,"connected_time":0,"state":"spawning","ping":65},{"user_id":63,"name":"AkimboAoki","steam_id":76561198158323058,"connected_time":480000000000,"state":"active","ping":92}]},{"server_id":8,"name":"Uncletopia | Dallas | 1 | All Maps","name_short":"dal-1","host":"dal-1.us.uncletopia.com","port":27015,"enabled":true,"region":"us-central","cc":"us","latitude":32.779167,"longitude":-96.80889,"reserved":0,"last_update":"0001-01-01T00:00:00Z","name_a2s":"Uncletopia | Dallas | 1 | All Maps","protocol":17,"map":"koth_harvest_final","folder":"tf","game":"Team Fortress","app_id":440,"player_count":24,"max_players":24,"Bots":0,"server_type":"Dedicated","server_os":"Linux","password":true,"vac":true,"version":"7961495","steam_id":85568392924469986,"keywords":["cp","nocrits","nodmgspread","uncletopia"],"game_id":440,"stv_port":27016,"stv_name":"Uncletopia | Dallas | 1 | All Maps | STV","players":[{"user_id":4,"name":"Jerk Tryhard (roleplay)","steam_id":76561199470538309,"connected_time":8814000000000,"state":"active","ping":74},{"user_id":92,"name":"Spicy Within Reason","steam_id":76561198066700370,"connected_time":278000000000,"state":"active","ping":101},{"user_id":6,"name":"leesh","steam_id":76561198079603938,"connected_time":8717000000000,"state":"active","ping":60},{"user_id":78,"name":"ATL1 | on my hunting trip","steam_id":76561198315341646,"connected_time":1445000000000,"state":"active","ping":86},{"user_id":16,"name":"duke8714","steam_id":76561199229982201,"connected_time":7010000000000,"state":"active","ping":62},{"user_id":69,"name":"soltuno","steam_id":76561198074430565,"connected_time":1972000000000,"state":"active","ping":95},{"user_id":54,"name":"pelt","steam_id":76561197993593754,"connected_time":3645000000000,"state":"active","ping":68},{"user_id":89,"name":"canakblasteran","steam_id":76561199472518822,"connected_time":708000000000,"state":"active","ping":78},{"user_id":49,"name":"Themed Hat Enjoyer","steam_id":76561198047101338,"connected_time":4319000000000,"state":"active","ping":91},{"user_id":51,"name":"Outta Kenya","steam_id":76561198153604875,"connected_time":4061000000000,"state":"active","ping":83},{"user_id":75,"name":"Sleuth","steam_id":76561198418288939,"connected_time":1629000000000,"state":"active","ping":99},{"user_id":90,"name":"Rob","steam_id":76561199187786660,"connected_time":623000000000,"state":"active","ping":53},{"user_id":81,"name":"xLeoparrd","steam_id":76561198940657194,"connected_time":1378000000000,"state":"active","ping":49},{"user_id":77,"name":"scout gaming","steam_id":76561199314496252,"connected_time":1461000000000,"state":"active","ping":101},{"user_id":47,"name":"CheeseCake488","steam_id":76561199407617942,"connected_time":4422000000000,"state":"active","ping":97},{"user_id":93,"name":"DJThunderHeart","steam_id":76561198274197575,"connected_time":107000000000,"state":"active","ping":84},{"user_id":91,"name":"Fightin Cow","steam_id":76561198080941486,"connected_time":303000000000,"state":"active","ping":56},{"user_id":85,"name":"!! NOT A FLYING TOY !!","steam_id":76561198069735882,"connected_time":967000000000,"state":"active","ping":84},{"user_id":66,"name":"40K","steam_id":76561198070599668,"connected_time":2672000000000,"state":"active","ping":97},{"user_id":84,"name":"Shmizzy","steam_id":76561198189418762,"connected_time":1037000000000,"state":"active","ping":108},{"user_id":83,"name":"rad killl raccoon","steam_id":76561198980975595,"connected_time":1243000000000,"state":"active","ping":125},{"user_id":71,"name":"FI LO","steam_id":76561198976530881,"connected_time":1792000000000,"state":"active","ping":74},{"user_id":82,"name":"Tr1pleABattery","steam_id":76561198028848587,"connected_time":1355000000000,"state":"active","ping":75},{"user_id":40,"name":"Ryzema","steam_id":76561198165594229,"connected_time":5499000000000,"state":"active","ping":86}]},{"server_id":108,"name":"Uncletopia | Dallas | 2 | All Maps","name_short":"dal-2","host":"dal-1.us.uncletopia.com","port":27025,"enabled":true,"region":"us-central","cc":"us","latitude":32.779167,"longitude":-96.80889,"reserved":0,"last_update":"0001-01-01T00:00:00Z","name_a2s":"Uncletopia | Dallas | 2 | All Maps","protocol":17,"map":"koth_highpass","folder":"tf","game":"Team Fortress","app_id":440,"player_count":2,"max_players":24,"Bots":0,"server_type":"Dedicated","server_os":"Linux","password":true,"vac":true,"version":"7961495","steam_id":85568392924469988,"keywords":["cp","nocrits","nodmgspread","uncletopia"],"game_id":440,"stv_port":27026,"stv_name":"Uncletopia | Dallas | 2 | All Maps | STV","players":[{"user_id":3,"name":"dicksnip","steam_id":76561198356515396,"connected_time":302000000000,"state":"active","ping":41},{"user_id":4,"name":"Boot Mcstink","steam_id":76561199226873917,"connected_time":110000000000,"state":"active","ping":76}]},{"server_id":404,"name":"Uncletopia | Dallas | 3 | All Maps","name_short":"dal-3","host":"dal-1.us.uncletopia.com","port":27035,"enabled":true,"region":"us-central","cc":"us","latitude":32.779167,"longitude":-96.80889,"reserved":0,"last_update":"0001-01-01T00:00:00Z","name_a2s":"Uncletopia | Dallas | 3 | All Maps","protocol":17,"map":"pl_frontier_final","folder":"tf","game":"Team Fortress","app_id":440,"player_count":0,"max_players":24,"Bots":0,"server_type":"Dedicated","server_os":"Linux","password":true,"vac":true,"version":"7961495","steam_id":85568392924515219,"keywords":["nocrits","nodmgspread","payload","uncletopia"],"game_id":440,"stv_port":27036,"stv_name":"Uncletopia | Dallas | 3 | All Maps | STV","players":null},{"server_id":405,"name":"Uncletopia | Dallas | 4 | Community","name_short":"dal-4","host":"dal-1.us.uncletopia.com","port":27045,"enabled":true,"region":"us-central","cc":"us","latitude":32.779167,"longitude":-96.80889,"reserved":0,"last_update":"0001-01-01T00:00:00Z","name_a2s":"Uncletopia | Dallas | 4 | Community","protocol":17,"map":"pl_badwater","folder":"tf","game":"Team Fortress","app_id":440,"player_count":0,"max_players":24,"Bots":0,"server_type":"Dedicated","server_os":"Linux","password":true,"vac":true,"version":"7961495","steam_id":85568392924515220,"keywords":["nocrits","nodmgspread","payload","uncletopia"],"game_id":440,"stv_port":27046,"stv_name":"Uncletopia | Dallas | 4 | Community | STV","players":null},{"server_id":5,"name":"Uncletopia | Frankfurt | 1 | All Maps","name_short":"frk-1","host":"frk-1.de.uncletopia.com","port":27015,"enabled":true,"region":"eu","cc":"de","latitude":50.110924,"longitude":8.682127,"reserved":0,"last_update":"0001-01-01T00:00:00Z","name_a2s":"Uncletopia | Frankfurt | 1 | All Maps","protocol":17,"map":"cp_sunshine","folder":"tf","game":"Team Fortress","app_id":440,"player_count":23,"max_players":24,"Bots":0,"server_type":"Dedicated","server_os":"Linux","password":true,"vac":true,"version":"7961495","steam_id":85568392924469989,"keywords":["cp","nocrits","nodmgspread","uncletopia"],"game_id":440,"stv_port":27016,"stv_name":"Uncletopia | Frankfurt | 1 | All Maps | STV","players":[{"user_id":390,"name":"Shrapnel","steam_id":76561198960458245,"connected_time":143000000000,"state":"active","ping":150},{"user_id":313,"name":"Life Symbiont","steam_id":76561198095952777,"connected_time":4910000000000,"state":"active","ping":56},{"user_id":226,"name":"vurtun","steam_id":76561198857395274,"connected_time":9060000000000,"state":"active","ping":44},{"user_id":381,"name":"the keebler","steam_id":76561199486326945,"connected_time":477000000000,"state":"active","ping":161},{"user_id":382,"name":"MudFlap","steam_id":76561198257541676,"connected_time":444000000000,"state":"active","ping":107},{"user_id":371,"name":"Filipesko","steam_id":76561198831347261,"connected_time":1053000000000,"state":"active","ping":65},{"user_id":386,"name":"Stinker_05","steam_id":76561198058320327,"connected_time":289000000000,"state":"active","ping":94},{"user_id":178,"name":"Geoff the Oracle","steam_id":76561198053759965,"connected_time":12988000000000,"state":"active","ping":71},{"user_id":355,"name":"Optimist 50","steam_id":76561198039631442,"connected_time":2235000000000,"state":"active","ping":76},{"user_id":380,"name":"chssdk","steam_id":76561198262231733,"connected_time":510000000000,"state":"active","ping":71},{"user_id":373,"name":"thorstianer","steam_id":76561199090304505,"connected_time":940000000000,"state":"active","ping":55},{"user_id":356,"name":"Spanns","steam_id":76561197998349793,"connected_time":2222000000000,"state":"active","ping":70},{"user_id":388,"name":"hedon/","steam_id":76561198249832770,"connected_time":229000000000,"state":"active","ping":57},{"user_id":361,"name":"Kaktus_kak","steam_id":76561198250938524,"connected_time":1321000000000,"state":"active","ping":52},{"user_id":376,"name":"Mailer","steam_id":76561198062690074,"connected_time":602000000000,"state":"active","ping":60},{"user_id":363,"name":"LivEssense","steam_id":76561198052476979,"connected_time":1304000000000,"state":"active","ping":75},{"user_id":393,"name":"ArisEyni","steam_id":76561198244112626,"connected_time":9000000000,"state":"spawning","ping":147},{"user_id":383,"name":"♂ Animan ♂ Studios ♂","steam_id":76561198308302932,"connected_time":441000000000,"state":"active","ping":92},{"user_id":384,"name":"RedFog","steam_id":76561198284713081,"connected_time":413000000000,"state":"active","ping":44},{"user_id":346,"name":"Tails8521","steam_id":76561198051747164,"connected_time":2631000000000,"state":"active","ping":59},{"user_id":387,"name":"iiiiiii","steam_id":76561199082156030,"connected_time":277000000000,"state":"active","ping":71},{"user_id":369,"name":"Valoxi","steam_id":76561197995042938,"connected_time":1169000000000,"state":"active","ping":70},{"user_id":350,"name":"HelwiiHill","steam_id":76561198066730552,"connected_time":2493000000000,"state":"active","ping":88}]},{"server_id":110,"name":"Uncletopia | Frankfurt | 2 | All Maps","name_short":"frk-2","host":"frk-1.de.uncletopia.com","port":27025,"enabled":true,"region":"eu","cc":"de","latitude":50.110924,"longitude":8.682127,"reserved":0,"last_update":"0001-01-01T00:00:00Z","name_a2s":"Uncletopia | Frankfurt | 2 | All Maps","protocol":17,"map":"pl_frontier_final","folder":"tf","game":"Team Fortress","app_id":440,"player_count":24,"max_players":24,"Bots":0,"server_type":"Dedicated","server_os":"Linux","password":true,"vac":true,"version":"7961495","steam_id":85568392924469990,"keywords":["nocrits","nodmgspread","payload","uncletopia"],"game_id":440,"stv_port":27026,"stv_name":"Uncletopia | Frankfurt | 2 | All Maps | STV","players":[{"user_id":180,"name":"Intimatt","steam_id":76561198066393546,"connected_time":1237000000000,"state":"active","ping":73},{"user_id":136,"name":"shof","steam_id":76561198196671363,"connected_time":2604000000000,"state":"active","ping":114},{"user_id":182,"name":"Mr.Schnittlauch","steam_id":76561198295868113,"connected_time":1081000000000,"state":"active","ping":45},{"user_id":138,"name":"BucklingPARTY34","steam_id":76561199026306287,"connected_time":2466000000000,"state":"active","ping":103},{"user_id":183,"name":"Penis Contortionist","steam_id":76561198073663784,"connected_time":1046000000000,"state":"active","ping":46},{"user_id":155,"name":"przksk","steam_id":76561198450284221,"connected_time":1998000000000,"state":"active","ping":74},{"user_id":141,"name":"StandAlloy","steam_id":76561199466218699,"connected_time":2415000000000,"state":"active","ping":104},{"user_id":190,"name":"boi","steam_id":76561198323494379,"connected_time":100000000000,"state":"active","ping":115},{"user_id":176,"name":"Krisu","steam_id":76561198158792510,"connected_time":1437000000000,"state":"active","ping":85},{"user_id":165,"name":"redder","steam_id":76561198168231617,"connected_time":1801000000000,"state":"active","ping":57},{"user_id":145,"name":"X-Rays","steam_id":76561199128442731,"connected_time":2263000000000,"state":"active","ping":112},{"user_id":166,"name":"Jeerven","steam_id":76561198259189841,"connected_time":1745000000000,"state":"active","ping":60},{"user_id":188,"name":"Cotton Eye Joe","steam_id":76561198080594207,"connected_time":183000000000,"state":"active","ping":67},{"user_id":184,"name":"Kollegvla","steam_id":76561198058268742,"connected_time":1026000000000,"state":"active","ping":61},{"user_id":149,"name":"Rengii76","steam_id":76561198869802076,"connected_time":2214000000000,"state":"active","ping":76},{"user_id":152,"name":"Nipa5000","steam_id":76561199027332005,"connected_time":2140000000000,"state":"active","ping":79},{"user_id":187,"name":"hhhhhh","steam_id":76561198031982574,"connected_time":647000000000,"state":"active","ping":60},{"user_id":185,"name":"Kanny","steam_id":76561198058810184,"connected_time":1022000000000,"state":"active","ping":58},{"user_id":163,"name":"Бубислав Палыч","steam_id":76561198161205559,"connected_time":1856000000000,"state":"active","ping":95},{"user_id":186,"name":"Bill_nye","steam_id":76561199216249214,"connected_time":1010000000000,"state":"active","ping":135},{"user_id":158,"name":"BallinScout","steam_id":76561198152443697,"connected_time":1952000000000,"state":"active","ping":69},{"user_id":191,"name":"NikodemosPL","steam_id":76561198271226975,"connected_time":2000000000,"state":"spawning","ping":78},{"user_id":160,"name":"help c gui lib flag as trojan","steam_id":76561198845044956,"connected_time":1943000000000,"state":"active","ping":67},{"user_id":189,"name":"Towercat","steam_id":76561198013141793,"connected_time":117000000000,"state":"active","ping":70}]},{"server_id":308,"name":"Uncletopia | Frankfurt | 3 | All Maps","name_short":"frk-3","host":"frk-1.de.uncletopia.com","port":27035,"enabled":true,"region":"eu","cc":"de","latitude":50.110924,"longitude":8.682127,"reserved":0,"last_update":"0001-01-01T00:00:00Z","name_a2s":"Uncletopia | Frankfurt | 3 | All Maps","protocol":17,"map":"cp_sunshine","folder":"tf","game":"Team Fortress","app_id":440,"player_count":17,"max_players":24,"Bots":0,"server_type":"Dedicated","server_os":"Linux","password":true,"vac":true,"version":"7961495","steam_id":85568392924504274,"keywords":["cp","nocrits","nodmgspread","uncletopia"],"game_id":440,"stv_port":27036,"stv_name":"Uncletopia | Frankfurt | 3 | All Maps | STV","players":[{"user_id":34,"name":"hyvakii705","steam_id":76561198086630552,"connected_time":19388000000000,"state":"active","ping":90},{"user_id":288,"name":"PH4NTOMtry","steam_id":76561198979390263,"connected_time":2755000000000,"state":"active","ping":80},{"user_id":323,"name":"Lyncurion","steam_id":76561199260022725,"connected_time":871000000000,"state":"active","ping":73},{"user_id":343,"name":"[SQ UA] MartianDill","steam_id":76561198405382822,"connected_time":128000000000,"state":"active","ping":73},{"user_id":313,"name":"Пихсили","steam_id":76561198870763698,"connected_time":1905000000000,"state":"active","ping":105},{"user_id":337,"name":"neJ","steam_id":76561198003397488,"connected_time":533000000000,"state":"active","ping":72},{"user_id":321,"name":"rabbit | trade.tf","steam_id":76561198378990855,"connected_time":1056000000000,"state":"active","ping":78},{"user_id":333,"name":"max","steam_id":76561198039534890,"connected_time":585000000000,"state":"active","ping":47},{"user_id":314,"name":"FallenHerald","steam_id":76561199011720024,"connected_time":1883000000000,"state":"active","ping":71},{"user_id":289,"name":"old dumpster","steam_id":76561198251951544,"connected_time":2753000000000,"state":"active","ping":137},{"user_id":293,"name":"DarkCIbrid","steam_id":76561198141270232,"connected_time":2458000000000,"state":"active","ping":61},{"user_id":316,"name":"Redmond Nagisa","steam_id":76561198339056295,"connected_time":1461000000000,"state":"active","ping":74},{"user_id":327,"name":"king koopa the chemical abuser","steam_id":76561198087068797,"connected_time":731000000000,"state":"active","ping":57},{"user_id":328,"name":"reke","steam_id":76561199149307190,"connected_time":725000000000,"state":"active","ping":60},{"user_id":315,"name":"Stalin","steam_id":76561198302520466,"connected_time":1701000000000,"state":"spawning","ping":205},{"user_id":334,"name":"Fiddlah","steam_id":76561198077916925,"connected_time":577000000000,"state":"active","ping":44},{"user_id":307,"name":"Salamdar","steam_id":76561198061910407,"connected_time":2246000000000,"state":"active","ping":57}]},{"server_id":309,"name":"Uncletopia | Frankfurt | 4 | All Maps","name_short":"frk-4","host":"frk-1.de.uncletopia.com","port":27045,"enabled":true,"region":"eu","cc":"de","latitude":50.110924,"longitude":8.682127,"reserved":0,"last_update":"0001-01-01T00:00:00Z","name_a2s":"Uncletopia | Frankfurt | 4 | All Maps","protocol":17,"map":"pl_swiftwater_final1","folder":"tf","game":"Team Fortress","app_id":440,"player_count":24,"max_players":24,"Bots":0,"server_type":"Dedicated","server_os":"Linux","password":true,"vac":true,"version":"7961495","steam_id":85568392924504275,"keywords":["nocrits","nodmgspread","payload","uncletopia"],"game_id":440,"stv_port":27046,"stv_name":"Uncletopia | Frankfurt | 4 | All Maps | STV","players":[{"user_id":211,"name":"wouris","steam_id":76561198876188003,"connected_time":2306000000000,"state":"active","ping":60},{"user_id":235,"name":"leonardini.w","steam_id":76561199097963071,"connected_time":977000000000,"state":"active","ping":83},{"user_id":189,"name":"Pico","steam_id":76561198063552545,"connected_time":4335000000000,"state":"active","ping":100},{"user_id":229,"name":"jovi_","steam_id":76561198449280552,"connected_time":1125000000000,"state":"active","ping":62},{"user_id":210,"name":"Numb3r5421","steam_id":76561199183216118,"connected_time":2630000000000,"state":"active","ping":151},{"user_id":223,"name":"UNDORA","steam_id":76561198852456692,"connected_time":1280000000000,"state":"active","ping":88},{"user_id":205,"name":"choob303","steam_id":76561198206375860,"connected_time":2898000000000,"state":"active","ping":62},{"user_id":237,"name":"Adushka","steam_id":76561198053095808,"connected_time":870000000000,"state":"active","ping":65},{"user_id":231,"name":"MIKA","steam_id":76561198312451814,"connected_time":1060000000000,"state":"active","ping":46},{"user_id":206,"name":"xavier","steam_id":76561198076494034,"connected_time":2896000000000,"state":"active","ping":53},{"user_id":212,"name":"TheEventGuy","steam_id":76561197972797744,"connected_time":2147000000000,"state":"active","ping":61},{"user_id":228,"name":"swueuws","steam_id":76561198020716743,"connected_time":1161000000000,"state":"active","ping":48},{"user_id":163,"name":"guh","steam_id":76561198257158275,"connected_time":5638000000000,"state":"active","ping":142},{"user_id":238,"name":"당신은 보노보입니다","steam_id":76561198017114970,"connected_time":543000000000,"state":"active","ping":51},{"user_id":179,"name":"GuSkand","steam_id":76561198043775605,"connected_time":4794000000000,"state":"active","ping":82},{"user_id":230,"name":"Master Of Noob","steam_id":76561198217926783,"connected_time":1105000000000,"state":"active","ping":74},{"user_id":194,"name":"Schmack","steam_id":76561198026535437,"connected_time":4274000000000,"state":"active","ping":61},{"user_id":207,"name":"holy moly","steam_id":76561198163081194,"connected_time":2880000000000,"state":"active","ping":60},{"user_id":219,"name":"HUGO","steam_id":76561198317134996,"connected_time":1313000000000,"state":"active","ping":84},{"user_id":232,"name":"-15 Social Credit","steam_id":76561199013107775,"connected_time":1040000000000,"state":"active","ping":76},{"user_id":233,"name":"Amdu","steam_id":76561198939711234,"connected_time":1027000000000,"state":"active","ping":106},{"user_id":244,"name":"electrical orangutan","steam_id":76561198031573426,"connected_time":201000000000,"state":"active","ping":64},{"user_id":234,"name":"Diggity","steam_id":76561198297157085,"connected_time":1022000000000,"state":"active","ping":47},{"user_id":239,"name":"Doriian","steam_id":76561198071438810,"connected_time":514000000000,"state":"active","ping":76}]},{"server_id":310,"name":"Uncletopia | Frankfurt | 5 | All Maps","name_short":"frk-5","host":"frk-1.de.uncletopia.com","port":27055,"enabled":true,"region":"eu","cc":"de","latitude":50.110924,"longitude":8.682127,"reserved":0,"last_update":"0001-01-01T00:00:00Z","name_a2s":"Uncletopia | Frankfurt | 5 | All Maps","protocol":17,"map":"cp_mossrock","folder":"tf","game":"Team Fortress","app_id":440,"player_count":24,"max_players":24,"Bots":0,"server_type":"Dedicated","server_os":"Linux","password":true,"vac":true,"version":"7961495","steam_id":85568392924504277,"keywords":["cp","nocrits","nodmgspread","uncletopia"],"game_id":440,"stv_port":27056,"stv_name":"Uncletopia | Frankfurt | 5 | All Maps | STV","players":[{"user_id":44,"name":"Боевой комар","steam_id":76561198796564094,"connected_time":2701000000000,"state":"active","ping":70},{"user_id":9,"name":"walluu","steam_id":76561198121830870,"connected_time":4525000000000,"state":"active","ping":74},{"user_id":75,"name":"Certified Hood pybro (ua)","steam_id":76561198970562699,"connected_time":369000000000,"state":"active","ping":54},{"user_id":16,"name":"nemelex","steam_id":76561198958005865,"connected_time":3990000000000,"state":"active","ping":58},{"user_id":78,"name":"Yilow","steam_id":76561198040036642,"connected_time":97000000000,"state":"active","ping":70},{"user_id":19,"name":"Hexagon","steam_id":76561198151205758,"connected_time":3812000000000,"state":"active","ping":49},{"user_id":56,"name":"G/3","steam_id":76561198234844188,"connected_time":1896000000000,"state":"active","ping":58},{"user_id":57,"name":"András","steam_id":76561198272546996,"connected_time":1895000000000,"state":"active","ping":62},{"user_id":73,"name":"SpilledMilk","steam_id":76561198174123971,"connected_time":511000000000,"state":"active","ping":60},{"user_id":66,"name":"cotroD","steam_id":76561198130063938,"connected_time":930000000000,"state":"active","ping":99},{"user_id":24,"name":"4kku","steam_id":76561198315976800,"connected_time":3665000000000,"state":"active","ping":87},{"user_id":71,"name":"Dzieciol","steam_id":76561198160237556,"connected_time":718000000000,"state":"active","ping":62},{"user_id":76,"name":"9/11 is a myth","steam_id":76561198081673615,"connected_time":353000000000,"state":"active","ping":77},{"user_id":27,"name":"Çanak yalayıcı","steam_id":76561198113677852,"connected_time":3643000000000,"state":"active","ping":79},{"user_id":45,"name":"Maxwell","steam_id":76561198088925893,"connected_time":2679000000000,"state":"active","ping":85},{"user_id":29,"name":"Lorenzo Lovers","steam_id":76561198073973581,"connected_time":3596000000000,"state":"active","ping":80},{"user_id":68,"name":"pizda.com","steam_id":76561198179392402,"connected_time":861000000000,"state":"active","ping":48},{"user_id":31,"name":"Wenolainen","steam_id":76561198334592800,"connected_time":3590000000000,"state":"active","ping":83},{"user_id":69,"name":"fronin","steam_id":76561198189553021,"connected_time":850000000000,"state":"active","ping":66},{"user_id":70,"name":"Popop","steam_id":76561198004793795,"connected_time":821000000000,"state":"active","ping":46},{"user_id":60,"name":"XPullaHiiri","steam_id":76561198031652375,"connected_time":1435000000000,"state":"active","ping":87},{"user_id":54,"name":"T_G_G","steam_id":76561199114568070,"connected_time":2396000000000,"state":"active","ping":110},{"user_id":59,"name":"Shourai","steam_id":76561198201192634,"connected_time":1865000000000,"state":"active","ping":58},{"user_id":77,"name":"ape arc","steam_id":76561198038976075,"connected_time":317000000000,"state":"active","ping":86}]},{"server_id":311,"name":"Uncletopia | Frankfurt | 6 | All Maps","name_short":"frk-6","host":"frk-1.de.uncletopia.com","port":27065,"enabled":true,"region":"eu","cc":"de","latitude":50.110924,"longitude":8.682127,"reserved":0,"last_update":"0001-01-01T00:00:00Z","name_a2s":"Uncletopia | Frankfurt | 6 | All Maps","protocol":17,"map":"koth_cascade","folder":"tf","game":"Team Fortress","app_id":440,"player_count":0,"max_players":24,"Bots":0,"server_type":"Dedicated","server_os":"Linux","password":true,"vac":true,"version":"7961495","steam_id":85568392924504278,"keywords":["cp","nocrits","nodmgspread","uncletopia"],"game_id":440,"stv_port":27066,"stv_name":"Uncletopia | Frankfurt | 6 | All Maps | STV","players":null},{"server_id":23,"name":"Uncletopia | Frankfurt | 7 | Stopwatch Beta","name_short":"frk-7","host":"frk-1.de.uncletopia.com","port":27075,"enabled":true,"region":"eu","cc":"de","latitude":50.110924,"longitude":8.682127,"reserved":0,"last_update":"0001-01-01T00:00:00Z","name_a2s":"Uncletopia | Frankfurt | 7 | Stopwatch Beta","protocol":17,"map":"pl_borneo","folder":"tf","game":"Team Fortress","app_id":440,"player_count":0,"max_players":24,"Bots":0,"server_type":"Dedicated","server_os":"Linux","password":true,"vac":true,"version":"7961495","steam_id":85568392924742827,"keywords":["nocrits","nodmgspread","payload","uncletopia"],"game_id":440,"stv_port":27076,"stv_name":"Uncletopia | Frankfurt | 7 | Stopwatch Beta | STV","players":null},{"server_id":24,"name":"Uncletopia | Frankfurt | 8 | Community","name_short":"frk-8","host":"frk-1.de.uncletopia.com","port":27085,"enabled":true,"region":"eu","cc":"de","latitude":50.110924,"longitude":8.682127,"reserved":0,"last_update":"0001-01-01T00:00:00Z","name_a2s":"Uncletopia | Frankfurt | 8 | Community","protocol":17,"map":"workshop/koth_product_final.ugc454272353","folder":"tf","game":"Team Fortress","app_id":440,"player_count":0,"max_players":24,"Bots":0,"server_type":"Dedicated","server_os":"Linux","password":true,"vac":true,"version":"7961495","steam_id":85568392924742828,"keywords":["cp","nocrits","nodmgspread","uncletopia"],"game_id":440,"stv_port":27086,"stv_name":"Uncletopia | Frankfurt | 8 | Community | STV","players":null},{"server_id":202,"name":"Uncletopia | Hong Kong | 1 | All Maps","name_short":"hgk-1","host":"hgk-1.hk.uncletopia.com","port":27015,"enabled":true,"region":"asia","cc":"hk","latitude":22.302711,"longitude":114.177216,"reserved":0,"last_update":"0001-01-01T00:00:00Z","name_a2s":"Uncletopia | Hong Kong | 1 | All Maps","protocol":17,"map":"pl_frontier_final","folder":"tf","game":"Team Fortress","app_id":440,"player_count":23,"max_players":24,"Bots":0,"server_type":"Dedicated","server_os":"Linux","password":true,"vac":true,"version":"7961495","steam_id":85568392924494504,"keywords":["nocrits","nodmgspread","payload","uncletopia"],"game_id":440,"stv_port":27016,"stv_name":"Uncletopia | Hong Kong | 1 | All Maps | STV","players":[{"user_id":439,"name":"lost child at disneyland","steam_id":76561198286261614,"connected_time":748000000000,"state":"active","ping":78},{"user_id":440,"name":"Zizman","steam_id":76561198446562910,"connected_time":365000000000,"state":"active","ping":144},{"user_id":371,"name":"TomCat","steam_id":76561198133744053,"connected_time":5680000000000,"state":"active","ping":112},{"user_id":441,"name":"PPSR","steam_id":76561198999569513,"connected_time":66000000000,"state":"active","ping":166},{"user_id":396,"name":"ArcticDolphin","steam_id":76561198203626319,"connected_time":3346000000000,"state":"active","ping":158},{"user_id":394,"name":"mrfreeman","steam_id":76561199189735185,"connected_time":4415000000000,"state":"active","ping":75},{"user_id":433,"name":"藍星人㊣Huang","steam_id":76561197979279092,"connected_time":1162000000000,"state":"active","ping":87},{"user_id":345,"name":"diss","steam_id":76561199085668965,"connected_time":7640000000000,"state":"active","ping":59},{"user_id":428,"name":"Stewb","steam_id":76561198131423270,"connected_time":1565000000000,"state":"active","ping":62},{"user_id":201,"name":"Milf (The fan O'Milk)","steam_id":76561198213031155,"connected_time":20788000000000,"state":"active","ping":97},{"user_id":212,"name":"p1st0n","steam_id":76561198992723983,"connected_time":18521000000000,"state":"active","ping":98},{"user_id":432,"name":"Talkk More","steam_id":76561198305424433,"connected_time":1220000000000,"state":"active","ping":81},{"user_id":434,"name":"val | dragon arc","steam_id":76561198981897135,"connected_time":960000000000,"state":"active","ping":76},{"user_id":405,"name":"Pillboi","steam_id":76561198011172886,"connected_time":3041000000000,"state":"active","ping":43},{"user_id":435,"name":"ceestiar","steam_id":76561198125946388,"connected_time":944000000000,"state":"active","ping":88},{"user_id":438,"name":"aisha","steam_id":76561198132172320,"connected_time":877000000000,"state":"active","ping":77},{"user_id":337,"name":"nicky manage","steam_id":76561198055553140,"connected_time":8470000000000,"state":"active","ping":77},{"user_id":368,"name":"母の肉団子@hao123.com","steam_id":76561198069561896,"connected_time":6373000000000,"state":"active","ping":44},{"user_id":418,"name":"arona (devbuild v0.69.2)","steam_id":76561199487160658,"connected_time":2958000000000,"state":"active","ping":55},{"user_id":296,"name":"Dokutah, Husband of W","steam_id":76561199273390091,"connected_time":12710000000000,"state":"active","ping":63},{"user_id":357,"name":"Asüra","steam_id":76561198320939701,"connected_time":6925000000000,"state":"active","ping":76},{"user_id":378,"name":"blue drink","steam_id":76561199146847474,"connected_time":5270000000000,"state":"active","ping":46},{"user_id":408,"name":"Puddin","steam_id":76561198140052918,"connected_time":3017000000000,"state":"active","ping":92}]},{"server_id":1,"name":"Uncletopia | Los Angeles | 1 | All Maps","name_short":"lax-1","host":"lax-1.us.uncletopia.com","port":27015,"enabled":true,"region":"us-west","cc":"us","latitude":33.94279,"longitude":-118.41004,"reserved":0,"last_update":"0001-01-01T00:00:00Z","name_a2s":"Uncletopia | Los Angeles | 1 | All Maps","protocol":17,"map":"cp_mountainlab","folder":"tf","game":"Team Fortress","app_id":440,"player_count":0,"max_players":24,"Bots":0,"server_type":"Dedicated","server_os":"Linux","password":true,"vac":true,"version":"7961495","steam_id":85568392924469991,"keywords":["cp","nocrits","nodmgspread","uncletopia"],"game_id":440,"stv_port":27016,"stv_name":"Uncletopia | Los Angeles | 1 | All Maps | STV","players":null},{"server_id":112,"name":"Uncletopia | Los Angeles | 2 | All Maps","name_short":"lax-2","host":"lax-1.us.uncletopia.com","port":27025,"enabled":true,"region":"us-west","cc":"us","latitude":33.94279,"longitude":-118.41004,"reserved":0,"last_update":"0001-01-01T00:00:00Z","name_a2s":"Uncletopia | Los Angeles | 2 | All Maps","protocol":17,"map":"pl_borneo","folder":"tf","game":"Team Fortress","app_id":440,"player_count":0,"max_players":24,"Bots":0,"server_type":"Dedicated","server_os":"Linux","password":true,"vac":true,"version":"7961495","steam_id":85568392924469992,"keywords":["nocrits","nodmgspread","payload","uncletopia"],"game_id":440,"stv_port":27026,"stv_name":"Uncletopia | Los Angeles | 2 | All Maps | STV","players":null},{"server_id":324,"name":"Uncletopia | Los Angeles | 3 | All Maps","name_short":"lax-3","host":"lax-1.us.uncletopia.com","port":27035,"enabled":true,"region":"us-west","cc":"us","latitude":33.94279,"longitude":-118.41004,"reserved":0,"last_update":"0001-01-01T00:00:00Z","name_a2s":"Uncletopia | Los Angeles | 3 | All Maps","protocol":17,"map":"pl_snowycoast","folder":"tf","game":"Team Fortress","app_id":440,"player_count":4,"max_players":24,"Bots":0,"server_type":"Dedicated","server_os":"Linux","password":true,"vac":true,"version":"7961495","steam_id":85568392924510198,"keywords":["nocrits","nodmgspread","payload","uncletopia"],"game_id":440,"stv_port":27036,"stv_name":"Uncletopia | Los Angeles | 3 | All Maps | STV","players":[{"user_id":4,"name":"Toadwinter","steam_id":76561198329216601,"connected_time":688000000000,"state":"active","ping":55},{"user_id":6,"name":"Idk","steam_id":76561198971629959,"connected_time":270000000000,"state":"active","ping":145},{"user_id":7,"name":"Synical","steam_id":76561198917787801,"connected_time":216000000000,"state":"active","ping":33},{"user_id":8,"name":"Modstin","steam_id":76561198080081255,"connected_time":141000000000,"state":"active","ping":41}]},{"server_id":25,"name":"Uncletopia | Los Angeles | 4 | Stopwatch Beta","name_short":"lax-4","host":"lax-1.us.uncletopia.com","port":27045,"enabled":true,"region":"us-west","cc":"us","latitude":33.94279,"longitude":-118.41004,"reserved":0,"last_update":"0001-01-01T00:00:00Z","name_a2s":"Uncletopia | Los Angeles | 4 | Stopwatch Beta","protocol":17,"map":"pl_upward","folder":"tf","game":"Team Fortress","app_id":440,"player_count":0,"max_players":24,"Bots":0,"server_type":"Dedicated","server_os":"Linux","password":true,"vac":true,"version":"7961495","steam_id":85568392924510199,"keywords":["nocrits","nodmgspread","payload","uncletopia"],"game_id":440,"stv_port":27046,"stv_name":"Uncletopia | Los Angeles | 4 | Stopwatch Beta | STV","players":null},{"server_id":11,"name":"Uncletopia | London | 1 | All Maps","name_short":"lon-1","host":"lon-1.uk.uncletopia.com","port":27015,"enabled":true,"region":"eu","cc":"gb","latitude":51.509865,"longitude":-0.118092,"reserved":0,"last_update":"0001-01-01T00:00:00Z","name_a2s":"Uncletopia | London | 1 | All Maps","protocol":17,"map":"pl_barnblitz","folder":"tf","game":"Team Fortress","app_id":440,"player_count":24,"max_players":24,"Bots":0,"server_type":"Dedicated","server_os":"Linux","password":true,"vac":true,"version":"7961495","steam_id":85568392924367362,"keywords":["nocrits","nodmgspread","payload","uncletopia"],"game_id":440,"stv_port":27016,"stv_name":"Uncletopia | London | 1 | All Maps | STV","players":[{"user_id":271,"name":"Snake-chan","steam_id":76561199044755854,"connected_time":11329000000000,"state":"active","ping":74},{"user_id":360,"name":"Dr ADHD MD","steam_id":76561198025252995,"connected_time":4086000000000,"state":"active","ping":49},{"user_id":384,"name":"unconditional love","steam_id":76561199026097466,"connected_time":1926000000000,"state":"active","ping":69},{"user_id":304,"name":"Mr_Pulse_","steam_id":76561198095001602,"connected_time":9022000000000,"state":"active","ping":98},{"user_id":412,"name":"Hailey","steam_id":76561198341963829,"connected_time":163000000000,"state":"active","ping":134},{"user_id":385,"name":"pyromaniac","steam_id":76561198292781255,"connected_time":1798000000000,"state":"active","ping":77},{"user_id":391,"name":"*_Peashooter_*","steam_id":76561198851472632,"connected_time":1645000000000,"state":"active","ping":54},{"user_id":356,"name":"Chef Magpie","steam_id":76561198043926401,"connected_time":4350000000000,"state":"active","ping":98},{"user_id":365,"name":"Kirby2Rosy","steam_id":76561198013115723,"connected_time":3430000000000,"state":"active","ping":59},{"user_id":386,"name":"KnugenIV","steam_id":76561198127091993,"connected_time":1792000000000,"state":"active","ping":63},{"user_id":346,"name":"SuntanPikachu","steam_id":76561198121242476,"connected_time":5636000000000,"state":"active","ping":71},{"user_id":383,"name":"p!ke","steam_id":76561198416081952,"connected_time":2121000000000,"state":"active","ping":60},{"user_id":404,"name":"da prince that was promised","steam_id":76561199085624224,"connected_time":703000000000,"state":"active","ping":67},{"user_id":329,"name":"hipster_doofus","steam_id":76561197970902697,"connected_time":6699000000000,"state":"active","ping":58},{"user_id":396,"name":"MiKEY","steam_id":76561198058600622,"connected_time":1205000000000,"state":"active","ping":44},{"user_id":305,"name":":3","steam_id":76561198169471853,"connected_time":8846000000000,"state":"active","ping":37},{"user_id":370,"name":"Mr.O #deletesniper","steam_id":76561198039567498,"connected_time":3330000000000,"state":"active","ping":53},{"user_id":399,"name":"pavle","steam_id":76561198351777058,"connected_time":1150000000000,"state":"active","ping":89},{"user_id":388,"name":"emag live","steam_id":76561198047164140,"connected_time":1730000000000,"state":"active","ping":63},{"user_id":358,"name":"jermany","steam_id":76561198126599355,"connected_time":4179000000000,"state":"active","ping":32},{"user_id":403,"name":"MIXERRULES | KnockBack.TV","steam_id":76561198087658491,"connected_time":894000000000,"state":"active","ping":145},{"user_id":371,"name":"exRage","steam_id":76561198449953655,"connected_time":3329000000000,"state":"active","ping":75},{"user_id":372,"name":"hammertime","steam_id":76561199097714393,"connected_time":3293000000000,"state":"active","ping":170},{"user_id":379,"name":"gr3821","steam_id":76561198091531010,"connected_time":2429000000000,"state":"active","ping":44}]},{"server_id":114,"name":"Uncletopia | London | 2 | All Maps","name_short":"lon-2","host":"lon-1.uk.uncletopia.com","port":27025,"enabled":true,"region":"eu","cc":"gb","latitude":51.509865,"longitude":-0.118092,"reserved":0,"last_update":"0001-01-01T00:00:00Z","name_a2s":"Uncletopia | London | 2 | All Maps","protocol":17,"map":"cp_mountainlab","folder":"tf","game":"Team Fortress","app_id":440,"player_count":18,"max_players":24,"Bots":0,"server_type":"Dedicated","server_os":"Linux","password":true,"vac":true,"version":"7961495","steam_id":85568392924470941,"keywords":["cp","nocrits","nodmgspread","uncletopia"],"game_id":440,"stv_port":27026,"stv_name":"Uncletopia | London | 2 | All Maps | STV","players":[{"user_id":343,"name":"RiX","steam_id":76561197969053733,"connected_time":258000000000,"state":"active","ping":59},{"user_id":342,"name":"Juhkuu","steam_id":76561198079326000,"connected_time":472000000000,"state":"active","ping":89},{"user_id":323,"name":"simeswipe","steam_id":76561198188471097,"connected_time":1519000000000,"state":"active","ping":75},{"user_id":344,"name":"ZOMBIEWIZARD","steam_id":76561198382526760,"connected_time":120000000000,"state":"active","ping":63},{"user_id":334,"name":"My left foot itches","steam_id":76561198078411001,"connected_time":1287000000000,"state":"active","ping":89},{"user_id":326,"name":"Shadowwalker","steam_id":76561198344642637,"connected_time":1478000000000,"state":"active","ping":158},{"user_id":316,"name":"Marabosha","steam_id":76561198137599173,"connected_time":2081000000000,"state":"active","ping":115},{"user_id":345,"name":"Vectillion","steam_id":76561198074292454,"connected_time":33000000000,"state":"active","ping":66},{"user_id":241,"name":"AleXandriX","steam_id":76561198035203950,"connected_time":6656000000000,"state":"active","ping":62},{"user_id":338,"name":"Kiogeki","steam_id":76561197996707843,"connected_time":911000000000,"state":"active","ping":31},{"user_id":332,"name":"Cosmetic brain","steam_id":76561198055936410,"connected_time":1369000000000,"state":"active","ping":79},{"user_id":305,"name":"MaeMae","steam_id":76561198252524452,"connected_time":3289000000000,"state":"active","ping":45},{"user_id":299,"name":"Jalapeño","steam_id":76561198113373333,"connected_time":3379000000000,"state":"active","ping":64},{"user_id":321,"name":"Dispenser(Dispenser)","steam_id":76561199211831658,"connected_time":1637000000000,"state":"active","ping":57},{"user_id":318,"name":"my mom","steam_id":76561199225201569,"connected_time":1745000000000,"state":"active","ping":118},{"user_id":306,"name":"gagalak","steam_id":76561198089979108,"connected_time":3263000000000,"state":"active","ping":96},{"user_id":333,"name":"someone","steam_id":76561199471582243,"connected_time":1327000000000,"state":"active","ping":99},{"user_id":335,"name":"Aspxts","steam_id":76561199125254746,"connected_time":1279000000000,"state":"active","ping":140}]},{"server_id":320,"name":"Uncletopia | London | 3 | All Maps","name_short":"lon-3","host":"lon-1.uk.uncletopia.com","port":27035,"enabled":true,"region":"eu","cc":"gb","latitude":51.509865,"longitude":-0.118092,"reserved":0,"last_update":"0001-01-01T00:00:00Z","name_a2s":"Uncletopia | London | 3 | All Maps","protocol":17,"map":"pl_borneo","folder":"tf","game":"Team Fortress","app_id":440,"player_count":24,"max_players":24,"Bots":0,"server_type":"Dedicated","server_os":"Linux","password":true,"vac":true,"version":"7961495","steam_id":85568392924510192,"keywords":["nocrits","nodmgspread","payload","uncletopia"],"game_id":440,"stv_port":27036,"stv_name":"Uncletopia | London | 3 | All Maps | STV","players":[{"user_id":111,"name":"NALA","steam_id":76561198039806469,"connected_time":2333000000000,"state":"active","ping":79},{"user_id":95,"name":"Luuk","steam_id":76561198088266026,"connected_time":3027000000000,"state":"active","ping":43},{"user_id":118,"name":"Kamanie","steam_id":76561198135448255,"connected_time":1797000000000,"state":"active","ping":62},{"user_id":54,"name":"Eggcracker","steam_id":76561199274850641,"connected_time":5814000000000,"state":"active","ping":86},{"user_id":119,"name":"DreadAngel","steam_id":76561198049357836,"connected_time":1781000000000,"state":"active","ping":70},{"user_id":126,"name":"Pronton","steam_id":76561198082502910,"connected_time":1641000000000,"state":"active","ping":60},{"user_id":39,"name":"mohemmedmokhter2005","steam_id":76561199197650506,"connected_time":6622000000000,"state":"active","ping":111},{"user_id":148,"name":"Seiko Lili","steam_id":76561199097542270,"connected_time":90000000000,"state":"active","ping":75},{"user_id":107,"name":"джегеми хэпкингс","steam_id":76561198131531394,"connected_time":2807000000000,"state":"active","ping":102},{"user_id":140,"name":"Sande","steam_id":76561198275239290,"connected_time":699000000000,"state":"active","ping":78},{"user_id":146,"name":"System","steam_id":76561199442503973,"connected_time":296000000000,"state":"active","ping":71},{"user_id":133,"name":"Boki","steam_id":76561198044553351,"connected_time":1248000000000,"state":"active","ping":60},{"user_id":147,"name":"non_ai","steam_id":76561198270951938,"connected_time":233000000000,"state":"active","ping":112},{"user_id":125,"name":"WomenBeardLike","steam_id":76561198390184314,"connected_time":1661000000000,"state":"active","ping":60},{"user_id":137,"name":"кекс","steam_id":76561199203525443,"connected_time":836000000000,"state":"active","ping":94},{"user_id":132,"name":"panakid","steam_id":76561198364121077,"connected_time":1404000000000,"state":"active","ping":98},{"user_id":99,"name":"Xiqui","steam_id":76561198818386611,"connected_time":2988000000000,"state":"active","ping":76},{"user_id":109,"name":"fartcollector","steam_id":76561198048304703,"connected_time":2434000000000,"state":"active","ping":47},{"user_id":117,"name":"joachym","steam_id":76561198428579761,"connected_time":1876000000000,"state":"active","ping":69},{"user_id":138,"name":"emti","steam_id":76561198836233001,"connected_time":834000000000,"state":"active","ping":74},{"user_id":127,"name":"mob","steam_id":76561198099696876,"connected_time":1631000000000,"state":"active","ping":75},{"user_id":149,"name":"Neo","steam_id":76561198029381039,"connected_time":8000000000,"state":"active","ping":55},{"user_id":116,"name":"cynosure","steam_id":76561198121286517,"connected_time":2025000000000,"state":"active","ping":30},{"user_id":145,"name":"Lammet","steam_id":76561198149409729,"connected_time":505000000000,"state":"active","ping":67}]},{"server_id":321,"name":"Uncletopia | London | 4 | All Maps","name_short":"lon-4","host":"lon-1.uk.uncletopia.com","port":27045,"enabled":true,"region":"eu","cc":"gb","latitude":51.509865,"longitude":-0.118092,"reserved":0,"last_update":"0001-01-01T00:00:00Z","name_a2s":"Uncletopia | London | 4 | All Maps","protocol":17,"map":"cp_snakewater_final1","folder":"tf","game":"Team Fortress","app_id":440,"player_count":0,"max_players":24,"Bots":0,"server_type":"Dedicated","server_os":"Linux","password":true,"vac":true,"version":"7961495","steam_id":85568392924510193,"keywords":["cp","nocrits","nodmgspread","uncletopia"],"game_id":440,"stv_port":27046,"stv_name":"Uncletopia | London | 4 | All Maps | STV","players":null},{"server_id":21,"name":"Uncletopia | London | 5 | All Maps","name_short":"lon-5","host":"lon-1.uk.uncletopia.com","port":27055,"enabled":true,"region":"eu","cc":"gb","latitude":51.509865,"longitude":-0.118092,"reserved":0,"last_update":"0001-01-01T00:00:00Z","name_a2s":"Uncletopia | London | 5 | All Maps","protocol":17,"map":"ctf_2fort","folder":"tf","game":"Team Fortress","app_id":440,"player_count":24,"max_players":24,"Bots":0,"server_type":"Dedicated","server_os":"Linux","password":true,"vac":true,"version":"7961495","steam_id":85568392924742829,"keywords":["ctf","nocrits","nodmgspread","uncletopia"],"game_id":440,"stv_port":27056,"stv_name":"Uncletopia | London | 5 | All Maps | STV","players":[{"user_id":351,"name":"DoomerDodie","steam_id":76561198177853490,"connected_time":94000000000,"state":"active","ping":62},{"user_id":296,"name":"dustbowl-nätverket","steam_id":76561198061248329,"connected_time":4558000000000,"state":"active","ping":73},{"user_id":342,"name":"JAZZ COMMANDO","steam_id":76561198031766068,"connected_time":350000000000,"state":"active","ping":55},{"user_id":338,"name":"XtremelyOverrated","steam_id":76561198011231099,"connected_time":480000000000,"state":"active","ping":55},{"user_id":339,"name":"Nobaddy","steam_id":76561198037871007,"connected_time":455000000000,"state":"active","ping":81},{"user_id":331,"name":"armadillo","steam_id":76561198324656652,"connected_time":776000000000,"state":"active","ping":50},{"user_id":352,"name":"Genesis","steam_id":76561198999652040,"connected_time":58000000000,"state":"spawning","ping":50},{"user_id":333,"name":"The Sun in Rags","steam_id":76561198169990975,"connected_time":636000000000,"state":"active","ping":45},{"user_id":348,"name":"mark","steam_id":76561198309246388,"connected_time":232000000000,"state":"active","ping":60},{"user_id":326,"name":"Barbatruc","steam_id":76561198119019916,"connected_time":1219000000000,"state":"active","ping":63},{"user_id":334,"name":"Garth Marenghi","steam_id":76561198009830164,"connected_time":615000000000,"state":"active","ping":48},{"user_id":286,"name":"spy among us","steam_id":76561198392537090,"connected_time":4769000000000,"state":"active","ping":67},{"user_id":335,"name":"Tower","steam_id":76561198090278447,"connected_time":613000000000,"state":"active","ping":60},{"user_id":336,"name":"Aarquus","steam_id":76561198006689878,"connected_time":605000000000,"state":"active","ping":56},{"user_id":340,"name":"Tekky☻","steam_id":76561197990987315,"connected_time":362000000000,"state":"active","ping":43},{"user_id":341,"name":"Bartツ","steam_id":76561198164718893,"connected_time":352000000000,"state":"active","ping":43},{"user_id":349,"name":"orneps489","steam_id":76561199124755916,"connected_time":174000000000,"state":"active","ping":127},{"user_id":345,"name":"dongujs","steam_id":76561198042774930,"connected_time":291000000000,"state":"active","ping":70},{"user_id":234,"name":"Ωmega","steam_id":76561198142672787,"connected_time":9837000000000,"state":"active","ping":60},{"user_id":317,"name":"YunikkoN","steam_id":76561198211962412,"connected_time":2069000000000,"state":"active","ping":97},{"user_id":346,"name":"Andrea","steam_id":76561199487380678,"connected_time":283000000000,"state":"active","ping":88},{"user_id":350,"name":"I I","steam_id":76561199101935057,"connected_time":167000000000,"state":"active","ping":100},{"user_id":353,"name":"shr1mple","steam_id":76561198173537027,"connected_time":29000000000,"state":"active","ping":37},{"user_id":293,"name":"Mymy","steam_id":76561198819871606,"connected_time":4695000000000,"state":"active","ping":98}]},{"server_id":22,"name":"Uncletopia | London | 6 | All Maps","name_short":"lon-6","host":"lon-1.uk.uncletopia.com","port":27065,"enabled":true,"region":"eu","cc":"gb","latitude":51.509865,"longitude":-0.118092,"reserved":0,"last_update":"0001-01-01T00:00:00Z","name_a2s":"Uncletopia | London | 6 | All Maps","protocol":17,"map":"pl_borneo","folder":"tf","game":"Team Fortress","app_id":440,"player_count":24,"max_players":24,"Bots":0,"server_type":"Dedicated","server_os":"Linux","password":true,"vac":true,"version":"7961495","steam_id":85568392924742830,"keywords":["nocrits","nodmgspread","payload","uncletopia"],"game_id":440,"stv_port":27066,"stv_name":"Uncletopia | London | 6 | All Maps | STV","players":[{"user_id":210,"name":"büdös cigány","steam_id":76561198988882521,"connected_time":657000000000,"state":"active","ping":91},{"user_id":16,"name":"W  A  T  E  R","steam_id":76561198069846520,"connected_time":10667000000000,"state":"active","ping":58},{"user_id":203,"name":"Kjat","steam_id":76561198839433592,"connected_time":923000000000,"state":"active","ping":60},{"user_id":201,"name":"com lag","steam_id":76561198019019392,"connected_time":1132000000000,"state":"active","ping":54},{"user_id":182,"name":"dakotztda","steam_id":76561198044189114,"connected_time":2752000000000,"state":"active","ping":63},{"user_id":211,"name":"Proud Jojo Fan #TF2SP","steam_id":76561198847327216,"connected_time":608000000000,"state":"active","ping":70},{"user_id":202,"name":"loopyloo","steam_id":76561198044306059,"connected_time":1093000000000,"state":"active","ping":37},{"user_id":166,"name":"bailey","steam_id":76561198327418768,"connected_time":4129000000000,"state":"active","ping":48},{"user_id":204,"name":"Grillem Dafoe","steam_id":76561198306874574,"connected_time":915000000000,"state":"active","ping":63},{"user_id":193,"name":"bad_egg","steam_id":76561198870666753,"connected_time":1614000000000,"state":"active","ping":84},{"user_id":190,"name":"cansado","steam_id":76561198003898089,"connected_time":1982000000000,"state":"active","ping":71},{"user_id":174,"name":"Juandale Dingle","steam_id":76561198156330775,"connected_time":2870000000000,"state":"active","ping":52},{"user_id":130,"name":"Ch4bby","steam_id":76561198058792875,"connected_time":5463000000000,"state":"active","ping":56},{"user_id":106,"name":"Jughead","steam_id":76561198000355410,"connected_time":6267000000000,"state":"active","ping":43},{"user_id":194,"name":"Pirkage #transrights","steam_id":76561198323002691,"connected_time":1571000000000,"state":"active","ping":70},{"user_id":205,"name":"s .-word sword word","steam_id":76561198060849026,"connected_time":894000000000,"state":"active","ping":59},{"user_id":195,"name":"Ixsus\u003c3","steam_id":76561198094756869,"connected_time":1565000000000,"state":"active","ping":60},{"user_id":177,"name":"jge","steam_id":76561198123186387,"connected_time":2796000000000,"state":"active","ping":57},{"user_id":206,"name":"yuri is my part time job","steam_id":76561198274631806,"connected_time":864000000000,"state":"active","ping":45},{"user_id":208,"name":"Captkirk_dcs the kids","steam_id":76561197995237976,"connected_time":806000000000,"state":"active","ping":42},{"user_id":196,"name":"Rodia","steam_id":76561197968293161,"connected_time":1562000000000,"state":"active","ping":73},{"user_id":207,"name":"maymaymaster","steam_id":76561198180896059,"connected_time":839000000000,"state":"active","ping":53},{"user_id":181,"name":"Solymr ibn Wali Barad","steam_id":76561198044008976,"connected_time":2766000000000,"state":"active","ping":62},{"user_id":209,"name":"stedhead","steam_id":76561198049176681,"connected_time":711000000000,"state":"active","ping":69}]},{"server_id":40,"name":"Uncletopia | London | 7 | No Payload","name_short":"lon-7","host":"lon-1.uk.uncletopia.com","port":27075,"enabled":true,"region":"eu","cc":"gb","latitude":51.509865,"longitude":-0.118092,"reserved":0,"last_update":"0001-01-01T00:00:00Z","name_a2s":"Uncletopia | London | 7 | No Payload","protocol":17,"map":"plr_nightfall_final","folder":"tf","game":"Team Fortress","app_id":440,"player_count":5,"max_players":24,"Bots":0,"server_type":"Dedicated","server_os":"Linux","password":true,"vac":true,"version":"7961495","steam_id":85568392924964314,"keywords":["nocrits","nodmgspread","payload","uncletopia"],"game_id":440,"stv_port":27076,"stv_name":"Uncletopia | London | 7 | No Payload | STV","players":[{"user_id":9,"name":"wils","steam_id":76561198047522626,"connected_time":749000000000,"state":"active","ping":62},{"user_id":10,"name":"Dane_","steam_id":76561198088448077,"connected_time":687000000000,"state":"active","ping":52},{"user_id":11,"name":"Lukey","steam_id":76561198052076168,"connected_time":642000000000,"state":"active","ping":69},{"user_id":12,"name":"Traylie","steam_id":76561198050797796,"connected_time":605000000000,"state":"active","ping":62},{"user_id":14,"name":"superd0074","steam_id":76561199440927207,"connected_time":252000000000,"state":"active","ping":65}]},{"server_id":41,"name":"Uncletopia | London | 8 | Community","name_short":"lon-8","host":"lon-1.uk.uncletopia.com","port":27085,"enabled":true,"region":"eu","cc":"gb","latitude":51.509865,"longitude":-0.118092,"reserved":0,"last_update":"0001-01-01T00:00:00Z","name_a2s":"Uncletopia | London | 8 | Community","protocol":17,"map":"workshop/cp_glacier_rc6.ugc2905735376","folder":"tf","game":"Team Fortress","app_id":440,"player_count":0,"max_players":24,"Bots":0,"server_type":"Dedicated","server_os":"Linux","password":true,"vac":true,"version":"7961495","steam_id":85568392924964315,"keywords":["cp","nocrits","nodmgspread","uncletopia"],"game_id":440,"stv_port":27086,"stv_name":"Uncletopia | London | 8 | Community | STV","players":null},{"server_id":300,"name":"Uncletopia | Montréal | 1 | All Maps","name_short":"mtl-1","host":"mtl-1.ca.uncletopia.com","port":27015,"enabled":true,"region":"us-east","cc":"ca","latitude":45.50889,"longitude":-73.56167,"reserved":0,"last_update":"0001-01-01T00:00:00Z","name_a2s":"","protocol":0,"map":"","folder":"","game":"","app_id":0,"player_count":23,"max_players":0,"Bots":0,"server_type":"","server_os":"","password":false,"vac":false,"version":"","steam_id":0,"keywords":null,"game_id":0,"stv_port":0,"stv_name":"","players":[{"user_id":3,"name":"Evillou","steam_id":76561198010395648,"connected_time":17699000000000,"state":"active","ping":53},{"user_id":121,"name":"KDAscarlet","steam_id":76561198041365507,"connected_time":1180000000000,"state":"active","ping":133},{"user_id":110,"name":"joebot","steam_id":76561197975606100,"connected_time":2129000000000,"state":"active","ping":60},{"user_id":100,"name":"AMBVURT","steam_id":76561198910561700,"connected_time":3361000000000,"state":"active","ping":80},{"user_id":125,"name":"The Sydney Sleeper Itself","steam_id":76561198180251763,"connected_time":787000000000,"state":"active","ping":86},{"user_id":71,"name":"yes daddy","steam_id":76561198166100997,"connected_time":5294000000000,"state":"active","ping":75},{"user_id":129,"name":"Jimbo Slice","steam_id":76561198064830847,"connected_time":587000000000,"state":"active","ping":64},{"user_id":128,"name":"Theboigamer11","steam_id":76561199013615511,"connected_time":667000000000,"state":"active","ping":111},{"user_id":132,"name":"cognac","steam_id":76561198989778413,"connected_time":564000000000,"state":"active","ping":69},{"user_id":23,"name":"the last Rhode Islander","steam_id":76561198330205913,"connected_time":9399000000000,"state":"active","ping":78},{"user_id":142,"name":"get scrongled, idiot","steam_id":76561198115874625,"connected_time":233000000000,"state":"active","ping":73},{"user_id":75,"name":"Jango","steam_id":76561198084589742,"connected_time":4963000000000,"state":"active","ping":95},{"user_id":133,"name":"Apetometrist","steam_id":76561198045391635,"connected_time":563000000000,"state":"active","ping":60},{"user_id":134,"name":"St. Michael","steam_id":76561198037611052,"connected_time":560000000000,"state":"active","ping":74},{"user_id":135,"name":"40s on the jeep","steam_id":76561198893301630,"connected_time":545000000000,"state":"active","ping":48},{"user_id":86,"name":"[SpaceVillain]","steam_id":76561198091162429,"connected_time":4378000000000,"state":"active","ping":58},{"user_id":136,"name":"Crouching Noob Hidden Sniper","steam_id":76561197971328473,"connected_time":537000000000,"state":"active","ping":76},{"user_id":137,"name":"im not a fish","steam_id":76561199477392647,"connected_time":495000000000,"state":"active","ping":115},{"user_id":138,"name":"TheVikingTheRed","steam_id":76561199221731253,"connected_time":473000000000,"state":"active","ping":131},{"user_id":118,"name":"Proct","steam_id":76561198033652856,"connected_time":1772000000000,"state":"active","ping":44},{"user_id":139,"name":"Fred","steam_id":76561197983870604,"connected_time":440000000000,"state":"active","ping":126},{"user_id":140,"name":":3","steam_id":76561198166606953,"connected_time":425000000000,"state":"active","ping":60},{"user_id":141,"name":"boo_thefeared","steam_id":76561198127967685,"connected_time":356000000000,"state":"active","ping":131}]},{"server_id":301,"name":"Uncletopia | Montréal | 2 | All Maps","name_short":"mtl-2","host":"mtl-1.ca.uncletopia.com","port":27025,"enabled":true,"region":"us-east","cc":"ca","latitude":45.50889,"longitude":-73.56167,"reserved":0,"last_update":"0001-01-01T00:00:00Z","name_a2s":"","protocol":0,"map":"","folder":"","game":"","app_id":0,"player_count":0,"max_players":0,"Bots":0,"server_type":"","server_os":"","password":false,"vac":false,"version":"","steam_id":0,"keywords":null,"game_id":0,"stv_port":0,"stv_name":"","players":null},{"server_id":302,"name":"Uncletopia | Montréal | 3 | All Maps","name_short":"mtl-3","host":"mtl-1.ca.uncletopia.com","port":27035,"enabled":true,"region":"us-east","cc":"ca","latitude":45.50889,"longitude":-73.56167,"reserved":0,"last_update":"0001-01-01T00:00:00Z","name_a2s":"","protocol":0,"map":"","folder":"","game":"","app_id":0,"player_count":0,"max_players":0,"Bots":0,"server_type":"","server_os":"","password":false,"vac":false,"version":"","steam_id":0,"keywords":null,"game_id":0,"stv_port":0,"stv_name":"","players":null},{"server_id":303,"name":"Uncletopia | Montréal | 4 | No Payload","name_short":"mtl-4","host":"mtl-1.ca.uncletopia.com","port":27045,"enabled":true,"region":"us-east","cc":"ca","latitude":45.50889,"longitude":-73.56167,"reserved":0,"last_update":"0001-01-01T00:00:00Z","name_a2s":"","protocol":0,"map":"","folder":"","game":"","app_id":0,"player_count":0,"max_players":0,"Bots":0,"server_type":"","server_os":"","password":false,"vac":false,"version":"","steam_id":0,"keywords":null,"game_id":0,"stv_port":0,"stv_name":"","players":null},{"server_id":13,"name":"Uncletopia | New York City | 1 | All Maps","name_short":"nyc-1","host":"nyc-1.us.uncletopia.com","port":27015,"enabled":true,"region":"us-east","cc":"us","latitude":40.73061,"longitude":-73.93524,"reserved":0,"last_update":"0001-01-01T00:00:00Z","name_a2s":"Uncletopia | New York City | 1 | All Maps","protocol":17,"map":"cp_dustbowl","folder":"tf","game":"Team Fortress","app_id":440,"player_count":24,"max_players":24,"Bots":0,"server_type":"Dedicated","server_os":"Linux","password":true,"vac":true,"version":"7961495","steam_id":85568392924469993,"keywords":["cp","nocrits","nodmgspread","uncletopia"],"game_id":440,"stv_port":27016,"stv_name":"Uncletopia | New York City | 1 | All Maps | STV","players":[{"user_id":32,"name":"too deep for most to understand","steam_id":76561198022636144,"connected_time":4821000000000,"state":"active","ping":51},{"user_id":33,"name":"MondoDong","steam_id":76561197991400109,"connected_time":4788000000000,"state":"active","ping":55},{"user_id":93,"name":"Bastard_Yanisaur","steam_id":76561199134114075,"connected_time":1467000000000,"state":"active","ping":85},{"user_id":87,"name":"spherewithahat","steam_id":76561199122192660,"connected_time":1661000000000,"state":"active","ping":59},{"user_id":60,"name":"feenman","steam_id":76561199383834799,"connected_time":3817000000000,"state":"active","ping":115},{"user_id":37,"name":"BRO_TEIN_SHAKE","steam_id":76561198035547173,"connected_time":4531000000000,"state":"active","ping":87},{"user_id":83,"name":"glass eater","steam_id":76561199229710761,"connected_time":1728000000000,"state":"active","ping":58},{"user_id":98,"name":"cowboy","steam_id":76561199079124758,"connected_time":311000000000,"state":"active","ping":81},{"user_id":70,"name":"Stryder","steam_id":76561199387418697,"connected_time":3528000000000,"state":"active","ping":172},{"user_id":95,"name":"GodOfBeefy","steam_id":76561198796420092,"connected_time":1053000000000,"state":"active","ping":120},{"user_id":46,"name":"Stonks","steam_id":76561199490085068,"connected_time":4061000000000,"state":"active","ping":66},{"user_id":99,"name":"Ostin","steam_id":76561197993726444,"connected_time":80000000000,"state":"active","ping":94},{"user_id":88,"name":"Estrogen Bundle","steam_id":76561198086733903,"connected_time":1639000000000,"state":"active","ping":51},{"user_id":89,"name":"Rhutebeer","steam_id":76561198018302761,"connected_time":1623000000000,"state":"active","ping":101},{"user_id":97,"name":"Urbanzpinapple","steam_id":76561198115426938,"connected_time":503000000000,"state":"active","ping":141},{"user_id":58,"name":"tacofever","steam_id":76561198010966507,"connected_time":3829000000000,"state":"active","ping":179},{"user_id":82,"name":"rattlin' bog","steam_id":76561198224551028,"connected_time":2162000000000,"state":"active","ping":55},{"user_id":57,"name":"Cryonics","steam_id":76561198314197911,"connected_time":3844000000000,"state":"active","ping":69},{"user_id":78,"name":"Hope","steam_id":76561199182558088,"connected_time":2893000000000,"state":"active","ping":84},{"user_id":94,"name":"top 10 worst games #1 tf2","steam_id":76561199445629071,"connected_time":1222000000000,"state":"active","ping":46},{"user_id":77,"name":"Doubie","steam_id":76561198104492019,"connected_time":3223000000000,"state":"active","ping":66},{"user_id":90,"name":"Blucario","steam_id":76561198033558515,"connected_time":1603000000000,"state":"active","ping":72},{"user_id":84,"name":"Sockhead","steam_id":76561198253181773,"connected_time":1728000000000,"state":"active","ping":73},{"user_id":96,"name":"Eraserhead Baby","steam_id":76561198010968514,"connected_time":802000000000,"state":"active","ping":108}]},{"server_id":14,"name":"Uncletopia | New York City | 2 | All Maps","name_short":"nyc-2","host":"nyc-1.us.uncletopia.com","port":27025,"enabled":true,"region":"us-east","cc":"us","latitude":40.73061,"longitude":-73.93524,"reserved":0,"last_update":"0001-01-01T00:00:00Z","name_a2s":"Uncletopia | New York City | 2 | All Maps","protocol":17,"map":"pl_swiftwater_final1","folder":"tf","game":"Team Fortress","app_id":440,"player_count":24,"max_players":24,"Bots":0,"server_type":"Dedicated","server_os":"Linux","password":true,"vac":true,"version":"7961495","steam_id":85568392924469994,"keywords":["nocrits","nodmgspread","payload","uncletopia"],"game_id":440,"stv_port":27026,"stv_name":"Uncletopia | New York City | 2 | All Maps | STV","players":[{"user_id":108,"name":"-Dexter-","steam_id":76561198173324789,"connected_time":1055000000000,"state":"active","ping":75},{"user_id":104,"name":"stupid bastard","steam_id":76561199195104977,"connected_time":1167000000000,"state":"active","ping":62},{"user_id":90,"name":"zzzPoison","steam_id":76561198302928116,"connected_time":1670000000000,"state":"active","ping":67},{"user_id":94,"name":"1000 Gigglebytes of clown girls","steam_id":76561198290719848,"connected_time":1494000000000,"state":"active","ping":89},{"user_id":54,"name":"Konyuna","steam_id":76561198067951988,"connected_time":5460000000000,"state":"active","ping":66},{"user_id":86,"name":"Jattiti","steam_id":76561199214217870,"connected_time":1793000000000,"state":"active","ping":71},{"user_id":52,"name":"Lost","steam_id":76561198093713427,"connected_time":5475000000000,"state":"active","ping":74},{"user_id":93,"name":"the 2fort avenger","steam_id":76561199084254755,"connected_time":1547000000000,"state":"active","ping":52},{"user_id":109,"name":"CuSO4","steam_id":76561199278147589,"connected_time":1053000000000,"state":"active","ping":55},{"user_id":114,"name":"Okpar","steam_id":76561199221067945,"connected_time":331000000000,"state":"active","ping":87},{"user_id":102,"name":"YINGBING43","steam_id":76561198166141576,"connected_time":1244000000000,"state":"active","ping":79},{"user_id":82,"name":"the gay bud light can","steam_id":76561199491889281,"connected_time":2256000000000,"state":"active","ping":75},{"user_id":115,"name":"KOD","steam_id":76561199487170911,"connected_time":316000000000,"state":"active","ping":127},{"user_id":59,"name":"Fredfredfood","steam_id":76561198072824802,"connected_time":4639000000000,"state":"active","ping":72},{"user_id":46,"name":"Yodakage Kira","steam_id":76561198440570859,"connected_time":6262000000000,"state":"active","ping":124},{"user_id":84,"name":"YourFriendJessie","steam_id":76561198176883097,"connected_time":1880000000000,"state":"active","ping":44},{"user_id":110,"name":"BU   O","steam_id":76561198871738546,"connected_time":821000000000,"state":"active","ping":71},{"user_id":111,"name":"PajamaPants","steam_id":76561198400306643,"connected_time":775000000000,"state":"active","ping":87},{"user_id":113,"name":"Chihuahua","steam_id":76561199133120527,"connected_time":332000000000,"state":"active","ping":133},{"user_id":99,"name":"FilipinoBear","steam_id":76561198018604158,"connected_time":1407000000000,"state":"active","ping":91},{"user_id":118,"name":"Jimmy","steam_id":76561198302787448,"connected_time":59000000000,"state":"active","ping":50},{"user_id":56,"name":"ＥｎｄｅｒＮｅｃｒｏ","steam_id":76561198044304293,"connected_time":5080000000000,"state":"active","ping":177},{"user_id":100,"name":"off the ZAZA","steam_id":76561198327322690,"connected_time":1390000000000,"state":"active","ping":54},{"user_id":116,"name":"dr peppah chug!","steam_id":76561198068835693,"connected_time":136000000000,"state":"active","ping":78}]},{"server_id":15,"name":"Uncletopia | New York City | 3 | Stopwatch Beta","name_short":"nyc-3","host":"nyc-1.us.uncletopia.com","port":27035,"enabled":true,"region":"us-east","cc":"us","latitude":40.73061,"longitude":-73.93524,"reserved":0,"last_update":"0001-01-01T00:00:00Z","name_a2s":"Uncletopia | New York City | 3 | Stopwatch Beta","protocol":17,"map":"workshop/koth_product_final.ugc454272353","folder":"tf","game":"Team Fortress","app_id":440,"player_count":0,"max_players":24,"Bots":0,"server_type":"Dedicated","server_os":"Linux","password":true,"vac":true,"version":"7961495","steam_id":85568392924742820,"keywords":["cp","nocrits","nodmgspread","uncletopia"],"game_id":440,"stv_port":27036,"stv_name":"Uncletopia | New York City | 3 | Stopwatch Beta | STV","players":null},{"server_id":16,"name":"Uncletopia | New York City | 4 | Community","name_short":"nyc-4","host":"nyc-1.us.uncletopia.com","port":27045,"enabled":true,"region":"us-east","cc":"us","latitude":40.73061,"longitude":-73.93524,"reserved":0,"last_update":"0001-01-01T00:00:00Z","name_a2s":"Uncletopia | New York City | 4 | Community","protocol":17,"map":"koth_lakeside_final","folder":"tf","game":"Team Fortress","app_id":440,"player_count":0,"max_players":24,"Bots":0,"server_type":"Dedicated","server_os":"Linux","password":true,"vac":true,"version":"7961495","steam_id":85568392924742821,"keywords":["cp","nocrits","nodmgspread","uncletopia"],"game_id":440,"stv_port":27046,"stv_name":"Uncletopia | New York City | 4 | Community | STV","players":null},{"server_id":142,"name":"Uncletopia | São Paulo | 1 | All Maps","name_short":"sao-1","host":"sao-1.br.uncletopia.com","port":27015,"enabled":true,"region":"sa","cc":"br","latitude":-23.533773,"longitude":-46.62529,"reserved":0,"last_update":"0001-01-01T00:00:00Z","name_a2s":"Uncletopia | São Paulo | 1 | All Maps","protocol":17,"map":"koth_highpass","folder":"tf","game":"Team Fortress","app_id":440,"player_count":0,"max_players":24,"Bots":0,"server_type":"Dedicated","server_os":"Linux","password":true,"vac":true,"version":"7961495","steam_id":85568392924469996,"keywords":["cp","nocrits","nodmgspread","uncletopia"],"game_id":440,"stv_port":27016,"stv_name":"Uncletopia | São Paulo | 1 | All Maps | STV","players":null},{"server_id":143,"name":"Uncletopia | São Paulo | 2 | Community","name_short":"sao-2","host":"sao-2.br.uncletopia.com","port":27015,"enabled":true,"region":"sa","cc":"br","latitude":-23.533773,"longitude":-46.62529,"reserved":0,"last_update":"0001-01-01T00:00:00Z","name_a2s":"Uncletopia | São Paulo | 2 | Community","protocol":17,"map":"cp_snakewater_final1","folder":"tf","game":"Team Fortress","app_id":440,"player_count":0,"max_players":24,"Bots":0,"server_type":"Dedicated","server_os":"Linux","password":true,"vac":true,"version":"7961495","steam_id":85568392924485349,"keywords":["cp","nocrits","nodmgspread","uncletopia"],"game_id":440,"stv_port":27016,"stv_name":"Uncletopia | São Paulo | 2 | Community | STV","players":null},{"server_id":7,"name":"Uncletopia | Seattle | 1 | All Maps","name_short":"sea-1","host":"sea-1.us.uncletopia.com","port":27015,"enabled":true,"region":"us-west","cc":"us","latitude":47.608013,"longitude":-122.33517,"reserved":0,"last_update":"0001-01-01T00:00:00Z","name_a2s":"Uncletopia | Seattle | 1 | All Maps","protocol":17,"map":"koth_lakeside_final","folder":"tf","game":"Team Fortress","app_id":440,"player_count":0,"max_players":24,"Bots":0,"server_type":"Dedicated","server_os":"Linux","password":true,"vac":true,"version":"7961495","steam_id":85568392924469997,"keywords":["cp","nocrits","nodmgspread","uncletopia"],"game_id":440,"stv_port":27016,"stv_name":"Uncletopia | Seattle | 1 | All Maps | STV","players":null},{"server_id":119,"name":"Uncletopia | Seattle | 2 | All Maps","name_short":"sea-2","host":"sea-1.us.uncletopia.com","port":27025,"enabled":true,"region":"us-west","cc":"us","latitude":47.608013,"longitude":-122.33517,"reserved":0,"last_update":"0001-01-01T00:00:00Z","name_a2s":"Uncletopia | Seattle | 2 | All Maps","protocol":17,"map":"cp_process_final","folder":"tf","game":"Team Fortress","app_id":440,"player_count":0,"max_players":24,"Bots":0,"server_type":"Dedicated","server_os":"Linux","password":true,"vac":true,"version":"7961495","steam_id":85568392924469998,"keywords":["cp","nocrits","nodmgspread","uncletopia"],"game_id":440,"stv_port":27026,"stv_name":"Uncletopia | Seattle | 2 | All Maps | STV","players":null},{"server_id":406,"name":"Uncletopia | Seattle | 3 | Stopwatch Beta","name_short":"sea-3","host":"sea-1.us.uncletopia.com","port":27035,"enabled":true,"region":"us-west","cc":"us","latitude":47.608013,"longitude":-122.33517,"reserved":0,"last_update":"0001-01-01T00:00:00Z","name_a2s":"Uncletopia | Seattle | 3 | Stopwatch Beta","protocol":17,"map":"koth_lakeside_final","folder":"tf","game":"Team Fortress","app_id":440,"player_count":0,"max_players":24,"Bots":0,"server_type":"Dedicated","server_os":"Linux","password":true,"vac":true,"version":"7961495","steam_id":85568392924515217,"keywords":["cp","nocrits","nodmgspread","uncletopia"],"game_id":440,"stv_port":27036,"stv_name":"Uncletopia | Seattle | 3 | Stopwatch Beta | STV","players":null},{"server_id":17,"name":"Uncletopia | San Francisco | 1 | All Maps","name_short":"sfo-1","host":"sfo-1.us.uncletopia.com","port":27015,"enabled":true,"region":"us-west","cc":"us","latitude":37.77397,"longitude":-122.4313,"reserved":0,"last_update":"0001-01-01T00:00:00Z","name_a2s":"Uncletopia | San Francisco | 1 | All Maps","protocol":17,"map":"cp_process_final","folder":"tf","game":"Team Fortress","app_id":440,"player_count":0,"max_players":24,"Bots":0,"server_type":"Dedicated","server_os":"Linux","password":true,"vac":true,"version":"7961495","steam_id":85568392924469999,"keywords":["cp","nocrits","nodmgspread","uncletopia"],"game_id":440,"stv_port":27016,"stv_name":"Uncletopia | San Francisco | 1 | All Maps | STV","players":null},{"server_id":18,"name":"Uncletopia | San Francisco | 2 | All Maps","name_short":"sfo-2","host":"sfo-1.us.uncletopia.com","port":27025,"enabled":true,"region":"us-west","cc":"us","latitude":37.77397,"longitude":-122.4313,"reserved":0,"last_update":"0001-01-01T00:00:00Z","name_a2s":"Uncletopia | San Francisco | 2 | All Maps","protocol":17,"map":"koth_viaduct","folder":"tf","game":"Team Fortress","app_id":440,"player_count":0,"max_players":24,"Bots":0,"server_type":"Dedicated","server_os":"Linux","password":true,"vac":true,"version":"7961495","steam_id":85568392924470000,"keywords":["cp","nocrits","nodmgspread","uncletopia"],"game_id":440,"stv_port":27026,"stv_name":"Uncletopia | San Francisco | 2 | All Maps | STV","players":null},{"server_id":19,"name":"Uncletopia | San Francisco | 3 | Stopwatch Beta","name_short":"sfo-3","host":"sfo-1.us.uncletopia.com","port":27035,"enabled":true,"region":"us-west","cc":"us","latitude":37.77397,"longitude":-122.4313,"reserved":0,"last_update":"0001-01-01T00:00:00Z","name_a2s":"Uncletopia | San Francisco | 3 | Stopwatch Beta","protocol":17,"map":"pl_borneo","folder":"tf","game":"Team Fortress","app_id":440,"player_count":0,"max_players":24,"Bots":0,"server_type":"Dedicated","server_os":"Linux","password":true,"vac":true,"version":"7961495","steam_id":85568392924742824,"keywords":["nocrits","nodmgspread","payload","uncletopia"],"game_id":440,"stv_port":27036,"stv_name":"Uncletopia | San Francisco | 3 | Stopwatch Beta | STV","players":null},{"server_id":20,"name":"Uncletopia | San Francisco | 4 | Community","name_short":"sfo-4","host":"sfo-1.us.uncletopia.com","port":27045,"enabled":true,"region":"us-west","cc":"us","latitude":37.77397,"longitude":-122.4313,"reserved":0,"last_update":"0001-01-01T00:00:00Z","name_a2s":"Uncletopia | San Francisco | 4 | Community","protocol":17,"map":"koth_viaduct","folder":"tf","game":"Team Fortress","app_id":440,"player_count":0,"max_players":24,"Bots":0,"server_type":"Dedicated","server_os":"Linux","password":true,"vac":true,"version":"7961495","steam_id":85568392924742826,"keywords":["cp","nocrits","nodmgspread","uncletopia"],"game_id":440,"stv_port":27046,"stv_name":"Uncletopia | San Francisco | 4 | Community | STV","players":null},{"server_id":141,"name":"Uncletopia | Sydney | 1 | All Maps","name_short":"syd-1","host":"syd-1.au.uncletopia.com","port":27015,"enabled":true,"region":"au","cc":"au","latitude":-33.865143,"longitude":151.2099,"reserved":0,"last_update":"0001-01-01T00:00:00Z","name_a2s":"Uncletopia | Sydney | 1 | All Maps","protocol":17,"map":"koth_highpass","folder":"tf","game":"Team Fortress","app_id":440,"player_count":0,"max_players":24,"Bots":0,"server_type":"Dedicated","server_os":"Linux","password":true,"vac":true,"version":"7961495","steam_id":85568392924470001,"keywords":["cp","nocrits","nodmgspread","uncletopia"],"game_id":440,"stv_port":27016,"stv_name":"Uncletopia | Sydney | 1 | All Maps | STV","players":null},{"server_id":123,"name":"Uncletopia | Sydney | 2 | All Maps","name_short":"syd-2","host":"syd-1.au.uncletopia.com","port":27025,"enabled":true,"region":"au","cc":"au","latitude":-33.865143,"longitude":151.2099,"reserved":0,"last_update":"0001-01-01T00:00:00Z","name_a2s":"Uncletopia | Sydney | 2 | All Maps","protocol":17,"map":"koth_viaduct","folder":"tf","game":"Team Fortress","app_id":440,"player_count":0,"max_players":24,"Bots":0,"server_type":"Dedicated","server_os":"Linux","password":true,"vac":true,"version":"7961495","steam_id":85568392924470002,"keywords":["cp","nocrits","nodmgspread","uncletopia"],"game_id":440,"stv_port":27026,"stv_name":"Uncletopia | Sydney | 2 | All Maps | STV","players":null},{"server_id":395,"name":"Uncletopia | Sydney | 3 | All Maps","name_short":"syd-3","host":"syd-1.au.uncletopia.com","port":27035,"enabled":true,"region":"au","cc":"au","latitude":-33.865143,"longitude":151.2099,"reserved":0,"last_update":"0001-01-01T00:00:00Z","name_a2s":"Uncletopia | Sydney | 3 | All Maps","protocol":17,"map":"cp_process_final","folder":"tf","game":"Team Fortress","app_id":440,"player_count":0,"max_players":24,"Bots":0,"server_type":"Dedicated","server_os":"Linux","password":true,"vac":true,"version":"7961495","steam_id":85568392925194467,"keywords":["cp","nocrits","nodmgspread","uncletopia"],"game_id":440,"stv_port":27036,"stv_name":"Uncletopia | Sydney | 3 | All Maps | STV","players":null},{"server_id":396,"name":"Uncletopia | Sydney | 4 | All Maps","name_short":"syd-4","host":"syd-1.au.uncletopia.com","port":27045,"enabled":true,"region":"au","cc":"au","latitude":-33.865143,"longitude":151.2099,"reserved":0,"last_update":"0001-01-01T00:00:00Z","name_a2s":"Uncletopia | Sydney | 4 | All Maps","protocol":17,"map":"pl_swiftwater_final1","folder":"tf","game":"Team Fortress","app_id":440,"player_count":0,"max_players":24,"Bots":0,"server_type":"Dedicated","server_os":"Linux","password":true,"vac":true,"version":"7961495","steam_id":85568392925397958,"keywords":["nocrits","nodmgspread","payload","uncletopia"],"game_id":440,"stv_port":27046,"stv_name":"Uncletopia | Sydney | 4 | All Maps | STV","players":null},{"server_id":58,"name":"Uncletopia | Sydney | 5 | Stopwatch Beta","name_short":"syd-5","host":"syd-1.au.uncletopia.com","port":27055,"enabled":true,"region":"au","cc":"au","latitude":-33.865143,"longitude":151.2099,"reserved":0,"last_update":"0001-01-01T00:00:00Z","name_a2s":"Uncletopia | Sydney | 5 | Stopwatch Beta","protocol":17,"map":"koth_viaduct","folder":"tf","game":"Team Fortress","app_id":440,"player_count":0,"max_players":24,"Bots":0,"server_type":"Dedicated","server_os":"Linux","password":true,"vac":true,"version":"7961495","steam_id":85568392925397959,"keywords":["cp","nocrits","nodmgspread","uncletopia"],"game_id":440,"stv_port":27056,"stv_name":"Uncletopia | Sydney | 5 | Stopwatch Beta | STV","players":null},{"server_id":59,"name":"Uncletopia | Sydney | 6 | Community","name_short":"syd-6","host":"syd-1.au.uncletopia.com","port":27065,"enabled":true,"region":"au","cc":"au","latitude":-33.865143,"longitude":151.2099,"reserved":0,"last_update":"0001-01-01T00:00:00Z","name_a2s":"Uncletopia | Sydney | 6 | Community","protocol":17,"map":"koth_cascade","folder":"tf","game":"Team Fortress","app_id":440,"player_count":0,"max_players":24,"Bots":0,"server_type":"Dedicated","server_os":"Linux","password":true,"vac":true,"version":"7961495","steam_id":85568392925397960,"keywords":["cp","nocrits","nodmgspread","uncletopia"],"game_id":440,"stv_port":27066,"stv_name":"Uncletopia | Sydney | 6 | Community | STV","players":null},{"server_id":49,"name":"Uncletopia | Warsaw | 1 | All Maps","name_short":"waw-1","host":"waw-1.pl.uncletopia.com","port":27015,"enabled":true,"region":"eu","cc":"pl","latitude":52.2297,"longitude":21.017532,"reserved":0,"last_update":"0001-01-01T00:00:00Z","name_a2s":"Uncletopia | Warsaw | 1 | All Maps","protocol":17,"map":"cp_dustbowl","folder":"tf","game":"Team Fortress","app_id":440,"player_count":0,"max_players":24,"Bots":0,"server_type":"Dedicated","server_os":"Linux","password":true,"vac":true,"version":"7961495","steam_id":85568392925397850,"keywords":["cp","nocrits","nodmgspread","uncletopia"],"game_id":440,"stv_port":27016,"stv_name":"Uncletopia | Warsaw | 1 | All Maps | STV","players":null},{"server_id":50,"name":"Uncletopia | Warsaw | 2 | All Maps","name_short":"waw-2","host":"waw-1.pl.uncletopia.com","port":27025,"enabled":true,"region":"eu","cc":"pl","latitude":52.2297,"longitude":21.017532,"reserved":0,"last_update":"0001-01-01T00:00:00Z","name_a2s":"Uncletopia | Warsaw | 2 | All Maps","protocol":17,"map":"cp_dustbowl","folder":"tf","game":"Team Fortress","app_id":440,"player_count":0,"max_players":24,"Bots":0,"server_type":"Dedicated","server_os":"Linux","password":true,"vac":true,"version":"7961495","steam_id":85568392925397851,"keywords":["cp","nocrits","nodmgspread","uncletopia"],"game_id":440,"stv_port":27026,"stv_name":"Uncletopia | Warsaw | 2 | All Maps | STV","players":null},{"server_id":51,"name":"Uncletopia | Warsaw | 3 | All Maps","name_short":"waw-3","host":"waw-1.pl.uncletopia.com","port":27035,"enabled":true,"region":"eu","cc":"pl","latitude":52.2297,"longitude":21.017532,"reserved":0,"last_update":"0001-01-01T00:00:00Z","name_a2s":"Uncletopia | Warsaw | 3 | All Maps","protocol":17,"map":"cp_dustbowl","folder":"tf","game":"Team Fortress","app_id":440,"player_count":0,"max_players":24,"Bots":0,"server_type":"Dedicated","server_os":"Linux","password":true,"vac":true,"version":"7961495","steam_id":85568392925397852,"keywords":["cp","nocrits","nodmgspread","uncletopia"],"game_id":440,"stv_port":27036,"stv_name":"Uncletopia | Warsaw | 3 | All Maps | STV","players":null},{"server_id":52,"name":"Uncletopia | Warsaw | 4 | All Maps","name_short":"waw-4","host":"waw-1.pl.uncletopia.com","port":27045,"enabled":true,"region":"eu","cc":"pl","latitude":52.2297,"longitude":21.017532,"reserved":0,"last_update":"0001-01-01T00:00:00Z","name_a2s":"Uncletopia | Warsaw | 4 | All Maps","protocol":17,"map":"koth_highpass","folder":"tf","game":"Team Fortress","app_id":440,"player_count":0,"max_players":24,"Bots":0,"server_type":"Dedicated","server_os":"Linux","password":true,"vac":true,"version":"7961495","steam_id":85568392925397853,"keywords":["cp","nocrits","nodmgspread","uncletopia"],"game_id":440,"stv_port":27046,"stv_name":"Uncletopia | Warsaw | 4 | All Maps | STV","players":null},{"server_id":53,"name":"Uncletopia | Warsaw | 5 | Stopwatch Beta","name_short":"waw-5","host":"waw-1.pl.uncletopia.com","port":27055,"enabled":true,"region":"eu","cc":"pl","latitude":52.2297,"longitude":21.017532,"reserved":0,"last_update":"0001-01-01T00:00:00Z","name_a2s":"Uncletopia | Warsaw | 5 | Stopwatch Beta","protocol":17,"map":"workshop/koth_bagel_rc6.ugc2514036946","folder":"tf","game":"Team Fortress","app_id":440,"player_count":0,"max_players":24,"Bots":0,"server_type":"Dedicated","server_os":"Linux","password":true,"vac":true,"version":"7961495","steam_id":85568392925397854,"keywords":["cp","nocrits","nodmgspread","uncletopia"],"game_id":440,"stv_port":27056,"stv_name":"Uncletopia | Warsaw | 5 | Stopwatch Beta | STV","players":null},{"server_id":54,"name":"Uncletopia | Warsaw | 6 | Community","name_short":"waw-6","host":"waw-1.pl.uncletopia.com","port":27065,"enabled":true,"region":"eu","cc":"pl","latitude":52.2297,"longitude":21.017532,"reserved":0,"last_update":"0001-01-01T00:00:00Z","name_a2s":"Uncletopia | Warsaw | 6 | Community","protocol":17,"map":"workshop/pl_boundary_final1.ugc456799153","folder":"tf","game":"Team Fortress","app_id":440,"player_count":0,"max_players":24,"Bots":0,"server_type":"Dedicated","server_os":"Linux","password":true,"vac":true,"version":"7961495","steam_id":85568392925397856,"keywords":["nocrits","nodmgspread","payload","uncletopia"],"game_id":440,"stv_port":27066,"stv_name":"Uncletopia | Warsaw | 6 | Community | STV","players":null}]}