{"status":true,"message":"","result":[{"server_id":9,"name":"Uncletopia | Atlanta | 1 | All Maps","name_short":"atl-1","host":"atl-1.us.uncletopia.com","port":27015,"enabled":true,"region":"us-east","cc":"us","latitude":33.753746,"longitude":-84.38633,"reserved":0,"last_update":"0001-01-01T00:00:00Z","name_a2s":"Uncletopia | Atlanta | 1 | All Maps","protocol":17,"map":"pl_swiftwater_final1","folder":"tf","game":"Team Fortress","app_id":440,"player_count":24,"max_players":24,"Bots":0,"server_type":"Dedicated","server_os":"Linux","password":true,"vac":true,"version":"7961495","steam_id":85568392924469982,"keywords":["nocrits","nodmgspread","payload","uncletopia"],"game_id":440,"stv_port":27016,"stv_name":"Uncletopia | Atlanta | 1 | All Maps | STV","players":[{"user_id":433,"name":"paetho YT","steam_id":76561198152690003,"connected_time":4360000000000,"state":"active","ping":43},{"user_id":476,"name":"ryce","steam_id":76561198114572309,"connected_time":139000000000,"state":"active","ping":68},{"user_id":472,"name":"Pango","steam_id":76561198069811545,"connected_time":194000000000,"state":"active","ping":42},{"user_id":432,"name":"Sinta","steam_id":76561198098398841,"connected_time":4837000000000,"state":"active","ping":60},{"user_id":461,"name":"Im High","steam_id":76561198049954886,"connected_time":2143000000000,"state":"active","ping":74},{"user_id":427,"name":"eish","steam_id":76561198089463603,"connected_time":4933000000000,"state":"active","ping":131},{"user_id":437,"name":"Obelisk","steam_id":76561198049416866,"connected_time":4304000000000,"state":"active","ping":89},{"user_id":443,"name":"Jabawakai","steam_id":76561198088881254,"connected_time":3609000000000,"state":"active","ping":75},{"user_id":445,"name":"hkiller","steam_id":76561198029265697,"connected_time":3284000000000,"state":"active","ping":67},{"user_id":467,"name":"joe","steam_id":76561198045781320,"connected_time":1118000000000,"state":"active","ping":63},{"user_id":374,"name":"barfunkle","steam_id":76561198927517471,"connected_time":8300000000000,"state":"active","ping":56},{"user_id":460,"name":"lu","steam_id":76561198080731872,"connected_time":2295000000000,"state":"active","ping":89},{"user_id":468,"name":"ATL1 Lavender She/They","steam_id":76561198825997674,"connected_time":1063000000000,"state":"active","ping":59},{"user_id":426,"name":"Sophie","steam_id":76561198170408057,"connected_time":4958000000000,"state":"active","ping":45},{"user_id":470,"name":"kite","steam_id":76561198346516392,"connected_time":797000000000,"state":"active","ping":82},{"user_id":447,"name":"/\\","steam_id":76561198045522596,"connected_time":3283000000000,"state":"active","ping":71},{"user_id":463,"name":"The New Jersey Devils","steam_id":76561198970380577,"connected_time":1815000000000,"state":"active","ping":96},{"user_id":471,"name":"ΞBrwni","steam_id":76561199031828153,"connected_time":294000000000,"state":"active","ping":113},{"user_id":473,"name":"Oddball","steam_id":76561198040440984,"connected_time":193000000000,"state":"active","ping":86},{"user_id":464,"name":"loot","steam_id":76561198069954956,"connected_time":1792000000000,"state":"active","ping":51},{"user_id":320,"name":"Heathcliff","steam_id":76561198044288534,"connected_time":13346000000000,"state":"active","ping":82},{"user_id":474,"name":"ash","steam_id":76561198127890645,"connected_time":193000000000,"state":"active","ping":69},{"user_id":475,"name":"BatJet","steam_id":76561198147738441,"connected_time":185000000000,"state":"active","ping":127},{"user_id":451,"name":"ATL1 | cola","steam_id":76561198374390458,"connected_time":3268000000000,"state":"active","ping":85}]},{"server_id":104,"name":"Uncletopia | Atlanta | 2 | All Maps","name_short":"atl-2","host":"atl-1.us.uncletopia.com","port":27025,"enabled":true,"region":"us-east","cc":"us","latitude":33.753746,"longitude":-84.38633,"reserved":0,"last_update":"0001-01-01T00:00:00Z","name_a2s":"Uncletopia | Atlanta | 2 | All Maps","protocol":17,"map":"pl_upward","folder":"tf","game":"Team Fortress","app_id":440,"player_count":24,"max_players":24,"Bots":0,"server_type":"Dedicated","server_os":"Linux","password":true,"vac":true,"version":"7961495","steam_id":85568392924469983,"keywords":["nocrits","nodmgspread","payload","uncletopia"],"game_id":440,"stv_port":27026,"stv_name":"Uncletopia | Atlanta | 2 | All Maps | STV","players":[{"user_id":288,"name":"DustIsHereツ","steam_id":76561199105602325,"connected_time":1008000000000,"state":"active","ping":93},{"user_id":289,"name":"ClericsRose","steam_id":76561198011013806,"connected_time":949000000000,"state":"active","ping":72},{"user_id":273,"name":"No.21 - Feral Scent","steam_id":76561198045844070,"connected_time":2047000000000,"state":"active","ping":81},{"user_id":286,"name":"Mightykami","steam_id":76561198064233918,"connected_time":1165000000000,"state":"active","ping":52},{"user_id":178,"name":"noelle","steam_id":76561198098107584,"connected_time":8843000000000,"state":"active","ping":77},{"user_id":267,"name":"Yeahboiiii","steam_id":76561198390325068,"connected_time":2496000000000,"state":"active","ping":77},{"user_id":272,"name":"doop","steam_id":76561198370487545,"connected_time":2064000000000,"state":"active","ping":93},{"user_id":290,"name":"GoldtoothFour","steam_id":76561198055529332,"connected_time":938000000000,"state":"active","ping":79},{"user_id":259,"name":"Brown_Dream","steam_id":76561198975766145,"connected_time":3119000000000,"state":"active","ping":69},{"user_id":274,"name":"BreakfastTacos","steam_id":76561198847620442,"connected_time":2044000000000,"state":"active","ping":85},{"user_id":252,"name":"Lifial","steam_id":76561198271885819,"connected_time":3748000000000,"state":"active","ping":80},{"user_id":285,"name":"!cav","steam_id":76561198041535102,"connected_time":1502000000000,"state":"active","ping":79},{"user_id":282,"name":"incredirocks","steam_id":76561198061079993,"connected_time":1810000000000,"state":"active","ping":68},{"user_id":268,"name":"Yoshimelon","steam_id":76561198253054325,"connected_time":2412000000000,"state":"active","ping":65},{"user_id":293,"name":"MR. BEEEEEEEEEEEEEAAAAAAAAAAST","steam_id":76561198205346760,"connected_time":806000000000,"state":"active","ping":61},{"user_id":292,"name":"Julia","steam_id":76561198015236493,"connected_time":838000000000,"state":"active","ping":82},{"user_id":257,"name":"Woody","steam_id":76561198020308956,"connected_time":3490000000000,"state":"active","ping":49},{"user_id":294,"name":"The blue engineer (real)","steam_id":76561199480448450,"connected_time":764000000000,"state":"active","ping":96},{"user_id":296,"name":"joyeuxnoelle","steam_id":76561198062423120,"connected_time":418000000000,"state":"active","ping":76},{"user_id":291,"name":"nav","steam_id":76561198872608266,"connected_time":928000000000,"state":"active","ping":70},{"user_id":295,"name":"mollusk_obliteration","steam_id":76561198085388962,"connected_time":601000000000,"state":"active","ping":81},{"user_id":280,"name":"ast_ra","steam_id":76561198041032459,"connected_time":1968000000000,"state":"active","ping":55},{"user_id":284,"name":"Some_Arse","steam_id":76561198039095394,"connected_time":1609000000000,"state":"active","ping":79},{"user_id":242,"name":"the keebler","steam_id":76561199486326945,"connected_time":4565000000000,"state":"active","ping":64}]},{"server_id":400,"name":"Uncletopia | Atlanta | 3 | Stopwatch","name_short":"atl-3","host":"atl-1.us.uncletopia.com","port":27035,"enabled":true,"region":"us-east","cc":"us","latitude":33.753746,"longitude":-84.38633,"reserved":0,"last_update":"0001-01-01T00:00:00Z","name_a2s":"Uncletopia | Atlanta | 3 | Stopwatch","protocol":17,"map":"koth_lakeside_final","folder":"tf","game":"Team Fortress","app_id":440,"player_count":4,"max_players":24,"Bots":0,"server_type":"Dedicated","server_os":"Linux","password":true,"vac":true,"version":"7961495","steam_id":85568392924515187,"keywords":["cp","nocrits","nodmgspread","uncletopia"],"game_id":440,"stv_port":27036,"stv_name":"Uncletopia | Atlanta | 3 | Stopwatch | STV","players":[{"user_id":305,"name":"\u003e:3 Muiramme εїз","steam_id":76561197994458543,"connected_time":1712000000000,"state":"active","ping":211},{"user_id":306,"name":"Munky","steam_id":76561197993491054,"connected_time":1575000000000,"state":"active","ping":131},{"user_id":307,"name":"Armpit!","steam_id":76561197978095727,"connected_time":1486000000000,"state":"active","ping":191},{"user_id":310,"name":"custodian","steam_id":76561198058793778,"connected_time":1340000000000,"state":"active","ping":152}]},{"server_id":401,"name":"Uncletopia | Atlanta | 4 | Community","name_short":"atl-4","host":"atl-1.us.uncletopia.com","port":27045,"enabled":true,"region":"us-east","cc":"us","latitude":33.753746,"longitude":-84.38633,"reserved":0,"last_update":"0001-01-01T00:00:00Z","name_a2s":"Uncletopia | Atlanta | 4 | Community","protocol":17,"map":"workshop/koth_slaughter_rc1.ugc1712845210","folder":"tf","game":"Team Fortress","app_id":440,"player_count":0,"max_players":24,"Bots":0,"server_type":"Dedicated","server_os":"Linux","password":true,"vac":true,"version":"7961495","steam_id":85568392924515188,"keywords":["cp","nocrits","nodmgspread","uncletopia"],"game_id":440,"stv_port":27046,"stv_name":"Uncletopia | Atlanta | 4 | Community | STV","players":null},{"server_id":2,"name":"Uncletopia | Chicago | 1 | All Maps","name_short":"chi-1","host":"chi-1.us.uncletopia.com","port":27015,"enabled":true,"region":"us-central","cc":"us","latitude":41.881832,"longitude":-87.62318,"reserved":0,"last_update":"0001-01-01T00:00:00Z","name_a2s":"Uncletopia | Chicago | 1 | All Maps","protocol":17,"map":"pl_barnblitz","folder":"tf","game":"Team Fortress","app_id":440,"player_count":24,"max_players":24,"Bots":0,"server_type":"Dedicated","server_os":"Linux","password":true,"vac":true,"version":"7961495","steam_id":85568392924469984,"keywords":["nocrits","nodmgspread","payload","uncletopia"],"game_id":440,"stv_port":27016,"stv_name":"Uncletopia | Chicago | 1 | All Maps | STV","players":[{"user_id":701,"name":"hounschellxd","steam_id":76561198165243870,"connected_time":1241000000000,"state":"active","ping":51},{"user_id":688,"name":"Hertz","steam_id":76561198310927351,"connected_time":2021000000000,"state":"active","ping":140},{"user_id":687,"name":"TheHarmacist","steam_id":76561198068249096,"connected_time":2033000000000,"state":"active","ping":48},{"user_id":698,"name":"(´｡• ω •｡`) ♡","steam_id":76561198120326983,"connected_time":1806000000000,"state":"active","ping":61},{"user_id":664,"name":"Balerion the Black Dread","steam_id":76561198003728369,"connected_time":4678000000000,"state":"active","ping":56},{"user_id":685,"name":"Yakul","steam_id":76561198100040013,"connected_time":2288000000000,"state":"active","ping":84},{"user_id":690,"name":"Yoyo","steam_id":76561199000583700,"connected_time":2009000000000,"state":"active","ping":68},{"user_id":673,"name":"muffin","steam_id":76561198145099865,"connected_time":3413000000000,"state":"active","ping":65},{"user_id":714,"name":"ƸӜƷMafuyulovesuƸӜƷ","steam_id":76561198111497204,"connected_time":304000000000,"state":"active","ping":75},{"user_id":709,"name":"Granola","steam_id":76561198312513800,"connected_time":879000000000,"state":"active","ping":45},{"user_id":704,"name":"YOU JUST LOST THE GAME","steam_id":76561198012126625,"connected_time":1085000000000,"state":"active","ping":68},{"user_id":707,"name":"Tobo","steam_id":76561198085846393,"connected_time":913000000000,"state":"active","ping":99},{"user_id":715,"name":"DinkleBerg","steam_id":76561198891626233,"connected_time":302000000000,"state":"active","ping":80},{"user_id":706,"name":"ุ","steam_id":76561198170624701,"connected_time":1064000000000,"state":"active","ping":74},{"user_id":696,"name":"PoisonIvy","steam_id":76561198072384574,"connected_time":1895000000000,"state":"active","ping":52},{"user_id":708,"name":"hud_saytext_time 0","steam_id":76561198010327228,"connected_time":892000000000,"state":"active","ping":167},{"user_id":639,"name":"Praise_to_the_Flashlight!","steam_id":76561199001728789,"connected_time":5950000000000,"state":"active","ping":63},{"user_id":716,"name":"Shorty","steam_id":76561198044873248,"connected_time":263000000000,"state":"active","ping":47},{"user_id":645,"name":"87987974","steam_id":76561198046948758,"connected_time":5647000000000,"state":"active","ping":57},{"user_id":713,"name":"Cooler Ye","steam_id":76561198068830312,"connected_time":474000000000,"state":"active","ping":46},{"user_id":666,"name":"Two-Ton Heavy Thing","steam_id":76561198201724274,"connected_time":4487000000000,"state":"active","ping":89},{"user_id":699,"name":"Howard Hamlin","steam_id":76561198881039861,"connected_time":1783000000000,"state":"active","ping":48},{"user_id":703,"name":"Goober Gaming","steam_id":76561198095550617,"connected_time":1125000000000,"state":"active","ping":97},{"user_id":672,"name":"What day is it?","steam_id":76561199056736682,"connected_time":3657000000000,"state":"active","ping":66}]},{"server_id":106,"name":"Uncletopia | Chicago | 2 | All Maps","name_short":"chi-2","host":"chi-1.us.uncletopia.com","port":27025,"enabled":true,"region":"us-central","cc":"us","latitude":41.881832,"longitude":-87.62318,"reserved":0,"last_update":"0001-01-01T00:00:00Z","name_a2s":"Uncletopia | Chicago | 2 | All Maps","protocol":17,"map":"pl_borneo","folder":"tf","game":"Team Fortress","app_id":440,"player_count":23,"max_players":24,"Bots":0,"server_type":"Dedicated","server_os":"Linux","password":true,"vac":true,"version":"7961495","steam_id":85568392924469985,"keywords":["nocrits","nodmgspread","payload","uncletopia"],"game_id":440,"stv_port":27026,"stv_name":"Uncletopia | Chicago | 2 | All Maps | STV","players":[{"user_id":350,"name":"Donnie Blasto","steam_id":76561198043432005,"connected_time":4016000000000,"state":"active","ping":59},{"user_id":383,"name":"PAPA ZAZA","steam_id":76561198071828689,"connected_time":1870000000000,"state":"active","ping":64},{"user_id":403,"name":"SiltyStar85","steam_id":76561198309175923,"connected_time":205000000000,"state":"active","ping":94},{"user_id":413,"name":"JayDuh","steam_id":76561198396293109,"connected_time":1000000000,"state":"spawning","ping":73},{"user_id":358,"name":"Griffin_Jr","steam_id":76561198421953311,"connected_time":3562000000000,"state":"active","ping":62},{"user_id":375,"name":"totally not a pile of beans","steam_id":76561198119851931,"connected_time":2474000000000,"state":"active","ping":80},{"user_id":412,"name":"Green Mario","steam_id":76561198094325997,"connected_time":34000000000,"state":"active","ping":74},{"user_id":407,"name":"Amathron","steam_id":76561198113320294,"connected_time":100000000000,"state":"active","ping":68},{"user_id":366,"name":"Amoxicilina","steam_id":76561198168486429,"connected_time":3310000000000,"state":"active","ping":118},{"user_id":384,"name":"Capt.Swag","steam_id":76561198088340994,"connected_time":1531000000000,"state":"active","ping":73},{"user_id":397,"name":"Dragus","steam_id":76561198032967285,"connected_time":773000000000,"state":"active","ping":45},{"user_id":353,"name":"Spygie","steam_id":76561198218573049,"connected_time":3961000000000,"state":"active","ping":89},{"user_id":406,"name":"HOVY GAMING (REAL)","steam_id":76561199210311096,"connected_time":127000000000,"state":"active","ping":143},{"user_id":391,"name":"Prsm","steam_id":76561198053344995,"connected_time":1119000000000,"state":"active","ping":50},{"user_id":392,"name":"pipebombrater","steam_id":76561199029030831,"connected_time":1102000000000,"state":"active","ping":80},{"user_id":408,"name":"Ginnunga","steam_id":76561198000320083,"connected_time":91000000000,"state":"active","ping":102},{"user_id":399,"name":"ArmyGuyIan","steam_id":76561198120926552,"connected_time":659000000000,"state":"active","ping":60},{"user_id":381,"name":"-TheMute-","steam_id":76561198107320072,"connected_time":1956000000000,"state":"active","ping":57},{"user_id":409,"name":"Mothman Randy Savage","steam_id":76561198031482274,"connected_time":87000000000,"state":"active","ping":81},{"user_id":387,"name":"HappySmiles1010","steam_id":76561199202300463,"connected_time":1504000000000,"state":"active","ping":122},{"user_id":398,"name":"loser","steam_id":76561198259380127,"connected_time":744000000000,"state":"active","ping":53},{"user_id":379,"name":"My Aim Is Bad!","steam_id":76561198223603960,"connected_time":1990000000000,"state":"active","ping":133},{"user_id":411,"name":"=Silver=","steam_id":76561198292307127,"connected_time":84000000000,"state":"active","ping":92}]},{"server_id":402,"name":"Uncletopia | Chicago | 3 | All Maps","name_short":"chi-3","host":"chi-1.us.uncletopia.com","port":27035,"enabled":true,"region":"us-central","cc":"us","latitude":41.881832,"longitude":-87.62318,"reserved":0,"last_update":"0001-01-01T00:00:00Z","name_a2s":"Uncletopia | Chicago | 3 | All Maps","protocol":17,"map":"pl_pier","folder":"tf","game":"Team Fortress","app_id":440,"player_count":23,"max_players":24,"Bots":0,"server_type":"Dedicated","server_os":"Linux","password":true,"vac":true,"version":"7961495","steam_id":85568392924515191,"keywords":["nocrits","nodmgspread","payload","uncletopia"],"game_id":440,"stv_port":27036,"stv_name":"Uncletopia | Chicago | 3 | All Maps | STV","players":[{"user_id":627,"name":"mayoman","steam_id":76561198399205495,"connected_time":1120000000000,"state":"active","ping":100},{"user_id":625,"name":"choochoo","steam_id":76561199122075275,"connected_time":1208000000000,"state":"active","ping":88},{"user_id":636,"name":"bologna forklift 2012","steam_id":76561198199061206,"connected_time":919000000000,"state":"active","ping":36},{"user_id":567,"name":"Buckler","steam_id":76561197969421355,"connected_time":6814000000000,"state":"active","ping":60},{"user_id":644,"name":"jumpingjacks","steam_id":76561197964839440,"connected_time":544000000000,"state":"active","ping":59},{"user_id":649,"name":"bug","steam_id":76561198254503343,"connected_time":17000000000,"state":"spawning","ping":59},{"user_id":618,"name":"Miramar","steam_id":76561198022057653,"connected_time":2315000000000,"state":"active","ping":55},{"user_id":579,"name":"MedRed™ #IATAH","steam_id":76561198002962970,"connected_time":6303000000000,"state":"active","ping":91},{"user_id":630,"name":"MaeDay","steam_id":76561198332344135,"connected_time":1018000000000,"state":"active","ping":67},{"user_id":646,"name":"masterchiefvinesaucedoomguy985","steam_id":76561198339008585,"connected_time":53000000000,"state":"active","ping":58},{"user_id":647,"name":"Wilma","steam_id":76561198138420251,"connected_time":43000000000,"state":"active","ping":60},{"user_id":648,"name":"Ducter","steam_id":76561198085369908,"connected_time":41000000000,"state":"connecting","ping":61},{"user_id":637,"name":"SEGNO","steam_id":76561198102780113,"connected_time":855000000000,"state":"active","ping":61},{"user_id":635,"name":"gooch_masta","steam_id":76561198151578423,"connected_time":970000000000,"state":"active","ping":86},{"user_id":638,"name":"mwee machine","steam_id":76561198047126327,"connected_time":808000000000,"state":"active","ping":61},{"user_id":639,"name":"gulch","steam_id":76561199227946025,"connected_time":798000000000,"state":"active","ping":70},{"user_id":645,"name":"cactail","steam_id":76561198238898732,"connected_time":390000000000,"state":"active","ping":83},{"user_id":650,"name":"sen","steam_id":76561198211308328,"connected_time":8000000000,"state":"spawning","ping":59},{"user_id":641,"name":"TerrorOfTheSeas","steam_id":76561198388385659,"connected_time":762000000000,"state":"active","ping":74},{"user_id":559,"name":"Hipster_Giraffe","steam_id":76561198069701092,"connected_time":7553000000000,"state":"active","ping":86},{"user_id":651,"name":"mambo","steam_id":76561198811561721,"connected_time":3000000000,"state":"spawning","ping":83},{"user_id":622,"name":"autism","steam_id":76561198143526292,"connected_time":2098000000000,"state":"active","ping":63},{"user_id":643,"name":"Hallowedspoon","steam_id":76561199141350399,"connected_time":702000000000,"state":"active","ping":77}]},{"server_id":403,"name":"Uncletopia | Chicago | 4 | All Maps","name_short":"chi-4","host":"chi-1.us.uncletopia.com","port":27045,"enabled":true,"region":"us-central","cc":"us","latitude":41.881832,"longitude":-87.62318,"reserved":0,"last_update":"0001-01-01T00:00:00Z","name_a2s":"Uncletopia | Chicago | 4 | All Maps","protocol":17,"map":"pl_pier","folder":"tf","game":"Team Fortress","app_id":440,"player_count":24,"max_players":24,"Bots":0,"server_type":"Dedicated","server_os":"Linux","password":true,"vac":true,"version":"7961495","steam_id":85568392924515193,"keywords":["nocrits","nodmgspread","payload","uncletopia"],"game_id":440,"stv_port":27046,"stv_name":"Uncletopia | Chicago | 4 | All Maps | STV","players":[{"user_id":503,"name":"Shoeshocker","steam_id":76561198174302467,"connected_time":1551000000000,"state":"active","ping":67},{"user_id":511,"name":"big steve","steam_id":76561199037050183,"connected_time":1062000000000,"state":"active","ping":80},{"user_id":488,"name":"your fwiend","steam_id":76561198154773643,"connected_time":2667000000000,"state":"active","ping":69},{"user_id":510,"name":"Stealthguy724","steam_id":76561198195961430,"connected_time":1093000000000,"state":"active","ping":74},{"user_id":505,"name":"Knight","steam_id":76561198203955251,"connected_time":1223000000000,"state":"active","ping":66},{"user_id":412,"name":"Scoot the Burbs","steam_id":76561198079507179,"connected_time":8645000000000,"state":"active","ping":72},{"user_id":390,"name":"ItsThatBear","steam_id":76561198169617659,"connected_time":11052000000000,"state":"active","ping":88},{"user_id":512,"name":"Sharmat","steam_id":76561198103492042,"connected_time":1061000000000,"state":"active","ping":48},{"user_id":525,"name":"bazooka_steve","steam_id":76561198040731651,"connected_time":739000000000,"state":"active","ping":73},{"user_id":506,"name":"Bandoleon","steam_id":76561199075155791,"connected_time":1170000000000,"state":"active","ping":62},{"user_id":528,"name":"Deluxe_Taco34","steam_id":76561199037653437,"connected_time":598000000000,"state":"active","ping":112},{"user_id":514,"name":"crankshaft","steam_id":76561197992798282,"connected_time":1044000000000,"state":"active","ping":96},{"user_id":515,"name":"Bodacious Meat","steam_id":76561198058742270,"connected_time":988000000000,"state":"active","ping":63},{"user_id":518,"name":"Phillip Jeffries","steam_id":76561198064052174,"connected_time":843000000000,"state":"active","ping":61},{"user_id":529,"name":"Scrumpy Main","steam_id":76561198146302597,"connected_time":589000000000,"state":"active","ping":62},{"user_id":519,"name":"The Assistant Regional Manager","steam_id":76561199221484936,"connected_time":833000000000,"state":"active","ping":125},{"user_id":520,"name":"grayflingsnap098","steam_id":76561199142779872,"connected_time":808000000000,"state":"active","ping":71},{"user_id":526,"name":"King Of The Chill","steam_id":76561197971394640,"connected_time":691000000000,"state":"active","ping":93},{"user_id":449,"name":"Eviking","steam_id":76561198055973343,"connected_time":5289000000000,"state":"active","ping":101},{"user_id":391,"name":"AL SPUGNAR","steam_id":76561199020253203,"connected_time":11002000000000,"state":"active","ping":123},{"user_id":522,"name":"a hairdryer","steam_id":76561197998390764,"connected_time":788000000000,"state":"active","ping":112},{"user_id":491,"name":"Waffle","steam_id":76561199000034608,"connected_time":2463000000000,"state":"active","ping":62},{"user_id":523,"name":"Johnny Lawrence #JohnnyMaxxing","steam_id":76561199367141671,"connected_time":787000000000,"state":"active","ping":61},{"user_id":527,"name":"Wigl","steam_id":76561198019324464,"connected_time":670000000000,"state":"active","ping":71}]},{"server_id":36,"name":"Uncletopia | Chicago | 5 | All Maps","name_short":"chi-5","host":"chi-2.us.uncletopia.com","port":27015,"enabled":true,"region":"us-central","cc":"us","latitude":41.881832,"longitude":-87.62318,"reserved":0,"last_update":"0001-01-01T00:00:00Z","name_a2s":"Uncletopia | Chicago | 5 | All Maps","protocol":17,"map":"pl_badwater","folder":"tf","game":"Team Fortress","app_id":440,"player_count":24,"max_players":24,"Bots":0,"server_type":"Dedicated","server_os":"Linux","password":true,"vac":true,"version":"7961495","steam_id":85568392924866362,"keywords":["nocrits","nodmgspread","payload","uncletopia"],"game_id":440,"stv_port":27016,"stv_name":"Uncletopia | Chicago | 5 | All Maps | STV","players":[{"user_id":281,"name":"BUFF THE SCORCH SHOT","steam_id":76561198042899484,"connected_time":774000000000,"state":"active","ping":74},{"user_id":268,"name":"agless","steam_id":76561198045248344,"connected_time":2364000000000,"state":"active","ping":53},{"user_id":291,"name":"millie","steam_id":76561198008366811,"connected_time":542000000000,"state":"active","ping":58},{"user_id":247,"name":"ther","steam_id":76561199191376935,"connected_time":4400000000000,"state":"active","ping":86},{"user_id":270,"name":"♂ I R O N ♂ M I K E ♂","steam_id":76561199405378993,"connected_time":1632000000000,"state":"active","ping":84},{"user_id":279,"name":"L. Ron Hoyabembe","steam_id":76561198306393090,"connected_time":846000000000,"state":"active","ping":46},{"user_id":280,"name":"xFactr","steam_id":76561198129007422,"connected_time":831000000000,"state":"active","ping":60},{"user_id":292,"name":"Nortel Network Telephone T7316","steam_id":76561198399261089,"connected_time":533000000000,"state":"active","ping":90},{"user_id":296,"name":"Streetwise","steam_id":76561197971684268,"connected_time":125000000000,"state":"active","ping":96},{"user_id":265,"name":"bob","steam_id":76561198274522348,"connected_time":2896000000000,"state":"active","ping":50},{"user_id":227,"name":"thatguy_luigi","steam_id":76561198968055462,"connected_time":5860000000000,"state":"active","ping":119},{"user_id":276,"name":"PK","steam_id":76561198368722500,"connected_time":890000000000,"state":"active","ping":80},{"user_id":274,"name":"nickyboy","steam_id":76561198055205332,"connected_time":1385000000000,"state":"active","ping":93},{"user_id":251,"name":"boffo","steam_id":76561198096978718,"connected_time":4381000000000,"state":"active","ping":89},{"user_id":275,"name":"Q47","steam_id":76561198087128341,"connected_time":1370000000000,"state":"active","ping":122},{"user_id":272,"name":"Dogemetri","steam_id":76561198274982830,"connected_time":1617000000000,"state":"active","ping":61},{"user_id":284,"name":"chud smoker","steam_id":76561198120973162,"connected_time":710000000000,"state":"active","ping":78},{"user_id":285,"name":"chud packer","steam_id":76561198051310816,"connected_time":702000000000,"state":"active","ping":69},{"user_id":286,"name":"bla bla","steam_id":76561198284992433,"connected_time":678000000000,"state":"active","ping":55},{"user_id":287,"name":"cilo","steam_id":76561198046163502,"connected_time":674000000000,"state":"active","ping":65},{"user_id":234,"name":"car crash compilation #34","steam_id":76561198042773724,"connected_time":5775000000000,"state":"active","ping":103},{"user_id":294,"name":"Female Gamer","steam_id":76561199366482682,"connected_time":505000000000,"state":"active","ping":113},{"user_id":288,"name":"that is pristine","steam_id":76561198830293087,"connected_time":640000000000,"state":"active","ping":48},{"user_id":290,"name":"❤MrsNugget :3❤","steam_id":76561199104298265,"connected_time":610000000000,"state":"active","ping":53}]},{"server_id":37,"name":"Uncletopia | Chicago | 6 | All Maps","name_short":"chi-6","host":"chi-2.us.uncletopia.com","port":27025,"enabled":true,"region":"us-central","cc":"us","latitude":41.881832,"longitude":-87.62318,"reserved":0,"last_update":"0001-01-01T00:00:00Z","name_a2s":"Uncletopia | Chicago | 6 | All Maps","protocol":17,"map":"pl_swiftwater_final1","folder":"tf","game":"Team Fortress","app_id":440,"player_count":24,"max_players":24,"Bots":0,"server_type":"Dedicated","server_os":"Linux","password":true,"vac":true,"version":"7961495","steam_id":85568392924866363,"keywords":["nocrits","nodmgspread","payload","uncletopia"],"game_id":440,"stv_port":27026,"stv_name":"Uncletopia | Chicago | 6 | All Maps | STV","players":[{"user_id":153,"name":"Carpet enthusiast","steam_id":76561198024040142,"connected_time":12274000000000,"state":"active","ping":95},{"user_id":252,"name":"a fuddruckers","steam_id":76561198092656099,"connected_time":4873000000000,"state":"active","ping":41},{"user_id":263,"name":"Aster","steam_id":76561198037920420,"connected_time":4232000000000,"state":"active","ping":80},{"user_id":283,"name":"Maurdakar","steam_id":76561197983420976,"connected_time":2332000000000,"state":"active","ping":78},{"user_id":302,"name":"Gram Tokers Count Doinkula","steam_id":76561198112811565,"connected_time":1457000000000,"state":"active","ping":74},{"user_id":293,"name":"Dredd™","steam_id":76561197998495764,"connected_time":1996000000000,"state":"active","ping":69},{"user_id":317,"name":"Pretentious Gunspy","steam_id":76561199241325005,"connected_time":457000000000,"state":"active","ping":85},{"user_id":320,"name":"moe","steam_id":76561198929586245,"connected_time":368000000000,"state":"active","ping":119},{"user_id":286,"name":"too funky ᗜˬᗜ","steam_id":76561199120399776,"connected_time":2247000000000,"state":"active","ping":75},{"user_id":316,"name":"Classic","steam_id":76561198215293509,"connected_time":503000000000,"state":"active","ping":66},{"user_id":307,"name":"L to the OG","steam_id":76561199215811448,"connected_time":1277000000000,"state":"active","ping":77},{"user_id":310,"name":"A Jewish Monkey","steam_id":76561198356021849,"connected_time":1234000000000,"state":"active","ping":76},{"user_id":313,"name":"Castrophy","steam_id":76561198014745908,"connected_time":1100000000000,"state":"active","ping":71},{"user_id":323,"name":"Rudy","steam_id":76561198013456828,"connected_time":307000000000,"state":"active","ping":64},{"user_id":319,"name":"Grilled Jizo","steam_id":76561199250875340,"connected_time":418000000000,"state":"active","ping":77},{"user_id":248,"name":"Pilot","steam_id":76561198242227952,"connected_time":6233000000000,"state":"active","ping":69},{"user_id":309,"name":"Marky92","steam_id":76561198044796178,"connected_time":1245000000000,"state":"active","ping":63},{"user_id":321,"name":"DistantJragon","steam_id":76561198117563641,"connected_time":361000000000,"state":"active","ping":43},{"user_id":308,"name":"enhanced with disney's FastPlay","steam_id":76561198164134387,"connected_time":1263000000000,"state":"active","ping":112},{"user_id":261,"name":"cavalry#453245134","steam_id":76561198044856349,"connected_time":4271000000000,"state":"active","ping":48},{"user_id":270,"name":"Judge Judy and executioner","steam_id":76561198015235881,"connected_time":4098000000000,"state":"active","ping":64},{"user_id":324,"name":"mike penis","steam_id":76561198159339442,"connected_time":117000000000,"state":"active","ping":71},{"user_id":298,"name":"Feds taught me how to","steam_id":76561198011675372,"connected_time":1639000000000,"state":"active","ping":110},{"user_id":326,"name":"Toasterduds","steam_id":76561198163477584,"connected_time":14000000000,"state":"active","ping":113}]},{"server_id":38,"name":"Uncletopia | Chicago | 7 | Stopwatch","name_short":"chi-7","host":"chi-2.us.uncletopia.com","port":27035,"enabled":true,"region":"us-central","cc":"us","latitude":41.881832,"longitude":-87.62318,"reserved":0,"last_update":"0001-01-01T00:00:00Z","name_a2s":"Uncletopia | Chicago | 7 | Stopwatch","protocol":17,"map":"koth_lakeside_final","folder":"tf","game":"Team Fortress","app_id":440,"player_count":0,"max_players":24,"Bots":0,"server_type":"Dedicated","server_os":"Linux","password":true,"vac":true,"version":"7961495","steam_id":85568392924866364,"keywords":["cp","nocrits","nodmgspread","uncletopia"],"game_id":440,"stv_port":27036,"stv_name":"Uncletopia | Chicago | 7 | Stopwatch | STV","players":null},{"server_id":39,"name":"Uncletopia | Chicago | 8 | Community","name_short":"chi-8","host":"chi-2.us.uncletopia.com","port":27045,"enabled":true,"region":"us-central","cc":"us","latitude":41.881832,"longitude":-87.62318,"reserved":0,"last_update":"0001-01-01T00:00:00Z","name_a2s":"Uncletopia | Chicago | 8 | Community","protocol":17,"map":"workshop/cp_snowbase_b21.ugc2081770490","folder":"tf","game":"Team Fortress","app_id":440,"player_count":9,"max_players":24,"Bots":0,"server_type":"Dedicated","server_os":"Linux","password":true,"vac":true,"version":"7961495","steam_id":85568392924866365,"keywords":["cp","nocrits","nodmgspread","uncletopia"],"game_id":440,"stv_port":27046,"stv_name":"Uncletopia | Chicago | 8 | Community | STV","players":[{"user_id":25,"name":"R@cing74m","steam_id":76561199036177043,"connected_time":1092000000000,"state":"active","ping":67},{"user_id":26,"name":"Shado4629","steam_id":76561198110573767,"connected_time":1079000000000,"state":"active","ping":66},{"user_id":27,"name":"GGduh","steam_id":76561198375357841,"connected_time":1073000000000,"state":"active","ping":85},{"user_id":28,"name":"Tekno Baron","steam_id":76561198202057049,"connected_time":1066000000000,"state":"active","ping":77},{"user_id":29,"name":"Ceres","steam_id":76561198074154588,"connected_time":945000000000,"state":"active","ping":75},{"user_id":31,"name":"Kick Down Door 6:00AM TUCK☃RO","steam_id":76561197976146738,"connected_time":223000000000,"state":"active","ping":66},{"user_id":32,"name":"squish","steam_id":76561198147833204,"connected_time":175000000000,"state":"active","ping":95},{"user_id":33,"name":"Chunk","steam_id":76561198204275251,"connected_time":163000000000,"state":"active","ping":75},{"user_id":34,"name":"Spider_god","steam_id":76561199097791017,"connected_time":55000000000,"state":"active","ping":138}]},{"server_id":8,"name":"Uncletopia | Dallas | 1 | All Maps","name_short":"dal-1","host":"dal-1.us.uncletopia.com","port":27015,"enabled":true,"region":"us-central","cc":"us","latitude":32.779167,"longitude":-96.80889,"reserved":0,"last_update":"0001-01-01T00:00:00Z","name_a2s":"Uncletopia | Dallas | 1 | All Maps","protocol":17,"map":"cp_dustbowl","folder":"tf","game":"Team Fortress","app_id":440,"player_count":24,"max_players":24,"Bots":0,"server_type":"Dedicated","server_os":"Linux","password":true,"vac":true,"version":"7961495","steam_id":85568392924469986,"keywords":["cp","nocrits","nodmgspread","uncletopia"],"game_id":440,"stv_port":27016,"stv_name":"Uncletopia | Dallas | 1 | All Maps | STV","players":[{"user_id":466,"name":"Shrub Lord","steam_id":76561198091518412,"connected_time":596000000000,"state":"active","ping":59},{"user_id":459,"name":"dave","steam_id":76561198135961731,"connected_time":1513000000000,"state":"active","ping":65},{"user_id":358,"name":"Mellou","steam_id":76561198212048740,"connected_time":7774000000000,"state":"active","ping":49},{"user_id":467,"name":"PootisPowHAHA","steam_id":76561199023536209,"connected_time":547000000000,"state":"active","ping":75},{"user_id":474,"name":"Real Goblin™","steam_id":76561198121665419,"connected_time":295000000000,"state":"active","ping":65},{"user_id":449,"name":"Imrgrim","steam_id":76561198135866481,"connected_time":2075000000000,"state":"active","ping":70},{"user_id":452,"name":"Babushka Lady","steam_id":76561198153280053,"connected_time":2031000000000,"state":"active","ping":127},{"user_id":370,"name":"biggamehntr887","steam_id":76561198999431215,"connected_time":6266000000000,"state":"active","ping":72},{"user_id":469,"name":"Que-sus-dilla","steam_id":76561198125712564,"connected_time":484000000000,"state":"active","ping":116},{"user_id":460,"name":"Wahaha hee","steam_id":76561198098017157,"connected_time":1464000000000,"state":"active","ping":60},{"user_id":470,"name":"ketsu","steam_id":76561197966171554,"connected_time":481000000000,"state":"active","ping":188},{"user_id":458,"name":"BatMatt","steam_id":76561198045910433,"connected_time":1644000000000,"state":"active","ping":56},{"user_id":465,"name":"Bogey","steam_id":76561198096227944,"connected_time":711000000000,"state":"active","ping":50},{"user_id":462,"name":"Ronnie Pickering!","steam_id":76561198041842118,"connected_time":1356000000000,"state":"active","ping":84},{"user_id":471,"name":"Quantum level failure","steam_id":76561199037497493,"connected_time":472000000000,"state":"active","ping":78},{"user_id":464,"name":"Cloey","steam_id":76561199161591235,"connected_time":942000000000,"state":"active","ping":55},{"user_id":472,"name":"bungus99","steam_id":76561198334977151,"connected_time":468000000000,"state":"active","ping":91},{"user_id":447,"name":"Squigly","steam_id":76561198084811625,"connected_time":2208000000000,"state":"active","ping":83},{"user_id":450,"name":"Jack \"Hee Ho\" Frost","steam_id":76561198353395198,"connected_time":2069000000000,"state":"active","ping":81},{"user_id":423,"name":"Alchemist","steam_id":76561198094238189,"connected_time":3711000000000,"state":"active","ping":74},{"user_id":273,"name":"Fu Qian Qian","steam_id":76561199081837220,"connected_time":13918000000000,"state":"active","ping":71},{"user_id":473,"name":"Soju","steam_id":76561198044130442,"connected_time":442000000000,"state":"active","ping":60},{"user_id":433,"name":"EvilPi99let","steam_id":76561197987243470,"connected_time":3042000000000,"state":"active","ping":75},{"user_id":457,"name":"Harufloofer","steam_id":76561199084506827,"connected_time":1826000000000,"state":"active","ping":48}]},{"server_id":108,"name":"Uncletopia | Dallas | 2 | All Maps","name_short":"dal-2","host":"dal-1.us.uncletopia.com","port":27025,"enabled":true,"region":"us-central","cc":"us","latitude":32.779167,"longitude":-96.80889,"reserved":0,"last_update":"0001-01-01T00:00:00Z","name_a2s":"Uncletopia | Dallas | 2 | All Maps","protocol":17,"map":"pl_pier","folder":"tf","game":"Team Fortress","app_id":440,"player_count":24,"max_players":24,"Bots":0,"server_type":"Dedicated","server_os":"Linux","password":true,"vac":true,"version":"7961495","steam_id":85568392924469988,"keywords":["nocrits","nodmgspread","payload","uncletopia"],"game_id":440,"stv_port":27026,"stv_name":"Uncletopia | Dallas | 2 | All Maps | STV","players":[{"user_id":512,"name":"Carbonated Cocaine","steam_id":76561198110678966,"connected_time":567000000000,"state":"active","ping":52},{"user_id":475,"name":"Moonflower ✦","steam_id":76561198191782483,"connected_time":3357000000000,"state":"active","ping":57},{"user_id":505,"name":"for the king","steam_id":76561197973488858,"connected_time":1143000000000,"state":"active","ping":74},{"user_id":516,"name":"hatchetax","steam_id":76561199013337543,"connected_time":284000000000,"state":"active","ping":67},{"user_id":496,"name":"FiddyFoMike","steam_id":76561198057072581,"connected_time":2263000000000,"state":"active","ping":89},{"user_id":497,"name":"TacoMan4Life","steam_id":76561198832562728,"connected_time":2061000000000,"state":"active","ping":84},{"user_id":499,"name":"MINI CRIT!999","steam_id":76561198027649268,"connected_time":1969000000000,"state":"active","ping":80},{"user_id":453,"name":"women in suits #transrights","steam_id":76561198103901723,"connected_time":4533000000000,"state":"active","ping":70},{"user_id":409,"name":"HUESO","steam_id":76561198276383681,"connected_time":8556000000000,"state":"active","ping":82},{"user_id":468,"name":"corviraptor (bison sweep)","steam_id":76561198058284392,"connected_time":3833000000000,"state":"active","ping":50},{"user_id":506,"name":"lazy","steam_id":76561199230454401,"connected_time":1131000000000,"state":"active","ping":76},{"user_id":507,"name":"Hawkborne","steam_id":76561198107249245,"connected_time":1109000000000,"state":"active","ping":68},{"user_id":511,"name":"Sarbanes-Oxley","steam_id":76561197975898479,"connected_time":774000000000,"state":"active","ping":61},{"user_id":457,"name":"Dreysidel","steam_id":76561198056496183,"connected_time":4450000000000,"state":"active","ping":100},{"user_id":508,"name":"LACTAID","steam_id":76561198276585202,"connected_time":1089000000000,"state":"active","ping":81},{"user_id":470,"name":"Deeply","steam_id":76561199000786530,"connected_time":3650000000000,"state":"active","ping":69},{"user_id":498,"name":"OniSlays","steam_id":76561198043875292,"connected_time":2055000000000,"state":"active","ping":86},{"user_id":443,"name":"A Shiny Meat Bicycle","steam_id":76561198358757709,"connected_time":5541000000000,"state":"active","ping":97},{"user_id":509,"name":"Lefty [Gentlemen of Leisure]","steam_id":76561197980825914,"connected_time":1083000000000,"state":"active","ping":58},{"user_id":514,"name":"MonkeyNobody","steam_id":76561199451266605,"connected_time":408000000000,"state":"active","ping":94},{"user_id":513,"name":"zeplinnn","steam_id":76561198301300987,"connected_time":551000000000,"state":"active","ping":84},{"user_id":495,"name":"Word To Your Mothership","steam_id":76561198034329138,"connected_time":2350000000000,"state":"active","ping":89},{"user_id":477,"name":"Burpingtaco","steam_id":76561198081207098,"connected_time":2990000000000,"state":"active","ping":92},{"user_id":510,"name":"Aeris","steam_id":76561198287271028,"connected_time":1064000000000,"state":"active","ping":77}]},{"server_id":404,"name":"Uncletopia | Dallas | 3 | All Maps","name_short":"dal-3","host":"dal-1.us.uncletopia.com","port":27035,"enabled":true,"region":"us-central","cc":"us","latitude":32.779167,"longitude":-96.80889,"reserved":0,"last_update":"0001-01-01T00:00:00Z","name_a2s":"Uncletopia | Dallas | 3 | All Maps","protocol":17,"map":"cp_snakewater_final1","folder":"tf","game":"Team Fortress","app_id":440,"player_count":24,"max_players":24,"Bots":0,"server_type":"Dedicated","server_os":"Linux","password":true,"vac":true,"version":"7961495","steam_id":85568392924515219,"keywords":["cp","nocrits","nodmgspread","uncletopia"],"game_id":440,"stv_port":27036,"stv_name":"Uncletopia | Dallas | 3 | All Maps | STV","players":[{"user_id":601,"name":"penzfan","steam_id":76561198230422640,"connected_time":192000000000,"state":"active","ping":83},{"user_id":596,"name":"Drained","steam_id":76561198081974528,"connected_time":418000000000,"state":"active","ping":66},{"user_id":590,"name":"RoraBeth","steam_id":76561197999432246,"connected_time":1277000000000,"state":"active","ping":90},{"user_id":600,"name":"j3","steam_id":76561198934493061,"connected_time":212000000000,"state":"active","ping":157},{"user_id":572,"name":"SleepySinny","steam_id":76561198210764240,"connected_time":2975000000000,"state":"active","ping":74},{"user_id":479,"name":"mbell1199","steam_id":76561198827517736,"connected_time":9732000000000,"state":"active","ping":64},{"user_id":511,"name":"Burny Sanders","steam_id":76561197961879048,"connected_time":7087000000000,"state":"active","ping":44},{"user_id":581,"name":"Baannaannaa","steam_id":76561198042895194,"connected_time":1474000000000,"state":"active","ping":53},{"user_id":598,"name":"NyanHorses","steam_id":76561198161584966,"connected_time":264000000000,"state":"active","ping":38},{"user_id":593,"name":"Lee?","steam_id":76561199060892634,"connected_time":911000000000,"state":"active","ping":69},{"user_id":583,"name":"yeeye","steam_id":76561198094306054,"connected_time":1457000000000,"state":"active","ping":63},{"user_id":597,"name":"Rafl","steam_id":76561198055222756,"connected_time":382000000000,"state":"active","ping":46},{"user_id":584,"name":"Deck","steam_id":76561198153129589,"connected_time":1444000000000,"state":"active","ping":113},{"user_id":605,"name":"Spooky_Skely","steam_id":76561198447819517,"connected_time":19000000000,"state":"active","ping":60},{"user_id":571,"name":"Oviraptor Supreme","steam_id":76561198044262534,"connected_time":3021000000000,"state":"active","ping":55},{"user_id":592,"name":"nauticalNeonate","steam_id":76561198071473716,"connected_time":1087000000000,"state":"active","ping":88},{"user_id":586,"name":"Chauncey von Snuffles III","steam_id":76561198021784746,"connected_time":1335000000000,"state":"active","ping":73},{"user_id":599,"name":"SGT Disoriented","steam_id":76561198058177958,"connected_time":251000000000,"state":"active","ping":76},{"user_id":591,"name":"JimCGoodfellas","steam_id":76561198353568076,"connected_time":1157000000000,"state":"active","ping":89},{"user_id":578,"name":"???","steam_id":76561198200155343,"connected_time":2416000000000,"state":"active","ping":44},{"user_id":594,"name":"Egg3","steam_id":76561198080190068,"connected_time":463000000000,"state":"active","ping":73},{"user_id":602,"name":"Monkey Gaming","steam_id":76561198232461944,"connected_time":185000000000,"state":"active","ping":100},{"user_id":604,"name":"Legit_Jaxer","steam_id":76561198172234053,"connected_time":28000000000,"state":"spawning","ping":106},{"user_id":589,"name":"its boiled","steam_id":76561198042600523,"connected_time":1318000000000,"state":"active","ping":55}]},{"server_id":405,"name":"Uncletopia | Dallas | 4 | Community","name_short":"dal-4","host":"dal-1.us.uncletopia.com","port":27045,"enabled":true,"region":"us-central","cc":"us","latitude":32.779167,"longitude":-96.80889,"reserved":0,"last_update":"0001-01-01T00:00:00Z","name_a2s":"Uncletopia | Dallas | 4 | Community","protocol":17,"map":"workshop/pl_corrode_rc2.ugc546577989","folder":"tf","game":"Team Fortress","app_id":440,"player_count":0,"max_players":24,"Bots":0,"server_type":"Dedicated","server_os":"Linux","password":true,"vac":true,"version":"7961495","steam_id":85568392924515220,"keywords":["nocrits","nodmgspread","payload","uncletopia"],"game_id":440,"stv_port":27046,"stv_name":"Uncletopia | Dallas | 4 | Community | STV","players":null},{"server_id":5,"name":"Uncletopia | Frankfurt | 1 | All Maps","name_short":"frk-1","host":"frk-1.de.uncletopia.com","port":27015,"enabled":true,"region":"eu","cc":"de","latitude":50.110924,"longitude":8.682127,"reserved":0,"last_update":"0001-01-01T00:00:00Z","name_a2s":"Uncletopia | Frankfurt | 1 | All Maps","protocol":17,"map":"pl_frontier_final","folder":"tf","game":"Team Fortress","app_id":440,"player_count":0,"max_players":24,"Bots":0,"server_type":"Dedicated","server_os":"Linux","password":true,"vac":true,"version":"7961495","steam_id":85568392924469989,"keywords":["nocrits","nodmgspread","payload","uncletopia"],"game_id":440,"stv_port":27016,"stv_name":"Uncletopia | Frankfurt | 1 | All Maps | STV","players":null},{"server_id":110,"name":"Uncletopia | Frankfurt | 2 | All Maps","name_short":"frk-2","host":"frk-1.de.uncletopia.com","port":27025,"enabled":true,"region":"eu","cc":"de","latitude":50.110924,"longitude":8.682127,"reserved":0,"last_update":"0001-01-01T00:00:00Z","name_a2s":"Uncletopia | Frankfurt | 2 | All Maps","protocol":17,"map":"koth_viaduct","folder":"tf","game":"Team Fortress","app_id":440,"player_count":0,"max_players":24,"Bots":0,"server_type":"Dedicated","server_os":"Linux","password":true,"vac":true,"version":"7961495","steam_id":85568392924469990,"keywords":["cp","nocrits","nodmgspread","uncletopia"],"game_id":440,"stv_port":27026,"stv_name":"Uncletopia | Frankfurt | 2 | All Maps | STV","players":null},{"server_id":308,"name":"Uncletopia | Frankfurt | 3 | All Maps","name_short":"frk-3","host":"frk-1.de.uncletopia.com","port":27035,"enabled":true,"region":"eu","cc":"de","latitude":50.110924,"longitude":8.682127,"reserved":0,"last_update":"0001-01-01T00:00:00Z","name_a2s":"Uncletopia | Frankfurt | 3 | All Maps","protocol":17,"map":"koth_lakeside_final","folder":"tf","game":"Team Fortress","app_id":440,"player_count":0,"max_players":24,"Bots":0,"server_type":"Dedicated","server_os":"Linux","password":true,"vac":true,"version":"7961495","steam_id":85568392924504274,"keywords":["cp","nocrits","nodmgspread","uncletopia"],"game_id":440,"stv_port":27036,"stv_name":"Uncletopia | Frankfurt | 3 | All Maps | STV","players":null},{"server_id":309,"name":"Uncletopia | Frankfurt | 4 | All Maps","name_short":"frk-4","host":"frk-1.de.uncletopia.com","port":27045,"enabled":true,"region":"eu","cc":"de","latitude":50.110924,"longitude":8.682127,"reserved":0,"last_update":"0001-01-01T00:00:00Z","name_a2s":"Uncletopia | Frankfurt | 4 | All Maps","protocol":17,"map":"koth_highpass","folder":"tf","game":"Team Fortress","app_id":440,"player_count":0,"max_players":24,"Bots":0,"server_type":"Dedicated","server_os":"Linux","password":true,"vac":true,"version":"7961495","steam_id":85568392924504275,"keywords":["cp","nocrits","nodmgspread","uncletopia"],"game_id":440,"stv_port":27046,"stv_name":"Uncletopia | Frankfurt | 4 | All Maps | STV","players":null},{"server_id":310,"name":"Uncletopia | Frankfurt | 5 | All Maps","name_short":"frk-5","host":"frk-1.de.uncletopia.com","port":27055,"enabled":true,"region":"eu","cc":"de","latitude":50.110924,"longitude":8.682127,"reserved":0,"last_update":"0001-01-01T00:00:00Z","name_a2s":"Uncletopia | Frankfurt | 5 | All Maps","protocol":17,"map":"pl_swiftwater_final1","folder":"tf","game":"Team Fortress","app_id":440,"player_count":0,"max_players":24,"Bots":0,"server_type":"Dedicated","server_os":"Linux","password":true,"vac":true,"version":"7961495","steam_id":85568392924504277,"keywords":["nocrits","nodmgspread","payload","uncletopia"],"game_id":440,"stv_port":27056,"stv_name":"Uncletopia | Frankfurt | 5 | All Maps | STV","players":null},{"server_id":311,"name":"Uncletopia | Frankfurt | 6 | All Maps","name_short":"frk-6","host":"frk-1.de.uncletopia.com","port":27065,"enabled":true,"region":"eu","cc":"de","latitude":50.110924,"longitude":8.682127,"reserved":0,"last_update":"0001-01-01T00:00:00Z","name_a2s":"Uncletopia | Frankfurt | 6 | All Maps","protocol":17,"map":"pl_frontier_final","folder":"tf","game":"Team Fortress","app_id":440,"player_count":0,"max_players":24,"Bots":0,"server_type":"Dedicated","server_os":"Linux","password":true,"vac":true,"version":"7961495","steam_id":85568392924504278,"keywords":["nocrits","nodmgspread","payload","uncletopia"],"game_id":440,"stv_port":27066,"stv_name":"Uncletopia | Frankfurt | 6 | All Maps | STV","players":null},{"server_id":23,"name":"Uncletopia | Frankfurt | 7 | Stopwatch","name_short":"frk-7","host":"frk-1.de.uncletopia.com","port":27075,"enabled":true,"region":"eu","cc":"de","latitude":50.110924,"longitude":8.682127,"reserved":0,"last_update":"0001-01-01T00:00:00Z","name_a2s":"Uncletopia | Frankfurt | 7 | Stopwatch","protocol":17,"map":"workshop/pl_vigil_rc10.ugc1266210012","folder":"tf","game":"Team Fortress","app_id":440,"player_count":0,"max_players":24,"Bots":0,"server_type":"Dedicated","server_os":"Linux","password":true,"vac":true,"version":"7961495","steam_id":85568392924742827,"keywords":["nocrits","nodmgspread","payload","uncletopia"],"game_id":440,"stv_port":27076,"stv_name":"Uncletopia | Frankfurt | 7 | Stopwatch | STV","players":null},{"server_id":24,"name":"Uncletopia | Frankfurt | 8 | Community","name_short":"frk-8","host":"frk-1.de.uncletopia.com","port":27085,"enabled":true,"region":"eu","cc":"de","latitude":50.110924,"longitude":8.682127,"reserved":0,"last_update":"0001-01-01T00:00:00Z","name_a2s":"Uncletopia | Frankfurt | 8 | Community","protocol":17,"map":"workshop/cp_caldera_rc3.ugc2834196889","folder":"tf","game":"Team Fortress","app_id":440,"player_count":0,"max_players":24,"Bots":0,"server_type":"Dedicated","server_os":"Linux","password":true,"vac":true,"version":"7961495","steam_id":85568392924742828,"keywords":["cp","nocrits","nodmgspread","uncletopia"],"game_id":440,"stv_port":27086,"stv_name":"Uncletopia | Frankfurt | 8 | Community | STV","players":null},{"server_id":202,"name":"Uncletopia | Hong Kong | 1 | All Maps","name_short":"hgk-1","host":"hgk-1.hk.uncletopia.com","port":27015,"enabled":true,"region":"asia","cc":"hk","latitude":22.302711,"longitude":114.177216,"reserved":0,"last_update":"0001-01-01T00:00:00Z","name_a2s":"Uncletopia | Hong Kong | 1 | All Maps","protocol":17,"map":"koth_lakeside_final","folder":"tf","game":"Team Fortress","app_id":440,"player_count":7,"max_players":24,"Bots":0,"server_type":"Dedicated","server_os":"Linux","password":true,"vac":true,"version":"7961495","steam_id":85568392924494504,"keywords":["cp","nocrits","nodmgspread","uncletopia"],"game_id":440,"stv_port":27016,"stv_name":"Uncletopia | Hong Kong | 1 | All Maps | STV","players":[{"user_id":11,"name":"BabyPupa","steam_id":76561198442467591,"connected_time":2122000000000,"state":"active","ping":177},{"user_id":13,"name":"derek.patriarca30","steam_id":76561199427230206,"connected_time":1616000000000,"state":"active","ping":61},{"user_id":19,"name":"ArcticDolphin","steam_id":76561198203626319,"connected_time":521000000000,"state":"active","ping":125},{"user_id":15,"name":"BoyYouGotMeHookedOnToSmth","steam_id":76561198878775757,"connected_time":1237000000000,"state":"active","ping":100},{"user_id":20,"name":"jym","steam_id":76561198092630219,"connected_time":486000000000,"state":"active","ping":64},{"user_id":22,"name":"Hello","steam_id":76561198419635661,"connected_time":416000000000,"state":"active","ping":90},{"user_id":26,"name":"child eater","steam_id":76561199404725474,"connected_time":194000000000,"state":"active","ping":97}]},{"server_id":1,"name":"Uncletopia | Los Angeles | 1 | All Maps","name_short":"lax-1","host":"lax-1.us.uncletopia.com","port":27015,"enabled":true,"region":"us-west","cc":"us","latitude":33.94279,"longitude":-118.41004,"reserved":0,"last_update":"0001-01-01T00:00:00Z","name_a2s":"Uncletopia | Los Angeles | 1 | All Maps","protocol":17,"map":"koth_harvest_final","folder":"tf","game":"Team Fortress","app_id":440,"player_count":24,"max_players":24,"Bots":0,"server_type":"Dedicated","server_os":"Linux","password":true,"vac":true,"version":"7961495","steam_id":85568392924469991,"keywords":["cp","nocrits","nodmgspread","uncletopia"],"game_id":440,"stv_port":27016,"stv_name":"Uncletopia | Los Angeles | 1 | All Maps | STV","players":[{"user_id":223,"name":"Batso","steam_id":76561198106589452,"connected_time":225000000000,"state":"active","ping":52},{"user_id":221,"name":"Quaalude","steam_id":76561198100177449,"connected_time":313000000000,"state":"active","ping":75},{"user_id":218,"name":"HumbDoe","steam_id":76561198065556553,"connected_time":631000000000,"state":"active","ping":56},{"user_id":225,"name":"batt","steam_id":76561198150007983,"connected_time":105000000000,"state":"active","ping":45},{"user_id":142,"name":"❤ Ashley ❤","steam_id":76561198056428303,"connected_time":5595000000000,"state":"active","ping":46},{"user_id":226,"name":"tiredfisherman69","steam_id":76561199228963816,"connected_time":90000000000,"state":"active","ping":72},{"user_id":197,"name":"drank baby","steam_id":76561199483723843,"connected_time":1843000000000,"state":"active","ping":58},{"user_id":227,"name":"MayKaye","steam_id":76561199016092265,"connected_time":84000000000,"state":"active","ping":57},{"user_id":228,"name":"Dongus","steam_id":76561197979056451,"connected_time":65000000000,"state":"active","ping":75},{"user_id":177,"name":"Spread Joy, Not Hate","steam_id":76561198053117503,"connected_time":3208000000000,"state":"active","ping":90},{"user_id":224,"name":"Firedust19","steam_id":76561198153238631,"connected_time":139000000000,"state":"active","ping":74},{"user_id":168,"name":"Zeyzo","steam_id":76561198997687268,"connected_time":4068000000000,"state":"active","ping":104},{"user_id":220,"name":"Freyja","steam_id":76561198207412177,"connected_time":497000000000,"state":"active","ping":75},{"user_id":182,"name":"self sufficient kitten","steam_id":76561197960592612,"connected_time":2973000000000,"state":"active","ping":84},{"user_id":219,"name":"My_Movie.mp4","steam_id":76561198047002366,"connected_time":593000000000,"state":"active","ping":67},{"user_id":206,"name":"Angelmaster","steam_id":76561198815474379,"connected_time":1209000000000,"state":"active","ping":61},{"user_id":193,"name":"shakoiwa","steam_id":76561199059441773,"connected_time":1945000000000,"state":"active","ping":57},{"user_id":117,"name":"Overmeme","steam_id":76561199455124144,"connected_time":7577000000000,"state":"active","ping":81},{"user_id":211,"name":"AppleTapple","steam_id":76561198216903201,"connected_time":927000000000,"state":"active","ping":94},{"user_id":212,"name":"Captain Underbelly","steam_id":76561198811270935,"connected_time":921000000000,"state":"active","ping":85},{"user_id":131,"name":"korkskrou","steam_id":76561198422156430,"connected_time":6958000000000,"state":"active","ping":77},{"user_id":213,"name":"asheassassin","steam_id":76561199471917881,"connected_time":904000000000,"state":"active","ping":103},{"user_id":87,"name":"awe","steam_id":76561198338739253,"connected_time":8544000000000,"state":"active","ping":56},{"user_id":217,"name":"Martiquin","steam_id":76561198158049829,"connected_time":694000000000,"state":"active","ping":91}]},{"server_id":112,"name":"Uncletopia | Los Angeles | 2 | All Maps","name_short":"lax-2","host":"lax-1.us.uncletopia.com","port":27025,"enabled":true,"region":"us-west","cc":"us","latitude":33.94279,"longitude":-118.41004,"reserved":0,"last_update":"0001-01-01T00:00:00Z","name_a2s":"Uncletopia | Los Angeles | 2 | All Maps","protocol":17,"map":"pl_thundermountain","folder":"tf","game":"Team Fortress","app_id":440,"player_count":24,"max_players":24,"Bots":0,"server_type":"Dedicated","server_os":"Linux","password":true,"vac":true,"version":"7961495","steam_id":85568392924469992,"keywords":["nocrits","nodmgspread","payload","uncletopia"],"game_id":440,"stv_port":27026,"stv_name":"Uncletopia | Los Angeles | 2 | All Maps | STV","players":[{"user_id":262,"name":"online","steam_id":76561198192531745,"connected_time":377000000000,"state":"active","ping":63},{"user_id":238,"name":"[☯] randomshagz*","steam_id":76561197968666646,"connected_time":2163000000000,"state":"active","ping":60},{"user_id":202,"name":"DEAD OR ALIVE","steam_id":76561198265633146,"connected_time":4191000000000,"state":"active","ping":57},{"user_id":232,"name":"BitPieStudios","steam_id":76561198059216393,"connected_time":2531000000000,"state":"active","ping":55},{"user_id":260,"name":"Blind","steam_id":76561198986055111,"connected_time":437000000000,"state":"active","ping":73},{"user_id":185,"name":"UnusualTofu","steam_id":76561198060103750,"connected_time":6139000000000,"state":"active","ping":61},{"user_id":218,"name":"a_lilypup","steam_id":76561198163640324,"connected_time":3258000000000,"state":"active","ping":49},{"user_id":241,"name":"Smells","steam_id":76561197985297402,"connected_time":1887000000000,"state":"active","ping":99},{"user_id":245,"name":"ena - d","steam_id":76561198072329335,"connected_time":1467000000000,"state":"active","ping":94},{"user_id":142,"name":"MintHaggis","steam_id":76561198006674825,"connected_time":9245000000000,"state":"active","ping":115},{"user_id":249,"name":"cjetson","steam_id":76561198074482272,"connected_time":1359000000000,"state":"active","ping":64},{"user_id":242,"name":"4 life","steam_id":76561198175961598,"connected_time":1813000000000,"state":"active","ping":63},{"user_id":219,"name":"mime girl","steam_id":76561198337705174,"connected_time":3148000000000,"state":"active","ping":72},{"user_id":208,"name":"type \"bad med\" to kick","steam_id":76561198076402476,"connected_time":3953000000000,"state":"active","ping":66},{"user_id":147,"name":"Choctoling","steam_id":76561198351622498,"connected_time":8914000000000,"state":"active","ping":47},{"user_id":259,"name":"Pah-Wraith Gul Dukat","steam_id":76561198033918106,"connected_time":448000000000,"state":"active","ping":49},{"user_id":250,"name":"BoxCann0n","steam_id":76561199153390130,"connected_time":1180000000000,"state":"active","ping":191},{"user_id":263,"name":"Brody Yukin","steam_id":76561198084712019,"connected_time":270000000000,"state":"active","ping":55},{"user_id":247,"name":"Little Shuriken","steam_id":76561199020477560,"connected_time":1400000000000,"state":"active","ping":46},{"user_id":243,"name":"Mac Tonight enjoyer","steam_id":76561198877229371,"connected_time":1686000000000,"state":"active","ping":122},{"user_id":258,"name":"Spicy Within Reason","steam_id":76561198066700370,"connected_time":578000000000,"state":"active","ping":85},{"user_id":261,"name":"Bheem","steam_id":76561198170453459,"connected_time":410000000000,"state":"active","ping":74},{"user_id":256,"name":"Grungus","steam_id":76561198047700230,"connected_time":625000000000,"state":"active","ping":60},{"user_id":252,"name":"Chef Molbo","steam_id":76561198089045454,"connected_time":1161000000000,"state":"active","ping":113}]},{"server_id":324,"name":"Uncletopia | Los Angeles | 3 | All Maps","name_short":"lax-3","host":"lax-1.us.uncletopia.com","port":27035,"enabled":true,"region":"us-west","cc":"us","latitude":33.94279,"longitude":-118.41004,"reserved":0,"last_update":"0001-01-01T00:00:00Z","name_a2s":"Uncletopia | Los Angeles | 3 | All Maps","protocol":17,"map":"pl_snowycoast","folder":"tf","game":"Team Fortress","app_id":440,"player_count":24,"max_players":24,"Bots":0,"server_type":"Dedicated","server_os":"Linux","password":true,"vac":true,"version":"7961495","steam_id":85568392924510198,"keywords":["nocrits","nodmgspread","payload","uncletopia"],"game_id":440,"stv_port":27036,"stv_name":"Uncletopia | Los Angeles | 3 | All Maps | STV","players":[{"user_id":163,"name":"Mat-Shades","steam_id":76561198013998031,"connected_time":1913000000000,"state":"active","ping":116},{"user_id":120,"name":"Pablo","steam_id":76561199003655066,"connected_time":5820000000000,"state":"active","ping":45},{"user_id":166,"name":"[S]Mr. X [No Monitor]","steam_id":76561197963746035,"connected_time":1855000000000,"state":"active","ping":98},{"user_id":164,"name":"Starfruit66","steam_id":76561198069917277,"connected_time":1886000000000,"state":"active","ping":47},{"user_id":156,"name":"The Caretaker","steam_id":76561198125241411,"connected_time":2626000000000,"state":"active","ping":60},{"user_id":158,"name":"Sweater-Fan","steam_id":76561199389567214,"connected_time":2575000000000,"state":"active","ping":98},{"user_id":177,"name":"Chalupa Jones","steam_id":76561198335855588,"connected_time":761000000000,"state":"active","ping":49},{"user_id":122,"name":"Rylix","steam_id":76561198136157816,"connected_time":5806000000000,"state":"active","ping":51},{"user_id":33,"name":"Billy Mays","steam_id":76561197998876324,"connected_time":10331000000000,"state":"active","ping":50},{"user_id":176,"name":"THIRDPIERCE","steam_id":76561198405366314,"connected_time":825000000000,"state":"active","ping":96},{"user_id":174,"name":"Livin' Like Larry","steam_id":76561198313360974,"connected_time":856000000000,"state":"active","ping":46},{"user_id":153,"name":"i cant aim","steam_id":76561198065873462,"connected_time":2852000000000,"state":"active","ping":47},{"user_id":167,"name":"Reef","steam_id":76561199130187039,"connected_time":1849000000000,"state":"active","ping":71},{"user_id":155,"name":"frank n furter","steam_id":76561198308883028,"connected_time":2671000000000,"state":"active","ping":51},{"user_id":138,"name":"Gerbias","steam_id":76561198001002427,"connected_time":3456000000000,"state":"active","ping":61},{"user_id":173,"name":"Ian","steam_id":76561198159334435,"connected_time":996000000000,"state":"active","ping":173},{"user_id":157,"name":"flyk","steam_id":76561198164601475,"connected_time":2625000000000,"state":"active","ping":51},{"user_id":168,"name":"dodecadron","steam_id":76561198027397222,"connected_time":1843000000000,"state":"active","ping":90},{"user_id":170,"name":"coffee","steam_id":76561198141061142,"connected_time":1823000000000,"state":"active","ping":103},{"user_id":160,"name":"Gundam Guy","steam_id":76561198178453993,"connected_time":2550000000000,"state":"active","ping":75},{"user_id":149,"name":"WorkadayDelite","steam_id":76561198125890089,"connected_time":3170000000000,"state":"active","ping":74},{"user_id":175,"name":"walrooos","steam_id":76561198024521839,"connected_time":844000000000,"state":"active","ping":47},{"user_id":172,"name":"Celeritas","steam_id":76561198133414847,"connected_time":1470000000000,"state":"active","ping":64},{"user_id":141,"name":"exx","steam_id":76561198090552145,"connected_time":3408000000000,"state":"active","ping":51}]},{"server_id":25,"name":"Uncletopia | Los Angeles | 4 | Stopwatch","name_short":"lax-4","host":"lax-1.us.uncletopia.com","port":27045,"enabled":true,"region":"us-west","cc":"us","latitude":33.94279,"longitude":-118.41004,"reserved":0,"last_update":"0001-01-01T00:00:00Z","name_a2s":"Uncletopia | Los Angeles | 4 | Stopwatch","protocol":17,"map":"cp_granary","folder":"tf","game":"Team Fortress","app_id":440,"player_count":0,"max_players":24,"Bots":0,"server_type":"Dedicated","server_os":"Linux","password":true,"vac":true,"version":"7961495","steam_id":85568392924510199,"keywords":["cp","nocrits","nodmgspread","uncletopia"],"game_id":440,"stv_port":27046,"stv_name":"Uncletopia | Los Angeles | 4 | Stopwatch | STV","players":null},{"server_id":11,"name":"Uncletopia | London | 1 | All Maps","name_short":"lon-1","host":"lon-1.uk.uncletopia.com","port":27015,"enabled":true,"region":"eu","cc":"gb","latitude":51.509865,"longitude":-0.118092,"reserved":0,"last_update":"0001-01-01T00:00:00Z","name_a2s":"Uncletopia | London | 1 | All Maps","protocol":17,"map":"pl_frontier_final","folder":"tf","game":"Team Fortress","app_id":440,"player_count":23,"max_players":24,"Bots":0,"server_type":"Dedicated","server_os":"Linux","password":true,"vac":true,"version":"7961495","steam_id":85568392924367362,"keywords":["nocrits","nodmgspread","payload","uncletopia"],"game_id":440,"stv_port":27016,"stv_name":"Uncletopia | London | 1 | All Maps | STV","players":[{"user_id":903,"name":"lawn","steam_id":76561198001243486,"connected_time":602000000000,"state":"active","ping":45},{"user_id":906,"name":"DDUUCCKK","steam_id":76561198141953050,"connected_time":260000000000,"state":"active","ping":50},{"user_id":876,"name":"triplepunk","steam_id":76561198119449463,"connected_time":2755000000000,"state":"active","ping":58},{"user_id":874,"name":"h1tlex","steam_id":76561198129781465,"connected_time":2869000000000,"state":"active","ping":51},{"user_id":885,"name":"Not Sussy Tanuki","steam_id":76561198137289375,"connected_time":2067000000000,"state":"active","ping":113},{"user_id":894,"name":"Bigtoelarry","steam_id":76561198056281264,"connected_time":1142000000000,"state":"active","ping":45},{"user_id":898,"name":"Feels Good","steam_id":76561198058030054,"connected_time":807000000000,"state":"active","ping":115},{"user_id":896,"name":"FLAC is a scam, MP3 is better","steam_id":76561198105621353,"connected_time":950000000000,"state":"active","ping":57},{"user_id":850,"name":"goblin","steam_id":76561198170334258,"connected_time":4716000000000,"state":"active","ping":78},{"user_id":889,"name":"oh my god he's LOADED","steam_id":76561198263236403,"connected_time":1791000000000,"state":"active","ping":51},{"user_id":883,"name":"Captain Carcrash","steam_id":76561198075154943,"connected_time":2091000000000,"state":"active","ping":47},{"user_id":897,"name":"my name is Red.","steam_id":76561198249469804,"connected_time":949000000000,"state":"active","ping":119},{"user_id":899,"name":"Fus in Boots","steam_id":76561198053897722,"connected_time":803000000000,"state":"active","ping":52},{"user_id":907,"name":"internet gnome","steam_id":76561198035392601,"connected_time":227000000000,"state":"active","ping":76},{"user_id":901,"name":"stun","steam_id":76561198276681691,"connected_time":680000000000,"state":"active","ping":48},{"user_id":904,"name":"Wondering","steam_id":76561198359577974,"connected_time":539000000000,"state":"active","ping":70},{"user_id":880,"name":"jones","steam_id":76561198044434971,"connected_time":2727000000000,"state":"active","ping":68},{"user_id":893,"name":"Inžinerijos vadybininkas","steam_id":76561199036432051,"connected_time":1146000000000,"state":"active","ping":75},{"user_id":890,"name":"⪢Play Like Leo⪡","steam_id":76561198358471569,"connected_time":1753000000000,"state":"active","ping":70},{"user_id":858,"name":"DJThunderHeart","steam_id":76561198274197575,"connected_time":4358000000000,"state":"active","ping":118},{"user_id":905,"name":"Qdarks","steam_id":76561198013391340,"connected_time":522000000000,"state":"active","ping":144},{"user_id":908,"name":"samkitty29","steam_id":76561199081795762,"connected_time":212000000000,"state":"active","ping":155},{"user_id":782,"name":"Dangerous Andrew","steam_id":76561198067218981,"connected_time":10534000000000,"state":"active","ping":56}]},{"server_id":114,"name":"Uncletopia | London | 2 | All Maps","name_short":"lon-2","host":"lon-1.uk.uncletopia.com","port":27025,"enabled":true,"region":"eu","cc":"gb","latitude":51.509865,"longitude":-0.118092,"reserved":0,"last_update":"0001-01-01T00:00:00Z","name_a2s":"Uncletopia | London | 2 | All Maps","protocol":17,"map":"pl_swiftwater_final1","folder":"tf","game":"Team Fortress","app_id":440,"player_count":15,"max_players":24,"Bots":0,"server_type":"Dedicated","server_os":"Linux","password":true,"vac":true,"version":"7961495","steam_id":85568392924470941,"keywords":["nocrits","nodmgspread","payload","uncletopia"],"game_id":440,"stv_port":27026,"stv_name":"Uncletopia | London | 2 | All Maps | STV","players":[{"user_id":1145,"name":"folf","steam_id":76561199367325856,"connected_time":307000000000,"state":"active","ping":124},{"user_id":1113,"name":"One Confused Proton","steam_id":76561199372053610,"connected_time":3247000000000,"state":"active","ping":148},{"user_id":1132,"name":"Literally me","steam_id":76561198096826094,"connected_time":1648000000000,"state":"active","ping":62},{"user_id":1118,"name":"J2PWN","steam_id":76561198409287854,"connected_time":2776000000000,"state":"active","ping":272},{"user_id":1140,"name":"butterdog","steam_id":76561199055488028,"connected_time":892000000000,"state":"active","ping":169},{"user_id":1104,"name":"Endzee","steam_id":76561199151945817,"connected_time":4610000000000,"state":"active","ping":81},{"user_id":1122,"name":"ion luca caragiale","steam_id":76561198132025408,"connected_time":2210000000000,"state":"active","ping":49},{"user_id":1123,"name":"squirrel - Allkeyshop","steam_id":76561199380974466,"connected_time":2131000000000,"state":"active","ping":83},{"user_id":1142,"name":"17BritishPie","steam_id":76561198140034382,"connected_time":671000000000,"state":"active","ping":43},{"user_id":1146,"name":"1 in a Trillion Football Moment","steam_id":76561199075279565,"connected_time":143000000000,"state":"active","ping":150},{"user_id":1147,"name":"rach9411","steam_id":76561198256535721,"connected_time":132000000000,"state":"active","ping":212},{"user_id":1131,"name":"carbuzz","steam_id":76561198129361580,"connected_time":1724000000000,"state":"active","ping":99},{"user_id":1133,"name":"Kirbay","steam_id":76561198050535201,"connected_time":1390000000000,"state":"active","ping":160},{"user_id":1134,"name":"chill frog","steam_id":76561199471943472,"connected_time":1382000000000,"state":"active","ping":192},{"user_id":1138,"name":"Chocolate kiwi popsicles","steam_id":76561198062674388,"connected_time":1101000000000,"state":"active","ping":74}]},{"server_id":320,"name":"Uncletopia | London | 3 | All Maps","name_short":"lon-3","host":"lon-1.uk.uncletopia.com","port":27035,"enabled":true,"region":"eu","cc":"gb","latitude":51.509865,"longitude":-0.118092,"reserved":0,"last_update":"0001-01-01T00:00:00Z","name_a2s":"Uncletopia | London | 3 | All Maps","protocol":17,"map":"koth_viaduct","folder":"tf","game":"Team Fortress","app_id":440,"player_count":0,"max_players":24,"Bots":0,"server_type":"Dedicated","server_os":"Linux","password":true,"vac":true,"version":"7961495","steam_id":85568392924510192,"keywords":["cp","nocrits","nodmgspread","uncletopia"],"game_id":440,"stv_port":27036,"stv_name":"Uncletopia | London | 3 | All Maps | STV","players":null},{"server_id":321,"name":"Uncletopia | London | 4 | All Maps","name_short":"lon-4","host":"lon-1.uk.uncletopia.com","port":27045,"enabled":true,"region":"eu","cc":"gb","latitude":51.509865,"longitude":-0.118092,"reserved":0,"last_update":"0001-01-01T00:00:00Z","name_a2s":"Uncletopia | London | 4 | All Maps","protocol":17,"map":"pl_snowycoast","folder":"tf","game":"Team Fortress","app_id":440,"player_count":0,"max_players":24,"Bots":0,"server_type":"Dedicated","server_os":"Linux","password":true,"vac":true,"version":"7961495","steam_id":85568392924510193,"keywords":["nocrits","nodmgspread","payload","uncletopia"],"game_id":440,"stv_port":27046,"stv_name":"Uncletopia | London | 4 | All Maps | STV","players":null},{"server_id":21,"name":"Uncletopia | London | 5 | All Maps","name_short":"lon-5","host":"lon-1.uk.uncletopia.com","port":27055,"enabled":true,"region":"eu","cc":"gb","latitude":51.509865,"longitude":-0.118092,"reserved":0,"last_update":"0001-01-01T00:00:00Z","name_a2s":"Uncletopia | London | 5 | All Maps","protocol":17,"map":"koth_cascade","folder":"tf","game":"Team Fortress","app_id":440,"player_count":0,"max_players":24,"Bots":0,"server_type":"Dedicated","server_os":"Linux","password":true,"vac":true,"version":"7961495","steam_id":85568392924742829,"keywords":["cp","nocrits","nodmgspread","uncletopia"],"game_id":440,"stv_port":27056,"stv_name":"Uncletopia | London | 5 | All Maps | STV","players":null},{"server_id":22,"name":"Uncletopia | London | 6 | All Maps","name_short":"lon-6","host":"lon-1.uk.uncletopia.com","port":27065,"enabled":true,"region":"eu","cc":"gb","latitude":51.509865,"longitude":-0.118092,"reserved":0,"last_update":"0001-01-01T00:00:00Z","name_a2s":"Uncletopia | London | 6 | All Maps","protocol":17,"map":"plr_nightfall_final","folder":"tf","game":"Team Fortress","app_id":440,"player_count":0,"max_players":24,"Bots":0,"server_type":"Dedicated","server_os":"Linux","password":true,"vac":true,"version":"7961495","steam_id":85568392924742830,"keywords":["nocrits","nodmgspread","payload","uncletopia"],"game_id":440,"stv_port":27066,"stv_name":"Uncletopia | London | 6 | All Maps | STV","players":null},{"server_id":40,"name":"Uncletopia | London | 7 | Stopwatch","name_short":"lon-7","host":"lon-1.uk.uncletopia.com","port":27075,"enabled":true,"region":"eu","cc":"gb","latitude":51.509865,"longitude":-0.118092,"reserved":0,"last_update":"0001-01-01T00:00:00Z","name_a2s":"Uncletopia | London | 7 | Stopwatch","protocol":17,"map":"workshop/koth_clearcut_b15.ugc2107050255","folder":"tf","game":"Team Fortress","app_id":440,"player_count":0,"max_players":24,"Bots":0,"server_type":"Dedicated","server_os":"Linux","password":true,"vac":true,"version":"7961495","steam_id":85568392924964314,"keywords":["cp","nocrits","nodmgspread","uncletopia"],"game_id":440,"stv_port":27076,"stv_name":"Uncletopia | London | 7 | Stopwatch | STV","players":null},{"server_id":41,"name":"Uncletopia | London | 8 | Community","name_short":"lon-8","host":"lon-1.uk.uncletopia.com","port":27085,"enabled":true,"region":"eu","cc":"gb","latitude":51.509865,"longitude":-0.118092,"reserved":0,"last_update":"0001-01-01T00:00:00Z","name_a2s":"Uncletopia | London | 8 | Community","protocol":17,"map":"workshop/pl_highwood_b13.ugc1769496557","folder":"tf","game":"Team Fortress","app_id":440,"player_count":0,"max_players":24,"Bots":0,"server_type":"Dedicated","server_os":"Linux","password":true,"vac":true,"version":"7961495","steam_id":85568392924964315,"keywords":["nocrits","nodmgspread","payload","uncletopia"],"game_id":440,"stv_port":27086,"stv_name":"Uncletopia | London | 8 | Community | STV","players":null},{"server_id":300,"name":"Uncletopia | Montréal | 1 | One Thousand Uncles","name_short":"mtl-1","host":"mtl-1.ca.uncletopia.com","port":27015,"enabled":true,"region":"us-east","cc":"ca","latitude":45.50889,"longitude":-73.56167,"reserved":0,"last_update":"0001-01-01T00:00:00Z","name_a2s":"","protocol":0,"map":"","folder":"","game":"","app_id":0,"player_count":7,"max_players":0,"Bots":0,"server_type":"","server_os":"","password":false,"vac":false,"version":"","steam_id":0,"keywords":null,"game_id":0,"stv_port":0,"stv_name":"","players":[{"user_id":471,"name":"DoggyDogWhirl","steam_id":76561198042841344,"connected_time":12202000000000,"state":"active","ping":52},{"user_id":625,"name":"Oden Derg","steam_id":76561198881543434,"connected_time":3111000000000,"state":"active","ping":139},{"user_id":626,"name":"Lots0","steam_id":76561198043143145,"connected_time":2953000000000,"state":"active","ping":92},{"user_id":640,"name":"zaza expert","steam_id":76561199127315672,"connected_time":1099000000000,"state":"active","ping":55},{"user_id":635,"name":"alset333","steam_id":76561198405345260,"connected_time":2156000000000,"state":"active","ping":57},{"user_id":632,"name":"ROGUE-PLANET","steam_id":76561198116023052,"connected_time":2653000000000,"state":"active","ping":91},{"user_id":596,"name":"generic blue proto","steam_id":76561199000149623,"connected_time":4958000000000,"state":"active","ping":92}]},{"server_id":301,"name":"Uncletopia | Montréal | 2 | One Thousand Uncles","name_short":"mtl-2","host":"mtl-1.ca.uncletopia.com","port":27025,"enabled":true,"region":"us-east","cc":"ca","latitude":45.50889,"longitude":-73.56167,"reserved":0,"last_update":"0001-01-01T00:00:00Z","name_a2s":"","protocol":0,"map":"","folder":"","game":"","app_id":0,"player_count":8,"max_players":0,"Bots":0,"server_type":"","server_os":"","password":false,"vac":false,"version":"","steam_id":0,"keywords":null,"game_id":0,"stv_port":0,"stv_name":"","players":[{"user_id":164,"name":"sheep","steam_id":76561198172943006,"connected_time":7032000000000,"state":"active","ping":63},{"user_id":165,"name":"ODDLOG","steam_id":76561198397624578,"connected_time":7018000000000,"state":"active","ping":60},{"user_id":182,"name":"Skeptical","steam_id":76561198038261789,"connected_time":6992000000000,"state":"active","ping":115},{"user_id":224,"name":"Holiday Fartcruise","steam_id":76561198043851584,"connected_time":2173000000000,"state":"active","ping":127},{"user_id":223,"name":"Featherless Biped","steam_id":76561198034171721,"connected_time":2926000000000,"state":"active","ping":77},{"user_id":227,"name":"Cash","steam_id":76561198218897541,"connected_time":1709000000000,"state":"active","ping":58},{"user_id":226,"name":"Vaun","steam_id":76561198034075317,"connected_time":1910000000000,"state":"active","ping":90},{"user_id":230,"name":"BlixyDragon","steam_id":76561198295422834,"connected_time":1042000000000,"state":"active","ping":145}]},{"server_id":302,"name":"Uncletopia | Montréal | 3 | One Thousand Uncles","name_short":"mtl-3","host":"mtl-1.ca.uncletopia.com","port":27035,"enabled":true,"region":"us-east","cc":"ca","latitude":45.50889,"longitude":-73.56167,"reserved":0,"last_update":"0001-01-01T00:00:00Z","name_a2s":"","protocol":0,"map":"","folder":"","game":"","app_id":0,"player_count":0,"max_players":0,"Bots":0,"server_type":"","server_os":"","password":false,"vac":false,"version":"","steam_id":0,"keywords":null,"game_id":0,"stv_port":0,"stv_name":"","players":null},{"server_id":13,"name":"Uncletopia | New York City | 1 | All Maps","name_short":"nyc-1","host":"nyc-1.us.uncletopia.com","port":27015,"enabled":true,"region":"us-east","cc":"us","latitude":40.73061,"longitude":-73.93524,"reserved":0,"last_update":"0001-01-01T00:00:00Z","name_a2s":"Uncletopia | New York City | 1 | All Maps","protocol":17,"map":"cp_dustbowl","folder":"tf","game":"Team Fortress","app_id":440,"player_count":24,"max_players":24,"Bots":0,"server_type":"Dedicated","server_os":"Linux","password":true,"vac":true,"version":"7961495","steam_id":85568392924469993,"keywords":["cp","nocrits","nodmgspread","uncletopia"],"game_id":440,"stv_port":27016,"stv_name":"Uncletopia | New York City | 1 | All Maps | STV","players":[{"user_id":414,"name":"All Monsters Are Real","steam_id":76561198026986192,"connected_time":3597000000000,"state":"active","ping":72},{"user_id":380,"name":"ᗜˬᗜ","steam_id":76561198049076233,"connected_time":5683000000000,"state":"active","ping":53},{"user_id":453,"name":"Dr. Feelgood (Ph.D, MD)","steam_id":76561198040611061,"connected_time":1473000000000,"state":"active","ping":49},{"user_id":443,"name":"Comfy!","steam_id":76561198008818346,"connected_time":2264000000000,"state":"active","ping":41},{"user_id":400,"name":"happyman442","steam_id":76561198007494744,"connected_time":5052000000000,"state":"active","ping":120},{"user_id":385,"name":"cyberas","steam_id":76561198257092290,"connected_time":5640000000000,"state":"active","ping":65},{"user_id":457,"name":"Ceiling Man","steam_id":76561198003959902,"connected_time":930000000000,"state":"active","ping":41},{"user_id":418,"name":"GummybearKillr","steam_id":76561198031235750,"connected_time":3466000000000,"state":"active","ping":56},{"user_id":412,"name":"Classy","steam_id":76561198128415840,"connected_time":3664000000000,"state":"active","ping":54},{"user_id":450,"name":"Jawbreaker","steam_id":76561198079846971,"connected_time":1515000000000,"state":"active","ping":57},{"user_id":463,"name":"Bee_Pirate","steam_id":76561199000599111,"connected_time":70000000000,"state":"active","ping":64},{"user_id":438,"name":"AverageRundownJoe","steam_id":76561198059359620,"connected_time":2586000000000,"state":"active","ping":81},{"user_id":432,"name":"Minion Bob","steam_id":76561198023938170,"connected_time":2801000000000,"state":"active","ping":69},{"user_id":433,"name":"VeloCity","steam_id":76561198148688626,"connected_time":2794000000000,"state":"active","ping":71},{"user_id":462,"name":"Saac Mann","steam_id":76561198991649853,"connected_time":538000000000,"state":"active","ping":44},{"user_id":460,"name":"Almonicus","steam_id":76561198044401351,"connected_time":749000000000,"state":"active","ping":88},{"user_id":436,"name":"Terry Crews from Brooklyn 99","steam_id":76561198357806819,"connected_time":2776000000000,"state":"active","ping":71},{"user_id":451,"name":"darkelaine227","steam_id":76561198097330521,"connected_time":1499000000000,"state":"active","ping":163},{"user_id":448,"name":"the pest","steam_id":76561198826298849,"connected_time":1640000000000,"state":"active","ping":94},{"user_id":439,"name":"Leroy","steam_id":76561199013064727,"connected_time":2582000000000,"state":"active","ping":106},{"user_id":461,"name":"Snoogs","steam_id":76561198444880931,"connected_time":704000000000,"state":"active","ping":67},{"user_id":458,"name":"Heimler's History","steam_id":76561198401205345,"connected_time":917000000000,"state":"active","ping":90},{"user_id":452,"name":"wise","steam_id":76561198030066204,"connected_time":1490000000000,"state":"active","ping":40},{"user_id":417,"name":"FLOOB","steam_id":76561198333094092,"connected_time":3527000000000,"state":"active","ping":86}]},{"server_id":14,"name":"Uncletopia | New York City | 2 | All Maps","name_short":"nyc-2","host":"nyc-1.us.uncletopia.com","port":27025,"enabled":true,"region":"us-east","cc":"us","latitude":40.73061,"longitude":-73.93524,"reserved":0,"last_update":"0001-01-01T00:00:00Z","name_a2s":"Uncletopia | New York City | 2 | All Maps","protocol":17,"map":"cp_steel","folder":"tf","game":"Team Fortress","app_id":440,"player_count":24,"max_players":24,"Bots":0,"server_type":"Dedicated","server_os":"Linux","password":true,"vac":true,"version":"7961495","steam_id":85568392924469994,"keywords":["cp","nocrits","nodmgspread","uncletopia"],"game_id":440,"stv_port":27026,"stv_name":"Uncletopia | New York City | 2 | All Maps | STV","players":[{"user_id":444,"name":"sam","steam_id":76561198217362968,"connected_time":1758000000000,"state":"active","ping":72},{"user_id":409,"name":"Andybrick95","steam_id":76561198218884143,"connected_time":4231000000000,"state":"active","ping":65},{"user_id":466,"name":"sparkyzZ \u003c3","steam_id":76561198120107112,"connected_time":18000000000,"state":"spawning","ping":140},{"user_id":458,"name":"ScoutBox","steam_id":76561198111539895,"connected_time":434000000000,"state":"active","ping":118},{"user_id":465,"name":"Gustavo Fring","steam_id":76561198132807405,"connected_time":69000000000,"state":"active","ping":91},{"user_id":350,"name":"Gentoo Linux Gaming","steam_id":76561197999657118,"connected_time":7753000000000,"state":"active","ping":64},{"user_id":450,"name":"Asanez3","steam_id":76561198037381436,"connected_time":618000000000,"state":"active","ping":62},{"user_id":460,"name":"Nessie is my Waifu","steam_id":76561198076021620,"connected_time":337000000000,"state":"active","ping":77},{"user_id":448,"name":"space man","steam_id":76561198066333670,"connected_time":872000000000,"state":"active","ping":69},{"user_id":380,"name":"zerwee [Full EP]","steam_id":76561198294013916,"connected_time":5788000000000,"state":"active","ping":45},{"user_id":463,"name":"DeviserDude","steam_id":76561198298631671,"connected_time":195000000000,"state":"active","ping":69},{"user_id":452,"name":"jim4jam","steam_id":76561197971147104,"connected_time":605000000000,"state":"active","ping":57},{"user_id":459,"name":"Girl Hell 1999","steam_id":76561198186421401,"connected_time":411000000000,"state":"active","ping":52},{"user_id":454,"name":"24auto","steam_id":76561198198578754,"connected_time":570000000000,"state":"active","ping":62},{"user_id":461,"name":"LunarG3","steam_id":76561198805564407,"connected_time":272000000000,"state":"active","ping":58},{"user_id":428,"name":"bread","steam_id":76561198232007876,"connected_time":2813000000000,"state":"active","ping":57},{"user_id":435,"name":"Snoopy","steam_id":76561198273735974,"connected_time":2406000000000,"state":"active","ping":106},{"user_id":456,"name":"Gaaarp","steam_id":76561198074584362,"connected_time":494000000000,"state":"active","ping":55},{"user_id":457,"name":"Peak Masculinity","steam_id":76561198069015743,"connected_time":488000000000,"state":"active","ping":51},{"user_id":442,"name":"Wey","steam_id":76561198089235065,"connected_time":1862000000000,"state":"active","ping":85},{"user_id":431,"name":"Samrizo el Chorizo","steam_id":76561198009838162,"connected_time":2544000000000,"state":"active","ping":50},{"user_id":464,"name":"kikikikoboy","steam_id":76561198073380271,"connected_time":193000000000,"state":"active","ping":69},{"user_id":443,"name":"Insectoid","steam_id":76561198122677314,"connected_time":1834000000000,"state":"active","ping":62},{"user_id":447,"name":"goodbye","steam_id":76561198868600487,"connected_time":1583000000000,"state":"active","ping":166}]},{"server_id":15,"name":"Uncletopia | New York City | 3 | Stopwatch","name_short":"nyc-3","host":"nyc-1.us.uncletopia.com","port":27035,"enabled":true,"region":"us-east","cc":"us","latitude":40.73061,"longitude":-73.93524,"reserved":0,"last_update":"0001-01-01T00:00:00Z","name_a2s":"Uncletopia | New York City | 3 | Stopwatch","protocol":17,"map":"pl_borneo","folder":"tf","game":"Team Fortress","app_id":440,"player_count":0,"max_players":24,"Bots":0,"server_type":"Dedicated","server_os":"Linux","password":true,"vac":true,"version":"7961495","steam_id":85568392924742820,"keywords":["nocrits","nodmgspread","payload","uncletopia"],"game_id":440,"stv_port":27036,"stv_name":"Uncletopia | New York City | 3 | Stopwatch | STV","players":null},{"server_id":16,"name":"Uncletopia | New York City | 4 | Community","name_short":"nyc-4","host":"nyc-1.us.uncletopia.com","port":27045,"enabled":true,"region":"us-east","cc":"us","latitude":40.73061,"longitude":-73.93524,"reserved":0,"last_update":"0001-01-01T00:00:00Z","name_a2s":"Uncletopia | New York City | 4 | Community","protocol":17,"map":"workshop/koth_ramjam_rc1.ugc459778887","folder":"tf","game":"Team Fortress","app_id":440,"player_count":0,"max_players":24,"Bots":0,"server_type":"Dedicated","server_os":"Linux","password":true,"vac":true,"version":"7961495","steam_id":85568392924742821,"keywords":["cp","nocrits","nodmgspread","uncletopia"],"game_id":440,"stv_port":27046,"stv_name":"Uncletopia | New York City | 4 | Community | STV","players":null},{"server_id":142,"name":"Uncletopia | São Paulo | 1 | All Maps","name_short":"sao-1","host":"sao-1.br.uncletopia.com","port":27015,"enabled":true,"region":"sa","cc":"br","latitude":-23.533773,"longitude":-46.62529,"reserved":0,"last_update":"0001-01-01T00:00:00Z","name_a2s":"Uncletopia | São Paulo | 1 | All Maps","protocol":17,"map":"pl_swiftwater_final1","folder":"tf","game":"Team Fortress","app_id":440,"player_count":0,"max_players":24,"Bots":0,"server_type":"Dedicated","server_os":"Linux","password":true,"vac":true,"version":"7961495","steam_id":85568392924469996,"keywords":["nocrits","nodmgspread","payload","uncletopia"],"game_id":440,"stv_port":27016,"stv_name":"Uncletopia | São Paulo | 1 | All Maps | STV","players":null},{"server_id":143,"name":"Uncletopia | São Paulo | 2 | Community","name_short":"sao-2","host":"sao-2.br.uncletopia.com","port":27015,"enabled":true,"region":"sa","cc":"br","latitude":-23.533773,"longitude":-46.62529,"reserved":0,"last_update":"0001-01-01T00:00:00Z","name_a2s":"Uncletopia | São Paulo | 2 | Community","protocol":17,"map":"workshop/koth_product_final.ugc454272353","folder":"tf","game":"Team Fortress","app_id":440,"player_count":0,"max_players":24,"Bots":0,"server_type":"Dedicated","server_os":"Linux","password":true,"vac":true,"version":"7961495","steam_id":85568392924485349,"keywords":["cp","nocrits","nodmgspread","uncletopia"],"game_id":440,"stv_port":27016,"stv_name":"Uncletopia | São Paulo | 2 | Community | STV","players":null},{"server_id":7,"name":"Uncletopia | Seattle | 1 | All Maps","name_short":"sea-1","host":"sea-1.us.uncletopia.com","port":27015,"enabled":true,"region":"us-west","cc":"us","latitude":47.608013,"longitude":-122.33517,"reserved":0,"last_update":"0001-01-01T00:00:00Z","name_a2s":"Uncletopia | Seattle | 1 | All Maps","protocol":17,"map":"koth_king","folder":"tf","game":"Team Fortress","app_id":440,"player_count":24,"max_players":24,"Bots":0,"server_type":"Dedicated","server_os":"Linux","password":true,"vac":true,"version":"7961495","steam_id":85568392924469997,"keywords":["cp","nocrits","nodmgspread","uncletopia"],"game_id":440,"stv_port":27016,"stv_name":"Uncletopia | Seattle | 1 | All Maps | STV","players":[{"user_id":474,"name":"cool beans","steam_id":76561198045758072,"connected_time":34000000000,"state":"active","ping":56},{"user_id":438,"name":"Ayayayayayahuasca","steam_id":76561199002906056,"connected_time":3403000000000,"state":"active","ping":47},{"user_id":459,"name":"Warlock","steam_id":76561199033164093,"connected_time":1459000000000,"state":"active","ping":33},{"user_id":453,"name":"laboriouslobster36","steam_id":76561198871003321,"connected_time":2308000000000,"state":"active","ping":93},{"user_id":411,"name":"rushy :))","steam_id":76561198065825165,"connected_time":6194000000000,"state":"active","ping":97},{"user_id":462,"name":"ShiningForce","steam_id":76561198026039048,"connected_time":1013000000000,"state":"active","ping":59},{"user_id":390,"name":"SHADOW WIZARD MONEY GANG","steam_id":76561198060846419,"connected_time":8234000000000,"state":"active","ping":45},{"user_id":460,"name":"William P. Ennis","steam_id":76561198073464877,"connected_time":1441000000000,"state":"active","ping":90},{"user_id":442,"name":"MrYadaization","steam_id":76561198050770818,"connected_time":2585000000000,"state":"active","ping":58},{"user_id":468,"name":"Whiskey","steam_id":76561198858154667,"connected_time":336000000000,"state":"active","ping":76},{"user_id":466,"name":"Cam","steam_id":76561198285054047,"connected_time":393000000000,"state":"active","ping":81},{"user_id":452,"name":"reiidaya","steam_id":76561198325306660,"connected_time":2364000000000,"state":"active","ping":49},{"user_id":471,"name":"TROY","steam_id":76561197983852176,"connected_time":123000000000,"state":"active","ping":76},{"user_id":441,"name":"mrow","steam_id":76561198171840525,"connected_time":3330000000000,"state":"active","ping":51},{"user_id":348,"name":"a familiar cat","steam_id":76561198080046542,"connected_time":11626000000000,"state":"active","ping":46},{"user_id":301,"name":"woodpigeon","steam_id":76561199488457138,"connected_time":15728000000000,"state":"active","ping":46},{"user_id":473,"name":"the sneeze of 87","steam_id":76561198062451648,"connected_time":66000000000,"state":"active","ping":94},{"user_id":456,"name":"Daz","steam_id":76561198041431938,"connected_time":1664000000000,"state":"active","ping":54},{"user_id":430,"name":"The Shaq Attack","steam_id":76561198075285534,"connected_time":4334000000000,"state":"active","ping":45},{"user_id":469,"name":"Nom Skirrett","steam_id":76561198014600788,"connected_time":242000000000,"state":"active","ping":69},{"user_id":368,"name":"ilun","steam_id":76561198042913843,"connected_time":10354000000000,"state":"active","ping":59},{"user_id":402,"name":"NEBULA","steam_id":76561198086878595,"connected_time":7358000000000,"state":"active","ping":77},{"user_id":467,"name":"Grassman (Cc)","steam_id":76561198026488532,"connected_time":392000000000,"state":"active","ping":61},{"user_id":457,"name":"Dog","steam_id":76561198041841128,"connected_time":1631000000000,"state":"active","ping":86}]},{"server_id":119,"name":"Uncletopia | Seattle | 2 | All Maps","name_short":"sea-2","host":"sea-1.us.uncletopia.com","port":27025,"enabled":true,"region":"us-west","cc":"us","latitude":47.608013,"longitude":-122.33517,"reserved":0,"last_update":"0001-01-01T00:00:00Z","name_a2s":"Uncletopia | Seattle | 2 | All Maps","protocol":17,"map":"koth_harvest_final","folder":"tf","game":"Team Fortress","app_id":440,"player_count":24,"max_players":24,"Bots":0,"server_type":"Dedicated","server_os":"Linux","password":true,"vac":true,"version":"7961495","steam_id":85568392924469998,"keywords":["cp","nocrits","nodmgspread","uncletopia"],"game_id":440,"stv_port":27026,"stv_name":"Uncletopia | Seattle | 2 | All Maps | STV","players":[{"user_id":236,"name":"gender fluid IV","steam_id":76561198065662025,"connected_time":2159000000000,"state":"active","ping":68},{"user_id":249,"name":"D.A.V.I.D","steam_id":76561199443570634,"connected_time":1155000000000,"state":"active","ping":56},{"user_id":223,"name":"wrench","steam_id":76561198137242573,"connected_time":3001000000000,"state":"active","ping":54},{"user_id":257,"name":"SHANE","steam_id":76561198113500520,"connected_time":386000000000,"state":"active","ping":77},{"user_id":206,"name":"the beast","steam_id":76561198088131563,"connected_time":5099000000000,"state":"active","ping":80},{"user_id":260,"name":"ColonelGuy5509","steam_id":76561198050493174,"connected_time":331000000000,"state":"active","ping":100},{"user_id":172,"name":"you just got dyked on","steam_id":76561198018977723,"connected_time":8245000000000,"state":"active","ping":49},{"user_id":258,"name":"♦Benji♦","steam_id":76561198313529973,"connected_time":385000000000,"state":"active","ping":34},{"user_id":255,"name":"duddlee","steam_id":76561198030052564,"connected_time":398000000000,"state":"active","ping":60},{"user_id":267,"name":"Skabbety","steam_id":76561198168044257,"connected_time":198000000000,"state":"active","ping":45},{"user_id":270,"name":"Amateur Glaswegian","steam_id":76561198030851956,"connected_time":118000000000,"state":"active","ping":49},{"user_id":185,"name":"Supersonic","steam_id":76561198042167127,"connected_time":6225000000000,"state":"active","ping":58},{"user_id":234,"name":"Moffein","steam_id":76561198016739296,"connected_time":2221000000000,"state":"active","ping":60},{"user_id":195,"name":"NickoDeeBz","steam_id":76561198294657867,"connected_time":5475000000000,"state":"active","ping":78},{"user_id":251,"name":"sez","steam_id":76561199465922101,"connected_time":1113000000000,"state":"active","ping":91},{"user_id":262,"name":"mac_cheese","steam_id":76561198071334162,"connected_time":307000000000,"state":"active","ping":45},{"user_id":194,"name":"ghor","steam_id":76561197994547132,"connected_time":5490000000000,"state":"active","ping":37},{"user_id":271,"name":"goofy goober","steam_id":76561199024079388,"connected_time":39000000000,"state":"active","ping":49},{"user_id":263,"name":"1HandsomeLAD","steam_id":76561198807047496,"connected_time":304000000000,"state":"active","ping":122},{"user_id":242,"name":"mub","steam_id":76561197961943948,"connected_time":2110000000000,"state":"active","ping":45},{"user_id":252,"name":"BasedGod","steam_id":76561198061177973,"connected_time":1085000000000,"state":"active","ping":62},{"user_id":268,"name":"piss gaming","steam_id":76561198002280184,"connected_time":151000000000,"state":"active","ping":62},{"user_id":269,"name":"Josep","steam_id":76561198345759958,"connected_time":127000000000,"state":"active","ping":51},{"user_id":256,"name":"roody","steam_id":76561198066260405,"connected_time":397000000000,"state":"active","ping":48}]},{"server_id":406,"name":"Uncletopia | Seattle | 3 | Stopwatch","name_short":"sea-3","host":"sea-1.us.uncletopia.com","port":27035,"enabled":true,"region":"us-west","cc":"us","latitude":47.608013,"longitude":-122.33517,"reserved":0,"last_update":"0001-01-01T00:00:00Z","name_a2s":"Uncletopia | Seattle | 3 | Stopwatch","protocol":17,"map":"workshop/koth_ashville_final.ugc2130459942","folder":"tf","game":"Team Fortress","app_id":440,"player_count":0,"max_players":24,"Bots":0,"server_type":"Dedicated","server_os":"Linux","password":true,"vac":true,"version":"7961495","steam_id":85568392924515217,"keywords":["cp","nocrits","nodmgspread","uncletopia"],"game_id":440,"stv_port":27036,"stv_name":"Uncletopia | Seattle | 3 | Stopwatch | STV","players":null},{"server_id":17,"name":"Uncletopia | San Francisco | 1 | All Maps","name_short":"sfo-1","host":"sfo-1.us.uncletopia.com","port":27015,"enabled":true,"region":"us-west","cc":"us","latitude":37.77397,"longitude":-122.4313,"reserved":0,"last_update":"0001-01-01T00:00:00Z","name_a2s":"Uncletopia | San Francisco | 1 | All Maps","protocol":17,"map":"pl_barnblitz","folder":"tf","game":"Team Fortress","app_id":440,"player_count":0,"max_players":24,"Bots":0,"server_type":"Dedicated","server_os":"Linux","password":true,"vac":true,"version":"7961495","steam_id":85568392924469999,"keywords":["nocrits","nodmgspread","payload","uncletopia"],"game_id":440,"stv_port":27016,"stv_name":"Uncletopia | San Francisco | 1 | All Maps | STV","players":null},{"server_id":18,"name":"Uncletopia | San Francisco | 2 | All Maps","name_short":"sfo-2","host":"sfo-1.us.uncletopia.com","port":27025,"enabled":true,"region":"us-west","cc":"us","latitude":37.77397,"longitude":-122.4313,"reserved":0,"last_update":"0001-01-01T00:00:00Z","name_a2s":"Uncletopia | San Francisco | 2 | All Maps","protocol":17,"map":"koth_viaduct","folder":"tf","game":"Team Fortress","app_id":440,"player_count":5,"max_players":24,"Bots":0,"server_type":"Dedicated","server_os":"Linux","password":true,"vac":true,"version":"7961495","steam_id":85568392924470000,"keywords":["cp","nocrits","nodmgspread","uncletopia"],"game_id":440,"stv_port":27026,"stv_name":"Uncletopia | San Francisco | 2 | All Maps | STV","players":[{"user_id":154,"name":"Windows Vista Home Premium","steam_id":76561198043764863,"connected_time":738000000000,"state":"active","ping":55},{"user_id":155,"name":"Throws Before Bros󠀡","steam_id":76561197992905530,"connected_time":606000000000,"state":"active","ping":54},{"user_id":156,"name":"Pyrolimited","steam_id":76561198195455657,"connected_time":173000000000,"state":"active","ping":64},{"user_id":157,"name":"Justice","steam_id":76561199088528528,"connected_time":79000000000,"state":"active","ping":60},{"user_id":159,"name":"Villchip","steam_id":76561198198599982,"connected_time":37000000000,"state":"active","ping":60}]},{"server_id":19,"name":"Uncletopia | San Francisco | 3 | Stopwatch","name_short":"sfo-3","host":"sfo-1.us.uncletopia.com","port":27035,"enabled":true,"region":"us-west","cc":"us","latitude":37.77397,"longitude":-122.4313,"reserved":0,"last_update":"0001-01-01T00:00:00Z","name_a2s":"Uncletopia | San Francisco | 3 | Stopwatch","protocol":17,"map":"workshop/pl_barnblitz_pro7.ugc582280235","folder":"tf","game":"Team Fortress","app_id":440,"player_count":0,"max_players":24,"Bots":0,"server_type":"Dedicated","server_os":"Linux","password":true,"vac":true,"version":"7961495","steam_id":85568392924742824,"keywords":["nocrits","nodmgspread","payload","uncletopia"],"game_id":440,"stv_port":27036,"stv_name":"Uncletopia | San Francisco | 3 | Stopwatch | STV","players":null},{"server_id":20,"name":"Uncletopia | San Francisco | 4 | Community","name_short":"sfo-4","host":"sfo-1.us.uncletopia.com","port":27045,"enabled":true,"region":"us-west","cc":"us","latitude":37.77397,"longitude":-122.4313,"reserved":0,"last_update":"0001-01-01T00:00:00Z","name_a2s":"Uncletopia | San Francisco | 4 | Community","protocol":17,"map":"workshop/pl_cactuscanyon_redux_final2.ugc2579644293","folder":"tf","game":"Team Fortress","app_id":440,"player_count":25,"max_players":24,"Bots":0,"server_type":"Dedicated","server_os":"Linux","password":true,"vac":true,"version":"7961495","steam_id":85568392924742826,"keywords":["nocrits","nodmgspread","payload","uncletopia"],"game_id":440,"stv_port":27046,"stv_name":"Uncletopia | San Francisco | 4 | Community | STV","players":[{"user_id":44,"name":"oh god i'm gonna CHUM","steam_id":76561198019210187,"connected_time":2165000000000,"state":"active","ping":92},{"user_id":53,"name":"Seshreb","steam_id":76561198846614634,"connected_time":1587000000000,"state":"active","ping":70},{"user_id":67,"name":"090-nsalih","steam_id":76561199467467873,"connected_time":568000000000,"state":"active","ping":245},{"user_id":48,"name":"jackin626","steam_id":76561198269277735,"connected_time":1727000000000,"state":"active","ping":72},{"user_id":60,"name":"awful","steam_id":76561198277979851,"connected_time":1402000000000,"state":"active","ping":131},{"user_id":63,"name":"NASA PEEPO","steam_id":76561198024982267,"connected_time":885000000000,"state":"active","ping":58},{"user_id":56,"name":"green bean","steam_id":76561198113099204,"connected_time":1536000000000,"state":"active","ping":33},{"user_id":12,"name":"asm_ghost","steam_id":76561199205363547,"connected_time":4841000000000,"state":"active","ping":83},{"user_id":49,"name":"vertice","steam_id":76561199117182718,"connected_time":1712000000000,"state":"active","ping":61},{"user_id":64,"name":"adapt","steam_id":76561198156181017,"connected_time":604000000000,"state":"active","ping":68},{"user_id":27,"name":"Gramseal","steam_id":76561198181906333,"connected_time":3472000000000,"state":"active","ping":54},{"user_id":62,"name":"Res","steam_id":76561198167207112,"connected_time":1360000000000,"state":"active","ping":80},{"user_id":28,"name":"funkeymonkey15","steam_id":76561198930961042,"connected_time":3455000000000,"state":"active","ping":88},{"user_id":57,"name":"McDonald","steam_id":76561199028533497,"connected_time":1511000000000,"state":"active","ping":61},{"user_id":51,"name":"Manny Heffley","steam_id":76561198135137213,"connected_time":1663000000000,"state":"active","ping":83},{"user_id":30,"name":"Dr. Bob","steam_id":76561198020215410,"connected_time":3350000000000,"state":"active","ping":50},{"user_id":31,"name":"cameltoe joe","steam_id":76561198100779419,"connected_time":3318000000000,"state":"active","ping":56},{"user_id":52,"name":"pool shark","steam_id":76561198130191179,"connected_time":1655000000000,"state":"active","ping":104},{"user_id":61,"name":"Loey Jemons","steam_id":76561198048925904,"connected_time":1394000000000,"state":"active","ping":69},{"user_id":59,"name":"moomin","steam_id":76561198336244269,"connected_time":1495000000000,"state":"active","ping":69},{"user_id":35,"name":"Buswolley","steam_id":76561197995205571,"connected_time":3178000000000,"state":"active","ping":52},{"user_id":36,"name":"Oktayey","steam_id":76561198143213426,"connected_time":3157000000000,"state":"active","ping":48},{"user_id":43,"name":"9/11 Airlines","steam_id":76561198096306325,"connected_time":2516000000000,"state":"active","ping":120},{"user_id":38,"name":"Paperclip","steam_id":76561198057076337,"connected_time":3063000000000,"state":"active","ping":82},{"user_id":79,"name":"kim wexler","steam_id":76561199199795741,"connected_time":35000000000,"state":"spawning","ping":372}]},{"server_id":141,"name":"Uncletopia | Sydney | 1 | All Maps","name_short":"syd-1","host":"syd-1.au.uncletopia.com","port":27015,"enabled":true,"region":"au","cc":"au","latitude":-33.865143,"longitude":151.2099,"reserved":0,"last_update":"0001-01-01T00:00:00Z","name_a2s":"Uncletopia | Sydney | 1 | All Maps","protocol":17,"map":"koth_viaduct","folder":"tf","game":"Team Fortress","app_id":440,"player_count":0,"max_players":24,"Bots":0,"server_type":"Dedicated","server_os":"Linux","password":true,"vac":true,"version":"7961495","steam_id":85568392924470001,"keywords":["cp","nocrits","nodmgspread","uncletopia"],"game_id":440,"stv_port":27016,"stv_name":"Uncletopia | Sydney | 1 | All Maps | STV","players":null},{"server_id":123,"name":"Uncletopia | Sydney | 2 | All Maps","name_short":"syd-2","host":"syd-1.au.uncletopia.com","port":27025,"enabled":true,"region":"au","cc":"au","latitude":-33.865143,"longitude":151.2099,"reserved":0,"last_update":"0001-01-01T00:00:00Z","name_a2s":"Uncletopia | Sydney | 2 | All Maps","protocol":17,"map":"koth_lakeside_final","folder":"tf","game":"Team Fortress","app_id":440,"player_count":0,"max_players":24,"Bots":0,"server_type":"Dedicated","server_os":"Linux","password":true,"vac":true,"version":"7961495","steam_id":85568392924470002,"keywords":["cp","nocrits","nodmgspread","uncletopia"],"game_id":440,"stv_port":27026,"stv_name":"Uncletopia | Sydney | 2 | All Maps | STV","players":null},{"server_id":395,"name":"Uncletopia | Sydney | 3 | All Maps","name_short":"syd-3","host":"syd-1.au.uncletopia.com","port":27035,"enabled":true,"region":"au","cc":"au","latitude":-33.865143,"longitude":151.2099,"reserved":0,"last_update":"0001-01-01T00:00:00Z","name_a2s":"Uncletopia | Sydney | 3 | All Maps","protocol":17,"map":"cp_dustbowl","folder":"tf","game":"Team Fortress","app_id":440,"player_count":0,"max_players":24,"Bots":0,"server_type":"Dedicated","server_os":"Linux","password":true,"vac":true,"version":"7961495","steam_id":85568392925194467,"keywords":["cp","nocrits","nodmgspread","uncletopia"],"game_id":440,"stv_port":27036,"stv_name":"Uncletopia | Sydney | 3 | All Maps | STV","players":null},{"server_id":396,"name":"Uncletopia | Sydney | 4 | All Maps","name_short":"syd-4","host":"syd-1.au.uncletopia.com","port":27045,"enabled":true,"region":"au","cc":"au","latitude":-33.865143,"longitude":151.2099,"reserved":0,"last_update":"0001-01-01T00:00:00Z","name_a2s":"Uncletopia | Sydney | 4 | All Maps","protocol":17,"map":"koth_highpass","folder":"tf","game":"Team Fortress","app_id":440,"player_count":0,"max_players":24,"Bots":0,"server_type":"Dedicated","server_os":"Linux","password":true,"vac":true,"version":"7961495","steam_id":85568392925397958,"keywords":["cp","nocrits","nodmgspread","uncletopia"],"game_id":440,"stv_port":27046,"stv_name":"Uncletopia | Sydney | 4 | All Maps | STV","players":null},{"server_id":58,"name":"Uncletopia | Sydney | 5 | Stopwatch","name_short":"syd-5","host":"syd-1.au.uncletopia.com","port":27055,"enabled":true,"region":"au","cc":"au","latitude":-33.865143,"longitude":151.2099,"reserved":0,"last_update":"0001-01-01T00:00:00Z","name_a2s":"Uncletopia | Sydney | 5 | Stopwatch","protocol":17,"map":"pl_frontier_final","folder":"tf","game":"Team Fortress","app_id":440,"player_count":0,"max_players":24,"Bots":0,"server_type":"Dedicated","server_os":"Linux","password":true,"vac":true,"version":"7961495","steam_id":85568392925397959,"keywords":["nocrits","nodmgspread","payload","uncletopia"],"game_id":440,"stv_port":27056,"stv_name":"Uncletopia | Sydney | 5 | Stopwatch | STV","players":null},{"server_id":59,"name":"Uncletopia | Sydney | 6 | Community","name_short":"syd-6","host":"syd-1.au.uncletopia.com","port":27065,"enabled":true,"region":"au","cc":"au","latitude":-33.865143,"longitude":151.2099,"reserved":0,"last_update":"0001-01-01T00:00:00Z","name_a2s":"Uncletopia | Sydney | 6 | Community","protocol":17,"map":"cp_sunshine","folder":"tf","game":"Team Fortress","app_id":440,"player_count":0,"max_players":24,"Bots":0,"server_type":"Dedicated","server_os":"Linux","password":true,"vac":true,"version":"7961495","steam_id":85568392925397960,"keywords":["cp","nocrits","nodmgspread","uncletopia"],"game_id":440,"stv_port":27066,"stv_name":"Uncletopia | Sydney | 6 | Community | STV","players":null},{"server_id":49,"name":"Uncletopia | Warsaw | 1 | One Thousand Uncles","name_short":"waw-1","host":"waw-1.pl.uncletopia.com","port":27015,"enabled":true,"region":"eu","cc":"pl","latitude":52.2297,"longitude":21.017532,"reserved":0,"last_update":"0001-01-01T00:00:00Z","name_a2s":"Uncletopia | Warsaw | 1 | One Thousand Uncles","protocol":17,"map":"pl_chilly","folder":"tf","game":"Team Fortress","app_id":440,"player_count":19,"max_players":32,"Bots":16,"server_type":"Dedicated","server_os":"Linux","password":true,"vac":true,"version":"7961495","steam_id":85568392925397850,"keywords":["alltalk","bots","danepve","increased_maxplayers","nocrits","norespawntime","payload","uncletopia"],"game_id":440,"stv_port":0,"stv_name":"","players":[{"user_id":821,"name":"Gaming (real)","steam_id":76561199260277080,"connected_time":574000000000,"state":"active","ping":177},{"user_id":838,"name":"Jerry","steam_id":76561198801694967,"connected_time":531000000000,"state":"active","ping":174},{"user_id":839,"name":"troxlotl","steam_id":76561199384146446,"connected_time":492000000000,"state":"active","ping":176}]},{"server_id":50,"name":"Uncletopia | Warsaw | 2 | One Thousand Uncles","name_short":"waw-2","host":"waw-1.pl.uncletopia.com","port":27025,"enabled":true,"region":"eu","cc":"pl","latitude":52.2297,"longitude":21.017532,"reserved":0,"last_update":"0001-01-01T00:00:00Z","name_a2s":"Uncletopia | Warsaw | 2 | One Thousand Uncles","protocol":17,"map":"cp_dustbowl","folder":"tf","game":"Team Fortress","app_id":440,"player_count":0,"max_players":32,"Bots":0,"server_type":"Dedicated","server_os":"Linux","password":true,"vac":true,"version":"7961495","steam_id":85568392925397851,"keywords":["alltalk","cp","danepve","increased_maxplayers","nocrits","norespawntime","uncletopia"],"game_id":440,"stv_port":0,"stv_name":"","players":null},{"server_id":51,"name":"Uncletopia | Warsaw | 3 | All Maps","name_short":"waw-3","host":"waw-1.pl.uncletopia.com","port":27035,"enabled":true,"region":"eu","cc":"pl","latitude":52.2297,"longitude":21.017532,"reserved":0,"last_update":"0001-01-01T00:00:00Z","name_a2s":"Uncletopia | Warsaw | 3 | All Maps","protocol":17,"map":"koth_highpass","folder":"tf","game":"Team Fortress","app_id":440,"player_count":0,"max_players":24,"Bots":0,"server_type":"Dedicated","server_os":"Linux","password":true,"vac":true,"version":"7961495","steam_id":85568392925397852,"keywords":["cp","nocrits","nodmgspread","uncletopia"],"game_id":440,"stv_port":27036,"stv_name":"Uncletopia | Warsaw | 3 | All Maps | STV","players":null},{"server_id":52,"name":"Uncletopia | Warsaw | 4 | All Maps","name_short":"waw-4","host":"waw-1.pl.uncletopia.com","port":27045,"enabled":true,"region":"eu","cc":"pl","latitude":52.2297,"longitude":21.017532,"reserved":0,"last_update":"0001-01-01T00:00:00Z","name_a2s":"Uncletopia | Warsaw | 4 | All Maps","protocol":17,"map":"koth_lakeside_final","folder":"tf","game":"Team Fortress","app_id":440,"player_count":0,"max_players":24,"Bots":0,"server_type":"Dedicated","server_os":"Linux","password":true,"vac":true,"version":"7961495","steam_id":85568392925397853,"keywords":["cp","nocrits","nodmgspread","uncletopia"],"game_id":440,"stv_port":27046,"stv_name":"Uncletopia | Warsaw | 4 | All Maps | STV","players":null},{"server_id":53,"name":"Uncletopia | Warsaw | 5 | Stopwatch","name_short":"waw-5","host":"waw-1.pl.uncletopia.com","port":27055,"enabled":true,"region":"eu","cc":"pl","latitude":52.2297,"longitude":21.017532,"reserved":0,"last_update":"0001-01-01T00:00:00Z","name_a2s":"Uncletopia | Warsaw | 5 | Stopwatch","protocol":17,"map":"koth_lakeside_final","folder":"tf","game":"Team Fortress","app_id":440,"player_count":0,"max_players":24,"Bots":0,"server_type":"Dedicated","server_os":"Linux","password":true,"vac":true,"version":"7961495","steam_id":85568392925397854,"keywords":["cp","nocrits","nodmgspread","uncletopia"],"game_id":440,"stv_port":27056,"stv_name":"Uncletopia | Warsaw | 5 | Stopwatch | STV","players":null},{"server_id":54,"name":"Uncletopia | Warsaw | 6 | Community","name_short":"waw-6","host":"waw-1.pl.uncletopia.com","port":27065,"enabled":true,"region":"eu","cc":"pl","latitude":52.2297,"longitude":21.017532,"reserved":0,"last_update":"0001-01-01T00:00:00Z","name_a2s":"Uncletopia | Warsaw | 6 | Community","protocol":17,"map":"workshop/rd_asteroid_redux_b1.ugc2154902912","folder":"tf","game":"Team Fortress","app_id":440,"player_count":0,"max_players":24,"Bots":0,"server_type":"Dedicated","server_os":"Linux","password":true,"vac":true,"version":"7961495","steam_id":85568392925397856,"keywords":["beta","nocrits","nodmgspread","rd","uncletopia"],"game_id":440,"stv_port":27066,"stv_name":"Uncletopia | Warsaw | 6 | Community | STV","players":null}]}