{"status":true,"message":"","result":[{"server_id":9,"name":"Uncletopia | Atlanta | 1 | All Maps","name_short":"atl-1","host":"atl-1.us.uncletopia.com","port":27015,"enabled":true,"region":"us-east","cc":"us","latitude":33.753746,"longitude":-84.38633,"reserved":0,"last_update":"0001-01-01T00:00:00Z","name_a2s":"Uncletopia | Atlanta | 1 | All Maps","protocol":17,"map":"koth_highpass","folder":"tf","game":"Team Fortress","app_id":440,"player_count":0,"max_players":24,"Bots":0,"server_type":"Dedicated","server_os":"Linux","password":true,"vac":true,"version":"7961495","steam_id":85568392924469982,"keywords":["cp","nocrits","nodmgspread","uncletopia"],"game_id":440,"stv_port":27016,"stv_name":"Uncletopia | Atlanta | 1 | All Maps | STV","players":null},{"server_id":104,"name":"Uncletopia | Atlanta | 2 | All Maps","name_short":"atl-2","host":"atl-1.us.uncletopia.com","port":27025,"enabled":true,"region":"us-east","cc":"us","latitude":33.753746,"longitude":-84.38633,"reserved":0,"last_update":"0001-01-01T00:00:00Z","name_a2s":"Uncletopia | Atlanta | 2 | All Maps","protocol":17,"map":"koth_viaduct","folder":"tf","game":"Team Fortress","app_id":440,"player_count":0,"max_players":24,"Bots":0,"server_type":"Dedicated","server_os":"Linux","password":true,"vac":true,"version":"7961495","steam_id":85568392924469983,"keywords":["cp","nocrits","nodmgspread","uncletopia"],"game_id":440,"stv_port":27026,"stv_name":"Uncletopia | Atlanta | 2 | All Maps | STV","players":null},{"server_id":400,"name":"Uncletopia | Atlanta | 3 | All Maps","name_short":"atl-3","host":"atl-1.us.uncletopia.com","port":27035,"enabled":true,"region":"us-east","cc":"us","latitude":33.753746,"longitude":-84.38633,"reserved":0,"last_update":"0001-01-01T00:00:00Z","name_a2s":"Uncletopia | Atlanta | 3 | All Maps","protocol":17,"map":"koth_lakeside_final","folder":"tf","game":"Team Fortress","app_id":440,"player_count":0,"max_players":24,"Bots":0,"server_type":"Dedicated","server_os":"Linux","password":true,"vac":true,"version":"7961495","steam_id":85568392924515187,"keywords":["cp","nocrits","nodmgspread","uncletopia"],"game_id":440,"stv_port":27036,"stv_name":"Uncletopia | Atlanta | 3 | All Maps | STV","players":null},{"server_id":401,"name":"Uncletopia | Atlanta | 4 | Community","name_short":"atl-4","host":"atl-1.us.uncletopia.com","port":27045,"enabled":true,"region":"us-east","cc":"us","latitude":33.753746,"longitude":-84.38633,"reserved":0,"last_update":"0001-01-01T00:00:00Z","name_a2s":"Uncletopia | Atlanta | 4 | Community","protocol":17,"map":"cp_dustbowl","folder":"tf","game":"Team Fortress","app_id":440,"player_count":0,"max_players":24,"Bots":0,"server_type":"Dedicated","server_os":"Linux","password":true,"vac":true,"version":"7961495","steam_id":85568392924515188,"keywords":["cp","nocrits","nodmgspread","uncletopia"],"game_id":440,"stv_port":27046,"stv_name":"Uncletopia | Atlanta | 4 | Community | STV","players":null},{"server_id":2,"name":"Uncletopia | Chicago | 1 | All Maps","name_short":"chi-1","host":"chi-1.us.uncletopia.com","port":27015,"enabled":true,"region":"us-central","cc":"us","latitude":41.881832,"longitude":-87.62318,"reserved":0,"last_update":"0001-01-01T00:00:00Z","name_a2s":"Uncletopia | Chicago | 1 | All Maps","protocol":17,"map":"pl_badwater","folder":"tf","game":"Team Fortress","app_id":440,"player_count":24,"max_players":24,"Bots":0,"server_type":"Dedicated","server_os":"Linux","password":true,"vac":true,"version":"7961495","steam_id":85568392924469984,"keywords":["nocrits","nodmgspread","payload","uncletopia"],"game_id":440,"stv_port":27016,"stv_name":"Uncletopia | Chicago | 1 | All Maps | STV","players":[{"user_id":198,"name":"Finn","steam_id":76561199038429679,"connected_time":636000000000,"state":"active","ping":93},{"user_id":199,"name":"Amy Sapphire","steam_id":76561198122860452,"connected_time":607000000000,"state":"active","ping":86},{"user_id":187,"name":"YourFriendJessie","steam_id":76561198176883097,"connected_time":1681000000000,"state":"active","ping":60},{"user_id":169,"name":"Lain","steam_id":76561198118282205,"connected_time":3026000000000,"state":"active","ping":76},{"user_id":200,"name":"Boost_Inferno","steam_id":76561198807708387,"connected_time":568000000000,"state":"active","ping":94},{"user_id":203,"name":"GamingTNT","steam_id":76561198164384967,"connected_time":381000000000,"state":"active","ping":60},{"user_id":185,"name":"melon","steam_id":76561199014039702,"connected_time":1854000000000,"state":"active","ping":56},{"user_id":123,"name":"SmokyDank","steam_id":76561198045782886,"connected_time":5374000000000,"state":"active","ping":132},{"user_id":194,"name":"yer_nerd","steam_id":76561199435454093,"connected_time":1114000000000,"state":"active","ping":75},{"user_id":175,"name":"Korrin, Femboy Fur Hire","steam_id":76561198095452955,"connected_time":2317000000000,"state":"active","ping":61},{"user_id":105,"name":"Khun Aguero Agnes","steam_id":76561198055542546,"connected_time":7845000000000,"state":"active","ping":62},{"user_id":163,"name":"superdeathmegasupremskullman201","steam_id":76561198296539957,"connected_time":3224000000000,"state":"active","ping":86},{"user_id":195,"name":"2.5 Oz of Paprika","steam_id":76561198174647666,"connected_time":756000000000,"state":"active","ping":76},{"user_id":181,"name":"HEISRIZZIN","steam_id":76561198042444734,"connected_time":1942000000000,"state":"active","ping":72},{"user_id":165,"name":"Powered","steam_id":76561199298693128,"connected_time":3199000000000,"state":"active","ping":72},{"user_id":196,"name":"Hope (B-day)","steam_id":76561199182558088,"connected_time":741000000000,"state":"active","ping":71},{"user_id":101,"name":"Rat Smoker","steam_id":76561198090419068,"connected_time":8428000000000,"state":"active","ping":126},{"user_id":168,"name":"Rizz Khalifa","steam_id":76561198805499264,"connected_time":3125000000000,"state":"active","ping":81},{"user_id":191,"name":"DSG","steam_id":76561198207574152,"connected_time":1334000000000,"state":"active","ping":60},{"user_id":197,"name":"Lefty","steam_id":76561199155446396,"connected_time":689000000000,"state":"active","ping":109},{"user_id":202,"name":"rad killl raccoon","steam_id":76561198980975595,"connected_time":535000000000,"state":"active","ping":103},{"user_id":155,"name":"skrt","steam_id":76561198233984300,"connected_time":3605000000000,"state":"active","ping":47},{"user_id":167,"name":"theCrazyJohn","steam_id":76561198169005508,"connected_time":3186000000000,"state":"active","ping":88},{"user_id":192,"name":"Triples_","steam_id":76561198094249561,"connected_time":1331000000000,"state":"active","ping":58}]},{"server_id":106,"name":"Uncletopia | Chicago | 2 | All Maps","name_short":"chi-2","host":"chi-1.us.uncletopia.com","port":27025,"enabled":true,"region":"us-central","cc":"us","latitude":41.881832,"longitude":-87.62318,"reserved":0,"last_update":"0001-01-01T00:00:00Z","name_a2s":"Uncletopia | Chicago | 2 | All Maps","protocol":17,"map":"pl_upward","folder":"tf","game":"Team Fortress","app_id":440,"player_count":24,"max_players":24,"Bots":0,"server_type":"Dedicated","server_os":"Linux","password":true,"vac":true,"version":"7961495","steam_id":85568392924469985,"keywords":["nocrits","nodmgspread","payload","uncletopia"],"game_id":440,"stv_port":27026,"stv_name":"Uncletopia | Chicago | 2 | All Maps | STV","players":[{"user_id":34,"name":"VioletSpecs","steam_id":76561198089366466,"connected_time":5159000000000,"state":"active","ping":68},{"user_id":66,"name":"Nic0","steam_id":76561198305690218,"connected_time":2457000000000,"state":"active","ping":72},{"user_id":13,"name":"Boomer Gaming","steam_id":76561198037803087,"connected_time":5512000000000,"state":"active","ping":69},{"user_id":90,"name":"Sanshi","steam_id":76561198145823543,"connected_time":86000000000,"state":"active","ping":171},{"user_id":19,"name":"53differentmen","steam_id":76561198982477860,"connected_time":5386000000000,"state":"active","ping":63},{"user_id":65,"name":"Ejaculation Zach","steam_id":76561198203765200,"connected_time":2481000000000,"state":"active","ping":64},{"user_id":80,"name":"Wuggler","steam_id":76561198409907417,"connected_time":461000000000,"state":"active","ping":104},{"user_id":74,"name":"jolo","steam_id":76561198042831480,"connected_time":1474000000000,"state":"active","ping":64},{"user_id":67,"name":"Cuttle's Fish","steam_id":76561198280483257,"connected_time":2442000000000,"state":"active","ping":57},{"user_id":85,"name":"Two","steam_id":76561198207078715,"connected_time":420000000000,"state":"active","ping":105},{"user_id":88,"name":"[Sc.B.V.G] Eagley Beagley Eagle","steam_id":76561198166730618,"connected_time":94000000000,"state":"active","ping":60},{"user_id":89,"name":"what the freak","steam_id":76561198080754727,"connected_time":88000000000,"state":"active","ping":90},{"user_id":61,"name":"Sunvaar","steam_id":76561198852679851,"connected_time":3153000000000,"state":"active","ping":63},{"user_id":75,"name":"Headshotsnake","steam_id":76561198067130248,"connected_time":914000000000,"state":"active","ping":64},{"user_id":64,"name":"Draconic Ballad","steam_id":76561198027191515,"connected_time":2558000000000,"state":"active","ping":45},{"user_id":27,"name":"HOODOO_LOVER_2007","steam_id":76561199087691214,"connected_time":5307000000000,"state":"active","ping":84},{"user_id":72,"name":"matt","steam_id":76561198416902567,"connected_time":1641000000000,"state":"active","ping":151},{"user_id":54,"name":"CeLeb144","steam_id":76561199089907740,"connected_time":3858000000000,"state":"active","ping":83},{"user_id":86,"name":"e doctor","steam_id":76561198081851446,"connected_time":410000000000,"state":"active","ping":47},{"user_id":87,"name":"StarLy","steam_id":76561198174428289,"connected_time":388000000000,"state":"active","ping":67},{"user_id":73,"name":"Sigiferd","steam_id":76561198148788110,"connected_time":1630000000000,"state":"active","ping":128},{"user_id":91,"name":"[NAME-REDACTED]","steam_id":76561198035682975,"connected_time":55000000000,"state":"active","ping":153},{"user_id":92,"name":"shmood","steam_id":76561198241948526,"connected_time":16000000000,"state":"active","ping":118},{"user_id":48,"name":"Rornir","steam_id":76561198081829615,"connected_time":4305000000000,"state":"active","ping":38}]},{"server_id":402,"name":"Uncletopia | Chicago | 3 | All Maps","name_short":"chi-3","host":"chi-1.us.uncletopia.com","port":27035,"enabled":true,"region":"us-central","cc":"us","latitude":41.881832,"longitude":-87.62318,"reserved":0,"last_update":"0001-01-01T00:00:00Z","name_a2s":"Uncletopia | Chicago | 3 | All Maps","protocol":17,"map":"cp_process_final","folder":"tf","game":"Team Fortress","app_id":440,"player_count":0,"max_players":24,"Bots":0,"server_type":"Dedicated","server_os":"Linux","password":true,"vac":true,"version":"7961495","steam_id":85568392924515191,"keywords":["cp","nocrits","nodmgspread","uncletopia"],"game_id":440,"stv_port":27036,"stv_name":"Uncletopia | Chicago | 3 | All Maps | STV","players":null},{"server_id":403,"name":"Uncletopia | Chicago | 4 | All Maps","name_short":"chi-4","host":"chi-1.us.uncletopia.com","port":27045,"enabled":true,"region":"us-central","cc":"us","latitude":41.881832,"longitude":-87.62318,"reserved":0,"last_update":"0001-01-01T00:00:00Z","name_a2s":"Uncletopia | Chicago | 4 | All Maps","protocol":17,"map":"pl_goldrush","folder":"tf","game":"Team Fortress","app_id":440,"player_count":24,"max_players":24,"Bots":0,"server_type":"Dedicated","server_os":"Linux","password":true,"vac":true,"version":"7961495","steam_id":85568392924515193,"keywords":["nocrits","nodmgspread","payload","uncletopia"],"game_id":440,"stv_port":27046,"stv_name":"Uncletopia | Chicago | 4 | All Maps | STV","players":[{"user_id":230,"name":"Phocae {She/Her}","steam_id":76561199317584594,"connected_time":2828000000000,"state":"active","ping":64},{"user_id":260,"name":"danielarmvt","steam_id":76561198799723201,"connected_time":766000000000,"state":"active","ping":105},{"user_id":224,"name":"Defragmented","steam_id":76561198854210081,"connected_time":3160000000000,"state":"active","ping":70},{"user_id":232,"name":"mrappledumb","steam_id":76561199133590774,"connected_time":2607000000000,"state":"active","ping":96},{"user_id":209,"name":"The Great Eagle Scourge of 1822","steam_id":76561198325086209,"connected_time":4487000000000,"state":"active","ping":116},{"user_id":106,"name":"0100101101100001011100100110110","steam_id":76561198034028769,"connected_time":12665000000000,"state":"active","ping":63},{"user_id":267,"name":"Sergeant Snowflake","steam_id":76561198041474489,"connected_time":157000000000,"state":"active","ping":56},{"user_id":254,"name":"IAmAProfesonal","steam_id":76561199171858953,"connected_time":1093000000000,"state":"active","ping":55},{"user_id":255,"name":"Bee_Pirate","steam_id":76561199000599111,"connected_time":1065000000000,"state":"active","ping":56},{"user_id":246,"name":"big chalupa gaming","steam_id":76561198153504932,"connected_time":1998000000000,"state":"active","ping":78},{"user_id":261,"name":"kona","steam_id":76561197986044938,"connected_time":759000000000,"state":"active","ping":71},{"user_id":235,"name":"Zomboboi_","steam_id":76561198139401380,"connected_time":2590000000000,"state":"active","ping":64},{"user_id":259,"name":"Sunflower","steam_id":76561198081223793,"connected_time":792000000000,"state":"active","ping":58},{"user_id":248,"name":"Oopsie Daisy ‚ùã","steam_id":76561198042144492,"connected_time":1573000000000,"state":"active","ping":80},{"user_id":257,"name":"B.","steam_id":76561198040445907,"connected_time":833000000000,"state":"active","ping":73},{"user_id":263,"name":"Lucon","steam_id":76561198067147724,"connected_time":637000000000,"state":"active","ping":64},{"user_id":237,"name":"yoss","steam_id":76561198198855267,"connected_time":2577000000000,"state":"active","ping":86},{"user_id":212,"name":"Captain Emerald The Changeling","steam_id":76561198320651177,"connected_time":4370000000000,"state":"active","ping":62},{"user_id":249,"name":"Thrasher","steam_id":76561197977801547,"connected_time":1516000000000,"state":"active","ping":73},{"user_id":227,"name":"Fightin Cow","steam_id":76561198080941486,"connected_time":3118000000000,"state":"active","ping":84},{"user_id":262,"name":"Freddie Bert","steam_id":76561197994893096,"connected_time":756000000000,"state":"active","ping":72},{"user_id":197,"name":"Verse","steam_id":76561198996078605,"connected_time":5276000000000,"state":"active","ping":63},{"user_id":264,"name":"Aristotle Voulton","steam_id":76561198100174923,"connected_time":621000000000,"state":"active","ping":86}]},{"server_id":36,"name":"Uncletopia | Chicago | 5 | All Maps","name_short":"chi-5","host":"chi-2.us.uncletopia.com","port":27015,"enabled":true,"region":"us-central","cc":"us","latitude":41.881832,"longitude":-87.62318,"reserved":0,"last_update":"0001-01-01T00:00:00Z","name_a2s":"Uncletopia | Chicago | 5 | All Maps","protocol":17,"map":"pl_barnblitz","folder":"tf","game":"Team Fortress","app_id":440,"player_count":0,"max_players":24,"Bots":0,"server_type":"Dedicated","server_os":"Linux","password":true,"vac":true,"version":"7961495","steam_id":85568392924866362,"keywords":["nocrits","nodmgspread","payload","uncletopia"],"game_id":440,"stv_port":27016,"stv_name":"Uncletopia | Chicago | 5 | All Maps | STV","players":null},{"server_id":37,"name":"Uncletopia | Chicago | 6 | All Maps","name_short":"chi-6","host":"chi-2.us.uncletopia.com","port":27025,"enabled":true,"region":"us-central","cc":"us","latitude":41.881832,"longitude":-87.62318,"reserved":0,"last_update":"0001-01-01T00:00:00Z","name_a2s":"Uncletopia | Chicago | 6 | All Maps","protocol":17,"map":"pl_badwater","folder":"tf","game":"Team Fortress","app_id":440,"player_count":24,"max_players":24,"Bots":0,"server_type":"Dedicated","server_os":"Linux","password":true,"vac":true,"version":"7961495","steam_id":85568392924866363,"keywords":["nocrits","nodmgspread","payload","uncletopia"],"game_id":440,"stv_port":27026,"stv_name":"Uncletopia | Chicago | 6 | All Maps | STV","players":[{"user_id":122,"name":"DroidDaB1Boi","steam_id":76561198251142108,"connected_time":364000000000,"state":"active","ping":60},{"user_id":114,"name":"Lemony Lilly (She/Her)","steam_id":76561198042479066,"connected_time":619000000000,"state":"active","ping":77},{"user_id":95,"name":"Durt","steam_id":76561198073569962,"connected_time":2447000000000,"state":"active","ping":50},{"user_id":117,"name":"johnny","steam_id":76561198855841242,"connected_time":545000000000,"state":"active","ping":81},{"user_id":103,"name":"Jarnold","steam_id":76561198090434537,"connected_time":2208000000000,"state":"active","ping":55},{"user_id":92,"name":"HalfDead","steam_id":76561198049700226,"connected_time":2939000000000,"state":"active","ping":85},{"user_id":50,"name":"Skygod47e","steam_id":76561198132296314,"connected_time":5660000000000,"state":"active","ping":104},{"user_id":83,"name":"chicken coup d'√©tat","steam_id":76561198069586736,"connected_time":3605000000000,"state":"active","ping":70},{"user_id":118,"name":"Clear Sights","steam_id":76561198006215683,"connected_time":535000000000,"state":"active","ping":63},{"user_id":98,"name":"Kermit","steam_id":76561198034559979,"connected_time":2324000000000,"state":"active","ping":92},{"user_id":59,"name":"Asha'man","steam_id":76561198057913763,"connected_time":4997000000000,"state":"active","ping":45},{"user_id":108,"name":"Extro","steam_id":76561198178908694,"connected_time":1648000000000,"state":"active","ping":57},{"user_id":89,"name":"R{FITH}‚Ñ¢Infornando","steam_id":76561198094891050,"connected_time":3305000000000,"state":"active","ping":104},{"user_id":91,"name":"-W3E- grim10465","steam_id":76561198045698581,"connected_time":3084000000000,"state":"active","ping":45},{"user_id":105,"name":"Petebros","steam_id":76561198892196829,"connected_time":1962000000000,"state":"active","ping":79},{"user_id":123,"name":"LORDO","steam_id":76561198044824675,"connected_time":355000000000,"state":"active","ping":74},{"user_id":119,"name":"Drachma","steam_id":76561198007310514,"connected_time":526000000000,"state":"active","ping":54},{"user_id":104,"name":"22:57","steam_id":76561198025668771,"connected_time":2138000000000,"state":"active","ping":112},{"user_id":121,"name":"Mog","steam_id":76561198025575870,"connected_time":463000000000,"state":"active","ping":57},{"user_id":112,"name":"Hello World","steam_id":76561199093925982,"connected_time":878000000000,"state":"active","ping":92},{"user_id":110,"name":"dr spwewps","steam_id":76561198144784420,"connected_time":1481000000000,"state":"active","ping":62},{"user_id":101,"name":"Naffty","steam_id":76561198119734981,"connected_time":2296000000000,"state":"active","ping":85},{"user_id":71,"name":"Acorn","steam_id":76561198353480153,"connected_time":4284000000000,"state":"active","ping":75},{"user_id":107,"name":"Wolverine Fingerblaster","steam_id":76561198095394582,"connected_time":1663000000000,"state":"active","ping":85}]},{"server_id":38,"name":"Uncletopia | Chicago | 7 | Stopwatch Beta","name_short":"chi-7","host":"chi-2.us.uncletopia.com","port":27035,"enabled":true,"region":"us-central","cc":"us","latitude":41.881832,"longitude":-87.62318,"reserved":0,"last_update":"0001-01-01T00:00:00Z","name_a2s":"Uncletopia | Chicago | 7 | Stopwatch Beta","protocol":17,"map":"pl_borneo","folder":"tf","game":"Team Fortress","app_id":440,"player_count":0,"max_players":24,"Bots":0,"server_type":"Dedicated","server_os":"Linux","password":true,"vac":true,"version":"7961495","steam_id":85568392924866364,"keywords":["nocrits","nodmgspread","payload","uncletopia"],"game_id":440,"stv_port":27036,"stv_name":"Uncletopia | Chicago | 7 | Stopwatch Beta | STV","players":null},{"server_id":39,"name":"Uncletopia | Chicago | 8 | Community","name_short":"chi-8","host":"chi-2.us.uncletopia.com","port":27045,"enabled":true,"region":"us-central","cc":"us","latitude":41.881832,"longitude":-87.62318,"reserved":0,"last_update":"0001-01-01T00:00:00Z","name_a2s":"Uncletopia | Chicago | 8 | Community","protocol":17,"map":"pl_barnblitz","folder":"tf","game":"Team Fortress","app_id":440,"player_count":0,"max_players":24,"Bots":0,"server_type":"Dedicated","server_os":"Linux","password":true,"vac":true,"version":"7961495","steam_id":85568392924866365,"keywords":["nocrits","nodmgspread","payload","uncletopia"],"game_id":440,"stv_port":27046,"stv_name":"Uncletopia | Chicago | 8 | Community | STV","players":null},{"server_id":8,"name":"Uncletopia | Dallas | 1 | All Maps","name_short":"dal-1","host":"dal-1.us.uncletopia.com","port":27015,"enabled":true,"region":"us-central","cc":"us","latitude":32.779167,"longitude":-96.80889,"reserved":0,"last_update":"0001-01-01T00:00:00Z","name_a2s":"Uncletopia | Dallas | 1 | All Maps","protocol":17,"map":"koth_viaduct","folder":"tf","game":"Team Fortress","app_id":440,"player_count":24,"max_players":24,"Bots":0,"server_type":"Dedicated","server_os":"Linux","password":true,"vac":true,"version":"7961495","steam_id":85568392924469986,"keywords":["cp","nocrits","nodmgspread","uncletopia"],"game_id":440,"stv_port":27016,"stv_name":"Uncletopia | Dallas | 1 | All Maps | STV","players":[{"user_id":15,"name":"Bimbus Bobus","steam_id":76561199217738167,"connected_time":2495000000000,"state":"active","ping":55},{"user_id":18,"name":"Rob","steam_id":76561199187786660,"connected_time":1999000000000,"state":"active","ping":52},{"user_id":16,"name":"asm_ghost","steam_id":76561199205363547,"connected_time":2436000000000,"state":"active","ping":114},{"user_id":19,"name":"yes","steam_id":76561199226277457,"connected_time":1832000000000,"state":"active","ping":68},{"user_id":20,"name":"Soul of Cinder (aka SoC)","steam_id":76561198018958668,"connected_time":1549000000000,"state":"active","ping":75},{"user_id":42,"name":"DNA","steam_id":76561198889418752,"connected_time":297000000000,"state":"active","ping":81},{"user_id":33,"name":"Spike Bones","steam_id":76561198234926120,"connected_time":736000000000,"state":"active","ping":124},{"user_id":27,"name":"socializedCryptid","steam_id":76561198991665007,"connected_time":1107000000000,"state":"active","ping":86},{"user_id":24,"name":"reymundo","steam_id":76561197989412830,"connected_time":1313000000000,"state":"active","ping":89},{"user_id":25,"name":"damiankiller1243","steam_id":76561198868885090,"connected_time":1259000000000,"state":"active","ping":59},{"user_id":31,"name":"√êŒπ—è—Ç—É B…ÑŒ≤bl—î","steam_id":76561198382555244,"connected_time":868000000000,"state":"active","ping":54},{"user_id":29,"name":"Sergeant Joker #savetf2","steam_id":76561198854616604,"connected_time":1019000000000,"state":"active","ping":92},{"user_id":32,"name":"Snugboo","steam_id":76561198147970327,"connected_time":805000000000,"state":"active","ping":75},{"user_id":43,"name":"Yam Jazzy Jim","steam_id":76561198000788950,"connected_time":291000000000,"state":"active","ping":77},{"user_id":35,"name":"WeegeePJ","steam_id":76561199383362382,"connected_time":500000000000,"state":"active","ping":97},{"user_id":36,"name":"Spy (I Love spy)","steam_id":76561199138738952,"connected_time":469000000000,"state":"active","ping":78},{"user_id":37,"name":"Jopar","steam_id":76561198892206410,"connected_time":398000000000,"state":"active","ping":76},{"user_id":38,"name":"ADUMSAND","steam_id":76561198146955512,"connected_time":386000000000,"state":"active","ping":93},{"user_id":39,"name":"Bingus is WAM","steam_id":76561199131547722,"connected_time":345000000000,"state":"active","ping":171},{"user_id":40,"name":"ScooboBear","steam_id":76561199037163085,"connected_time":334000000000,"state":"active","ping":110},{"user_id":41,"name":"Zetta","steam_id":76561198045710113,"connected_time":316000000000,"state":"active","ping":86},{"user_id":47,"name":"Kid named download","steam_id":76561199192074448,"connected_time":219000000000,"state":"active","ping":106},{"user_id":45,"name":"Vorpas Jabwak","steam_id":76561198112186064,"connected_time":266000000000,"state":"active","ping":82},{"user_id":46,"name":"‡∂û","steam_id":76561199365672047,"connected_time":241000000000,"state":"active","ping":100}]},{"server_id":108,"name":"Uncletopia | Dallas | 2 | All Maps","name_short":"dal-2","host":"dal-1.us.uncletopia.com","port":27025,"enabled":true,"region":"us-central","cc":"us","latitude":32.779167,"longitude":-96.80889,"reserved":0,"last_update":"0001-01-01T00:00:00Z","name_a2s":"Uncletopia | Dallas | 2 | All Maps","protocol":17,"map":"koth_highpass","folder":"tf","game":"Team Fortress","app_id":440,"player_count":0,"max_players":24,"Bots":0,"server_type":"Dedicated","server_os":"Linux","password":true,"vac":true,"version":"7961495","steam_id":85568392924469988,"keywords":["cp","nocrits","nodmgspread","uncletopia"],"game_id":440,"stv_port":27026,"stv_name":"Uncletopia | Dallas | 2 | All Maps | STV","players":null},{"server_id":404,"name":"Uncletopia | Dallas | 3 | All Maps","name_short":"dal-3","host":"dal-1.us.uncletopia.com","port":27035,"enabled":true,"region":"us-central","cc":"us","latitude":32.779167,"longitude":-96.80889,"reserved":0,"last_update":"0001-01-01T00:00:00Z","name_a2s":"Uncletopia | Dallas | 3 | All Maps","protocol":17,"map":"pl_pier","folder":"tf","game":"Team Fortress","app_id":440,"player_count":0,"max_players":24,"Bots":0,"server_type":"Dedicated","server_os":"Linux","password":true,"vac":true,"version":"7961495","steam_id":85568392924515219,"keywords":["nocrits","nodmgspread","payload","uncletopia"],"game_id":440,"stv_port":27036,"stv_name":"Uncletopia | Dallas | 3 | All Maps | STV","players":null},{"server_id":405,"name":"Uncletopia | Dallas | 4 | Community","name_short":"dal-4","host":"dal-1.us.uncletopia.com","port":27045,"enabled":true,"region":"us-central","cc":"us","latitude":32.779167,"longitude":-96.80889,"reserved":0,"last_update":"0001-01-01T00:00:00Z","name_a2s":"Uncletopia | Dallas | 4 | Community","protocol":17,"map":"workshop/pl_divulgence_b4b.ugc2884808746","folder":"tf","game":"Team Fortress","app_id":440,"player_count":24,"max_players":24,"Bots":0,"server_type":"Dedicated","server_os":"Linux","password":true,"vac":true,"version":"7961495","steam_id":85568392924515220,"keywords":["nocrits","nodmgspread","payload","uncletopia"],"game_id":440,"stv_port":27046,"stv_name":"Uncletopia | Dallas | 4 | Community | STV","players":[{"user_id":30,"name":"2fort goblin","steam_id":76561199006361788,"connected_time":1751000000000,"state":"active","ping":80},{"user_id":60,"name":"Lock'd","steam_id":76561198170108230,"connected_time":387000000000,"state":"active","ping":60},{"user_id":43,"name":"Scienti[-] It's Dead","steam_id":76561198443322880,"connected_time":1043000000000,"state":"active","ping":196},{"user_id":7,"name":"QuartzGeek","steam_id":76561199011674698,"connected_time":4028000000000,"state":"active","ping":52},{"user_id":59,"name":"SilverFoxx","steam_id":76561198068730102,"connected_time":468000000000,"state":"active","ping":51},{"user_id":12,"name":"Cheesemelt","steam_id":76561198008221847,"connected_time":3040000000000,"state":"active","ping":86},{"user_id":13,"name":"BluCoffee","steam_id":76561198214995967,"connected_time":3036000000000,"state":"active","ping":150},{"user_id":39,"name":"notuncooldude","steam_id":76561199129819858,"connected_time":1325000000000,"state":"active","ping":145},{"user_id":40,"name":"taylor_pink_blob","steam_id":76561198796412358,"connected_time":1307000000000,"state":"active","ping":106},{"user_id":41,"name":"DragonKnight343","steam_id":76561199235854406,"connected_time":1274000000000,"state":"active","ping":116},{"user_id":45,"name":"Hawkborne","steam_id":76561198107249245,"connected_time":888000000000,"state":"active","ping":70},{"user_id":23,"name":"1tsR0B0T","steam_id":76561198324525822,"connected_time":2397000000000,"state":"active","ping":70},{"user_id":38,"name":"God's Drunkest Driver","steam_id":76561199174579733,"connected_time":1346000000000,"state":"active","ping":88},{"user_id":34,"name":"Solaris","steam_id":76561198073166053,"connected_time":1567000000000,"state":"active","ping":83},{"user_id":42,"name":"elthore","steam_id":76561197980789110,"connected_time":1194000000000,"state":"active","ping":99},{"user_id":46,"name":"whycameback","steam_id":76561198222556872,"connected_time":882000000000,"state":"active","ping":85},{"user_id":48,"name":"¬∞Creamy Gilligan","steam_id":76561198001569384,"connected_time":834000000000,"state":"active","ping":89},{"user_id":49,"name":"dweamy","steam_id":76561198119181880,"connected_time":833000000000,"state":"active","ping":61},{"user_id":53,"name":"john_minecraft05","steam_id":76561198354026474,"connected_time":657000000000,"state":"active","ping":86},{"user_id":54,"name":"HalfGuest","steam_id":76561199045682328,"connected_time":649000000000,"state":"active","ping":107},{"user_id":55,"name":"Balor","steam_id":76561198180926835,"connected_time":645000000000,"state":"active","ping":76},{"user_id":56,"name":"WM1 PYRO","steam_id":76561198045893896,"connected_time":640000000000,"state":"active","ping":112},{"user_id":61,"name":"floppy muppet","steam_id":76561198003076261,"connected_time":268000000000,"state":"active","ping":90},{"user_id":58,"name":"Neophyte","steam_id":76561198027183394,"connected_time":601000000000,"state":"active","ping":89}]},{"server_id":5,"name":"Uncletopia | Frankfurt | 1 | All Maps","name_short":"frk-1","host":"frk-1.de.uncletopia.com","port":27015,"enabled":true,"region":"eu","cc":"de","latitude":50.110924,"longitude":8.682127,"reserved":0,"last_update":"0001-01-01T00:00:00Z","name_a2s":"Uncletopia | Frankfurt | 1 | All Maps","protocol":17,"map":"pl_snowycoast","folder":"tf","game":"Team Fortress","app_id":440,"player_count":24,"max_players":24,"Bots":0,"server_type":"Dedicated","server_os":"Linux","password":true,"vac":true,"version":"7961495","steam_id":85568392924469989,"keywords":["nocrits","nodmgspread","payload","uncletopia"],"game_id":440,"stv_port":27016,"stv_name":"Uncletopia | Frankfurt | 1 | All Maps | STV","players":[{"user_id":524,"name":"Sinnmeister","steam_id":76561198201091797,"connected_time":558000000000,"state":"active","ping":59},{"user_id":530,"name":"boneez","steam_id":76561198186800982,"connected_time":102000000000,"state":"active","ping":61},{"user_id":528,"name":"bitkomet","steam_id":76561198058232147,"connected_time":234000000000,"state":"active","ping":72},{"user_id":490,"name":"kalid","steam_id":76561198051468640,"connected_time":3028000000000,"state":"active","ping":60},{"user_id":481,"name":"realness","steam_id":76561199129226935,"connected_time":3470000000000,"state":"active","ping":90},{"user_id":482,"name":"gnarly business","steam_id":76561198832688767,"connected_time":3456000000000,"state":"active","ping":55},{"user_id":521,"name":"flange","steam_id":76561198040182692,"connected_time":814000000000,"state":"active","ping":48},{"user_id":522,"name":"Aeglos","steam_id":76561198248698294,"connected_time":785000000000,"state":"active","ping":75},{"user_id":443,"name":"hyvakii705","steam_id":76561198086630552,"connected_time":6989000000000,"state":"active","ping":104},{"user_id":429,"name":"uma","steam_id":76561198147976939,"connected_time":8158000000000,"state":"active","ping":50},{"user_id":526,"name":"slifty","steam_id":76561198166682199,"connected_time":492000000000,"state":"active","ping":68},{"user_id":502,"name":"Veir≈´ Viseris","steam_id":76561197989857176,"connected_time":2155000000000,"state":"active","ping":60},{"user_id":491,"name":"‚ôÇ Animan ‚ôÇ Studios ‚ôÇ","steam_id":76561198308302932,"connected_time":3027000000000,"state":"active","ping":100},{"user_id":492,"name":"xarks","steam_id":76561198026236701,"connected_time":3019000000000,"state":"active","ping":75},{"user_id":486,"name":"HAMtastic","steam_id":76561198879769410,"connected_time":3345000000000,"state":"active","ping":73},{"user_id":518,"name":"B3REX","steam_id":76561198062701587,"connected_time":889000000000,"state":"active","ping":72},{"user_id":531,"name":"taste Fanta through your balls","steam_id":76561198823497252,"connected_time":58000000000,"state":"active","ping":46},{"user_id":499,"name":"caramelldancin'","steam_id":76561198193357946,"connected_time":2755000000000,"state":"active","ping":109},{"user_id":523,"name":"Mc Cheezy","steam_id":76561198834780242,"connected_time":652000000000,"state":"active","ping":103},{"user_id":512,"name":"DA ZONE CONTROLLA","steam_id":76561198165210030,"connected_time":1148000000000,"state":"active","ping":84},{"user_id":514,"name":"steve","steam_id":76561198335143890,"connected_time":1126000000000,"state":"active","ping":74},{"user_id":527,"name":"kakaobune","steam_id":76561199179816950,"connected_time":462000000000,"state":"active","ping":67},{"user_id":501,"name":"Leah Kate","steam_id":76561198974207724,"connected_time":2267000000000,"state":"active","ping":104},{"user_id":519,"name":"Melk?","steam_id":76561198247635120,"connected_time":876000000000,"state":"active","ping":100}]},{"server_id":110,"name":"Uncletopia | Frankfurt | 2 | All Maps","name_short":"frk-2","host":"frk-1.de.uncletopia.com","port":27025,"enabled":true,"region":"eu","cc":"de","latitude":50.110924,"longitude":8.682127,"reserved":0,"last_update":"0001-01-01T00:00:00Z","name_a2s":"Uncletopia | Frankfurt | 2 | All Maps","protocol":17,"map":"pl_thundermountain","folder":"tf","game":"Team Fortress","app_id":440,"player_count":24,"max_players":24,"Bots":0,"server_type":"Dedicated","server_os":"Linux","password":true,"vac":true,"version":"7961495","steam_id":85568392924469990,"keywords":["nocrits","nodmgspread","payload","uncletopia"],"game_id":440,"stv_port":27026,"stv_name":"Uncletopia | Frankfurt | 2 | All Maps | STV","players":[{"user_id":193,"name":"papazilla_actual","steam_id":76561198043812833,"connected_time":1578000000000,"state":"active","ping":89},{"user_id":217,"name":"Toyota Trueno Apex AE86","steam_id":76561199071030260,"connected_time":610000000000,"state":"active","ping":69},{"user_id":201,"name":"Chaz!","steam_id":76561198004328217,"connected_time":1324000000000,"state":"active","ping":74},{"user_id":197,"name":"Mr Najs","steam_id":76561198010273678,"connected_time":1407000000000,"state":"active","ping":75},{"user_id":184,"name":"Sober sailor","steam_id":76561198141278302,"connected_time":2130000000000,"state":"active","ping":69},{"user_id":203,"name":"pretty boy","steam_id":76561198345972230,"connected_time":1317000000000,"state":"active","ping":76},{"user_id":186,"name":"Daruun","steam_id":76561198019068781,"connected_time":2093000000000,"state":"active","ping":69},{"user_id":211,"name":"Gener√°l Kiwi","steam_id":76561198255946537,"connected_time":1048000000000,"state":"active","ping":40},{"user_id":204,"name":"Kotlet schabowy","steam_id":76561198048983509,"connected_time":1315000000000,"state":"active","ping":78},{"user_id":205,"name":"YARrICk.¬´+¬ª","steam_id":76561197990126485,"connected_time":1275000000000,"state":"active","ping":62},{"user_id":214,"name":"Covetousix","steam_id":76561198293936824,"connected_time":749000000000,"state":"active","ping":72},{"user_id":219,"name":"Daddy-O","steam_id":76561198120101147,"connected_time":387000000000,"state":"active","ping":95},{"user_id":133,"name":"chilli con carnage","steam_id":76561198004832216,"connected_time":5669000000000,"state":"active","ping":58},{"user_id":216,"name":"Dead Kitten","steam_id":76561198152132092,"connected_time":657000000000,"state":"active","ping":74},{"user_id":194,"name":"Crusader","steam_id":76561198239172686,"connected_time":1540000000000,"state":"active","ping":70},{"user_id":206,"name":"Sleepy Dummy","steam_id":76561198122108762,"connected_time":1248000000000,"state":"active","ping":56},{"user_id":224,"name":"Abbplutt","steam_id":76561198121678429,"connected_time":221000000000,"state":"active","ping":74},{"user_id":212,"name":"Dapper Pan Man","steam_id":76561197981874399,"connected_time":1017000000000,"state":"active","ping":87},{"user_id":218,"name":"Infinite Byakugan","steam_id":76561198841884465,"connected_time":609000000000,"state":"active","ping":63},{"user_id":208,"name":"tqla","steam_id":76561198073092585,"connected_time":1216000000000,"state":"active","ping":78},{"user_id":174,"name":"HaylingZar","steam_id":76561198053559897,"connected_time":2904000000000,"state":"active","ping":69},{"user_id":209,"name":"Labracababrador","steam_id":76561198255280285,"connected_time":1203000000000,"state":"active","ping":84},{"user_id":175,"name":"inq","steam_id":76561198039254055,"connected_time":2900000000000,"state":"active","ping":128},{"user_id":198,"name":"JareJare","steam_id":76561199040893751,"connected_time":1396000000000,"state":"active","ping":70}]},{"server_id":308,"name":"Uncletopia | Frankfurt | 3 | All Maps","name_short":"frk-3","host":"frk-1.de.uncletopia.com","port":27035,"enabled":true,"region":"eu","cc":"de","latitude":50.110924,"longitude":8.682127,"reserved":0,"last_update":"0001-01-01T00:00:00Z","name_a2s":"Uncletopia | Frankfurt | 3 | All Maps","protocol":17,"map":"pl_upward","folder":"tf","game":"Team Fortress","app_id":440,"player_count":24,"max_players":24,"Bots":0,"server_type":"Dedicated","server_os":"Linux","password":true,"vac":true,"version":"7961495","steam_id":85568392924504274,"keywords":["nocrits","nodmgspread","payload","uncletopia"],"game_id":440,"stv_port":27036,"stv_name":"Uncletopia | Frankfurt | 3 | All Maps | STV","players":[{"user_id":53,"name":"Ennard777","steam_id":76561198965409493,"connected_time":824000000000,"state":"active","ping":98},{"user_id":16,"name":"Archive","steam_id":76561198071255385,"connected_time":2613000000000,"state":"active","ping":95},{"user_id":44,"name":"rets_","steam_id":76561198061551392,"connected_time":1414000000000,"state":"active","ping":51},{"user_id":42,"name":"ultim8","steam_id":76561198201501691,"connected_time":1560000000000,"state":"active","ping":51},{"user_id":59,"name":"Happy Cat","steam_id":76561198405359788,"connected_time":413000000000,"state":"active","ping":104},{"user_id":56,"name":"Spectral Sloth","steam_id":76561198170083139,"connected_time":479000000000,"state":"active","ping":82},{"user_id":52,"name":"Phat","steam_id":76561198272293356,"connected_time":855000000000,"state":"active","ping":69},{"user_id":26,"name":"Matik","steam_id":76561197990793831,"connected_time":2121000000000,"state":"active","ping":69},{"user_id":23,"name":"Tammrock","steam_id":76561198029322294,"connected_time":2306000000000,"state":"active","ping":75},{"user_id":24,"name":"RistleyPristley","steam_id":76561198129583229,"connected_time":2295000000000,"state":"active","ping":78},{"user_id":47,"name":"Fenced","steam_id":76561197966629582,"connected_time":1380000000000,"state":"active","ping":54},{"user_id":57,"name":"eye","steam_id":76561198343328308,"connected_time":438000000000,"state":"active","ping":71},{"user_id":29,"name":"tealoverr.190","steam_id":76561199028497703,"connected_time":2005000000000,"state":"active","ping":111},{"user_id":50,"name":"Canned","steam_id":76561199378047100,"connected_time":1292000000000,"state":"active","ping":78},{"user_id":46,"name":"simon","steam_id":76561198880361394,"connected_time":1395000000000,"state":"active","ping":52},{"user_id":58,"name":"VampiuS","steam_id":76561197998827007,"connected_time":433000000000,"state":"active","ping":59},{"user_id":62,"name":"reke","steam_id":76561199149307190,"connected_time":383000000000,"state":"active","ping":74},{"user_id":55,"name":"my mom","steam_id":76561199225201569,"connected_time":516000000000,"state":"active","ping":146},{"user_id":36,"name":"beam slut","steam_id":76561198162873354,"connected_time":1802000000000,"state":"active","ping":118},{"user_id":45,"name":"Filtered Water","steam_id":76561199142022395,"connected_time":1414000000000,"state":"active","ping":68},{"user_id":38,"name":"Massmarine","steam_id":76561198038696531,"connected_time":1764000000000,"state":"active","ping":113},{"user_id":39,"name":"leminsc8","steam_id":76561198825084995,"connected_time":1762000000000,"state":"active","ping":42},{"user_id":40,"name":"RuinLucky","steam_id":76561199481172481,"connected_time":1759000000000,"state":"active","ping":163},{"user_id":61,"name":"SVIFT danny","steam_id":76561198056930504,"connected_time":398000000000,"state":"active","ping":51}]},{"server_id":309,"name":"Uncletopia | Frankfurt | 4 | All Maps","name_short":"frk-4","host":"frk-1.de.uncletopia.com","port":27045,"enabled":true,"region":"eu","cc":"de","latitude":50.110924,"longitude":8.682127,"reserved":0,"last_update":"0001-01-01T00:00:00Z","name_a2s":"Uncletopia | Frankfurt | 4 | All Maps","protocol":17,"map":"pl_borneo","folder":"tf","game":"Team Fortress","app_id":440,"player_count":24,"max_players":24,"Bots":0,"server_type":"Dedicated","server_os":"Linux","password":true,"vac":true,"version":"7961495","steam_id":85568392924504275,"keywords":["nocrits","nodmgspread","payload","uncletopia"],"game_id":440,"stv_port":27046,"stv_name":"Uncletopia | Frankfurt | 4 | All Maps | STV","players":[{"user_id":521,"name":"Technic","steam_id":76561198128096130,"connected_time":712000000000,"state":"active","ping":33},{"user_id":514,"name":"Circlefly_","steam_id":76561198138960827,"connected_time":1205000000000,"state":"active","ping":60},{"user_id":503,"name":"DwarfInYou","steam_id":76561198966341795,"connected_time":2316000000000,"state":"active","ping":53},{"user_id":497,"name":"Soerlssoelss√∂en","steam_id":76561197993060585,"connected_time":2777000000000,"state":"active","ping":74},{"user_id":526,"name":"Andrea","steam_id":76561199487380678,"connected_time":376000000000,"state":"active","ping":88},{"user_id":509,"name":"szmen","steam_id":76561198072569764,"connected_time":1858000000000,"state":"active","ping":84},{"user_id":510,"name":"Eno","steam_id":76561198387892963,"connected_time":1657000000000,"state":"active","ping":63},{"user_id":524,"name":"Qdarks","steam_id":76561198013391340,"connected_time":500000000000,"state":"active","ping":139},{"user_id":490,"name":"Zerfesh","steam_id":76561198117534358,"connected_time":3306000000000,"state":"active","ping":89},{"user_id":508,"name":"GMsU | Smiley","steam_id":76561198121494414,"connected_time":1969000000000,"state":"active","ping":84},{"user_id":458,"name":"D√•vid","steam_id":76561198184135755,"connected_time":6512000000000,"state":"active","ping":61},{"user_id":515,"name":"Yoshikage Kira","steam_id":76561199051752886,"connected_time":1173000000000,"state":"active","ping":54},{"user_id":523,"name":"Tren Brother #1","steam_id":76561199042470246,"connected_time":556000000000,"state":"active","ping":56},{"user_id":528,"name":"Soull","steam_id":76561199188088471,"connected_time":22000000000,"state":"active","ping":152},{"user_id":453,"name":"Slooshie","steam_id":76561198008749909,"connected_time":7016000000000,"state":"active","ping":61},{"user_id":527,"name":"John0309","steam_id":76561198447428162,"connected_time":370000000000,"state":"active","ping":68},{"user_id":500,"name":"AsuX","steam_id":76561197990333289,"connected_time":2649000000000,"state":"active","ping":66},{"user_id":489,"name":"Salamon","steam_id":76561198280756561,"connected_time":3559000000000,"state":"active","ping":104},{"user_id":525,"name":"Diggity","steam_id":76561198297157085,"connected_time":461000000000,"state":"active","ping":47},{"user_id":504,"name":"Eltonius","steam_id":76561198157560715,"connected_time":2215000000000,"state":"active","ping":89},{"user_id":502,"name":"AppleSauceTea","steam_id":76561198870725863,"connected_time":2404000000000,"state":"active","ping":50},{"user_id":522,"name":"Guwop","steam_id":76561197970425737,"connected_time":594000000000,"state":"active","ping":165},{"user_id":469,"name":"Economic crisis","steam_id":76561198063562843,"connected_time":4789000000000,"state":"active","ping":61},{"user_id":506,"name":"Zaka","steam_id":76561198148434957,"connected_time":2071000000000,"state":"active","ping":103}]},{"server_id":310,"name":"Uncletopia | Frankfurt | 5 | All Maps","name_short":"frk-5","host":"frk-1.de.uncletopia.com","port":27055,"enabled":true,"region":"eu","cc":"de","latitude":50.110924,"longitude":8.682127,"reserved":0,"last_update":"0001-01-01T00:00:00Z","name_a2s":"Uncletopia | Frankfurt | 5 | All Maps","protocol":17,"map":"pl_upward","folder":"tf","game":"Team Fortress","app_id":440,"player_count":24,"max_players":24,"Bots":0,"server_type":"Dedicated","server_os":"Linux","password":true,"vac":true,"version":"7961495","steam_id":85568392924504277,"keywords":["nocrits","nodmgspread","payload","uncletopia"],"game_id":440,"stv_port":27056,"stv_name":"Uncletopia | Frankfurt | 5 | All Maps | STV","players":[{"user_id":248,"name":"Doric","steam_id":76561198402691965,"connected_time":3305000000000,"state":"active","ping":61},{"user_id":247,"name":"Wario","steam_id":76561198356089255,"connected_time":3333000000000,"state":"active","ping":56},{"user_id":218,"name":"Dispenser Diet","steam_id":76561198059937616,"connected_time":5118000000000,"state":"active","ping":69},{"user_id":296,"name":"Reimu Hakurei","steam_id":76561198152478010,"connected_time":1065000000000,"state":"active","ping":81},{"user_id":299,"name":"TomRistpt","steam_id":76561198968817946,"connected_time":947000000000,"state":"active","ping":45},{"user_id":297,"name":"Erection Man","steam_id":76561198021714542,"connected_time":1058000000000,"state":"active","ping":64},{"user_id":302,"name":"sareena","steam_id":76561198810194062,"connected_time":893000000000,"state":"active","ping":74},{"user_id":290,"name":"filo","steam_id":76561198103633797,"connected_time":1771000000000,"state":"active","ping":79},{"user_id":311,"name":"gah damn","steam_id":76561198002990168,"connected_time":202000000000,"state":"active","ping":59},{"user_id":279,"name":"rabbit | trade.tf","steam_id":76561198378990855,"connected_time":2083000000000,"state":"active","ping":76},{"user_id":294,"name":"Finnish Farmer","steam_id":76561198205366043,"connected_time":1480000000000,"state":"active","ping":91},{"user_id":280,"name":"Polech","steam_id":76561199187916824,"connected_time":2078000000000,"state":"active","ping":92},{"user_id":281,"name":"dochris.2","steam_id":76561198026478625,"connected_time":2061000000000,"state":"active","ping":47},{"user_id":305,"name":"SSoppen","steam_id":76561198027245969,"connected_time":743000000000,"state":"active","ping":78},{"user_id":310,"name":"Arno","steam_id":76561198025329937,"connected_time":444000000000,"state":"active","ping":53},{"user_id":300,"name":"funny emoji or whatever","steam_id":76561198075610021,"connected_time":938000000000,"state":"active","ping":86},{"user_id":307,"name":"BigBeardThoRN","steam_id":76561197985641555,"connected_time":557000000000,"state":"active","ping":74},{"user_id":293,"name":"stivanaker","steam_id":76561198346276579,"connected_time":1612000000000,"state":"active","ping":165},{"user_id":133,"name":"üå≠ 0mger","steam_id":76561198053615827,"connected_time":11904000000000,"state":"active","ping":70},{"user_id":285,"name":"ÔΩÑÔΩÖÔΩìÔΩãÔΩíÔΩÅÔΩô","steam_id":76561198805536170,"connected_time":2029000000000,"state":"active","ping":75},{"user_id":308,"name":"the one who grips","steam_id":76561198381106289,"connected_time":554000000000,"state":"active","ping":79},{"user_id":301,"name":"Grey","steam_id":76561198187190267,"connected_time":903000000000,"state":"active","ping":51},{"user_id":314,"name":"2023","steam_id":76561198857712172,"connected_time":10000000000,"state":"spawning","ping":55},{"user_id":217,"name":"Sparks","steam_id":76561198423827206,"connected_time":5320000000000,"state":"active","ping":66}]},{"server_id":311,"name":"Uncletopia | Frankfurt | 6 | All Maps","name_short":"frk-6","host":"frk-1.de.uncletopia.com","port":27065,"enabled":true,"region":"eu","cc":"de","latitude":50.110924,"longitude":8.682127,"reserved":0,"last_update":"0001-01-01T00:00:00Z","name_a2s":"Uncletopia | Frankfurt | 6 | All Maps","protocol":17,"map":"pl_upward","folder":"tf","game":"Team Fortress","app_id":440,"player_count":24,"max_players":24,"Bots":0,"server_type":"Dedicated","server_os":"Linux","password":true,"vac":true,"version":"7961495","steam_id":85568392924504278,"keywords":["nocrits","nodmgspread","payload","uncletopia"],"game_id":440,"stv_port":27066,"stv_name":"Uncletopia | Frankfurt | 6 | All Maps | STV","players":[{"user_id":402,"name":"walrus","steam_id":76561198167898969,"connected_time":430000000000,"state":"active","ping":72},{"user_id":341,"name":"Marabosha","steam_id":76561198137599173,"connected_time":5039000000000,"state":"active","ping":115},{"user_id":370,"name":"goga 6","steam_id":76561198040509712,"connected_time":3939000000000,"state":"active","ping":62},{"user_id":347,"name":"guh","steam_id":76561198257158275,"connected_time":4786000000000,"state":"active","ping":144},{"user_id":386,"name":"Aynas Slayerow","steam_id":76561198122300668,"connected_time":2459000000000,"state":"active","ping":99},{"user_id":382,"name":"goga 5","steam_id":76561198311044984,"connected_time":2691000000000,"state":"active","ping":63},{"user_id":403,"name":"Vectillion","steam_id":76561198074292454,"connected_time":428000000000,"state":"active","ping":74},{"user_id":399,"name":"foster","steam_id":76561198060337360,"connected_time":720000000000,"state":"active","ping":60},{"user_id":395,"name":"Largo","steam_id":76561198844368927,"connected_time":1721000000000,"state":"active","ping":63},{"user_id":352,"name":"ChibiYama","steam_id":76561198338543495,"connected_time":4676000000000,"state":"active","ping":94},{"user_id":408,"name":"Valkry","steam_id":76561198083425408,"connected_time":12000000000,"state":"spawning","ping":44},{"user_id":381,"name":"Mottinen","steam_id":76561198223868928,"connected_time":2711000000000,"state":"active","ping":83},{"user_id":378,"name":"katten","steam_id":76561198163615254,"connected_time":2733000000000,"state":"active","ping":54},{"user_id":404,"name":"Bob Sacamano","steam_id":76561198085610701,"connected_time":417000000000,"state":"active","ping":83},{"user_id":391,"name":"goga","steam_id":76561198280507478,"connected_time":1946000000000,"state":"active","ping":53},{"user_id":405,"name":"makarov","steam_id":76561198363892870,"connected_time":189000000000,"state":"active","ping":68},{"user_id":377,"name":"goga 4","steam_id":76561198403959663,"connected_time":2927000000000,"state":"active","ping":89},{"user_id":361,"name":"Ëã±Ê†ë Hideki","steam_id":76561199191173684,"connected_time":4410000000000,"state":"active","ping":86},{"user_id":397,"name":"goga 3","steam_id":76561198375486320,"connected_time":742000000000,"state":"active","ping":64},{"user_id":407,"name":"DDUUCCKK","steam_id":76561198141953050,"connected_time":61000000000,"state":"active","ping":71},{"user_id":389,"name":"broodje_snor","steam_id":76561198186581081,"connected_time":2343000000000,"state":"active","ping":51},{"user_id":385,"name":"goga 2","steam_id":76561198094268619,"connected_time":2617000000000,"state":"active","ping":60},{"user_id":364,"name":"Pantel50","steam_id":76561198817932229,"connected_time":4390000000000,"state":"active","ping":84},{"user_id":327,"name":"shadow39344","steam_id":76561198090639618,"connected_time":5899000000000,"state":"active","ping":68}]},{"server_id":23,"name":"Uncletopia | Frankfurt | 7 | Stopwatch Beta","name_short":"frk-7","host":"frk-1.de.uncletopia.com","port":27075,"enabled":true,"region":"eu","cc":"de","latitude":50.110924,"longitude":8.682127,"reserved":0,"last_update":"0001-01-01T00:00:00Z","name_a2s":"Uncletopia | Frankfurt | 7 | Stopwatch Beta","protocol":17,"map":"pl_frontier_final","folder":"tf","game":"Team Fortress","app_id":440,"player_count":0,"max_players":24,"Bots":0,"server_type":"Dedicated","server_os":"Linux","password":true,"vac":true,"version":"7961495","steam_id":85568392924742827,"keywords":["nocrits","nodmgspread","payload","uncletopia"],"game_id":440,"stv_port":27076,"stv_name":"Uncletopia | Frankfurt | 7 | Stopwatch Beta | STV","players":null},{"server_id":24,"name":"Uncletopia | Frankfurt | 8 | Community","name_short":"frk-8","host":"frk-1.de.uncletopia.com","port":27085,"enabled":true,"region":"eu","cc":"de","latitude":50.110924,"longitude":8.682127,"reserved":0,"last_update":"0001-01-01T00:00:00Z","name_a2s":"Uncletopia | Frankfurt | 8 | Community","protocol":17,"map":"koth_highpass","folder":"tf","game":"Team Fortress","app_id":440,"player_count":0,"max_players":24,"Bots":0,"server_type":"Dedicated","server_os":"Linux","password":true,"vac":true,"version":"7961495","steam_id":85568392924742828,"keywords":["cp","nocrits","nodmgspread","uncletopia"],"game_id":440,"stv_port":27086,"stv_name":"Uncletopia | Frankfurt | 8 | Community | STV","players":null},{"server_id":202,"name":"Uncletopia | Hong Kong | 1 | All Maps","name_short":"hgk-1","host":"hgk-1.hk.uncletopia.com","port":27015,"enabled":true,"region":"asia","cc":"hk","latitude":22.302711,"longitude":114.177216,"reserved":0,"last_update":"0001-01-01T00:00:00Z","name_a2s":"Uncletopia | Hong Kong | 1 | All Maps","protocol":17,"map":"pl_frontier_final","folder":"tf","game":"Team Fortress","app_id":440,"player_count":1,"max_players":24,"Bots":0,"server_type":"Dedicated","server_os":"Linux","password":true,"vac":true,"version":"7961495","steam_id":85568392924494504,"keywords":["nocrits","nodmgspread","payload","uncletopia"],"game_id":440,"stv_port":27016,"stv_name":"Uncletopia | Hong Kong | 1 | All Maps | STV","players":[{"user_id":582,"name":"ticktick","steam_id":76561198156755977,"connected_time":22000000000,"state":"spawning","ping":73}]},{"server_id":1,"name":"Uncletopia | Los Angeles | 1 | All Maps","name_short":"lax-1","host":"lax-1.us.uncletopia.com","port":27015,"enabled":true,"region":"us-west","cc":"us","latitude":33.94279,"longitude":-118.41004,"reserved":0,"last_update":"0001-01-01T00:00:00Z","name_a2s":"Uncletopia | Los Angeles | 1 | All Maps","protocol":17,"map":"pl_barnblitz","folder":"tf","game":"Team Fortress","app_id":440,"player_count":7,"max_players":24,"Bots":0,"server_type":"Dedicated","server_os":"Linux","password":true,"vac":true,"version":"7961495","steam_id":85568392924469991,"keywords":["nocrits","nodmgspread","payload","uncletopia"],"game_id":440,"stv_port":27016,"stv_name":"Uncletopia | Los Angeles | 1 | All Maps | STV","players":[{"user_id":16,"name":"Somethingidk","steam_id":76561199376738531,"connected_time":1466000000000,"state":"active","ping":74},{"user_id":17,"name":"Sunny Jim","steam_id":76561198115192048,"connected_time":813000000000,"state":"active","ping":57},{"user_id":20,"name":"se√±ora","steam_id":76561199353185652,"connected_time":151000000000,"state":"active","ping":137},{"user_id":21,"name":"whatisupdoq","steam_id":76561199057743412,"connected_time":24000000000,"state":"active","ping":122},{"user_id":13,"name":"dust | she/it","steam_id":76561198045218909,"connected_time":2288000000000,"state":"active","ping":59},{"user_id":12,"name":"Borgor Boi","steam_id":76561199061388107,"connected_time":2900000000000,"state":"active","ping":66},{"user_id":18,"name":"Ass Blaster, Disaster Master","steam_id":76561197997774469,"connected_time":799000000000,"state":"active","ping":36}]},{"server_id":112,"name":"Uncletopia | Los Angeles | 2 | All Maps","name_short":"lax-2","host":"lax-1.us.uncletopia.com","port":27025,"enabled":true,"region":"us-west","cc":"us","latitude":33.94279,"longitude":-118.41004,"reserved":0,"last_update":"0001-01-01T00:00:00Z","name_a2s":"Uncletopia | Los Angeles | 2 | All Maps","protocol":17,"map":"pl_badwater","folder":"tf","game":"Team Fortress","app_id":440,"player_count":0,"max_players":24,"Bots":0,"server_type":"Dedicated","server_os":"Linux","password":true,"vac":true,"version":"7961495","steam_id":85568392924469992,"keywords":["nocrits","nodmgspread","payload","uncletopia"],"game_id":440,"stv_port":27026,"stv_name":"Uncletopia | Los Angeles | 2 | All Maps | STV","players":null},{"server_id":324,"name":"Uncletopia | Los Angeles | 3 | All Maps","name_short":"lax-3","host":"lax-1.us.uncletopia.com","port":27035,"enabled":true,"region":"us-west","cc":"us","latitude":33.94279,"longitude":-118.41004,"reserved":0,"last_update":"0001-01-01T00:00:00Z","name_a2s":"Uncletopia | Los Angeles | 3 | All Maps","protocol":17,"map":"pl_pier","folder":"tf","game":"Team Fortress","app_id":440,"player_count":24,"max_players":24,"Bots":0,"server_type":"Dedicated","server_os":"Linux","password":true,"vac":true,"version":"7961495","steam_id":85568392924510198,"keywords":["nocrits","nodmgspread","payload","uncletopia"],"game_id":440,"stv_port":27036,"stv_name":"Uncletopia | Los Angeles | 3 | All Maps | STV","players":[{"user_id":199,"name":"some nerd","steam_id":76561198297272878,"connected_time":609000000000,"state":"active","ping":45},{"user_id":203,"name":"Yori77","steam_id":76561198982852232,"connected_time":275000000000,"state":"active","ping":117},{"user_id":206,"name":"Phat Bakey","steam_id":76561199048082940,"connected_time":114000000000,"state":"active","ping":84},{"user_id":204,"name":"Rain","steam_id":76561198032318897,"connected_time":267000000000,"state":"active","ping":67},{"user_id":179,"name":"Sleuth","steam_id":76561198418288939,"connected_time":2320000000000,"state":"active","ping":76},{"user_id":161,"name":"Superskill","steam_id":76561198246266134,"connected_time":4275000000000,"state":"active","ping":48},{"user_id":196,"name":"cass","steam_id":76561198074502046,"connected_time":1026000000000,"state":"active","ping":133},{"user_id":164,"name":"Denzel McFlurry","steam_id":76561199231296521,"connected_time":3882000000000,"state":"active","ping":110},{"user_id":200,"name":"meme","steam_id":76561199170771700,"connected_time":574000000000,"state":"active","ping":59},{"user_id":141,"name":"souVern","steam_id":76561198046940771,"connected_time":5998000000000,"state":"active","ping":103},{"user_id":98,"name":"Sahalanthro","steam_id":76561199073298722,"connected_time":9621000000000,"state":"active","ping":48},{"user_id":207,"name":"Loli Yuri (Real)","steam_id":76561198798176670,"connected_time":84000000000,"state":"active","ping":105},{"user_id":166,"name":"Rainy Devil","steam_id":76561198252490200,"connected_time":3259000000000,"state":"active","ping":60},{"user_id":205,"name":"musky :3","steam_id":76561198105374054,"connected_time":202000000000,"state":"active","ping":61},{"user_id":198,"name":"ElephantHydrogen4277882","steam_id":76561198175741741,"connected_time":1016000000000,"state":"active","ping":110},{"user_id":194,"name":"DistantJragon","steam_id":76561198117563641,"connected_time":1151000000000,"state":"active","ping":102},{"user_id":174,"name":"VixianUwU","steam_id":76561198948815060,"connected_time":2972000000000,"state":"active","ping":83},{"user_id":133,"name":"Weakforanimebitches","steam_id":76561198217663016,"connected_time":6799000000000,"state":"active","ping":53},{"user_id":34,"name":"DragonJimmy","steam_id":76561198272966565,"connected_time":13682000000000,"state":"active","ping":86},{"user_id":201,"name":"CoconutGun42069","steam_id":76561199116912878,"connected_time":553000000000,"state":"active","ping":81},{"user_id":202,"name":"459d","steam_id":76561198336142389,"connected_time":342000000000,"state":"active","ping":118},{"user_id":183,"name":"pink knite","steam_id":76561198311543042,"connected_time":2050000000000,"state":"active","ping":48},{"user_id":187,"name":"Momus","steam_id":76561198799951902,"connected_time":1916000000000,"state":"active","ping":118},{"user_id":135,"name":"Sgt. Eclair","steam_id":76561198156384194,"connected_time":6739000000000,"state":"active","ping":52}]},{"server_id":25,"name":"Uncletopia | Los Angeles | 4 | Stopwatch Beta","name_short":"lax-4","host":"lax-1.us.uncletopia.com","port":27045,"enabled":true,"region":"us-west","cc":"us","latitude":33.94279,"longitude":-118.41004,"reserved":0,"last_update":"0001-01-01T00:00:00Z","name_a2s":"Uncletopia | Los Angeles | 4 | Stopwatch Beta","protocol":17,"map":"pl_swiftwater_final1","folder":"tf","game":"Team Fortress","app_id":440,"player_count":0,"max_players":24,"Bots":0,"server_type":"Dedicated","server_os":"Linux","password":true,"vac":true,"version":"7961495","steam_id":85568392924510199,"keywords":["nocrits","nodmgspread","payload","uncletopia"],"game_id":440,"stv_port":27046,"stv_name":"Uncletopia | Los Angeles | 4 | Stopwatch Beta | STV","players":null},{"server_id":11,"name":"Uncletopia | London | 1 | All Maps","name_short":"lon-1","host":"lon-1.uk.uncletopia.com","port":27015,"enabled":true,"region":"eu","cc":"gb","latitude":51.509865,"longitude":-0.118092,"reserved":0,"last_update":"0001-01-01T00:00:00Z","name_a2s":"Uncletopia | London | 1 | All Maps","protocol":17,"map":"cp_altitude","folder":"tf","game":"Team Fortress","app_id":440,"player_count":23,"max_players":24,"Bots":0,"server_type":"Dedicated","server_os":"Linux","password":true,"vac":true,"version":"7961495","steam_id":85568392924367362,"keywords":["cp","nocrits","nodmgspread","uncletopia"],"game_id":440,"stv_port":27016,"stv_name":"Uncletopia | London | 1 | All Maps | STV","players":[{"user_id":777,"name":"The indomitable human spirit","steam_id":76561198368339225,"connected_time":1338000000000,"state":"active","ping":119},{"user_id":791,"name":"MargoulGetron","steam_id":76561198020551698,"connected_time":844000000000,"state":"active","ping":55},{"user_id":773,"name":"Rai_to","steam_id":76561199013720618,"connected_time":1656000000000,"state":"active","ping":88},{"user_id":792,"name":"ironreign","steam_id":76561198306252845,"connected_time":785000000000,"state":"active","ping":104},{"user_id":790,"name":"Slifer the GiantEnemy SkyDragon","steam_id":76561198062255803,"connected_time":864000000000,"state":"active","ping":74},{"user_id":734,"name":"Snake-chan","steam_id":76561199044755854,"connected_time":4315000000000,"state":"active","ping":72},{"user_id":774,"name":"Stan √Ålvarez (Satan)","steam_id":76561198045538223,"connected_time":1519000000000,"state":"active","ping":51},{"user_id":786,"name":"ein","steam_id":76561198152162834,"connected_time":1125000000000,"state":"active","ping":104},{"user_id":796,"name":"Anri Okita's Massive Milkers","steam_id":76561199186352720,"connected_time":276000000000,"state":"active","ping":48},{"user_id":797,"name":"Vince","steam_id":76561199103000131,"connected_time":274000000000,"state":"active","ping":42},{"user_id":765,"name":"Snd","steam_id":76561198010816408,"connected_time":2680000000000,"state":"active","ping":93},{"user_id":794,"name":"Dolcelatte","steam_id":76561198038501770,"connected_time":337000000000,"state":"active","ping":60},{"user_id":781,"name":"Qwerty","steam_id":76561198023525894,"connected_time":1270000000000,"state":"active","ping":89},{"user_id":784,"name":"Fiddlah","steam_id":76561198077916925,"connected_time":1161000000000,"state":"active","ping":40},{"user_id":800,"name":"Aaron","steam_id":76561197990046953,"connected_time":182000000000,"state":"active","ping":56},{"user_id":769,"name":"Momovsky","steam_id":76561198005738407,"connected_time":2249000000000,"state":"active","ping":90},{"user_id":787,"name":"Noam","steam_id":76561198057789807,"connected_time":1104000000000,"state":"active","ping":90},{"user_id":798,"name":"Pintarolas","steam_id":76561198124839451,"connected_time":241000000000,"state":"active","ping":112},{"user_id":801,"name":"Sandvich","steam_id":76561199079493666,"connected_time":111000000000,"state":"active","ping":100},{"user_id":732,"name":"max","steam_id":76561198039534890,"connected_time":4833000000000,"state":"active","ping":61},{"user_id":788,"name":"Sydbiote","steam_id":76561198377055815,"connected_time":1103000000000,"state":"active","ping":72},{"user_id":685,"name":"Nessieling","steam_id":76561198083556891,"connected_time":7866000000000,"state":"active","ping":97},{"user_id":795,"name":"harper","steam_id":76561198188642265,"connected_time":317000000000,"state":"active","ping":54}]},{"server_id":114,"name":"Uncletopia | London | 2 | All Maps","name_short":"lon-2","host":"lon-1.uk.uncletopia.com","port":27025,"enabled":true,"region":"eu","cc":"gb","latitude":51.509865,"longitude":-0.118092,"reserved":0,"last_update":"0001-01-01T00:00:00Z","name_a2s":"Uncletopia | London | 2 | All Maps","protocol":17,"map":"cp_process_final","folder":"tf","game":"Team Fortress","app_id":440,"player_count":23,"max_players":24,"Bots":0,"server_type":"Dedicated","server_os":"Linux","password":true,"vac":true,"version":"7961495","steam_id":85568392924470941,"keywords":["cp","nocrits","nodmgspread","uncletopia"],"game_id":440,"stv_port":27026,"stv_name":"Uncletopia | London | 2 | All Maps | STV","players":[{"user_id":202,"name":"Carbon Monoxide Detector","steam_id":76561198055608801,"connected_time":12061000000000,"state":"active","ping":66},{"user_id":258,"name":"squib","steam_id":76561198049170360,"connected_time":6696000000000,"state":"active","ping":43},{"user_id":295,"name":"Bajas","steam_id":76561198179339326,"connected_time":2351000000000,"state":"active","ping":84},{"user_id":274,"name":"Fobiwa","steam_id":76561198081968812,"connected_time":4348000000000,"state":"active","ping":85},{"user_id":247,"name":"gayboi farti","steam_id":76561199121999431,"connected_time":7813000000000,"state":"active","ping":40},{"user_id":259,"name":"Toxic_Cicity","steam_id":76561198165753440,"connected_time":6625000000000,"state":"active","ping":100},{"user_id":314,"name":"Fran","steam_id":76561199070516960,"connected_time":887000000000,"state":"active","ping":70},{"user_id":319,"name":"FamilyMan","steam_id":76561198064115286,"connected_time":627000000000,"state":"active","ping":66},{"user_id":307,"name":"Hok","steam_id":76561198354431918,"connected_time":1427000000000,"state":"active","ping":47},{"user_id":299,"name":"TheNerdman","steam_id":76561198097576111,"connected_time":2052000000000,"state":"active","ping":65},{"user_id":322,"name":"Lyra","steam_id":76561198043601838,"connected_time":86000000000,"state":"active","ping":60},{"user_id":312,"name":"Joe","steam_id":76561198061717026,"connected_time":994000000000,"state":"active","ping":45},{"user_id":290,"name":"Buzz Chudson, MD","steam_id":76561198040565889,"connected_time":3120000000000,"state":"active","ping":164},{"user_id":321,"name":"VibeCat22","steam_id":76561199248330295,"connected_time":410000000000,"state":"active","ping":55},{"user_id":285,"name":"Vershal Smershal","steam_id":76561198116223995,"connected_time":3320000000000,"state":"active","ping":59},{"user_id":304,"name":"MR.CRAB","steam_id":76561198329833659,"connected_time":1662000000000,"state":"active","ping":78},{"user_id":309,"name":"ddchdrn","steam_id":76561198024358566,"connected_time":1340000000000,"state":"active","ping":60},{"user_id":292,"name":"Papa_dump","steam_id":76561199048394261,"connected_time":3069000000000,"state":"active","ping":156},{"user_id":317,"name":"etc","steam_id":76561197998394797,"connected_time":822000000000,"state":"active","ping":56},{"user_id":296,"name":"yup that extream78711","steam_id":76561198106049954,"connected_time":2255000000000,"state":"active","ping":148},{"user_id":318,"name":"Chromatic","steam_id":76561198355976286,"connected_time":817000000000,"state":"active","ping":131},{"user_id":310,"name":"Cosmic Gamer","steam_id":76561198027357981,"connected_time":1324000000000,"state":"active","ping":106},{"user_id":297,"name":"cactus_octoling","steam_id":76561198837919828,"connected_time":2173000000000,"state":"active","ping":105}]},{"server_id":320,"name":"Uncletopia | London | 3 | All Maps","name_short":"lon-3","host":"lon-1.uk.uncletopia.com","port":27035,"enabled":true,"region":"eu","cc":"gb","latitude":51.509865,"longitude":-0.118092,"reserved":0,"last_update":"0001-01-01T00:00:00Z","name_a2s":"Uncletopia | London | 3 | All Maps","protocol":17,"map":"pl_borneo","folder":"tf","game":"Team Fortress","app_id":440,"player_count":24,"max_players":24,"Bots":0,"server_type":"Dedicated","server_os":"Linux","password":true,"vac":true,"version":"7961495","steam_id":85568392924510192,"keywords":["nocrits","nodmgspread","payload","uncletopia"],"game_id":440,"stv_port":27036,"stv_name":"Uncletopia | London | 3 | All Maps | STV","players":[{"user_id":132,"name":"Diver","steam_id":76561197971087141,"connected_time":61000000000,"state":"active","ping":68},{"user_id":111,"name":"gx71","steam_id":76561198035112358,"connected_time":921000000000,"state":"active","ping":45},{"user_id":125,"name":"Average meme enjoyer","steam_id":76561199087566663,"connected_time":162000000000,"state":"active","ping":88},{"user_id":112,"name":"stinko","steam_id":76561198358856044,"connected_time":905000000000,"state":"active","ping":46},{"user_id":113,"name":"CODSWOLOP","steam_id":76561199114598660,"connected_time":883000000000,"state":"active","ping":143},{"user_id":63,"name":"yush","steam_id":76561198121688934,"connected_time":3960000000000,"state":"active","ping":70},{"user_id":114,"name":"fluffs","steam_id":76561198436106996,"connected_time":766000000000,"state":"active","ping":50},{"user_id":115,"name":"Adam","steam_id":76561198259467867,"connected_time":749000000000,"state":"active","ping":95},{"user_id":126,"name":"Gemini zyx","steam_id":76561198072803211,"connected_time":130000000000,"state":"active","ping":54},{"user_id":116,"name":"bad_egg","steam_id":76561198870666753,"connected_time":744000000000,"state":"active","ping":81},{"user_id":133,"name":"Nakisan","steam_id":76561198237652106,"connected_time":47000000000,"state":"active","ping":61},{"user_id":123,"name":"Lessoz","steam_id":76561199211572036,"connected_time":537000000000,"state":"active","ping":88},{"user_id":56,"name":"quickfast","steam_id":76561199438900919,"connected_time":4369000000000,"state":"active","ping":43},{"user_id":127,"name":"Erithial","steam_id":76561198182904167,"connected_time":128000000000,"state":"active","ping":53},{"user_id":118,"name":"Weegad Wobus","steam_id":76561199429562693,"connected_time":723000000000,"state":"active","ping":75},{"user_id":104,"name":"Blar","steam_id":76561198042438229,"connected_time":1597000000000,"state":"active","ping":58},{"user_id":124,"name":"._.","steam_id":76561198300316801,"connected_time":461000000000,"state":"active","ping":105},{"user_id":120,"name":"FROG","steam_id":76561198813192630,"connected_time":709000000000,"state":"active","ping":46},{"user_id":128,"name":"give_bepis","steam_id":76561198012749888,"connected_time":123000000000,"state":"active","ping":57},{"user_id":129,"name":"Rocket To Insanity","steam_id":76561197998166266,"connected_time":122000000000,"state":"active","ping":129},{"user_id":121,"name":"Kenny_killer_69","steam_id":76561199465207725,"connected_time":703000000000,"state":"active","ping":70},{"user_id":130,"name":"neet","steam_id":76561197968115168,"connected_time":121000000000,"state":"active","ping":115},{"user_id":131,"name":"Dizzy","steam_id":76561198010192462,"connected_time":112000000000,"state":"active","ping":60},{"user_id":92,"name":"burgz","steam_id":76561198109955787,"connected_time":2357000000000,"state":"active","ping":59}]},{"server_id":321,"name":"Uncletopia | London | 4 | All Maps","name_short":"lon-4","host":"lon-1.uk.uncletopia.com","port":27045,"enabled":true,"region":"eu","cc":"gb","latitude":51.509865,"longitude":-0.118092,"reserved":0,"last_update":"0001-01-01T00:00:00Z","name_a2s":"Uncletopia | London | 4 | All Maps","protocol":17,"map":"pl_badwater","folder":"tf","game":"Team Fortress","app_id":440,"player_count":25,"max_players":24,"Bots":0,"server_type":"Dedicated","server_os":"Linux","password":true,"vac":true,"version":"7961495","steam_id":85568392924510193,"keywords":["nocrits","nodmgspread","payload","uncletopia"],"game_id":440,"stv_port":27046,"stv_name":"Uncletopia | London | 4 | All Maps | STV","players":[{"user_id":320,"name":"Koli","steam_id":76561197992428783,"connected_time":688000000000,"state":"active","ping":61},{"user_id":333,"name":"the scringly dingly","steam_id":76561198192179174,"connected_time":344000000000,"state":"active","ping":119},{"user_id":336,"name":"IgorVitoriev","steam_id":76561198075723591,"connected_time":299000000000,"state":"active","ping":71},{"user_id":342,"name":"draingangfan0465069500","steam_id":76561198219945364,"connected_time":205000000000,"state":"active","ping":83},{"user_id":330,"name":"ButterThatMelts","steam_id":76561198043928185,"connected_time":454000000000,"state":"active","ping":58},{"user_id":323,"name":"Lyrista","steam_id":76561198136435129,"connected_time":664000000000,"state":"active","ping":69},{"user_id":344,"name":"Paper","steam_id":76561199037749675,"connected_time":112000000000,"state":"active","ping":26},{"user_id":290,"name":"0xDEADBEEF","steam_id":76561199075416111,"connected_time":2919000000000,"state":"active","ping":68},{"user_id":234,"name":"Quiet Kid","steam_id":76561199134800446,"connected_time":6615000000000,"state":"active","ping":103},{"user_id":337,"name":"Hypergonadism","steam_id":76561198294895726,"connected_time":296000000000,"state":"active","ping":65},{"user_id":309,"name":"TheLawYGO","steam_id":76561198024347260,"connected_time":1295000000000,"state":"active","ping":124},{"user_id":268,"name":"coella","steam_id":76561198442803577,"connected_time":4335000000000,"state":"active","ping":73},{"user_id":238,"name":":)","steam_id":76561198039964082,"connected_time":6502000000000,"state":"active","ping":62},{"user_id":316,"name":"=SKINNY PENIS=","steam_id":76561198923721645,"connected_time":797000000000,"state":"active","ping":108},{"user_id":237,"name":":3","steam_id":76561198169471853,"connected_time":6555000000000,"state":"active","ping":44},{"user_id":279,"name":"Egor Pomidor","steam_id":76561199175688390,"connected_time":3257000000000,"state":"active","ping":84},{"user_id":297,"name":"Yoss","steam_id":76561198013655572,"connected_time":2414000000000,"state":"active","ping":39},{"user_id":335,"name":"7 7","steam_id":76561198190663138,"connected_time":312000000000,"state":"active","ping":95},{"user_id":338,"name":"autistic luigi","steam_id":76561199218285040,"connected_time":287000000000,"state":"connecting","ping":0},{"user_id":329,"name":"spurdala","steam_id":76561198886546942,"connected_time":485000000000,"state":"active","ping":59},{"user_id":343,"name":"Jyghc","steam_id":76561198405980575,"connected_time":168000000000,"state":"active","ping":71},{"user_id":274,"name":"TheEventGuy","steam_id":76561197972797744,"connected_time":3723000000000,"state":"active","ping":76},{"user_id":261,"name":"Play slowly, pls","steam_id":76561198006463587,"connected_time":4751000000000,"state":"active","ping":159},{"user_id":319,"name":"rwota","steam_id":76561198385769722,"connected_time":722000000000,"state":"active","ping":107},{"user_id":254,"name":"Boki","steam_id":76561198044553351,"connected_time":5200000000000,"state":"active","ping":75}]},{"server_id":21,"name":"Uncletopia | London | 5 | All Maps","name_short":"lon-5","host":"lon-1.uk.uncletopia.com","port":27055,"enabled":true,"region":"eu","cc":"gb","latitude":51.509865,"longitude":-0.118092,"reserved":0,"last_update":"0001-01-01T00:00:00Z","name_a2s":"Uncletopia | London | 5 | All Maps","protocol":17,"map":"pl_swiftwater_final1","folder":"tf","game":"Team Fortress","app_id":440,"player_count":24,"max_players":24,"Bots":0,"server_type":"Dedicated","server_os":"Linux","password":true,"vac":true,"version":"7961495","steam_id":85568392924742829,"keywords":["nocrits","nodmgspread","payload","uncletopia"],"game_id":440,"stv_port":27056,"stv_name":"Uncletopia | London | 5 | All Maps | STV","players":[{"user_id":150,"name":"navy_turtle","steam_id":76561198072929061,"connected_time":2612000000000,"state":"active","ping":69},{"user_id":178,"name":"Urfangonultasadana","steam_id":76561199389286151,"connected_time":1326000000000,"state":"active","ping":100},{"user_id":174,"name":"Bruschetta","steam_id":76561198251927162,"connected_time":1591000000000,"state":"active","ping":71},{"user_id":179,"name":"marty","steam_id":76561198082934864,"connected_time":1321000000000,"state":"active","ping":69},{"user_id":198,"name":"Brinier","steam_id":76561199012604288,"connected_time":84000000000,"state":"active","ping":72},{"user_id":151,"name":"Donac Dum","steam_id":76561198064089294,"connected_time":2610000000000,"state":"active","ping":53},{"user_id":180,"name":"YunikkoN","steam_id":76561198211962412,"connected_time":1317000000000,"state":"active","ping":96},{"user_id":170,"name":"FloatingEmpire3","steam_id":76561198809514696,"connected_time":1868000000000,"state":"active","ping":68},{"user_id":197,"name":"ChebJeb","steam_id":76561198981377081,"connected_time":360000000000,"state":"active","ping":140},{"user_id":189,"name":"Woad Raider","steam_id":76561198215485788,"connected_time":851000000000,"state":"active","ping":83},{"user_id":182,"name":"Rodia","steam_id":76561197968293161,"connected_time":1279000000000,"state":"active","ping":75},{"user_id":183,"name":"Kal","steam_id":76561198006148792,"connected_time":1242000000000,"state":"active","ping":118},{"user_id":156,"name":"E. Norma Stits","steam_id":76561198285017119,"connected_time":2563000000000,"state":"active","ping":71},{"user_id":195,"name":"koham macieja stuhra","steam_id":76561198228941832,"connected_time":456000000000,"state":"active","ping":98},{"user_id":165,"name":"spy main 69420","steam_id":76561199437330739,"connected_time":2076000000000,"state":"active","ping":64},{"user_id":188,"name":"OceanCow","steam_id":76561198343428913,"connected_time":1051000000000,"state":"active","ping":59},{"user_id":191,"name":"lunaire","steam_id":76561198163344452,"connected_time":616000000000,"state":"active","ping":89},{"user_id":193,"name":"Nady","steam_id":76561197987691269,"connected_time":596000000000,"state":"active","ping":75},{"user_id":160,"name":"William Afton","steam_id":76561198891551659,"connected_time":2507000000000,"state":"active","ping":42},{"user_id":185,"name":"xLeoparrd","steam_id":76561198940657194,"connected_time":1231000000000,"state":"active","ping":149},{"user_id":186,"name":"1914","steam_id":76561198257383813,"connected_time":1199000000000,"state":"active","ping":57},{"user_id":161,"name":"Pass the Bechdel Testicles","steam_id":76561198079433535,"connected_time":2506000000000,"state":"active","ping":48},{"user_id":140,"name":"Ayso","steam_id":76561198217849952,"connected_time":4128000000000,"state":"active","ping":47},{"user_id":171,"name":"fence_","steam_id":76561198150386379,"connected_time":1837000000000,"state":"active","ping":45}]},{"server_id":22,"name":"Uncletopia | London | 6 | All Maps","name_short":"lon-6","host":"lon-1.uk.uncletopia.com","port":27065,"enabled":true,"region":"eu","cc":"gb","latitude":51.509865,"longitude":-0.118092,"reserved":0,"last_update":"0001-01-01T00:00:00Z","name_a2s":"Uncletopia | London | 6 | All Maps","protocol":17,"map":"pl_barnblitz","folder":"tf","game":"Team Fortress","app_id":440,"player_count":24,"max_players":24,"Bots":0,"server_type":"Dedicated","server_os":"Linux","password":true,"vac":true,"version":"7961495","steam_id":85568392924742830,"keywords":["nocrits","nodmgspread","payload","uncletopia"],"game_id":440,"stv_port":27066,"stv_name":"Uncletopia | London | 6 | All Maps | STV","players":[{"user_id":224,"name":"sgtpokey","steam_id":76561198007472160,"connected_time":2467000000000,"state":"active","ping":51},{"user_id":213,"name":"Forklift Certified","steam_id":76561198001816577,"connected_time":3138000000000,"state":"active","ping":86},{"user_id":219,"name":"Drosan „ÉÑ","steam_id":76561197960389216,"connected_time":2824000000000,"state":"active","ping":49},{"user_id":241,"name":"starlightartist","steam_id":76561198050608456,"connected_time":1620000000000,"state":"active","ping":52},{"user_id":243,"name":"Genesis","steam_id":76561198999652040,"connected_time":1053000000000,"state":"active","ping":55},{"user_id":231,"name":"ConTheCon","steam_id":76561198877684106,"connected_time":2036000000000,"state":"active","ping":80},{"user_id":211,"name":"Can I get a Beep Beep","steam_id":76561198010730967,"connected_time":3241000000000,"state":"active","ping":67},{"user_id":196,"name":"modavak","steam_id":76561198946290908,"connected_time":4527000000000,"state":"active","ping":102},{"user_id":220,"name":"fernandobmwm355555","steam_id":76561198086609447,"connected_time":2801000000000,"state":"active","ping":60},{"user_id":228,"name":"Bottle O' Scrumpy","steam_id":76561199244250562,"connected_time":2179000000000,"state":"active","ping":106},{"user_id":250,"name":"666sammy","steam_id":76561198016607625,"connected_time":171000000000,"state":"active","ping":75},{"user_id":226,"name":"worm with a fat ass","steam_id":76561198170026338,"connected_time":2390000000000,"state":"active","ping":74},{"user_id":130,"name":"Owlet","steam_id":76561198065613974,"connected_time":10053000000000,"state":"active","ping":66},{"user_id":248,"name":"Toni Pepperoni","steam_id":76561198814211030,"connected_time":605000000000,"state":"active","ping":119},{"user_id":223,"name":"dEzZe „ÉÑ","steam_id":76561197960291106,"connected_time":2642000000000,"state":"active","ping":60},{"user_id":133,"name":"Rodak","steam_id":76561199135986344,"connected_time":9983000000000,"state":"active","ping":69},{"user_id":245,"name":"AngelArtist","steam_id":76561198384883483,"connected_time":960000000000,"state":"active","ping":148},{"user_id":235,"name":"BeRicedBack","steam_id":76561198064234501,"connected_time":1898000000000,"state":"active","ping":43},{"user_id":203,"name":"Hetmanych","steam_id":76561198870926865,"connected_time":3722000000000,"state":"active","ping":41},{"user_id":232,"name":"Popop","steam_id":76561198004793795,"connected_time":2003000000000,"state":"active","ping":46},{"user_id":236,"name":"Ch4bby","steam_id":76561198058792875,"connected_time":1881000000000,"state":"active","ping":60},{"user_id":249,"name":"AlexLordFire","steam_id":76561198328609815,"connected_time":332000000000,"state":"active","ping":76},{"user_id":246,"name":"georgeiscool3","steam_id":76561199116151412,"connected_time":947000000000,"state":"active","ping":72},{"user_id":247,"name":"Unstable Goat","steam_id":76561197985788557,"connected_time":892000000000,"state":"active","ping":89}]},{"server_id":40,"name":"Uncletopia | London | 7 | No Payload","name_short":"lon-7","host":"lon-1.uk.uncletopia.com","port":27075,"enabled":true,"region":"eu","cc":"gb","latitude":51.509865,"longitude":-0.118092,"reserved":0,"last_update":"0001-01-01T00:00:00Z","name_a2s":"Uncletopia | London | 7 | No Payload","protocol":17,"map":"koth_lazarus","folder":"tf","game":"Team Fortress","app_id":440,"player_count":20,"max_players":24,"Bots":0,"server_type":"Dedicated","server_os":"Linux","password":true,"vac":true,"version":"7961495","steam_id":85568392924964314,"keywords":["cp","nocrits","nodmgspread","uncletopia"],"game_id":440,"stv_port":27076,"stv_name":"Uncletopia | London | 7 | No Payload | STV","players":[{"user_id":210,"name":"jjkun786","steam_id":76561199438517484,"connected_time":269000000000,"state":"active","ping":75},{"user_id":209,"name":"Fus in Boots","steam_id":76561198053897722,"connected_time":355000000000,"state":"active","ping":57},{"user_id":211,"name":"W","steam_id":76561198087540962,"connected_time":232000000000,"state":"active","ping":61},{"user_id":199,"name":"Faxter","steam_id":76561198011771605,"connected_time":1507000000000,"state":"active","ping":64},{"user_id":213,"name":"fischman","steam_id":76561199064142670,"connected_time":213000000000,"state":"active","ping":66},{"user_id":165,"name":"Vilhelm","steam_id":76561198157521187,"connected_time":3658000000000,"state":"active","ping":88},{"user_id":214,"name":"mountainkug","steam_id":76561199491802535,"connected_time":198000000000,"state":"active","ping":139},{"user_id":215,"name":"Shark","steam_id":76561198205226501,"connected_time":150000000000,"state":"active","ping":167},{"user_id":216,"name":"Na'vi Misato (by popular demand","steam_id":76561198130860698,"connected_time":147000000000,"state":"active","ping":61},{"user_id":166,"name":"Kenny","steam_id":76561198070731150,"connected_time":3644000000000,"state":"active","ping":88},{"user_id":217,"name":"Faraday's Law","steam_id":76561198105385977,"connected_time":134000000000,"state":"active","ping":72},{"user_id":195,"name":"Big Al","steam_id":76561198079585198,"connected_time":1639000000000,"state":"active","ping":53},{"user_id":196,"name":"gabagool","steam_id":76561198307111838,"connected_time":1636000000000,"state":"active","ping":42},{"user_id":218,"name":"Gruvy","steam_id":76561198406436069,"connected_time":98000000000,"state":"active","ping":48},{"user_id":219,"name":"Getrkod","steam_id":76561198986560793,"connected_time":74000000000,"state":"spawning","ping":44},{"user_id":151,"name":"debil","steam_id":76561198160047415,"connected_time":4328000000000,"state":"active","ping":71},{"user_id":220,"name":"i am trash man","steam_id":76561198079524152,"connected_time":35000000000,"state":"active","ping":61},{"user_id":181,"name":"Medical Approval","steam_id":76561198028354201,"connected_time":2585000000000,"state":"active","ping":60},{"user_id":131,"name":"wes","steam_id":76561198067000117,"connected_time":5689000000000,"state":"active","ping":70},{"user_id":167,"name":"Larry","steam_id":76561198051333590,"connected_time":3642000000000,"state":"active","ping":107}]},{"server_id":41,"name":"Uncletopia | London | 8 | Community","name_short":"lon-8","host":"lon-1.uk.uncletopia.com","port":27085,"enabled":true,"region":"eu","cc":"gb","latitude":51.509865,"longitude":-0.118092,"reserved":0,"last_update":"0001-01-01T00:00:00Z","name_a2s":"Uncletopia | London | 8 | Community","protocol":17,"map":"workshop/koth_product_final.ugc454272353","folder":"tf","game":"Team Fortress","app_id":440,"player_count":0,"max_players":24,"Bots":0,"server_type":"Dedicated","server_os":"Linux","password":true,"vac":true,"version":"7961495","steam_id":85568392924964315,"keywords":["cp","nocrits","nodmgspread","uncletopia"],"game_id":440,"stv_port":27086,"stv_name":"Uncletopia | London | 8 | Community | STV","players":null},{"server_id":300,"name":"Uncletopia | Montr√©al | 1 | All Maps","name_short":"mtl-1","host":"mtl-1.ca.uncletopia.com","port":27015,"enabled":true,"region":"us-east","cc":"ca","latitude":45.50889,"longitude":-73.56167,"reserved":0,"last_update":"0001-01-01T00:00:00Z","name_a2s":"","protocol":0,"map":"","folder":"","game":"","app_id":0,"player_count":0,"max_players":0,"Bots":0,"server_type":"","server_os":"","password":false,"vac":false,"version":"","steam_id":0,"keywords":null,"game_id":0,"stv_port":0,"stv_name":"","players":null},{"server_id":301,"name":"Uncletopia | Montr√©al | 2 | All Maps","name_short":"mtl-2","host":"mtl-1.ca.uncletopia.com","port":27025,"enabled":true,"region":"us-east","cc":"ca","latitude":45.50889,"longitude":-73.56167,"reserved":0,"last_update":"0001-01-01T00:00:00Z","name_a2s":"","protocol":0,"map":"","folder":"","game":"","app_id":0,"player_count":0,"max_players":0,"Bots":0,"server_type":"","server_os":"","password":false,"vac":false,"version":"","steam_id":0,"keywords":null,"game_id":0,"stv_port":0,"stv_name":"","players":null},{"server_id":302,"name":"Uncletopia | Montr√©al | 3 | All Maps","name_short":"mtl-3","host":"mtl-1.ca.uncletopia.com","port":27035,"enabled":true,"region":"us-east","cc":"ca","latitude":45.50889,"longitude":-73.56167,"reserved":0,"last_update":"0001-01-01T00:00:00Z","name_a2s":"","protocol":0,"map":"","folder":"","game":"","app_id":0,"player_count":0,"max_players":0,"Bots":0,"server_type":"","server_os":"","password":false,"vac":false,"version":"","steam_id":0,"keywords":null,"game_id":0,"stv_port":0,"stv_name":"","players":null},{"server_id":303,"name":"Uncletopia | Montr√©al | 4 | No Payload","name_short":"mtl-4","host":"mtl-1.ca.uncletopia.com","port":27045,"enabled":true,"region":"us-east","cc":"ca","latitude":45.50889,"longitude":-73.56167,"reserved":0,"last_update":"0001-01-01T00:00:00Z","name_a2s":"","protocol":0,"map":"","folder":"","game":"","app_id":0,"player_count":0,"max_players":0,"Bots":0,"server_type":"","server_os":"","password":false,"vac":false,"version":"","steam_id":0,"keywords":null,"game_id":0,"stv_port":0,"stv_name":"","players":null},{"server_id":13,"name":"Uncletopia | New York City | 1 | All Maps","name_short":"nyc-1","host":"nyc-1.us.uncletopia.com","port":27015,"enabled":true,"region":"us-east","cc":"us","latitude":40.73061,"longitude":-73.93524,"reserved":0,"last_update":"0001-01-01T00:00:00Z","name_a2s":"Uncletopia | New York City | 1 | All Maps","protocol":17,"map":"pl_swiftwater_final1","folder":"tf","game":"Team Fortress","app_id":440,"player_count":24,"max_players":24,"Bots":0,"server_type":"Dedicated","server_os":"Linux","password":true,"vac":true,"version":"7961495","steam_id":85568392924469993,"keywords":["nocrits","nodmgspread","payload","uncletopia"],"game_id":440,"stv_port":27016,"stv_name":"Uncletopia | New York City | 1 | All Maps | STV","players":[{"user_id":45,"name":"Bi Panic","steam_id":76561198426306122,"connected_time":7091000000000,"state":"active","ping":61},{"user_id":114,"name":"The Hose on Upward","steam_id":76561197965092192,"connected_time":3279000000000,"state":"active","ping":69},{"user_id":133,"name":"Speedy","steam_id":76561198080761661,"connected_time":1488000000000,"state":"active","ping":59},{"user_id":145,"name":"gucky","steam_id":76561198210951041,"connected_time":416000000000,"state":"active","ping":125},{"user_id":141,"name":"epsilene","steam_id":76561198027468624,"connected_time":699000000000,"state":"active","ping":34},{"user_id":131,"name":"Bleat","steam_id":76561198138678917,"connected_time":1536000000000,"state":"active","ping":133},{"user_id":59,"name":"googa","steam_id":76561198133130452,"connected_time":6202000000000,"state":"active","ping":41},{"user_id":91,"name":"jailbreak","steam_id":76561198802085218,"connected_time":4005000000000,"state":"active","ping":98},{"user_id":136,"name":"Zeph","steam_id":76561198247377556,"connected_time":1060000000000,"state":"active","ping":88},{"user_id":147,"name":"dak","steam_id":76561198076596506,"connected_time":209000000000,"state":"active","ping":71},{"user_id":61,"name":"reddishscarf","steam_id":76561199084904694,"connected_time":5836000000000,"state":"active","ping":93},{"user_id":139,"name":"Mushmann","steam_id":76561199036634776,"connected_time":782000000000,"state":"active","ping":104},{"user_id":144,"name":"Let Œµ \u003e 0","steam_id":76561198111790388,"connected_time":537000000000,"state":"active","ping":102},{"user_id":142,"name":"Poi","steam_id":76561198176914898,"connected_time":681000000000,"state":"active","ping":91},{"user_id":138,"name":"SharpStabbyThing","steam_id":76561199059465912,"connected_time":895000000000,"state":"active","ping":93},{"user_id":146,"name":"OrangeShoes","steam_id":76561197971249940,"connected_time":227000000000,"state":"active","ping":94},{"user_id":120,"name":"Chezaus","steam_id":76561198317397837,"connected_time":2229000000000,"state":"active","ping":72},{"user_id":143,"name":"Pango","steam_id":76561198069811545,"connected_time":672000000000,"state":"active","ping":71},{"user_id":123,"name":"Chub","steam_id":76561198380637611,"connected_time":1990000000000,"state":"active","ping":94},{"user_id":130,"name":"Jonah Gaming","steam_id":76561198040969743,"connected_time":1541000000000,"state":"active","ping":72},{"user_id":115,"name":"Fish","steam_id":76561199258053772,"connected_time":3068000000000,"state":"active","ping":91},{"user_id":132,"name":"lightduck","steam_id":76561197987768292,"connected_time":1519000000000,"state":"active","ping":121},{"user_id":41,"name":"SpaceSanctum","steam_id":76561198805242305,"connected_time":7561000000000,"state":"active","ping":45},{"user_id":137,"name":"Stultus","steam_id":76561198115116367,"connected_time":1021000000000,"state":"active","ping":56}]},{"server_id":14,"name":"Uncletopia | New York City | 2 | All Maps","name_short":"nyc-2","host":"nyc-1.us.uncletopia.com","port":27025,"enabled":true,"region":"us-east","cc":"us","latitude":40.73061,"longitude":-73.93524,"reserved":0,"last_update":"0001-01-01T00:00:00Z","name_a2s":"Uncletopia | New York City | 2 | All Maps","protocol":17,"map":"koth_lakeside_final","folder":"tf","game":"Team Fortress","app_id":440,"player_count":0,"max_players":24,"Bots":0,"server_type":"Dedicated","server_os":"Linux","password":true,"vac":true,"version":"7961495","steam_id":85568392924469994,"keywords":["cp","nocrits","nodmgspread","uncletopia"],"game_id":440,"stv_port":27026,"stv_name":"Uncletopia | New York City | 2 | All Maps | STV","players":null},{"server_id":15,"name":"Uncletopia | New York City | 3 | Stopwatch Beta","name_short":"nyc-3","host":"nyc-1.us.uncletopia.com","port":27035,"enabled":true,"region":"us-east","cc":"us","latitude":40.73061,"longitude":-73.93524,"reserved":0,"last_update":"0001-01-01T00:00:00Z","name_a2s":"Uncletopia | New York City | 3 | Stopwatch Beta","protocol":17,"map":"pl_borneo","folder":"tf","game":"Team Fortress","app_id":440,"player_count":0,"max_players":24,"Bots":0,"server_type":"Dedicated","server_os":"Linux","password":true,"vac":true,"version":"7961495","steam_id":85568392924742820,"keywords":["nocrits","nodmgspread","payload","uncletopia"],"game_id":440,"stv_port":27036,"stv_name":"Uncletopia | New York City | 3 | Stopwatch Beta | STV","players":null},{"server_id":16,"name":"Uncletopia | New York City | 4 | Community","name_short":"nyc-4","host":"nyc-1.us.uncletopia.com","port":27045,"enabled":true,"region":"us-east","cc":"us","latitude":40.73061,"longitude":-73.93524,"reserved":0,"last_update":"0001-01-01T00:00:00Z","name_a2s":"Uncletopia | New York City | 4 | Community","protocol":17,"map":"workshop/koth_slaughter_rc1.ugc1712845210","folder":"tf","game":"Team Fortress","app_id":440,"player_count":0,"max_players":24,"Bots":0,"server_type":"Dedicated","server_os":"Linux","password":true,"vac":true,"version":"7961495","steam_id":85568392924742821,"keywords":["cp","nocrits","nodmgspread","uncletopia"],"game_id":440,"stv_port":27046,"stv_name":"Uncletopia | New York City | 4 | Community | STV","players":null},{"server_id":142,"name":"Uncletopia | S√£o Paulo | 1 | All Maps","name_short":"sao-1","host":"sao-1.br.uncletopia.com","port":27015,"enabled":true,"region":"sa","cc":"br","latitude":-23.533773,"longitude":-46.62529,"reserved":0,"last_update":"0001-01-01T00:00:00Z","name_a2s":"Uncletopia | S√£o Paulo | 1 | All Maps","protocol":17,"map":"cp_mountainlab","folder":"tf","game":"Team Fortress","app_id":440,"player_count":0,"max_players":24,"Bots":0,"server_type":"Dedicated","server_os":"Linux","password":true,"vac":true,"version":"7961495","steam_id":85568392924469996,"keywords":["cp","nocrits","nodmgspread","uncletopia"],"game_id":440,"stv_port":27016,"stv_name":"Uncletopia | S√£o Paulo | 1 | All Maps | STV","players":null},{"server_id":143,"name":"Uncletopia | S√£o Paulo | 2 | Community","name_short":"sao-2","host":"sao-2.br.uncletopia.com","port":27015,"enabled":true,"region":"sa","cc":"br","latitude":-23.533773,"longitude":-46.62529,"reserved":0,"last_update":"0001-01-01T00:00:00Z","name_a2s":"Uncletopia | S√£o Paulo | 2 | Community","protocol":17,"map":"workshop/cp_glassworks_rc6a.ugc454118349","folder":"tf","game":"Team Fortress","app_id":440,"player_count":0,"max_players":24,"Bots":0,"server_type":"Dedicated","server_os":"Linux","password":true,"vac":true,"version":"7961495","steam_id":85568392924485349,"keywords":["cp","nocrits","nodmgspread","uncletopia"],"game_id":440,"stv_port":27016,"stv_name":"Uncletopia | S√£o Paulo | 2 | Community | STV","players":null},{"server_id":7,"name":"Uncletopia | Seattle | 1 | All Maps","name_short":"sea-1","host":"sea-1.us.uncletopia.com","port":27015,"enabled":true,"region":"us-west","cc":"us","latitude":47.608013,"longitude":-122.33517,"reserved":0,"last_update":"0001-01-01T00:00:00Z","name_a2s":"Uncletopia | Seattle | 1 | All Maps","protocol":17,"map":"cp_dustbowl","folder":"tf","game":"Team Fortress","app_id":440,"player_count":0,"max_players":24,"Bots":0,"server_type":"Dedicated","server_os":"Linux","password":true,"vac":true,"version":"7961495","steam_id":85568392924469997,"keywords":["cp","nocrits","nodmgspread","uncletopia"],"game_id":440,"stv_port":27016,"stv_name":"Uncletopia | Seattle | 1 | All Maps | STV","players":null},{"server_id":119,"name":"Uncletopia | Seattle | 2 | All Maps","name_short":"sea-2","host":"sea-1.us.uncletopia.com","port":27025,"enabled":true,"region":"us-west","cc":"us","latitude":47.608013,"longitude":-122.33517,"reserved":0,"last_update":"0001-01-01T00:00:00Z","name_a2s":"Uncletopia | Seattle | 2 | All Maps","protocol":17,"map":"pl_badwater","folder":"tf","game":"Team Fortress","app_id":440,"player_count":0,"max_players":24,"Bots":0,"server_type":"Dedicated","server_os":"Linux","password":true,"vac":true,"version":"7961495","steam_id":85568392924469998,"keywords":["nocrits","nodmgspread","payload","uncletopia"],"game_id":440,"stv_port":27026,"stv_name":"Uncletopia | Seattle | 2 | All Maps | STV","players":null},{"server_id":406,"name":"Uncletopia | Seattle | 3 | Stopwatch Beta","name_short":"sea-3","host":"sea-1.us.uncletopia.com","port":27035,"enabled":true,"region":"us-west","cc":"us","latitude":47.608013,"longitude":-122.33517,"reserved":0,"last_update":"0001-01-01T00:00:00Z","name_a2s":"Uncletopia | Seattle | 3 | Stopwatch Beta","protocol":17,"map":"cp_mountainlab","folder":"tf","game":"Team Fortress","app_id":440,"player_count":0,"max_players":24,"Bots":0,"server_type":"Dedicated","server_os":"Linux","password":true,"vac":true,"version":"7961495","steam_id":85568392924515217,"keywords":["cp","nocrits","nodmgspread","uncletopia"],"game_id":440,"stv_port":27036,"stv_name":"Uncletopia | Seattle | 3 | Stopwatch Beta | STV","players":null},{"server_id":17,"name":"Uncletopia | San Francisco | 1 | All Maps","name_short":"sfo-1","host":"sfo-1.us.uncletopia.com","port":27015,"enabled":true,"region":"us-west","cc":"us","latitude":37.77397,"longitude":-122.4313,"reserved":0,"last_update":"0001-01-01T00:00:00Z","name_a2s":"Uncletopia | San Francisco | 1 | All Maps","protocol":17,"map":"koth_highpass","folder":"tf","game":"Team Fortress","app_id":440,"player_count":0,"max_players":24,"Bots":0,"server_type":"Dedicated","server_os":"Linux","password":true,"vac":true,"version":"7961495","steam_id":85568392924469999,"keywords":["cp","nocrits","nodmgspread","uncletopia"],"game_id":440,"stv_port":27016,"stv_name":"Uncletopia | San Francisco | 1 | All Maps | STV","players":null},{"server_id":18,"name":"Uncletopia | San Francisco | 2 | All Maps","name_short":"sfo-2","host":"sfo-1.us.uncletopia.com","port":27025,"enabled":true,"region":"us-west","cc":"us","latitude":37.77397,"longitude":-122.4313,"reserved":0,"last_update":"0001-01-01T00:00:00Z","name_a2s":"Uncletopia | San Francisco | 2 | All Maps","protocol":17,"map":"cp_snakewater_final1","folder":"tf","game":"Team Fortress","app_id":440,"player_count":0,"max_players":24,"Bots":0,"server_type":"Dedicated","server_os":"Linux","password":true,"vac":true,"version":"7961495","steam_id":85568392924470000,"keywords":["cp","nocrits","nodmgspread","uncletopia"],"game_id":440,"stv_port":27026,"stv_name":"Uncletopia | San Francisco | 2 | All Maps | STV","players":null},{"server_id":19,"name":"Uncletopia | San Francisco | 3 | Stopwatch Beta","name_short":"sfo-3","host":"sfo-1.us.uncletopia.com","port":27035,"enabled":true,"region":"us-west","cc":"us","latitude":37.77397,"longitude":-122.4313,"reserved":0,"last_update":"0001-01-01T00:00:00Z","name_a2s":"Uncletopia | San Francisco | 3 | Stopwatch Beta","protocol":17,"map":"pl_upward","folder":"tf","game":"Team Fortress","app_id":440,"player_count":0,"max_players":24,"Bots":0,"server_type":"Dedicated","server_os":"Linux","password":true,"vac":true,"version":"7961495","steam_id":85568392924742824,"keywords":["nocrits","nodmgspread","payload","uncletopia"],"game_id":440,"stv_port":27036,"stv_name":"Uncletopia | San Francisco | 3 | Stopwatch Beta | STV","players":null},{"server_id":20,"name":"Uncletopia | San Francisco | 4 | Community","name_short":"sfo-4","host":"sfo-1.us.uncletopia.com","port":27045,"enabled":true,"region":"us-west","cc":"us","latitude":37.77397,"longitude":-122.4313,"reserved":0,"last_update":"0001-01-01T00:00:00Z","name_a2s":"Uncletopia | San Francisco | 4 | Community","protocol":17,"map":"pl_snowycoast","folder":"tf","game":"Team Fortress","app_id":440,"player_count":0,"max_players":24,"Bots":0,"server_type":"Dedicated","server_os":"Linux","password":true,"vac":true,"version":"7961495","steam_id":85568392924742826,"keywords":["nocrits","nodmgspread","payload","uncletopia"],"game_id":440,"stv_port":27046,"stv_name":"Uncletopia | San Francisco | 4 | Community | STV","players":null},{"server_id":141,"name":"Uncletopia | Sydney | 1 | All Maps","name_short":"syd-1","host":"syd-1.au.uncletopia.com","port":27015,"enabled":true,"region":"au","cc":"au","latitude":-33.865143,"longitude":151.2099,"reserved":0,"last_update":"0001-01-01T00:00:00Z","name_a2s":"Uncletopia | Sydney | 1 | All Maps","protocol":17,"map":"cp_mountainlab","folder":"tf","game":"Team Fortress","app_id":440,"player_count":0,"max_players":24,"Bots":0,"server_type":"Dedicated","server_os":"Linux","password":true,"vac":true,"version":"7961495","steam_id":85568392924470001,"keywords":["cp","nocrits","nodmgspread","uncletopia"],"game_id":440,"stv_port":27016,"stv_name":"Uncletopia | Sydney | 1 | All Maps | STV","players":null},{"server_id":123,"name":"Uncletopia | Sydney | 2 | All Maps","name_short":"syd-2","host":"syd-1.au.uncletopia.com","port":27025,"enabled":true,"region":"au","cc":"au","latitude":-33.865143,"longitude":151.2099,"reserved":0,"last_update":"0001-01-01T00:00:00Z","name_a2s":"Uncletopia | Sydney | 2 | All Maps","protocol":17,"map":"koth_highpass","folder":"tf","game":"Team Fortress","app_id":440,"player_count":0,"max_players":24,"Bots":0,"server_type":"Dedicated","server_os":"Linux","password":true,"vac":true,"version":"7961495","steam_id":85568392924470002,"keywords":["cp","nocrits","nodmgspread","uncletopia"],"game_id":440,"stv_port":27026,"stv_name":"Uncletopia | Sydney | 2 | All Maps | STV","players":null},{"server_id":395,"name":"Uncletopia | Sydney | 3 | All Maps","name_short":"syd-3","host":"syd-1.au.uncletopia.com","port":27035,"enabled":true,"region":"au","cc":"au","latitude":-33.865143,"longitude":151.2099,"reserved":0,"last_update":"0001-01-01T00:00:00Z","name_a2s":"Uncletopia | Sydney | 3 | All Maps","protocol":17,"map":"koth_cascade","folder":"tf","game":"Team Fortress","app_id":440,"player_count":0,"max_players":24,"Bots":0,"server_type":"Dedicated","server_os":"Linux","password":true,"vac":true,"version":"7961495","steam_id":85568392925194467,"keywords":["cp","nocrits","nodmgspread","uncletopia"],"game_id":440,"stv_port":27036,"stv_name":"Uncletopia | Sydney | 3 | All Maps | STV","players":null},{"server_id":396,"name":"Uncletopia | Sydney | 4 | All Maps","name_short":"syd-4","host":"syd-1.au.uncletopia.com","port":27045,"enabled":true,"region":"au","cc":"au","latitude":-33.865143,"longitude":151.2099,"reserved":0,"last_update":"0001-01-01T00:00:00Z","name_a2s":"Uncletopia | Sydney | 4 | All Maps","protocol":17,"map":"koth_viaduct","folder":"tf","game":"Team Fortress","app_id":440,"player_count":0,"max_players":24,"Bots":0,"server_type":"Dedicated","server_os":"Linux","password":true,"vac":true,"version":"7961495","steam_id":85568392925397958,"keywords":["cp","nocrits","nodmgspread","uncletopia"],"game_id":440,"stv_port":27046,"stv_name":"Uncletopia | Sydney | 4 | All Maps | STV","players":null},{"server_id":58,"name":"Uncletopia | Sydney | 5 | Stopwatch Beta","name_short":"syd-5","host":"syd-1.au.uncletopia.com","port":27055,"enabled":true,"region":"au","cc":"au","latitude":-33.865143,"longitude":151.2099,"reserved":0,"last_update":"0001-01-01T00:00:00Z","name_a2s":"Uncletopia | Sydney | 5 | Stopwatch Beta","protocol":17,"map":"workshop/koth_bagel_rc6.ugc2514036946","folder":"tf","game":"Team Fortress","app_id":440,"player_count":0,"max_players":24,"Bots":0,"server_type":"Dedicated","server_os":"Linux","password":true,"vac":true,"version":"7961495","steam_id":85568392925397959,"keywords":["cp","nocrits","nodmgspread","uncletopia"],"game_id":440,"stv_port":27056,"stv_name":"Uncletopia | Sydney | 5 | Stopwatch Beta | STV","players":null},{"server_id":59,"name":"Uncletopia | Sydney | 6 | Community","name_short":"syd-6","host":"syd-1.au.uncletopia.com","port":27065,"enabled":true,"region":"au","cc":"au","latitude":-33.865143,"longitude":151.2099,"reserved":0,"last_update":"0001-01-01T00:00:00Z","name_a2s":"Uncletopia | Sydney | 6 | Community","protocol":17,"map":"workshop/koth_synthetic_rc6a.ugc1549817316","folder":"tf","game":"Team Fortress","app_id":440,"player_count":0,"max_players":24,"Bots":0,"server_type":"Dedicated","server_os":"Linux","password":true,"vac":true,"version":"7961495","steam_id":85568392925397960,"keywords":["cp","nocrits","nodmgspread","uncletopia"],"game_id":440,"stv_port":27066,"stv_name":"Uncletopia | Sydney | 6 | Community | STV","players":null},{"server_id":49,"name":"Uncletopia | Warsaw | 1 | All Maps","name_short":"waw-1","host":"waw-1.pl.uncletopia.com","port":27015,"enabled":true,"region":"eu","cc":"pl","latitude":52.2297,"longitude":21.017532,"reserved":0,"last_update":"0001-01-01T00:00:00Z","name_a2s":"Uncletopia | Warsaw | 1 | All Maps","protocol":17,"map":"pl_frontier_final","folder":"tf","game":"Team Fortress","app_id":440,"player_count":24,"max_players":24,"Bots":0,"server_type":"Dedicated","server_os":"Linux","password":true,"vac":true,"version":"7961495","steam_id":85568392925397850,"keywords":["nocrits","nodmgspread","payload","uncletopia"],"game_id":440,"stv_port":27016,"stv_name":"Uncletopia | Warsaw | 1 | All Maps | STV","players":[{"user_id":457,"name":"Nick","steam_id":76561198036109469,"connected_time":3434000000000,"state":"active","ping":70},{"user_id":473,"name":"NikMuk","steam_id":76561198376039290,"connected_time":2491000000000,"state":"active","ping":47},{"user_id":499,"name":"Exe_Red","steam_id":76561198154952759,"connected_time":276000000000,"state":"active","ping":80},{"user_id":494,"name":"Mekko","steam_id":76561198880989086,"connected_time":604000000000,"state":"active","ping":72},{"user_id":481,"name":"jabar7","steam_id":76561198055137986,"connected_time":1944000000000,"state":"active","ping":43},{"user_id":495,"name":"Polaq ***********","steam_id":76561198293259644,"connected_time":527000000000,"state":"active","ping":52},{"user_id":472,"name":"AreYouDoun?","steam_id":76561199062684395,"connected_time":2493000000000,"state":"active","ping":60},{"user_id":477,"name":"Hexagon","steam_id":76561198151205758,"connected_time":2363000000000,"state":"active","ping":60},{"user_id":483,"name":"/\\_______/\\_______/\\","steam_id":76561198852185310,"connected_time":1790000000000,"state":"active","ping":75},{"user_id":492,"name":"[Mann Co]Puzzle Games","steam_id":76561198022078318,"connected_time":962000000000,"state":"active","ping":86},{"user_id":493,"name":"h0ster","steam_id":76561198183949987,"connected_time":944000000000,"state":"active","ping":75},{"user_id":498,"name":"autistic luigi","steam_id":76561199218285040,"connected_time":286000000000,"state":"active","ping":71},{"user_id":500,"name":"froge","steam_id":76561198304959766,"connected_time":72000000000,"state":"active","ping":91},{"user_id":418,"name":"modrako","steam_id":76561198171050526,"connected_time":6115000000000,"state":"active","ping":71},{"user_id":469,"name":"overman","steam_id":76561198038348301,"connected_time":2649000000000,"state":"active","ping":43},{"user_id":447,"name":"Cie_ran","steam_id":76561198360253844,"connected_time":3959000000000,"state":"active","ping":48},{"user_id":450,"name":"Philosophos_Alpha","steam_id":76561198951264580,"connected_time":3623000000000,"state":"active","ping":122},{"user_id":460,"name":"Master Of Noob","steam_id":76561198217926783,"connected_time":3223000000000,"state":"active","ping":90},{"user_id":462,"name":"kreeekz","steam_id":76561198014431602,"connected_time":3185000000000,"state":"active","ping":76},{"user_id":501,"name":"QR code 78","steam_id":76561198073749509,"connected_time":36000000000,"state":"active","ping":65},{"user_id":467,"name":"Mr. Mundy","steam_id":76561198132008918,"connected_time":2819000000000,"state":"active","ping":96},{"user_id":454,"name":"Na z√°chodƒõ","steam_id":76561198383952144,"connected_time":3505000000000,"state":"active","ping":107},{"user_id":455,"name":"cobblestone","steam_id":76561198079123043,"connected_time":3491000000000,"state":"active","ping":79},{"user_id":497,"name":"Pryzmat","steam_id":76561198839775440,"connected_time":324000000000,"state":"active","ping":54}]},{"server_id":50,"name":"Uncletopia | Warsaw | 2 | All Maps","name_short":"waw-2","host":"waw-1.pl.uncletopia.com","port":27025,"enabled":true,"region":"eu","cc":"pl","latitude":52.2297,"longitude":21.017532,"reserved":0,"last_update":"0001-01-01T00:00:00Z","name_a2s":"Uncletopia | Warsaw | 2 | All Maps","protocol":17,"map":"koth_lakeside_final","folder":"tf","game":"Team Fortress","app_id":440,"player_count":5,"max_players":24,"Bots":0,"server_type":"Dedicated","server_os":"Linux","password":true,"vac":true,"version":"7961495","steam_id":85568392925397851,"keywords":["cp","nocrits","nodmgspread","uncletopia"],"game_id":440,"stv_port":27026,"stv_name":"Uncletopia | Warsaw | 2 | All Maps | STV","players":[{"user_id":17,"name":"huutti","steam_id":76561198138304806,"connected_time":862000000000,"state":"active","ping":93},{"user_id":18,"name":"Jaffander55","steam_id":76561199088062514,"connected_time":816000000000,"state":"active","ping":103},{"user_id":19,"name":"Kuksa","steam_id":76561199487581915,"connected_time":648000000000,"state":"active","ping":158},{"user_id":23,"name":"n.mob","steam_id":76561198389356439,"connected_time":152000000000,"state":"active","ping":104},{"user_id":22,"name":"Danilka","steam_id":76561199222725839,"connected_time":582000000000,"state":"active","ping":110}]},{"server_id":51,"name":"Uncletopia | Warsaw | 3 | All Maps","name_short":"waw-3","host":"waw-1.pl.uncletopia.com","port":27035,"enabled":true,"region":"eu","cc":"pl","latitude":52.2297,"longitude":21.017532,"reserved":0,"last_update":"0001-01-01T00:00:00Z","name_a2s":"Uncletopia | Warsaw | 3 | All Maps","protocol":17,"map":"koth_highpass","folder":"tf","game":"Team Fortress","app_id":440,"player_count":0,"max_players":24,"Bots":0,"server_type":"Dedicated","server_os":"Linux","password":true,"vac":true,"version":"7961495","steam_id":85568392925397852,"keywords":["cp","nocrits","nodmgspread","uncletopia"],"game_id":440,"stv_port":27036,"stv_name":"Uncletopia | Warsaw | 3 | All Maps | STV","players":null},{"server_id":52,"name":"Uncletopia | Warsaw | 4 | All Maps","name_short":"waw-4","host":"waw-1.pl.uncletopia.com","port":27045,"enabled":true,"region":"eu","cc":"pl","latitude":52.2297,"longitude":21.017532,"reserved":0,"last_update":"0001-01-01T00:00:00Z","name_a2s":"Uncletopia | Warsaw | 4 | All Maps","protocol":17,"map":"koth_lakeside_final","folder":"tf","game":"Team Fortress","app_id":440,"player_count":0,"max_players":24,"Bots":0,"server_type":"Dedicated","server_os":"Linux","password":true,"vac":true,"version":"7961495","steam_id":85568392925397853,"keywords":["cp","nocrits","nodmgspread","uncletopia"],"game_id":440,"stv_port":27046,"stv_name":"Uncletopia | Warsaw | 4 | All Maps | STV","players":null},{"server_id":53,"name":"Uncletopia | Warsaw | 5 | Stopwatch Beta","name_short":"waw-5","host":"waw-1.pl.uncletopia.com","port":27055,"enabled":true,"region":"eu","cc":"pl","latitude":52.2297,"longitude":21.017532,"reserved":0,"last_update":"0001-01-01T00:00:00Z","name_a2s":"Uncletopia | Warsaw | 5 | Stopwatch Beta","protocol":17,"map":"pl_borneo","folder":"tf","game":"Team Fortress","app_id":440,"player_count":0,"max_players":24,"Bots":0,"server_type":"Dedicated","server_os":"Linux","password":true,"vac":true,"version":"7961495","steam_id":85568392925397854,"keywords":["nocrits","nodmgspread","payload","uncletopia"],"game_id":440,"stv_port":27056,"stv_name":"Uncletopia | Warsaw | 5 | Stopwatch Beta | STV","players":null},{"server_id":54,"name":"Uncletopia | Warsaw | 6 | Community","name_short":"waw-6","host":"waw-1.pl.uncletopia.com","port":27065,"enabled":true,"region":"eu","cc":"pl","latitude":52.2297,"longitude":21.017532,"reserved":0,"last_update":"0001-01-01T00:00:00Z","name_a2s":"Uncletopia | Warsaw | 6 | Community","protocol":17,"map":"workshop/koth_product_final.ugc454272353","folder":"tf","game":"Team Fortress","app_id":440,"player_count":0,"max_players":24,"Bots":0,"server_type":"Dedicated","server_os":"Linux","password":true,"vac":true,"version":"7961495","steam_id":85568392925397856,"keywords":["cp","nocrits","nodmgspread","uncletopia"],"game_id":440,"stv_port":27066,"stv_name":"Uncletopia | Warsaw | 6 | Community | STV","players":null}]}