{"status":true,"message":"","result":[{"server_id":9,"name":"Uncletopia | Atlanta | 1 | All Maps","name_short":"atl-1","host":"atl-1.us.uncletopia.com","port":27015,"enabled":true,"region":"us-east","cc":"us","latitude":33.753746,"longitude":-84.38633,"reserved":0,"last_update":"0001-01-01T00:00:00Z","name_a2s":"Uncletopia | Atlanta | 1 | All Maps","protocol":17,"map":"koth_cascade","folder":"tf","game":"Team Fortress","app_id":440,"player_count":2,"max_players":24,"Bots":0,"server_type":"Dedicated","server_os":"Linux","password":true,"vac":true,"version":"7757534","steam_id":85568392924469982,"keywords":["cp","nocrits","nodmgspread","uncletopia"],"game_id":440,"stv_port":27016,"stv_name":"Uncletopia | Atlanta | 1 | All Maps | STV","players":[{"user_id":6,"name":"Cheemgineer","steam_id":76561199058771620,"connected_time":105000000000,"state":"active","ping":121},{"user_id":7,"name":"abomination","steam_id":76561198167974713,"connected_time":67000000000,"state":"active","ping":45}]},{"server_id":104,"name":"Uncletopia | Atlanta | 2 | All Maps","name_short":"atl-2","host":"atl-1.us.uncletopia.com","port":27025,"enabled":true,"region":"us-east","cc":"us","latitude":33.753746,"longitude":-84.38633,"reserved":0,"last_update":"0001-01-01T00:00:00Z","name_a2s":"Uncletopia | Atlanta | 2 | All Maps","protocol":17,"map":"cp_dustbowl","folder":"tf","game":"Team Fortress","app_id":440,"player_count":0,"max_players":24,"Bots":0,"server_type":"Dedicated","server_os":"Linux","password":true,"vac":true,"version":"7757534","steam_id":85568392924469983,"keywords":["cp","nocrits","nodmgspread","uncletopia"],"game_id":440,"stv_port":27026,"stv_name":"Uncletopia | Atlanta | 2 | All Maps | STV","players":null},{"server_id":400,"name":"Uncletopia | Atlanta | 3 | Community","name_short":"atl-3","host":"atl-1.us.uncletopia.com","port":27035,"enabled":true,"region":"us-east","cc":"us","latitude":33.753746,"longitude":-84.38633,"reserved":0,"last_update":"0001-01-01T00:00:00Z","name_a2s":"Uncletopia | Atlanta | 3 | Community","protocol":17,"map":"workshop/koth_trenchfoot_b1a.ugc731436616","folder":"tf","game":"Team Fortress","app_id":440,"player_count":0,"max_players":24,"Bots":0,"server_type":"Dedicated","server_os":"Linux","password":true,"vac":true,"version":"7757534","steam_id":85568392924515187,"keywords":["cp","nocrits","nodmgspread","uncletopia"],"game_id":440,"stv_port":27036,"stv_name":"Uncletopia | Atlanta | 3 | Community | STV","players":null},{"server_id":401,"name":"Uncletopia | Atlanta | 4 | No Payload","name_short":"atl-4","host":"atl-1.us.uncletopia.com","port":27045,"enabled":true,"region":"us-east","cc":"us","latitude":33.753746,"longitude":-84.38633,"reserved":0,"last_update":"0001-01-01T00:00:00Z","name_a2s":"","protocol":0,"map":"","folder":"","game":"","app_id":0,"player_count":0,"max_players":0,"Bots":0,"server_type":"","server_os":"","password":false,"vac":false,"version":"","steam_id":0,"keywords":null,"game_id":0,"stv_port":0,"stv_name":"","players":null},{"server_id":2,"name":"Uncletopia | Chicago | 1 | All Maps","name_short":"chi-1","host":"chi-1.us.uncletopia.com","port":27015,"enabled":true,"region":"us-central","cc":"us","latitude":41.881832,"longitude":-87.62318,"reserved":0,"last_update":"0001-01-01T00:00:00Z","name_a2s":"Uncletopia | Chicago | 1 | All Maps","protocol":17,"map":"cp_altitude","folder":"tf","game":"Team Fortress","app_id":440,"player_count":0,"max_players":24,"Bots":0,"server_type":"Dedicated","server_os":"Linux","password":true,"vac":true,"version":"7757534","steam_id":85568392924469984,"keywords":["cp","nocrits","nodmgspread","uncletopia"],"game_id":440,"stv_port":27016,"stv_name":"Uncletopia | Chicago | 1 | All Maps | STV","players":null},{"server_id":106,"name":"Uncletopia | Chicago | 2 | All Maps","name_short":"chi-2","host":"chi-1.us.uncletopia.com","port":27025,"enabled":true,"region":"us-central","cc":"us","latitude":41.881832,"longitude":-87.62318,"reserved":0,"last_update":"0001-01-01T00:00:00Z","name_a2s":"Uncletopia | Chicago | 2 | All Maps","protocol":17,"map":"pl_borneo","folder":"tf","game":"Team Fortress","app_id":440,"player_count":24,"max_players":24,"Bots":0,"server_type":"Dedicated","server_os":"Linux","password":true,"vac":true,"version":"7757534","steam_id":85568392924469985,"keywords":["nocrits","nodmgspread","payload","uncletopia"],"game_id":440,"stv_port":27026,"stv_name":"Uncletopia | Chicago | 2 | All Maps | STV","players":[{"user_id":132,"name":"L-BOLT","steam_id":76561198200688349,"connected_time":2355000000000,"state":"active","ping":76},{"user_id":146,"name":"popfulmail","steam_id":76561198865971290,"connected_time":232000000000,"state":"active","ping":85},{"user_id":133,"name":"Kiso 火","steam_id":76561198141026844,"connected_time":2349000000000,"state":"active","ping":135},{"user_id":136,"name":"The Pope","steam_id":76561198313560302,"connected_time":2018000000000,"state":"active","ping":59},{"user_id":140,"name":"Pepsiman","steam_id":76561198085789499,"connected_time":1291000000000,"state":"active","ping":59},{"user_id":124,"name":"kametro4","steam_id":76561198835430429,"connected_time":2400000000000,"state":"active","ping":82},{"user_id":135,"name":"LimeAide","steam_id":76561199196369249,"connected_time":2306000000000,"state":"active","ping":79},{"user_id":101,"name":"LerN","steam_id":76561198083463877,"connected_time":4487000000000,"state":"active","ping":46},{"user_id":147,"name":"Righteou5Dude","steam_id":76561198136291931,"connected_time":217000000000,"state":"active","ping":84},{"user_id":137,"name":"FUNKY TOWN SLAYER","steam_id":76561198119489292,"connected_time":1905000000000,"state":"active","ping":92},{"user_id":128,"name":"hilarious dinglebat","steam_id":76561198170840838,"connected_time":2384000000000,"state":"active","ping":76},{"user_id":129,"name":"Mr. Cheesey","steam_id":76561198153462183,"connected_time":2383000000000,"state":"active","ping":57},{"user_id":139,"name":"Florist","steam_id":76561198009121060,"connected_time":1760000000000,"state":"active","ping":90},{"user_id":96,"name":"rad","steam_id":76561198413125750,"connected_time":5021000000000,"state":"active","ping":65},{"user_id":141,"name":"yavin IV","steam_id":76561198061135335,"connected_time":1253000000000,"state":"active","ping":67},{"user_id":130,"name":"Delsato","steam_id":76561198304505626,"connected_time":2382000000000,"state":"active","ping":51},{"user_id":142,"name":"jorjor wells","steam_id":76561199073429082,"connected_time":1231000000000,"state":"active","ping":62},{"user_id":145,"name":"Oopsie Daisy ❋","steam_id":76561198042144492,"connected_time":815000000000,"state":"active","ping":70},{"user_id":148,"name":"VixianUwU","steam_id":76561198948815060,"connected_time":207000000000,"state":"active","ping":74},{"user_id":108,"name":"\\|)=|_|=(|/","steam_id":76561198171491110,"connected_time":4191000000000,"state":"active","ping":61},{"user_id":149,"name":"Kazel","steam_id":76561197989757682,"connected_time":170000000000,"state":"active","ping":58},{"user_id":150,"name":"Big Dundle","steam_id":76561198275625984,"connected_time":149000000000,"state":"active","ping":73},{"user_id":49,"name":"gghfgfgfg","steam_id":76561198064823861,"connected_time":8314000000000,"state":"active","ping":72},{"user_id":125,"name":"roo the observer","steam_id":76561198120684348,"connected_time":2400000000000,"state":"active","ping":57}]},{"server_id":402,"name":"Uncletopia | Chicago | 3 | All Maps","name_short":"chi-3","host":"chi-1.us.uncletopia.com","port":27035,"enabled":true,"region":"us-central","cc":"us","latitude":41.881832,"longitude":-87.62318,"reserved":0,"last_update":"0001-01-01T00:00:00Z","name_a2s":"Uncletopia | Chicago | 3 | All Maps","protocol":17,"map":"cp_sunshine","folder":"tf","game":"Team Fortress","app_id":440,"player_count":0,"max_players":24,"Bots":0,"server_type":"Dedicated","server_os":"Linux","password":true,"vac":true,"version":"7757534","steam_id":85568392924515191,"keywords":["cp","nocrits","nodmgspread","uncletopia"],"game_id":440,"stv_port":27036,"stv_name":"Uncletopia | Chicago | 3 | All Maps | STV","players":null},{"server_id":403,"name":"Uncletopia | Chicago | 4 | All Maps","name_short":"chi-4","host":"chi-1.us.uncletopia.com","port":27045,"enabled":true,"region":"us-central","cc":"us","latitude":41.881832,"longitude":-87.62318,"reserved":0,"last_update":"0001-01-01T00:00:00Z","name_a2s":"Uncletopia | Chicago | 4 | All Maps","protocol":17,"map":"koth_lakeside_final","folder":"tf","game":"Team Fortress","app_id":440,"player_count":0,"max_players":24,"Bots":0,"server_type":"Dedicated","server_os":"Linux","password":true,"vac":true,"version":"7757534","steam_id":85568392924515193,"keywords":["cp","nocrits","nodmgspread","uncletopia"],"game_id":440,"stv_port":27046,"stv_name":"Uncletopia | Chicago | 4 | All Maps | STV","players":null},{"server_id":36,"name":"Uncletopia | Chicago | 5 | All Maps","name_short":"chi-5","host":"chi-2.us.uncletopia.com","port":27015,"enabled":true,"region":"us-central","cc":"us","latitude":41.881832,"longitude":-87.62318,"reserved":0,"last_update":"0001-01-01T00:00:00Z","name_a2s":"Uncletopia | Chicago | 5 | All Maps","protocol":17,"map":"koth_cascade","folder":"tf","game":"Team Fortress","app_id":440,"player_count":0,"max_players":24,"Bots":0,"server_type":"Dedicated","server_os":"Linux","password":true,"vac":true,"version":"7757534","steam_id":85568392924866362,"keywords":["cp","nocrits","nodmgspread","uncletopia"],"game_id":440,"stv_port":27016,"stv_name":"Uncletopia | Chicago | 5 | All Maps | STV","players":null},{"server_id":37,"name":"Uncletopia | Chicago | 6 | All Maps","name_short":"chi-6","host":"chi-2.us.uncletopia.com","port":27025,"enabled":true,"region":"us-central","cc":"us","latitude":41.881832,"longitude":-87.62318,"reserved":0,"last_update":"0001-01-01T00:00:00Z","name_a2s":"Uncletopia | Chicago | 6 | All Maps","protocol":17,"map":"pl_borneo","folder":"tf","game":"Team Fortress","app_id":440,"player_count":0,"max_players":24,"Bots":0,"server_type":"Dedicated","server_os":"Linux","password":true,"vac":true,"version":"7757534","steam_id":85568392924866363,"keywords":["nocrits","nodmgspread","payload","uncletopia"],"game_id":440,"stv_port":27026,"stv_name":"Uncletopia | Chicago | 6 | All Maps | STV","players":null},{"server_id":38,"name":"Uncletopia | Chicago | 7 | Stopwatch Beta","name_short":"chi-7","host":"chi-2.us.uncletopia.com","port":27035,"enabled":true,"region":"us-central","cc":"us","latitude":41.881832,"longitude":-87.62318,"reserved":0,"last_update":"0001-01-01T00:00:00Z","name_a2s":"Uncletopia | Chicago | 7 | Stopwatch Beta","protocol":17,"map":"pl_barnblitz","folder":"tf","game":"Team Fortress","app_id":440,"player_count":0,"max_players":24,"Bots":0,"server_type":"Dedicated","server_os":"Linux","password":true,"vac":true,"version":"7757534","steam_id":85568392924866364,"keywords":["nocrits","nodmgspread","payload","uncletopia"],"game_id":440,"stv_port":27036,"stv_name":"Uncletopia | Chicago | 7 | Stopwatch Beta | STV","players":null},{"server_id":39,"name":"Uncletopia | Chicago | 8 | Community","name_short":"chi-8","host":"chi-2.us.uncletopia.com","port":27045,"enabled":true,"region":"us-central","cc":"us","latitude":41.881832,"longitude":-87.62318,"reserved":0,"last_update":"0001-01-01T00:00:00Z","name_a2s":"Uncletopia | Chicago | 8 | Community","protocol":17,"map":"koth_cascade","folder":"tf","game":"Team Fortress","app_id":440,"player_count":0,"max_players":24,"Bots":0,"server_type":"Dedicated","server_os":"Linux","password":true,"vac":true,"version":"7757534","steam_id":85568392924866365,"keywords":["cp","nocrits","nodmgspread","uncletopia"],"game_id":440,"stv_port":27046,"stv_name":"Uncletopia | Chicago | 8 | Community | STV","players":null},{"server_id":8,"name":"Uncletopia | Dallas | 1 | All Maps","name_short":"dal-1","host":"dal-1.us.uncletopia.com","port":27015,"enabled":true,"region":"us-central","cc":"us","latitude":32.779167,"longitude":-96.80889,"reserved":0,"last_update":"0001-01-01T00:00:00Z","name_a2s":"Uncletopia | Dallas | 1 | All Maps","protocol":17,"map":"pl_snowycoast","folder":"tf","game":"Team Fortress","app_id":440,"player_count":25,"max_players":24,"Bots":0,"server_type":"Dedicated","server_os":"Linux","password":true,"vac":true,"version":"7757534","steam_id":85568392924469986,"keywords":["nocrits","nodmgspread","payload","uncletopia"],"game_id":440,"stv_port":27016,"stv_name":"Uncletopia | Dallas | 1 | All Maps | STV","players":[{"user_id":55,"name":"MasterAmongRust","steam_id":76561198010160233,"connected_time":6452000000000,"state":"active","ping":90},{"user_id":111,"name":"I can't heal","steam_id":76561198039763676,"connected_time":2071000000000,"state":"active","ping":75},{"user_id":87,"name":"Quiver Cakes ._.","steam_id":76561198243155576,"connected_time":3897000000000,"state":"active","ping":76},{"user_id":6,"name":"r0zemary","steam_id":76561198128494897,"connected_time":10290000000000,"state":"active","ping":78},{"user_id":132,"name":"bottl","steam_id":76561198811511278,"connected_time":94000000000,"state":"active","ping":120},{"user_id":122,"name":"Rice","steam_id":76561199150353089,"connected_time":1132000000000,"state":"active","ping":85},{"user_id":134,"name":"SOULDOG","steam_id":76561199212057006,"connected_time":75000000000,"state":"active","ping":174},{"user_id":96,"name":"Jarvis from Avengers","steam_id":76561198164035863,"connected_time":2801000000000,"state":"active","ping":79},{"user_id":116,"name":"Goat","steam_id":76561198068447650,"connected_time":1380000000000,"state":"active","ping":64},{"user_id":74,"name":"Bong Rips for Karl","steam_id":76561197976436609,"connected_time":4781000000000,"state":"active","ping":89},{"user_id":113,"name":"XxDragon4321xX","steam_id":76561198046705735,"connected_time":1623000000000,"state":"active","ping":99},{"user_id":119,"name":"HAKEEM","steam_id":76561198849413964,"connected_time":1246000000000,"state":"active","ping":61},{"user_id":133,"name":"NLSAM","steam_id":76561199111154916,"connected_time":89000000000,"state":"active","ping":163},{"user_id":130,"name":"ark","steam_id":76561198041066271,"connected_time":286000000000,"state":"active","ping":64},{"user_id":125,"name":"Romo","steam_id":76561198243101572,"connected_time":801000000000,"state":"active","ping":74},{"user_id":135,"name":"P.C. Baby","steam_id":76561198067011379,"connected_time":70000000000,"state":"active","ping":92},{"user_id":137,"name":"Ulrich Stern","steam_id":76561198101739682,"connected_time":15000000000,"state":"spawning","ping":59},{"user_id":94,"name":"Prof. Eggnog","steam_id":76561198193389166,"connected_time":2977000000000,"state":"active","ping":90},{"user_id":118,"name":"Deleth","steam_id":76561199381418653,"connected_time":1277000000000,"state":"active","ping":161},{"user_id":121,"name":"Pixeled","steam_id":76561198088917077,"connected_time":1159000000000,"state":"active","ping":90},{"user_id":63,"name":"FluttyPutty","steam_id":76561198218446556,"connected_time":5395000000000,"state":"active","ping":64},{"user_id":70,"name":"yourfirewall","steam_id":76561199370630168,"connected_time":5213000000000,"state":"active","ping":107},{"user_id":129,"name":"VaL-ASROC","steam_id":76561198886493635,"connected_time":350000000000,"state":"active","ping":73},{"user_id":127,"name":"Just_Another_Weeb","steam_id":76561198378496342,"connected_time":505000000000,"state":"active","ping":87},{"user_id":138,"name":"the smiling zombie","steam_id":76561199246231090,"connected_time":15000000000,"state":"spawning","ping":67}]},{"server_id":108,"name":"Uncletopia | Dallas | 2 | All Maps","name_short":"dal-2","host":"dal-1.us.uncletopia.com","port":27025,"enabled":true,"region":"us-central","cc":"us","latitude":32.779167,"longitude":-96.80889,"reserved":0,"last_update":"0001-01-01T00:00:00Z","name_a2s":"Uncletopia | Dallas | 2 | All Maps","protocol":17,"map":"pl_borneo","folder":"tf","game":"Team Fortress","app_id":440,"player_count":0,"max_players":24,"Bots":0,"server_type":"Dedicated","server_os":"Linux","password":true,"vac":true,"version":"7757534","steam_id":85568392924469988,"keywords":["nocrits","nodmgspread","payload","uncletopia"],"game_id":440,"stv_port":27026,"stv_name":"Uncletopia | Dallas | 2 | All Maps | STV","players":null},{"server_id":5,"name":"Uncletopia | Frankfurt | 1 | All Maps","name_short":"frk-1","host":"frk-1.de.uncletopia.com","port":27015,"enabled":true,"region":"eu","cc":"de","latitude":50.110924,"longitude":8.682127,"reserved":0,"last_update":"0001-01-01T00:00:00Z","name_a2s":"Uncletopia | Frankfurt | 1 | All Maps","protocol":17,"map":"pl_barnblitz","folder":"tf","game":"Team Fortress","app_id":440,"player_count":24,"max_players":24,"Bots":0,"server_type":"Dedicated","server_os":"Linux","password":true,"vac":true,"version":"7757534","steam_id":85568392924469989,"keywords":["nocrits","nodmgspread","payload","uncletopia"],"game_id":440,"stv_port":27016,"stv_name":"Uncletopia | Frankfurt | 1 | All Maps | STV","players":[{"user_id":344,"name":"highway crusader","steam_id":76561198110470565,"connected_time":640000000000,"state":"active","ping":97},{"user_id":310,"name":"JeanCorben","steam_id":76561197965133561,"connected_time":2808000000000,"state":"active","ping":45},{"user_id":354,"name":"Mr. Hunts","steam_id":76561197981910397,"connected_time":219000000000,"state":"active","ping":61},{"user_id":319,"name":"Solymr ibn Wali Barad","steam_id":76561198044008976,"connected_time":2098000000000,"state":"active","ping":74},{"user_id":346,"name":"Renard pos4","steam_id":76561197998908594,"connected_time":564000000000,"state":"active","ping":69},{"user_id":352,"name":"WhistlingFox04","steam_id":76561198381509938,"connected_time":461000000000,"state":"active","ping":174},{"user_id":333,"name":"Stabbyratbag","steam_id":76561198119531916,"connected_time":1176000000000,"state":"active","ping":60},{"user_id":334,"name":"quickfast","steam_id":76561199438900919,"connected_time":1066000000000,"state":"active","ping":53},{"user_id":348,"name":"Yelowchy","steam_id":76561198199416121,"connected_time":546000000000,"state":"active","ping":61},{"user_id":324,"name":"Mixa.Lv","steam_id":76561198013911804,"connected_time":1919000000000,"state":"active","ping":66},{"user_id":332,"name":"Jnyu","steam_id":76561198070532575,"connected_time":1458000000000,"state":"active","ping":74},{"user_id":355,"name":"LOBZIK","steam_id":76561198114830120,"connected_time":73000000000,"state":"active","ping":82},{"user_id":315,"name":"Elon Ma","steam_id":76561199018053264,"connected_time":2399000000000,"state":"active","ping":68},{"user_id":339,"name":"Mayor Wank from Wanker Town","steam_id":76561197998253588,"connected_time":804000000000,"state":"active","ping":45},{"user_id":280,"name":"Spajro","steam_id":76561198257383813,"connected_time":4209000000000,"state":"active","ping":51},{"user_id":311,"name":"Gibbed_GIBus30","steam_id":76561199272782484,"connected_time":2793000000000,"state":"active","ping":59},{"user_id":338,"name":"X45Y","steam_id":76561198112534025,"connected_time":809000000000,"state":"active","ping":45},{"user_id":350,"name":"Sprayus banditcamp.com","steam_id":76561198399216417,"connected_time":535000000000,"state":"active","ping":67},{"user_id":336,"name":"RiX","steam_id":76561197969053733,"connected_time":911000000000,"state":"active","ping":70},{"user_id":342,"name":"AbsurdGallium","steam_id":76561198291120469,"connected_time":697000000000,"state":"active","ping":43},{"user_id":351,"name":"ricky pee pee","steam_id":76561198152620745,"connected_time":532000000000,"state":"active","ping":74},{"user_id":340,"name":"purplecan","steam_id":76561199208283508,"connected_time":769000000000,"state":"active","ping":58},{"user_id":314,"name":"✪ qua ✪","steam_id":76561198066408333,"connected_time":2669000000000,"state":"active","ping":73},{"user_id":353,"name":"Joneatshorts","steam_id":76561199233449550,"connected_time":459000000000,"state":"active","ping":166}]},{"server_id":110,"name":"Uncletopia | Frankfurt | 2 | All Maps","name_short":"frk-2","host":"frk-1.de.uncletopia.com","port":27025,"enabled":true,"region":"eu","cc":"de","latitude":50.110924,"longitude":8.682127,"reserved":0,"last_update":"0001-01-01T00:00:00Z","name_a2s":"Uncletopia | Frankfurt | 2 | All Maps","protocol":17,"map":"cp_dustbowl","folder":"tf","game":"Team Fortress","app_id":440,"player_count":0,"max_players":24,"Bots":0,"server_type":"Dedicated","server_os":"Linux","password":true,"vac":true,"version":"7757534","steam_id":85568392924469990,"keywords":["cp","nocrits","nodmgspread","uncletopia"],"game_id":440,"stv_port":27026,"stv_name":"Uncletopia | Frankfurt | 2 | All Maps | STV","players":null},{"server_id":308,"name":"Uncletopia | Frankfurt | 3 | All Maps","name_short":"frk-3","host":"frk-1.de.uncletopia.com","port":27035,"enabled":true,"region":"eu","cc":"de","latitude":50.110924,"longitude":8.682127,"reserved":0,"last_update":"0001-01-01T00:00:00Z","name_a2s":"Uncletopia | Frankfurt | 3 | All Maps","protocol":17,"map":"pl_pier","folder":"tf","game":"Team Fortress","app_id":440,"player_count":0,"max_players":24,"Bots":0,"server_type":"Dedicated","server_os":"Linux","password":true,"vac":true,"version":"7757534","steam_id":85568392924504274,"keywords":["nocrits","nodmgspread","payload","uncletopia"],"game_id":440,"stv_port":27036,"stv_name":"Uncletopia | Frankfurt | 3 | All Maps | STV","players":null},{"server_id":309,"name":"Uncletopia | Frankfurt | 4 | All Maps","name_short":"frk-4","host":"frk-1.de.uncletopia.com","port":27045,"enabled":true,"region":"eu","cc":"de","latitude":50.110924,"longitude":8.682127,"reserved":0,"last_update":"0001-01-01T00:00:00Z","name_a2s":"Uncletopia | Frankfurt | 4 | All Maps","protocol":17,"map":"pl_borneo","folder":"tf","game":"Team Fortress","app_id":440,"player_count":0,"max_players":24,"Bots":0,"server_type":"Dedicated","server_os":"Linux","password":true,"vac":true,"version":"7757534","steam_id":85568392924504275,"keywords":["nocrits","nodmgspread","payload","uncletopia"],"game_id":440,"stv_port":27046,"stv_name":"Uncletopia | Frankfurt | 4 | All Maps | STV","players":null},{"server_id":310,"name":"Uncletopia | Frankfurt | 5 | All Maps","name_short":"frk-5","host":"frk-1.de.uncletopia.com","port":27055,"enabled":true,"region":"eu","cc":"de","latitude":50.110924,"longitude":8.682127,"reserved":0,"last_update":"0001-01-01T00:00:00Z","name_a2s":"Uncletopia | Frankfurt | 5 | All Maps","protocol":17,"map":"koth_lakeside_final","folder":"tf","game":"Team Fortress","app_id":440,"player_count":0,"max_players":24,"Bots":0,"server_type":"Dedicated","server_os":"Linux","password":true,"vac":true,"version":"7757534","steam_id":85568392924504277,"keywords":["cp","nocrits","nodmgspread","uncletopia"],"game_id":440,"stv_port":27056,"stv_name":"Uncletopia | Frankfurt | 5 | All Maps | STV","players":null},{"server_id":311,"name":"Uncletopia | Frankfurt | 6 | All Maps","name_short":"frk-6","host":"frk-1.de.uncletopia.com","port":27065,"enabled":true,"region":"eu","cc":"de","latitude":50.110924,"longitude":8.682127,"reserved":0,"last_update":"0001-01-01T00:00:00Z","name_a2s":"Uncletopia | Frankfurt | 6 | All Maps","protocol":17,"map":"cp_dustbowl","folder":"tf","game":"Team Fortress","app_id":440,"player_count":7,"max_players":24,"Bots":0,"server_type":"Dedicated","server_os":"Linux","password":true,"vac":true,"version":"7757534","steam_id":85568392924504278,"keywords":["cp","nocrits","nodmgspread","uncletopia"],"game_id":440,"stv_port":27066,"stv_name":"Uncletopia | Frankfurt | 6 | All Maps | STV","players":[{"user_id":237,"name":"Kwizine","steam_id":76561198147999400,"connected_time":150000000000,"state":"active","ping":55},{"user_id":227,"name":"Petruška_","steam_id":76561199143871130,"connected_time":1286000000000,"state":"active","ping":67},{"user_id":238,"name":"Dora","steam_id":76561198072207649,"connected_time":132000000000,"state":"active","ping":75},{"user_id":234,"name":"ArikMor","steam_id":76561199124472513,"connected_time":976000000000,"state":"active","ping":112},{"user_id":209,"name":"tralalaOuiOui","steam_id":76561197963471507,"connected_time":1824000000000,"state":"active","ping":51},{"user_id":210,"name":"limbicsystem","steam_id":76561198025612680,"connected_time":1822000000000,"state":"active","ping":70},{"user_id":240,"name":"my mom says im special","steam_id":76561199347578638,"connected_time":20000000000,"state":"spawning","ping":165}]},{"server_id":23,"name":"Uncletopia | Frankfurt | 7 | Stopwatch Beta","name_short":"frk-7","host":"frk-1.de.uncletopia.com","port":27075,"enabled":true,"region":"eu","cc":"de","latitude":50.110924,"longitude":8.682127,"reserved":0,"last_update":"0001-01-01T00:00:00Z","name_a2s":"Uncletopia | Frankfurt | 7 | Stopwatch Beta","protocol":17,"map":"workshop/koth_ramjam_rc1.ugc459778887","folder":"tf","game":"Team Fortress","app_id":440,"player_count":0,"max_players":24,"Bots":0,"server_type":"Dedicated","server_os":"Linux","password":true,"vac":true,"version":"7757534","steam_id":85568392924742827,"keywords":["cp","nocrits","nodmgspread","uncletopia"],"game_id":440,"stv_port":27076,"stv_name":"Uncletopia | Frankfurt | 7 | Stopwatch Beta | STV","players":null},{"server_id":24,"name":"Uncletopia | Frankfurt | 8 | Community","name_short":"frk-8","host":"frk-1.de.uncletopia.com","port":27085,"enabled":true,"region":"eu","cc":"de","latitude":50.110924,"longitude":8.682127,"reserved":0,"last_update":"0001-01-01T00:00:00Z","name_a2s":"Uncletopia | Frankfurt | 8 | Community","protocol":17,"map":"workshop/cp_glacier_rc6.ugc2905735376","folder":"tf","game":"Team Fortress","app_id":440,"player_count":24,"max_players":24,"Bots":0,"server_type":"Dedicated","server_os":"Linux","password":true,"vac":true,"version":"7757534","steam_id":85568392924742828,"keywords":["cp","nocrits","nodmgspread","uncletopia"],"game_id":440,"stv_port":27086,"stv_name":"Uncletopia | Frankfurt | 8 | Community | STV","players":[{"user_id":70,"name":"๋","steam_id":76561198061433139,"connected_time":1566000000000,"state":"active","ping":90},{"user_id":66,"name":"Dzan50","steam_id":76561198059758591,"connected_time":1977000000000,"state":"active","ping":88},{"user_id":92,"name":"TommyGun","steam_id":76561197995664678,"connected_time":157000000000,"state":"active","ping":88},{"user_id":80,"name":"Yessirskiii","steam_id":76561198179324075,"connected_time":713000000000,"state":"active","ping":69},{"user_id":8,"name":"Creasman","steam_id":76561198875379322,"connected_time":5764000000000,"state":"active","ping":114},{"user_id":100,"name":"Blaze-A-Glory!","steam_id":76561198133623363,"connected_time":5000000000,"state":"spawning","ping":102},{"user_id":77,"name":"Operunter","steam_id":76561198059937616,"connected_time":1049000000000,"state":"active","ping":70},{"user_id":81,"name":"CutKan","steam_id":76561198809248662,"connected_time":710000000000,"state":"active","ping":114},{"user_id":98,"name":"fish","steam_id":76561198205475839,"connected_time":25000000000,"state":"active","ping":89},{"user_id":86,"name":"FZStick","steam_id":76561198086617223,"connected_time":427000000000,"state":"active","ping":55},{"user_id":87,"name":"weebaru","steam_id":76561198004991633,"connected_time":407000000000,"state":"active","ping":56},{"user_id":24,"name":"Tails8521","steam_id":76561198051747164,"connected_time":4425000000000,"state":"active","ping":58},{"user_id":49,"name":"acuifex","steam_id":76561198106266513,"connected_time":3269000000000,"state":"active","ping":75},{"user_id":79,"name":"spykerhyk","steam_id":76561198051161355,"connected_time":840000000000,"state":"active","ping":45},{"user_id":83,"name":"Sectoid","steam_id":76561198257158275,"connected_time":599000000000,"state":"active","ping":149},{"user_id":85,"name":"=Xal=","steam_id":76561198052622095,"connected_time":497000000000,"state":"active","ping":99},{"user_id":88,"name":"Darkmatter_magic","steam_id":76561199213537315,"connected_time":384000000000,"state":"active","ping":78},{"user_id":41,"name":"Balls","steam_id":76561198086400484,"connected_time":3614000000000,"state":"active","ping":86},{"user_id":89,"name":"Dreu","steam_id":76561198075647310,"connected_time":369000000000,"state":"active","ping":61},{"user_id":90,"name":"Uncle Moomin","steam_id":76561198011628656,"connected_time":355000000000,"state":"active","ping":83},{"user_id":91,"name":"EoN","steam_id":76561198103660553,"connected_time":288000000000,"state":"active","ping":90},{"user_id":95,"name":"DrunkDriver31","steam_id":76561198046922727,"connected_time":111000000000,"state":"active","ping":71},{"user_id":99,"name":"Raptor Factor","steam_id":76561198017174175,"connected_time":14000000000,"state":"spawning","ping":254},{"user_id":97,"name":"JESUSis myDRUG","steam_id":76561198064847881,"connected_time":90000000000,"state":"active","ping":77}]},{"server_id":202,"name":"Uncletopia | Hong Kong | 1 | All Maps","name_short":"hgk-1","host":"hgk-1.hk.uncletopia.com","port":27015,"enabled":true,"region":"asia","cc":"hk","latitude":22.302711,"longitude":114.177216,"reserved":0,"last_update":"0001-01-01T00:00:00Z","name_a2s":"Uncletopia | Hong Kong | 1 | All Maps","protocol":17,"map":"pl_borneo","folder":"tf","game":"Team Fortress","app_id":440,"player_count":21,"max_players":24,"Bots":0,"server_type":"Dedicated","server_os":"Linux","password":true,"vac":true,"version":"7757534","steam_id":85568392924494504,"keywords":["nocrits","nodmgspread","payload","uncletopia"],"game_id":440,"stv_port":27016,"stv_name":"Uncletopia | Hong Kong | 1 | All Maps | STV","players":[{"user_id":211,"name":"ChoboUnjeon","steam_id":76561198806095977,"connected_time":2794000000000,"state":"active","ping":84},{"user_id":145,"name":"UltraFat","steam_id":76561198253918132,"connected_time":7832000000000,"state":"active","ping":76},{"user_id":173,"name":"bocchistani cunnyseur","steam_id":76561198138187921,"connected_time":6420000000000,"state":"active","ping":49},{"user_id":178,"name":"Slim3rs","steam_id":76561199088010585,"connected_time":5924000000000,"state":"active","ping":172},{"user_id":201,"name":"Hakuko","steam_id":76561198078974501,"connected_time":3652000000000,"state":"active","ping":98},{"user_id":186,"name":"hish (f2p)","steam_id":76561198984254527,"connected_time":5115000000000,"state":"active","ping":97},{"user_id":232,"name":"killman47","steam_id":76561198348487408,"connected_time":552000000000,"state":"active","ping":38},{"user_id":234,"name":"P","steam_id":76561198304514505,"connected_time":426000000000,"state":"active","ping":81},{"user_id":241,"name":"lilumhoho8","steam_id":76561199467954008,"connected_time":100000000000,"state":"active","ping":76},{"user_id":228,"name":"Arpazha","steam_id":76561199072257230,"connected_time":935000000000,"state":"active","ping":114},{"user_id":229,"name":"rock dog","steam_id":76561198110545854,"connected_time":729000000000,"state":"active","ping":150},{"user_id":193,"name":"Prof Booster","steam_id":76561199148930929,"connected_time":4534000000000,"state":"active","ping":35},{"user_id":187,"name":"쿠키","steam_id":76561197997220367,"connected_time":4996000000000,"state":"active","ping":46},{"user_id":224,"name":"junbi OK","steam_id":76561198116387218,"connected_time":1293000000000,"state":"active","ping":89},{"user_id":240,"name":"Lyle","steam_id":76561198145166845,"connected_time":195000000000,"state":"active","ping":150},{"user_id":226,"name":"Bepo","steam_id":76561198136685157,"connected_time":1095000000000,"state":"active","ping":54},{"user_id":227,"name":"mister beast","steam_id":76561198346128694,"connected_time":1083000000000,"state":"active","ping":81},{"user_id":230,"name":"Feminine women shall be hated","steam_id":76561198213031155,"connected_time":649000000000,"state":"active","ping":93},{"user_id":236,"name":"ღMaeve.","steam_id":76561198275846469,"connected_time":405000000000,"state":"active","ping":112},{"user_id":238,"name":"Gamer","steam_id":76561199015268493,"connected_time":341000000000,"state":"active","ping":58},{"user_id":200,"name":"Zoy","steam_id":76561198135656220,"connected_time":3693000000000,"state":"active","ping":94}]},{"server_id":1,"name":"Uncletopia | Los Angeles | 1 | All Maps","name_short":"lax-1","host":"lax-1.us.uncletopia.com","port":27015,"enabled":true,"region":"us-west","cc":"us","latitude":33.94279,"longitude":-118.41004,"reserved":0,"last_update":"0001-01-01T00:00:00Z","name_a2s":"Uncletopia | Los Angeles | 1 | All Maps","protocol":17,"map":"koth_lakeside_final","folder":"tf","game":"Team Fortress","app_id":440,"player_count":0,"max_players":24,"Bots":0,"server_type":"Dedicated","server_os":"Linux","password":true,"vac":true,"version":"7757534","steam_id":85568392924469991,"keywords":["cp","nocrits","nodmgspread","uncletopia"],"game_id":440,"stv_port":27016,"stv_name":"Uncletopia | Los Angeles | 1 | All Maps | STV","players":null},{"server_id":112,"name":"Uncletopia | Los Angeles | 2 | All Maps","name_short":"lax-2","host":"lax-1.us.uncletopia.com","port":27025,"enabled":true,"region":"us-west","cc":"us","latitude":33.94279,"longitude":-118.41004,"reserved":0,"last_update":"0001-01-01T00:00:00Z","name_a2s":"Uncletopia | Los Angeles | 2 | All Maps","protocol":17,"map":"pl_badwater","folder":"tf","game":"Team Fortress","app_id":440,"player_count":0,"max_players":24,"Bots":0,"server_type":"Dedicated","server_os":"Linux","password":true,"vac":true,"version":"7757534","steam_id":85568392924469992,"keywords":["nocrits","nodmgspread","payload","uncletopia"],"game_id":440,"stv_port":27026,"stv_name":"Uncletopia | Los Angeles | 2 | All Maps | STV","players":null},{"server_id":324,"name":"Uncletopia | Los Angeles | 3 | All Maps","name_short":"lax-3","host":"lax-1.us.uncletopia.com","port":27035,"enabled":true,"region":"us-west","cc":"us","latitude":33.94279,"longitude":-118.41004,"reserved":0,"last_update":"0001-01-01T00:00:00Z","name_a2s":"Uncletopia | Los Angeles | 3 | All Maps","protocol":17,"map":"pl_barnblitz","folder":"tf","game":"Team Fortress","app_id":440,"player_count":0,"max_players":24,"Bots":0,"server_type":"Dedicated","server_os":"Linux","password":true,"vac":true,"version":"7757534","steam_id":85568392924510198,"keywords":["nocrits","nodmgspread","payload","uncletopia"],"game_id":440,"stv_port":27036,"stv_name":"Uncletopia | Los Angeles | 3 | All Maps | STV","players":null},{"server_id":25,"name":"Uncletopia | Los Angeles | 4 | Stopwatch Beta","name_short":"lax-4","host":"lax-1.us.uncletopia.com","port":27045,"enabled":true,"region":"us-west","cc":"us","latitude":33.94279,"longitude":-118.41004,"reserved":0,"last_update":"0001-01-01T00:00:00Z","name_a2s":"Uncletopia | Los Angeles | 4 | Stopwatch Beta","protocol":17,"map":"pl_swiftwater_final1","folder":"tf","game":"Team Fortress","app_id":440,"player_count":0,"max_players":24,"Bots":0,"server_type":"Dedicated","server_os":"Linux","password":true,"vac":true,"version":"7757534","steam_id":85568392924510199,"keywords":["nocrits","nodmgspread","payload","uncletopia"],"game_id":440,"stv_port":27046,"stv_name":"Uncletopia | Los Angeles | 4 | Stopwatch Beta | STV","players":null},{"server_id":11,"name":"Uncletopia | London | 1 | All Maps","name_short":"lon-1","host":"lon-1.uk.uncletopia.com","port":27015,"enabled":true,"region":"eu","cc":"gb","latitude":51.509865,"longitude":-0.118092,"reserved":0,"last_update":"0001-01-01T00:00:00Z","name_a2s":"Uncletopia | London | 1 | All Maps","protocol":17,"map":"koth_highpass","folder":"tf","game":"Team Fortress","app_id":440,"player_count":0,"max_players":24,"Bots":0,"server_type":"Dedicated","server_os":"Linux","password":true,"vac":true,"version":"7757534","steam_id":85568392924367362,"keywords":["cp","nocrits","nodmgspread","uncletopia"],"game_id":440,"stv_port":27016,"stv_name":"Uncletopia | London | 1 | All Maps | STV","players":null},{"server_id":114,"name":"Uncletopia | London | 2 | All Maps","name_short":"lon-2","host":"lon-1.uk.uncletopia.com","port":27025,"enabled":true,"region":"eu","cc":"gb","latitude":51.509865,"longitude":-0.118092,"reserved":0,"last_update":"0001-01-01T00:00:00Z","name_a2s":"Uncletopia | London | 2 | All Maps","protocol":17,"map":"cp_process_final","folder":"tf","game":"Team Fortress","app_id":440,"player_count":24,"max_players":24,"Bots":0,"server_type":"Dedicated","server_os":"Linux","password":true,"vac":true,"version":"7757534","steam_id":85568392924470941,"keywords":["cp","nocrits","nodmgspread","uncletopia"],"game_id":440,"stv_port":27026,"stv_name":"Uncletopia | London | 2 | All Maps | STV","players":[{"user_id":290,"name":"Johan","steam_id":76561199380849468,"connected_time":673000000000,"state":"active","ping":62},{"user_id":221,"name":"Zerfesh","steam_id":76561198117534358,"connected_time":4684000000000,"state":"active","ping":97},{"user_id":264,"name":"Kurage","steam_id":76561198021221288,"connected_time":2362000000000,"state":"active","ping":70},{"user_id":240,"name":"gagalak","steam_id":76561198089979108,"connected_time":3710000000000,"state":"active","ping":98},{"user_id":278,"name":"Enigma","steam_id":76561198035401717,"connected_time":1912000000000,"state":"active","ping":70},{"user_id":292,"name":"Fat Pigeon","steam_id":76561198817940142,"connected_time":528000000000,"state":"active","ping":45},{"user_id":296,"name":"Gimli","steam_id":76561198004149706,"connected_time":142000000000,"state":"active","ping":62},{"user_id":276,"name":"azzy","steam_id":76561198061293740,"connected_time":1955000000000,"state":"active","ping":78},{"user_id":297,"name":"AverageName","steam_id":76561199114333959,"connected_time":133000000000,"state":"active","ping":65},{"user_id":274,"name":"Birdseye","steam_id":76561198025852216,"connected_time":1966000000000,"state":"active","ping":44},{"user_id":226,"name":"Tekky","steam_id":76561197990987315,"connected_time":4196000000000,"state":"active","ping":40},{"user_id":280,"name":"Bounter","steam_id":76561198072614188,"connected_time":1864000000000,"state":"active","ping":68},{"user_id":265,"name":"Flare","steam_id":76561198039098320,"connected_time":2355000000000,"state":"active","ping":45},{"user_id":260,"name":"spxcy","steam_id":76561198080296853,"connected_time":2674000000000,"state":"active","ping":99},{"user_id":242,"name":"LemonLeCitron","steam_id":76561198215545267,"connected_time":3658000000000,"state":"active","ping":62},{"user_id":281,"name":"poliakov.noam","steam_id":76561199259322961,"connected_time":1847000000000,"state":"active","ping":102},{"user_id":291,"name":"Udinese Dion","steam_id":76561198067931573,"connected_time":646000000000,"state":"active","ping":49},{"user_id":294,"name":"Laurie","steam_id":76561198082951750,"connected_time":349000000000,"state":"active","ping":47},{"user_id":283,"name":"Pauler le one","steam_id":76561198398152855,"connected_time":1435000000000,"state":"active","ping":122},{"user_id":286,"name":"elio","steam_id":76561198142662131,"connected_time":890000000000,"state":"active","ping":67},{"user_id":246,"name":"kojitori","steam_id":76561198838072150,"connected_time":3463000000000,"state":"active","ping":45},{"user_id":269,"name":"KAZAM | Tervez","steam_id":76561198045459068,"connected_time":2245000000000,"state":"active","ping":87},{"user_id":270,"name":"Space","steam_id":76561198021572167,"connected_time":2224000000000,"state":"active","ping":45},{"user_id":272,"name":"Breizbuc","steam_id":76561198118220633,"connected_time":2186000000000,"state":"active","ping":67}]},{"server_id":320,"name":"Uncletopia | London | 3 | All Maps","name_short":"lon-3","host":"lon-1.uk.uncletopia.com","port":27035,"enabled":true,"region":"eu","cc":"gb","latitude":51.509865,"longitude":-0.118092,"reserved":0,"last_update":"0001-01-01T00:00:00Z","name_a2s":"Uncletopia | London | 3 | All Maps","protocol":17,"map":"koth_viaduct","folder":"tf","game":"Team Fortress","app_id":440,"player_count":0,"max_players":24,"Bots":0,"server_type":"Dedicated","server_os":"Linux","password":true,"vac":true,"version":"7757534","steam_id":85568392924510192,"keywords":["cp","nocrits","nodmgspread","uncletopia"],"game_id":440,"stv_port":27036,"stv_name":"Uncletopia | London | 3 | All Maps | STV","players":null},{"server_id":321,"name":"Uncletopia | London | 4 | All Maps","name_short":"lon-4","host":"lon-1.uk.uncletopia.com","port":27045,"enabled":true,"region":"eu","cc":"gb","latitude":51.509865,"longitude":-0.118092,"reserved":0,"last_update":"0001-01-01T00:00:00Z","name_a2s":"Uncletopia | London | 4 | All Maps","protocol":17,"map":"cp_snakewater_final1","folder":"tf","game":"Team Fortress","app_id":440,"player_count":0,"max_players":24,"Bots":0,"server_type":"Dedicated","server_os":"Linux","password":true,"vac":true,"version":"7757534","steam_id":85568392924510193,"keywords":["cp","nocrits","nodmgspread","uncletopia"],"game_id":440,"stv_port":27046,"stv_name":"Uncletopia | London | 4 | All Maps | STV","players":null},{"server_id":21,"name":"Uncletopia | London | 5 | All Maps","name_short":"lon-5","host":"lon-1.uk.uncletopia.com","port":27055,"enabled":true,"region":"eu","cc":"gb","latitude":51.509865,"longitude":-0.118092,"reserved":0,"last_update":"0001-01-01T00:00:00Z","name_a2s":"Uncletopia | London | 5 | All Maps","protocol":17,"map":"cp_altitude","folder":"tf","game":"Team Fortress","app_id":440,"player_count":0,"max_players":24,"Bots":0,"server_type":"Dedicated","server_os":"Linux","password":true,"vac":true,"version":"7757534","steam_id":85568392924742829,"keywords":["cp","nocrits","nodmgspread","uncletopia"],"game_id":440,"stv_port":27056,"stv_name":"Uncletopia | London | 5 | All Maps | STV","players":null},{"server_id":22,"name":"Uncletopia | London | 6 | All Maps","name_short":"lon-6","host":"lon-1.uk.uncletopia.com","port":27065,"enabled":true,"region":"eu","cc":"gb","latitude":51.509865,"longitude":-0.118092,"reserved":0,"last_update":"0001-01-01T00:00:00Z","name_a2s":"Uncletopia | London | 6 | All Maps","protocol":17,"map":"cp_process_final","folder":"tf","game":"Team Fortress","app_id":440,"player_count":0,"max_players":24,"Bots":0,"server_type":"Dedicated","server_os":"Linux","password":true,"vac":true,"version":"7757534","steam_id":85568392924742830,"keywords":["cp","nocrits","nodmgspread","uncletopia"],"game_id":440,"stv_port":27066,"stv_name":"Uncletopia | London | 6 | All Maps | STV","players":null},{"server_id":40,"name":"Uncletopia | London | 7 | No Payload","name_short":"lon-7","host":"lon-1.uk.uncletopia.com","port":27075,"enabled":true,"region":"eu","cc":"gb","latitude":51.509865,"longitude":-0.118092,"reserved":0,"last_update":"0001-01-01T00:00:00Z","name_a2s":"Uncletopia | London | 7 | No Payload","protocol":17,"map":"koth_lakeside_final","folder":"tf","game":"Team Fortress","app_id":440,"player_count":0,"max_players":24,"Bots":0,"server_type":"Dedicated","server_os":"Linux","password":true,"vac":true,"version":"7757534","steam_id":85568392924964314,"keywords":["cp","nocrits","nodmgspread","uncletopia"],"game_id":440,"stv_port":27076,"stv_name":"Uncletopia | London | 7 | No Payload | STV","players":null},{"server_id":41,"name":"Uncletopia | London | 8 | Community","name_short":"lon-8","host":"lon-1.uk.uncletopia.com","port":27085,"enabled":true,"region":"eu","cc":"gb","latitude":51.509865,"longitude":-0.118092,"reserved":0,"last_update":"0001-01-01T00:00:00Z","name_a2s":"Uncletopia | London | 8 | Community","protocol":17,"map":"workshop/cp_glassworks_rc6a.ugc454118349","folder":"tf","game":"Team Fortress","app_id":440,"player_count":0,"max_players":24,"Bots":0,"server_type":"Dedicated","server_os":"Linux","password":true,"vac":true,"version":"7757534","steam_id":85568392924964315,"keywords":["cp","nocrits","nodmgspread","uncletopia"],"game_id":440,"stv_port":27086,"stv_name":"Uncletopia | London | 8 | Community | STV","players":null},{"server_id":300,"name":"Uncletopia | Montréal | 1 | All Maps","name_short":"mtl-1","host":"mtl-1.ca.uncletopia.com","port":27015,"enabled":true,"region":"us-east","cc":"ca","latitude":45.50889,"longitude":-73.56167,"reserved":0,"last_update":"0001-01-01T00:00:00Z","name_a2s":"Uncletopia | Montréal | 1 | All Maps","protocol":17,"map":"cp_process_final","folder":"tf","game":"Team Fortress","app_id":440,"player_count":0,"max_players":24,"Bots":0,"server_type":"Dedicated","server_os":"Linux","password":true,"vac":true,"version":"7757534","steam_id":85568392924500087,"keywords":["cp","nocrits","nodmgspread","uncletopia"],"game_id":440,"stv_port":27016,"stv_name":"Uncletopia | Montréal | 1 | All Maps | STV","players":null},{"server_id":301,"name":"Uncletopia | Montréal | 2 | All Maps","name_short":"mtl-2","host":"mtl-1.ca.uncletopia.com","port":27025,"enabled":true,"region":"us-east","cc":"ca","latitude":45.50889,"longitude":-73.56167,"reserved":0,"last_update":"0001-01-01T00:00:00Z","name_a2s":"Uncletopia | Montréal | 2 | All Maps","protocol":17,"map":"pl_snowycoast","folder":"tf","game":"Team Fortress","app_id":440,"player_count":0,"max_players":24,"Bots":0,"server_type":"Dedicated","server_os":"Linux","password":true,"vac":true,"version":"7757534","steam_id":85568392924500088,"keywords":["nocrits","nodmgspread","payload","uncletopia"],"game_id":440,"stv_port":27026,"stv_name":"Uncletopia | Montréal | 2 | All Maps | STV","players":null},{"server_id":302,"name":"Uncletopia | Montréal | 3 | All Maps","name_short":"mtl-3","host":"mtl-1.ca.uncletopia.com","port":27035,"enabled":true,"region":"us-east","cc":"ca","latitude":45.50889,"longitude":-73.56167,"reserved":0,"last_update":"0001-01-01T00:00:00Z","name_a2s":"Uncletopia | Montréal | 3 | All Maps","protocol":17,"map":"pl_swiftwater_final1","folder":"tf","game":"Team Fortress","app_id":440,"player_count":0,"max_players":24,"Bots":0,"server_type":"Dedicated","server_os":"Linux","password":true,"vac":true,"version":"7757534","steam_id":85568392924500089,"keywords":["nocrits","nodmgspread","payload","uncletopia"],"game_id":440,"stv_port":27036,"stv_name":"Uncletopia | Montréal | 3 | All Maps | STV","players":null},{"server_id":303,"name":"Uncletopia | Montréal | 4 | No Payload","name_short":"mtl-4","host":"mtl-1.ca.uncletopia.com","port":27045,"enabled":true,"region":"us-east","cc":"ca","latitude":45.50889,"longitude":-73.56167,"reserved":0,"last_update":"0001-01-01T00:00:00Z","name_a2s":"Uncletopia | Montréal | 4 | No Payload","protocol":17,"map":"pl_pier","folder":"tf","game":"Team Fortress","app_id":440,"player_count":0,"max_players":24,"Bots":0,"server_type":"Dedicated","server_os":"Linux","password":true,"vac":true,"version":"7757534","steam_id":85568392924500090,"keywords":["nocrits","nodmgspread","payload","uncletopia"],"game_id":440,"stv_port":27046,"stv_name":"Uncletopia | Montréal | 4 | No Payload | STV","players":null},{"server_id":13,"name":"Uncletopia | New York City | 1 | All Maps","name_short":"nyc-1","host":"nyc-1.us.uncletopia.com","port":27015,"enabled":true,"region":"us-east","cc":"us","latitude":40.73061,"longitude":-73.93524,"reserved":0,"last_update":"0001-01-01T00:00:00Z","name_a2s":"Uncletopia | New York City | 1 | All Maps","protocol":17,"map":"koth_viaduct","folder":"tf","game":"Team Fortress","app_id":440,"player_count":0,"max_players":24,"Bots":0,"server_type":"Dedicated","server_os":"Linux","password":true,"vac":true,"version":"7757534","steam_id":85568392924469993,"keywords":["cp","nocrits","nodmgspread","uncletopia"],"game_id":440,"stv_port":27016,"stv_name":"Uncletopia | New York City | 1 | All Maps | STV","players":null},{"server_id":14,"name":"Uncletopia | New York City | 2 | All Maps","name_short":"nyc-2","host":"nyc-1.us.uncletopia.com","port":27025,"enabled":true,"region":"us-east","cc":"us","latitude":40.73061,"longitude":-73.93524,"reserved":0,"last_update":"0001-01-01T00:00:00Z","name_a2s":"Uncletopia | New York City | 2 | All Maps","protocol":17,"map":"koth_viaduct","folder":"tf","game":"Team Fortress","app_id":440,"player_count":24,"max_players":24,"Bots":0,"server_type":"Dedicated","server_os":"Linux","password":true,"vac":true,"version":"7757534","steam_id":85568392924469994,"keywords":["cp","nocrits","nodmgspread","uncletopia"],"game_id":440,"stv_port":27026,"stv_name":"Uncletopia | New York City | 2 | All Maps | STV","players":[{"user_id":67,"name":"Smiggles","steam_id":76561198203333700,"connected_time":68000000000,"state":"active","ping":67},{"user_id":12,"name":"LonelyNerd","steam_id":76561198135971292,"connected_time":2000000000000,"state":"active","ping":107},{"user_id":22,"name":"{(.:A.o.S:.)}gumby","steam_id":76561197970528239,"connected_time":1930000000000,"state":"active","ping":71},{"user_id":34,"name":"Zod","steam_id":76561198384630002,"connected_time":696000000000,"state":"active","ping":82},{"user_id":69,"name":"Schplichael","steam_id":76561198007792525,"connected_time":55000000000,"state":"active","ping":106},{"user_id":25,"name":"El Laminator","steam_id":76561198170313697,"connected_time":1647000000000,"state":"active","ping":84},{"user_id":38,"name":"『ᴎioƆ』","steam_id":76561198879351372,"connected_time":575000000000,"state":"active","ping":40},{"user_id":37,"name":"Gel electrophoresis railgun","steam_id":76561198032259680,"connected_time":615000000000,"state":"active","ping":61},{"user_id":44,"name":"pencil","steam_id":76561198119826352,"connected_time":466000000000,"state":"active","ping":90},{"user_id":33,"name":"xGRIMx","steam_id":76561198195091799,"connected_time":917000000000,"state":"active","ping":102},{"user_id":40,"name":"Man of LGBTQ+ Rights","steam_id":76561198867215959,"connected_time":558000000000,"state":"active","ping":80},{"user_id":41,"name":"Kamikazedoctor","steam_id":76561198157078818,"connected_time":553000000000,"state":"active","ping":84},{"user_id":70,"name":"LW | [wrd]HaloLagann","steam_id":76561198047561568,"connected_time":37000000000,"state":"active","ping":88},{"user_id":62,"name":"chicken","steam_id":76561199090424127,"connected_time":232000000000,"state":"active","ping":82},{"user_id":45,"name":"King De","steam_id":76561198194427422,"connected_time":421000000000,"state":"active","ping":70},{"user_id":68,"name":"Damian","steam_id":76561198159390231,"connected_time":64000000000,"state":"active","ping":78},{"user_id":47,"name":"Vensita","steam_id":76561198372434928,"connected_time":387000000000,"state":"active","ping":82},{"user_id":48,"name":"creepycrawler","steam_id":76561198352016831,"connected_time":323000000000,"state":"active","ping":76},{"user_id":49,"name":"Blank","steam_id":76561198300388583,"connected_time":320000000000,"state":"active","ping":145},{"user_id":60,"name":"sfx","steam_id":76561197963293843,"connected_time":252000000000,"state":"active","ping":56},{"user_id":61,"name":"need a dispenser here","steam_id":76561198060912995,"connected_time":244000000000,"state":"active","ping":45},{"user_id":63,"name":"SadVeggie","steam_id":76561198163430099,"connected_time":208000000000,"state":"active","ping":121},{"user_id":64,"name":"Warrenator","steam_id":76561198132094572,"connected_time":206000000000,"state":"active","ping":83},{"user_id":65,"name":"PyroEagle","steam_id":76561198296434231,"connected_time":197000000000,"state":"active","ping":87}]},{"server_id":15,"name":"Uncletopia | New York City | 3 | Stopwatch Beta","name_short":"nyc-3","host":"nyc-1.us.uncletopia.com","port":27035,"enabled":true,"region":"us-east","cc":"us","latitude":40.73061,"longitude":-73.93524,"reserved":0,"last_update":"0001-01-01T00:00:00Z","name_a2s":"Uncletopia | New York City | 3 | Stopwatch Beta","protocol":17,"map":"pl_upward","folder":"tf","game":"Team Fortress","app_id":440,"player_count":0,"max_players":24,"Bots":0,"server_type":"Dedicated","server_os":"Linux","password":true,"vac":true,"version":"7757534","steam_id":85568392924742820,"keywords":["nocrits","nodmgspread","payload","uncletopia"],"game_id":440,"stv_port":27036,"stv_name":"Uncletopia | New York City | 3 | Stopwatch Beta | STV","players":null},{"server_id":16,"name":"Uncletopia | New York City | 4 | Community","name_short":"nyc-4","host":"nyc-1.us.uncletopia.com","port":27045,"enabled":true,"region":"us-east","cc":"us","latitude":40.73061,"longitude":-73.93524,"reserved":0,"last_update":"0001-01-01T00:00:00Z","name_a2s":"Uncletopia | New York City | 4 | Community","protocol":17,"map":"pl_swiftwater_final1","folder":"tf","game":"Team Fortress","app_id":440,"player_count":0,"max_players":24,"Bots":0,"server_type":"Dedicated","server_os":"Linux","password":true,"vac":true,"version":"7757534","steam_id":85568392924742821,"keywords":["nocrits","nodmgspread","payload","uncletopia"],"game_id":440,"stv_port":27046,"stv_name":"Uncletopia | New York City | 4 | Community | STV","players":null},{"server_id":142,"name":"Uncletopia | São Paulo | 1 | All Maps","name_short":"sao-1","host":"sao-1.br.uncletopia.com","port":27015,"enabled":true,"region":"sa","cc":"br","latitude":-23.533773,"longitude":-46.62529,"reserved":0,"last_update":"0001-01-01T00:00:00Z","name_a2s":"Uncletopia | São Paulo | 1 | All Maps","protocol":17,"map":"koth_lakeside_final","folder":"tf","game":"Team Fortress","app_id":440,"player_count":0,"max_players":24,"Bots":0,"server_type":"Dedicated","server_os":"Linux","password":true,"vac":true,"version":"7757534","steam_id":85568392924469996,"keywords":["cp","nocrits","nodmgspread","uncletopia"],"game_id":440,"stv_port":27016,"stv_name":"Uncletopia | São Paulo | 1 | All Maps | STV","players":null},{"server_id":143,"name":"Uncletopia | São Paulo | 2 | All Maps","name_short":"sao-2","host":"sao-2.br.uncletopia.com","port":27015,"enabled":true,"region":"sa","cc":"br","latitude":-23.533773,"longitude":-46.62529,"reserved":0,"last_update":"0001-01-01T00:00:00Z","name_a2s":"Uncletopia | São Paulo | 2 | All Maps","protocol":17,"map":"cp_process_final","folder":"tf","game":"Team Fortress","app_id":440,"player_count":0,"max_players":24,"Bots":0,"server_type":"Dedicated","server_os":"Linux","password":true,"vac":true,"version":"7757534","steam_id":85568392924485349,"keywords":["cp","nocrits","nodmgspread","uncletopia"],"game_id":440,"stv_port":27016,"stv_name":"Uncletopia | São Paulo | 2 | All Maps | STV","players":null},{"server_id":7,"name":"Uncletopia | Seattle | 1 | All Maps","name_short":"sea-1","host":"sea-1.us.uncletopia.com","port":27015,"enabled":true,"region":"us-west","cc":"us","latitude":47.608013,"longitude":-122.33517,"reserved":0,"last_update":"0001-01-01T00:00:00Z","name_a2s":"Uncletopia | Seattle | 1 | All Maps","protocol":17,"map":"pl_barnblitz","folder":"tf","game":"Team Fortress","app_id":440,"player_count":24,"max_players":24,"Bots":0,"server_type":"Dedicated","server_os":"Linux","password":true,"vac":true,"version":"7757534","steam_id":85568392924469997,"keywords":["nocrits","nodmgspread","payload","uncletopia"],"game_id":440,"stv_port":27016,"stv_name":"Uncletopia | Seattle | 1 | All Maps | STV","players":[{"user_id":3,"name":"El Duderino","steam_id":76561199427900685,"connected_time":3151000000000,"state":"active","ping":90},{"user_id":50,"name":"MeepoBeepo","steam_id":76561199103069202,"connected_time":1790000000000,"state":"active","ping":78},{"user_id":52,"name":"Chad the Sex Haver","steam_id":76561198058236528,"connected_time":1675000000000,"state":"active","ping":81},{"user_id":20,"name":"Kaluka","steam_id":76561198036861445,"connected_time":2992000000000,"state":"active","ping":111},{"user_id":66,"name":"man behind the slaughter (F2P)","steam_id":76561198854070384,"connected_time":722000000000,"state":"active","ping":165},{"user_id":72,"name":"stinky beanz","steam_id":76561198041946616,"connected_time":414000000000,"state":"active","ping":108},{"user_id":53,"name":"mobe","steam_id":76561198121633820,"connected_time":1599000000000,"state":"active","ping":70},{"user_id":56,"name":"EngiBean","steam_id":76561198411043331,"connected_time":1300000000000,"state":"active","ping":149},{"user_id":68,"name":"amagicowl","steam_id":76561199060487814,"connected_time":511000000000,"state":"active","ping":55},{"user_id":78,"name":"Portal2Player","steam_id":76561198062870114,"connected_time":47000000000,"state":"active","ping":120},{"user_id":76,"name":"sagekiss","steam_id":76561198038831240,"connected_time":170000000000,"state":"active","ping":59},{"user_id":43,"name":"Mr. Smooooth","steam_id":76561198037566858,"connected_time":2005000000000,"state":"active","ping":96},{"user_id":70,"name":"rustyorion","steam_id":76561198439186347,"connected_time":482000000000,"state":"active","ping":48},{"user_id":18,"name":"Flamin' Hot Cheetos","steam_id":76561198358757709,"connected_time":3043000000000,"state":"active","ping":149},{"user_id":65,"name":"S9","steam_id":76561198065339248,"connected_time":823000000000,"state":"active","ping":65},{"user_id":32,"name":"Annie DW3","steam_id":76561198268990628,"connected_time":2684000000000,"state":"active","ping":131},{"user_id":44,"name":"RileyNiko","steam_id":76561198162093639,"connected_time":2004000000000,"state":"active","ping":117},{"user_id":45,"name":"the goop slinger","steam_id":76561198271710504,"connected_time":2003000000000,"state":"active","ping":106},{"user_id":75,"name":"Misery ★","steam_id":76561198055710666,"connected_time":286000000000,"state":"active","ping":50},{"user_id":73,"name":"Eosson","steam_id":76561198108642113,"connected_time":376000000000,"state":"active","ping":94},{"user_id":48,"name":"Winter the Witchie","steam_id":76561198151971178,"connected_time":1858000000000,"state":"active","ping":117},{"user_id":58,"name":"Wacks","steam_id":76561198079476100,"connected_time":1265000000000,"state":"active","ping":64},{"user_id":34,"name":"secret island","steam_id":76561198286113033,"connected_time":2660000000000,"state":"active","ping":120},{"user_id":49,"name":"Olhado","steam_id":76561198390880200,"connected_time":1847000000000,"state":"active","ping":141}]},{"server_id":119,"name":"Uncletopia | Seattle | 2 | All Maps","name_short":"sea-2","host":"sea-1.us.uncletopia.com","port":27025,"enabled":true,"region":"us-west","cc":"us","latitude":47.608013,"longitude":-122.33517,"reserved":0,"last_update":"0001-01-01T00:00:00Z","name_a2s":"Uncletopia | Seattle | 2 | All Maps","protocol":17,"map":"pl_badwater","folder":"tf","game":"Team Fortress","app_id":440,"player_count":0,"max_players":24,"Bots":0,"server_type":"Dedicated","server_os":"Linux","password":true,"vac":true,"version":"7757534","steam_id":85568392924469998,"keywords":["nocrits","nodmgspread","payload","uncletopia"],"game_id":440,"stv_port":27026,"stv_name":"Uncletopia | Seattle | 2 | All Maps | STV","players":null},{"server_id":406,"name":"Uncletopia | Seattle | 3 | Stopwatch Beta","name_short":"sea-3","host":"sea-1.us.uncletopia.com","port":27035,"enabled":true,"region":"us-west","cc":"us","latitude":47.608013,"longitude":-122.33517,"reserved":0,"last_update":"0001-01-01T00:00:00Z","name_a2s":"Uncletopia | Seattle | 3 | Stopwatch Beta","protocol":17,"map":"cp_dustbowl","folder":"tf","game":"Team Fortress","app_id":440,"player_count":0,"max_players":24,"Bots":0,"server_type":"Dedicated","server_os":"Linux","password":true,"vac":true,"version":"7757534","steam_id":85568392924515217,"keywords":["cp","nocrits","nodmgspread","uncletopia"],"game_id":440,"stv_port":27036,"stv_name":"Uncletopia | Seattle | 3 | Stopwatch Beta | STV","players":null},{"server_id":17,"name":"Uncletopia | San Francisco | 1 | All Maps","name_short":"sfo-1","host":"sfo-1.us.uncletopia.com","port":27015,"enabled":true,"region":"us-west","cc":"us","latitude":37.77397,"longitude":-122.4313,"reserved":0,"last_update":"0001-01-01T00:00:00Z","name_a2s":"Uncletopia | San Francisco | 1 | All Maps","protocol":17,"map":"cp_process_final","folder":"tf","game":"Team Fortress","app_id":440,"player_count":0,"max_players":24,"Bots":0,"server_type":"Dedicated","server_os":"Linux","password":true,"vac":true,"version":"7757534","steam_id":85568392924469999,"keywords":["cp","nocrits","nodmgspread","uncletopia"],"game_id":440,"stv_port":27016,"stv_name":"Uncletopia | San Francisco | 1 | All Maps | STV","players":null},{"server_id":18,"name":"Uncletopia | San Francisco | 2 | All Maps","name_short":"sfo-2","host":"sfo-1.us.uncletopia.com","port":27025,"enabled":true,"region":"us-west","cc":"us","latitude":37.77397,"longitude":-122.4313,"reserved":0,"last_update":"0001-01-01T00:00:00Z","name_a2s":"Uncletopia | San Francisco | 2 | All Maps","protocol":17,"map":"koth_highpass","folder":"tf","game":"Team Fortress","app_id":440,"player_count":0,"max_players":24,"Bots":0,"server_type":"Dedicated","server_os":"Linux","password":true,"vac":true,"version":"7757534","steam_id":85568392924470000,"keywords":["cp","nocrits","nodmgspread","uncletopia"],"game_id":440,"stv_port":27026,"stv_name":"Uncletopia | San Francisco | 2 | All Maps | STV","players":null},{"server_id":19,"name":"Uncletopia | San Francisco | 3 | Stopwatch Beta","name_short":"sfo-3","host":"sfo-1.us.uncletopia.com","port":27035,"enabled":true,"region":"us-west","cc":"us","latitude":37.77397,"longitude":-122.4313,"reserved":0,"last_update":"0001-01-01T00:00:00Z","name_a2s":"Uncletopia | San Francisco | 3 | Stopwatch Beta","protocol":17,"map":"koth_lakeside_final","folder":"tf","game":"Team Fortress","app_id":440,"player_count":0,"max_players":24,"Bots":0,"server_type":"Dedicated","server_os":"Linux","password":true,"vac":true,"version":"7757534","steam_id":85568392924742824,"keywords":["cp","nocrits","nodmgspread","uncletopia"],"game_id":440,"stv_port":27036,"stv_name":"Uncletopia | San Francisco | 3 | Stopwatch Beta | STV","players":null},{"server_id":20,"name":"Uncletopia | San Francisco | 4 | Community","name_short":"sfo-4","host":"sfo-1.us.uncletopia.com","port":27045,"enabled":true,"region":"us-west","cc":"us","latitude":37.77397,"longitude":-122.4313,"reserved":0,"last_update":"0001-01-01T00:00:00Z","name_a2s":"Uncletopia | San Francisco | 4 | Community","protocol":17,"map":"cp_altitude","folder":"tf","game":"Team Fortress","app_id":440,"player_count":0,"max_players":24,"Bots":0,"server_type":"Dedicated","server_os":"Linux","password":true,"vac":true,"version":"7757534","steam_id":85568392924742826,"keywords":["cp","nocrits","nodmgspread","uncletopia"],"game_id":440,"stv_port":27046,"stv_name":"Uncletopia | San Francisco | 4 | Community | STV","players":null},{"server_id":141,"name":"Uncletopia | Sydney | 1 | All Maps","name_short":"syd-1","host":"syd-1.au.uncletopia.com","port":27015,"enabled":true,"region":"au","cc":"au","latitude":-33.865143,"longitude":151.2099,"reserved":0,"last_update":"0001-01-01T00:00:00Z","name_a2s":"Uncletopia | Sydney | 1 | All Maps","protocol":17,"map":"pl_pier","folder":"tf","game":"Team Fortress","app_id":440,"player_count":0,"max_players":24,"Bots":0,"server_type":"Dedicated","server_os":"Linux","password":true,"vac":true,"version":"7757534","steam_id":85568392924470001,"keywords":["nocrits","nodmgspread","payload","uncletopia"],"game_id":440,"stv_port":27016,"stv_name":"Uncletopia | Sydney | 1 | All Maps | STV","players":null},{"server_id":123,"name":"Uncletopia | Sydney | 2 | All Maps","name_short":"syd-2","host":"syd-1.au.uncletopia.com","port":27025,"enabled":true,"region":"au","cc":"au","latitude":-33.865143,"longitude":151.2099,"reserved":0,"last_update":"0001-01-01T00:00:00Z","name_a2s":"Uncletopia | Sydney | 2 | All Maps","protocol":17,"map":"pl_pier","folder":"tf","game":"Team Fortress","app_id":440,"player_count":15,"max_players":24,"Bots":0,"server_type":"Dedicated","server_os":"Linux","password":true,"vac":true,"version":"7757534","steam_id":85568392924470002,"keywords":["nocrits","nodmgspread","payload","uncletopia"],"game_id":440,"stv_port":27026,"stv_name":"Uncletopia | Sydney | 2 | All Maps | STV","players":[{"user_id":497,"name":"Etihad Sponsorship (legal)","steam_id":76561198031293430,"connected_time":1877000000000,"state":"active","ping":86},{"user_id":452,"name":"Sneevil Gladiator (Level 2)","steam_id":76561198301282416,"connected_time":6679000000000,"state":"active","ping":51},{"user_id":453,"name":"modus","steam_id":76561198025099660,"connected_time":6285000000000,"state":"active","ping":32},{"user_id":511,"name":"garnish master","steam_id":76561197996551827,"connected_time":823000000000,"state":"active","ping":58},{"user_id":507,"name":"Sledgehammer","steam_id":76561198066726621,"connected_time":1155000000000,"state":"active","ping":46},{"user_id":457,"name":"Tantei Rotana","steam_id":76561198041204323,"connected_time":4963000000000,"state":"active","ping":60},{"user_id":458,"name":"Fleetfoot","steam_id":76561198072845816,"connected_time":4830000000000,"state":"active","ping":49},{"user_id":459,"name":"Will topscore for $20","steam_id":76561198170236666,"connected_time":4569000000000,"state":"active","ping":31},{"user_id":494,"name":"Yassle","steam_id":76561198329102247,"connected_time":2038000000000,"state":"active","ping":96},{"user_id":418,"name":"Mail Bomb Victim","steam_id":76561198284533039,"connected_time":10152000000000,"state":"active","ping":51},{"user_id":513,"name":"little raw meat boy","steam_id":76561199248254676,"connected_time":687000000000,"state":"active","ping":59},{"user_id":499,"name":"shweeb enthusiast","steam_id":76561198048064049,"connected_time":1794000000000,"state":"active","ping":80},{"user_id":517,"name":"clownfish","steam_id":76561198190467898,"connected_time":374000000000,"state":"active","ping":30},{"user_id":506,"name":"Branko","steam_id":76561199262196710,"connected_time":1243000000000,"state":"active","ping":36},{"user_id":469,"name":"Probably Caffeinated","steam_id":76561198108179408,"connected_time":4397000000000,"state":"active","ping":77}]},{"server_id":395,"name":"Uncletopia | Sydney | 3 | All Maps","name_short":"syd-3","host":"syd-1.au.uncletopia.com","port":27035,"enabled":true,"region":"au","cc":"au","latitude":-33.865143,"longitude":151.2099,"reserved":0,"last_update":"0001-01-01T00:00:00Z","name_a2s":"Uncletopia | Sydney | 3 | All Maps","protocol":17,"map":"koth_badlands","folder":"tf","game":"Team Fortress","app_id":440,"player_count":0,"max_players":24,"Bots":0,"server_type":"Dedicated","server_os":"Linux","password":true,"vac":true,"version":"7757534","steam_id":85568392925194467,"keywords":["cp","nocrits","nodmgspread","uncletopia"],"game_id":440,"stv_port":27036,"stv_name":"Uncletopia | Sydney | 3 | All Maps | STV","players":null},{"server_id":396,"name":"Uncletopia | Sydney | 4 | All Maps","name_short":"syd-4","host":"syd-1.au.uncletopia.com","port":27045,"enabled":true,"region":"au","cc":"au","latitude":-33.865143,"longitude":151.2099,"reserved":0,"last_update":"0001-01-01T00:00:00Z","name_a2s":"Uncletopia | Sydney | 4 | All Maps","protocol":17,"map":"koth_highpass","folder":"tf","game":"Team Fortress","app_id":440,"player_count":0,"max_players":24,"Bots":0,"server_type":"Dedicated","server_os":"Linux","password":true,"vac":true,"version":"7757534","steam_id":85568392925397958,"keywords":["cp","nocrits","nodmgspread","uncletopia"],"game_id":440,"stv_port":27046,"stv_name":"Uncletopia | Sydney | 4 | All Maps | STV","players":null},{"server_id":58,"name":"Uncletopia | Sydney | 5 | Stopwatch Beta","name_short":"syd-5","host":"syd-1.au.uncletopia.com","port":27055,"enabled":true,"region":"au","cc":"au","latitude":-33.865143,"longitude":151.2099,"reserved":0,"last_update":"0001-01-01T00:00:00Z","name_a2s":"Uncletopia | Sydney | 5 | Stopwatch Beta","protocol":17,"map":"koth_cascade","folder":"tf","game":"Team Fortress","app_id":440,"player_count":0,"max_players":24,"Bots":0,"server_type":"Dedicated","server_os":"Linux","password":true,"vac":true,"version":"7757534","steam_id":85568392925397959,"keywords":["cp","nocrits","nodmgspread","uncletopia"],"game_id":440,"stv_port":27056,"stv_name":"Uncletopia | Sydney | 5 | Stopwatch Beta | STV","players":null},{"server_id":59,"name":"Uncletopia | Sydney | 6 | Community","name_short":"syd-6","host":"syd-1.au.uncletopia.com","port":27065,"enabled":true,"region":"au","cc":"au","latitude":-33.865143,"longitude":151.2099,"reserved":0,"last_update":"0001-01-01T00:00:00Z","name_a2s":"Uncletopia | Sydney | 6 | Community","protocol":17,"map":"workshop/pl_eruption_b9a.ugc2807898013","folder":"tf","game":"Team Fortress","app_id":440,"player_count":0,"max_players":24,"Bots":0,"server_type":"Dedicated","server_os":"Linux","password":true,"vac":true,"version":"7757534","steam_id":85568392925397960,"keywords":["nocrits","nodmgspread","payload","uncletopia"],"game_id":440,"stv_port":27066,"stv_name":"Uncletopia | Sydney | 6 | Community | STV","players":null},{"server_id":49,"name":"Uncletopia | Warsaw | 1 | All Maps","name_short":"waw-1","host":"waw-1.pl.uncletopia.com","port":27015,"enabled":true,"region":"eu","cc":"pl","latitude":52.2297,"longitude":21.017532,"reserved":0,"last_update":"0001-01-01T00:00:00Z","name_a2s":"","protocol":0,"map":"","folder":"","game":"","app_id":0,"player_count":0,"max_players":0,"Bots":0,"server_type":"","server_os":"","password":false,"vac":false,"version":"","steam_id":0,"keywords":null,"game_id":0,"stv_port":0,"stv_name":"","players":null},{"server_id":50,"name":"Uncletopia | Warsaw | 2 | All Maps","name_short":"waw-2","host":"waw-1.pl.uncletopia.com","port":27025,"enabled":true,"region":"eu","cc":"pl","latitude":52.2297,"longitude":21.017532,"reserved":0,"last_update":"0001-01-01T00:00:00Z","name_a2s":"Uncletopia | Warsaw | 2 | All Maps","protocol":17,"map":"koth_viaduct","folder":"tf","game":"Team Fortress","app_id":440,"player_count":0,"max_players":24,"Bots":0,"server_type":"Dedicated","server_os":"Linux","password":true,"vac":true,"version":"7757534","steam_id":85568392925397851,"keywords":["cp","nocrits","nodmgspread","uncletopia"],"game_id":440,"stv_port":27026,"stv_name":"Uncletopia | Warsaw | 2 | All Maps | STV","players":null},{"server_id":51,"name":"Uncletopia | Warsaw | 3 | All Maps","name_short":"waw-3","host":"waw-1.pl.uncletopia.com","port":27035,"enabled":true,"region":"eu","cc":"pl","latitude":52.2297,"longitude":21.017532,"reserved":0,"last_update":"0001-01-01T00:00:00Z","name_a2s":"Uncletopia | Warsaw | 3 | All Maps","protocol":17,"map":"pl_frontier_final","folder":"tf","game":"Team Fortress","app_id":440,"player_count":3,"max_players":24,"Bots":0,"server_type":"Dedicated","server_os":"Linux","password":true,"vac":true,"version":"7757534","steam_id":85568392925397852,"keywords":["nocrits","nodmgspread","payload","uncletopia"],"game_id":440,"stv_port":27036,"stv_name":"Uncletopia | Warsaw | 3 | All Maps | STV","players":[{"user_id":6,"name":"Brendy","steam_id":76561199140225457,"connected_time":1360000000000,"state":"active","ping":80},{"user_id":7,"name":"Goose Gaming","steam_id":76561198984767795,"connected_time":1317000000000,"state":"active","ping":80},{"user_id":9,"name":"Truegr","steam_id":76561198811912339,"connected_time":975000000000,"state":"active","ping":82}]},{"server_id":52,"name":"Uncletopia | Warsaw | 4 | All Maps","name_short":"waw-4","host":"waw-1.pl.uncletopia.com","port":27045,"enabled":true,"region":"eu","cc":"pl","latitude":52.2297,"longitude":21.017532,"reserved":0,"last_update":"0001-01-01T00:00:00Z","name_a2s":"Uncletopia | Warsaw | 4 | All Maps","protocol":17,"map":"koth_lakeside_final","folder":"tf","game":"Team Fortress","app_id":440,"player_count":0,"max_players":24,"Bots":0,"server_type":"Dedicated","server_os":"Linux","password":true,"vac":true,"version":"7757534","steam_id":85568392925397853,"keywords":["cp","nocrits","nodmgspread","uncletopia"],"game_id":440,"stv_port":27046,"stv_name":"Uncletopia | Warsaw | 4 | All Maps | STV","players":null},{"server_id":53,"name":"Uncletopia | Warsaw | 5 | Stopwatch Beta","name_short":"waw-5","host":"waw-1.pl.uncletopia.com","port":27055,"enabled":true,"region":"eu","cc":"pl","latitude":52.2297,"longitude":21.017532,"reserved":0,"last_update":"0001-01-01T00:00:00Z","name_a2s":"Uncletopia | Warsaw | 5 | Stopwatch Beta","protocol":17,"map":"pl_borneo","folder":"tf","game":"Team Fortress","app_id":440,"player_count":0,"max_players":24,"Bots":0,"server_type":"Dedicated","server_os":"Linux","password":true,"vac":true,"version":"7757534","steam_id":85568392925397854,"keywords":["nocrits","nodmgspread","payload","uncletopia"],"game_id":440,"stv_port":27056,"stv_name":"Uncletopia | Warsaw | 5 | Stopwatch Beta | STV","players":null},{"server_id":54,"name":"Uncletopia | Warsaw | 6 | Community","name_short":"waw-6","host":"waw-1.pl.uncletopia.com","port":27065,"enabled":true,"region":"eu","cc":"pl","latitude":52.2297,"longitude":21.017532,"reserved":0,"last_update":"0001-01-01T00:00:00Z","name_a2s":"Uncletopia | Warsaw | 6 | Community","protocol":17,"map":"workshop/koth_kemptown_rc1.ugc767410655","folder":"tf","game":"Team Fortress","app_id":440,"player_count":0,"max_players":24,"Bots":0,"server_type":"Dedicated","server_os":"Linux","password":true,"vac":true,"version":"7757534","steam_id":85568392925397856,"keywords":["cp","nocrits","nodmgspread","uncletopia"],"game_id":440,"stv_port":27066,"stv_name":"Uncletopia | Warsaw | 6 | Community | STV","players":null}]}