{"status":true,"message":"","result":[{"server_id":9,"name":"Uncletopia | Atlanta | 1 | All Maps","name_short":"atl-1","host":"atl-1.us.uncletopia.com","port":27015,"enabled":true,"region":"us-east","cc":"us","latitude":33.753746,"longitude":-84.38633,"reserved":0,"last_update":"0001-01-01T00:00:00Z","name_a2s":"Uncletopia | Atlanta | 1 | All Maps","protocol":17,"map":"plr_hightower","folder":"tf","game":"Team Fortress","app_id":440,"player_count":24,"max_players":24,"Bots":0,"server_type":"Dedicated","server_os":"Linux","password":true,"vac":true,"version":"7961495","steam_id":85568392924469982,"keywords":["nocrits","nodmgspread","payload","uncletopia"],"game_id":440,"stv_port":27016,"stv_name":"Uncletopia | Atlanta | 1 | All Maps | STV","players":null},{"server_id":104,"name":"Uncletopia | Atlanta | 2 | All Maps","name_short":"atl-2","host":"atl-1.us.uncletopia.com","port":27025,"enabled":true,"region":"us-east","cc":"us","latitude":33.753746,"longitude":-84.38633,"reserved":0,"last_update":"0001-01-01T00:00:00Z","name_a2s":"Uncletopia | Atlanta | 2 | All Maps","protocol":17,"map":"koth_cascade","folder":"tf","game":"Team Fortress","app_id":440,"player_count":2,"max_players":24,"Bots":0,"server_type":"Dedicated","server_os":"Linux","password":true,"vac":true,"version":"7961495","steam_id":85568392924469983,"keywords":["cp","nocrits","nodmgspread","uncletopia"],"game_id":440,"stv_port":27026,"stv_name":"Uncletopia | Atlanta | 2 | All Maps | STV","players":null},{"server_id":400,"name":"Uncletopia | Atlanta | 3 | Stopwatch","name_short":"atl-3","host":"atl-1.us.uncletopia.com","port":27035,"enabled":true,"region":"us-east","cc":"us","latitude":33.753746,"longitude":-84.38633,"reserved":0,"last_update":"0001-01-01T00:00:00Z","name_a2s":"Uncletopia | Atlanta | 3 | Stopwatch","protocol":17,"map":"cp_reckoner_rc6","folder":"tf","game":"Team Fortress","app_id":440,"player_count":0,"max_players":24,"Bots":0,"server_type":"Dedicated","server_os":"Linux","password":true,"vac":true,"version":"7961495","steam_id":85568392924515187,"keywords":["cp","nocrits","nodmgspread","uncletopia"],"game_id":440,"stv_port":27036,"stv_name":"Uncletopia | Atlanta | 3 | Stopwatch | STV","players":null},{"server_id":401,"name":"Uncletopia | Atlanta | 4 | Community","name_short":"atl-4","host":"atl-1.us.uncletopia.com","port":27045,"enabled":true,"region":"us-east","cc":"us","latitude":33.753746,"longitude":-84.38633,"reserved":0,"last_update":"0001-01-01T00:00:00Z","name_a2s":"Uncletopia | Atlanta | 4 | Community","protocol":17,"map":"koth_ashville_final","folder":"tf","game":"Team Fortress","app_id":440,"player_count":0,"max_players":24,"Bots":0,"server_type":"Dedicated","server_os":"Linux","password":true,"vac":true,"version":"7961495","steam_id":85568392924515188,"keywords":["cp","nocrits","nodmgspread","uncletopia"],"game_id":440,"stv_port":27046,"stv_name":"Uncletopia | Atlanta | 4 | Community | STV","players":null},{"server_id":2,"name":"Uncletopia | Chicago | 1 | All Maps","name_short":"chi-1","host":"chi-1.us.uncletopia.com","port":27015,"enabled":true,"region":"us-central","cc":"us","latitude":41.881832,"longitude":-87.62318,"reserved":0,"last_update":"0001-01-01T00:00:00Z","name_a2s":"Uncletopia | Chicago | 1 | All Maps","protocol":17,"map":"pl_badwater","folder":"tf","game":"Team Fortress","app_id":440,"player_count":24,"max_players":24,"Bots":0,"server_type":"Dedicated","server_os":"Linux","password":true,"vac":true,"version":"7961495","steam_id":85568392924469984,"keywords":["nocrits","nodmgspread","payload","uncletopia"],"game_id":440,"stv_port":27016,"stv_name":"Uncletopia | Chicago | 1 | All Maps | STV","players":[{"user_id":412,"name":"Tired","steam_id":76561198072620682,"connected_time":524000000000,"state":"active","ping":77},{"user_id":413,"name":"pepsi","steam_id":76561198843190923,"connected_time":507000000000,"state":"active","ping":51},{"user_id":394,"name":"killerpi","steam_id":76561198007786114,"connected_time":2166000000000,"state":"active","ping":74},{"user_id":411,"name":"Zanartan","steam_id":76561198050528902,"connected_time":558000000000,"state":"active","ping":181},{"user_id":414,"name":"fakeness","steam_id":76561198018811206,"connected_time":482000000000,"state":"active","ping":72},{"user_id":409,"name":"birds","steam_id":76561198131531646,"connected_time":572000000000,"state":"active","ping":71},{"user_id":383,"name":"Nukemaster9000","steam_id":76561197985642201,"connected_time":3043000000000,"state":"active","ping":52},{"user_id":405,"name":"‡∏∏","steam_id":76561198170624701,"connected_time":1418000000000,"state":"active","ping":73},{"user_id":415,"name":"Urbanzpinapple","steam_id":76561198115426938,"connected_time":467000000000,"state":"active","ping":62},{"user_id":416,"name":"Firedust19","steam_id":76561198153238631,"connected_time":414000000000,"state":"active","ping":97},{"user_id":377,"name":"loscemo","steam_id":76561197994884609,"connected_time":3805000000000,"state":"active","ping":69},{"user_id":376,"name":"Acro","steam_id":76561198092451804,"connected_time":4107000000000,"state":"active","ping":68},{"user_id":384,"name":"daffodil","steam_id":76561198049480053,"connected_time":3037000000000,"state":"active","ping":59},{"user_id":417,"name":"IAmAProfesonal","steam_id":76561199171858953,"connected_time":409000000000,"state":"active","ping":58},{"user_id":408,"name":"Waterboy","steam_id":76561197989347906,"connected_time":574000000000,"state":"active","ping":72},{"user_id":402,"name":"Zesty Zucchini Ziti","steam_id":76561198092494136,"connected_time":1482000000000,"state":"active","ping":61},{"user_id":355,"name":"Comradical","steam_id":76561197990808285,"connected_time":6160000000000,"state":"active","ping":72},{"user_id":418,"name":"The Fiend","steam_id":76561199229771413,"connected_time":409000000000,"state":"active","ping":66},{"user_id":420,"name":"MgMaster7","steam_id":76561199229916638,"connected_time":25000000000,"state":"spawning","ping":45},{"user_id":399,"name":"conman games","steam_id":76561199005954896,"connected_time":1744000000000,"state":"active","ping":85},{"user_id":400,"name":"D.E.O","steam_id":76561198096992957,"connected_time":1683000000000,"state":"active","ping":129},{"user_id":410,"name":"Plasmoklo","steam_id":76561199071571167,"connected_time":561000000000,"state":"active","ping":76},{"user_id":407,"name":"River","steam_id":76561198137529294,"connected_time":1411000000000,"state":"active","ping":56},{"user_id":390,"name":"suicide pro","steam_id":76561198057076267,"connected_time":2847000000000,"state":"active","ping":82}]},{"server_id":106,"name":"Uncletopia | Chicago | 2 | All Maps","name_short":"chi-2","host":"chi-1.us.uncletopia.com","port":27025,"enabled":true,"region":"us-central","cc":"us","latitude":41.881832,"longitude":-87.62318,"reserved":0,"last_update":"0001-01-01T00:00:00Z","name_a2s":"Uncletopia | Chicago | 2 | All Maps","protocol":17,"map":"pl_swiftwater_final1","folder":"tf","game":"Team Fortress","app_id":440,"player_count":24,"max_players":24,"Bots":0,"server_type":"Dedicated","server_os":"Linux","password":true,"vac":true,"version":"7961495","steam_id":85568392924469985,"keywords":["nocrits","nodmgspread","payload","uncletopia"],"game_id":440,"stv_port":27026,"stv_name":"Uncletopia | Chicago | 2 | All Maps | STV","players":[{"user_id":293,"name":"Female Gamer","steam_id":76561199366482682,"connected_time":334000000000,"state":"active","ping":104},{"user_id":165,"name":"that shit for the birds","steam_id":76561198142756572,"connected_time":8774000000000,"state":"active","ping":60},{"user_id":238,"name":"1985 Toyota Sprinter Trueno","steam_id":76561198436383373,"connected_time":3139000000000,"state":"active","ping":101},{"user_id":291,"name":"nothere","steam_id":76561198341624641,"connected_time":438000000000,"state":"active","ping":77},{"user_id":297,"name":"ol' musty","steam_id":76561198081075865,"connected_time":67000000000,"state":"active","ping":75},{"user_id":264,"name":"BL√òRG","steam_id":76561198036126673,"connected_time":1811000000000,"state":"active","ping":75},{"user_id":261,"name":"Allahgator","steam_id":76561198280659041,"connected_time":1974000000000,"state":"active","ping":80},{"user_id":287,"name":"boowomp","steam_id":76561198177893343,"connected_time":783000000000,"state":"active","ping":76},{"user_id":276,"name":"fifteen22","steam_id":76561198138781868,"connected_time":1152000000000,"state":"active","ping":77},{"user_id":270,"name":"Window Licker #pride","steam_id":76561198386717007,"connected_time":1361000000000,"state":"active","ping":49},{"user_id":292,"name":"flwrgrl","steam_id":76561198815644949,"connected_time":388000000000,"state":"active","ping":59},{"user_id":250,"name":"SilverLife25","steam_id":76561198392015722,"connected_time":2324000000000,"state":"active","ping":87},{"user_id":277,"name":"Assitins","steam_id":76561198041572892,"connected_time":1145000000000,"state":"active","ping":76},{"user_id":278,"name":"SlurpyTheDog","steam_id":76561198799733154,"connected_time":1142000000000,"state":"active","ping":61},{"user_id":274,"name":"staks","steam_id":76561198059570070,"connected_time":1175000000000,"state":"active","ping":47},{"user_id":246,"name":"I GOT A BRAND NEW CHAIN","steam_id":76561198072179483,"connected_time":2460000000000,"state":"active","ping":93},{"user_id":251,"name":"atlas","steam_id":76561198398383076,"connected_time":2313000000000,"state":"active","ping":89},{"user_id":275,"name":"Aggressive Expansion","steam_id":76561198060029617,"connected_time":1173000000000,"state":"active","ping":67},{"user_id":295,"name":"dirty dank","steam_id":76561198360904432,"connected_time":298000000000,"state":"active","ping":74},{"user_id":279,"name":"RoseaVenefica","steam_id":76561198020660560,"connected_time":1133000000000,"state":"active","ping":60},{"user_id":290,"name":"Cosmic Torgue","steam_id":76561198828724945,"connected_time":670000000000,"state":"active","ping":85},{"user_id":229,"name":"njkni","steam_id":76561199061380038,"connected_time":4086000000000,"state":"active","ping":74},{"user_id":296,"name":"Sicko Mode (Chris Pratt Cover)","steam_id":76561198315786174,"connected_time":273000000000,"state":"active","ping":76},{"user_id":286,"name":"og biden pack cart","steam_id":76561198253731826,"connected_time":954000000000,"state":"active","ping":66}]},{"server_id":402,"name":"Uncletopia | Chicago | 3 | All Maps","name_short":"chi-3","host":"chi-1.us.uncletopia.com","port":27035,"enabled":true,"region":"us-central","cc":"us","latitude":41.881832,"longitude":-87.62318,"reserved":0,"last_update":"0001-01-01T00:00:00Z","name_a2s":"Uncletopia | Chicago | 3 | All Maps","protocol":17,"map":"pl_thundermountain","folder":"tf","game":"Team Fortress","app_id":440,"player_count":24,"max_players":24,"Bots":0,"server_type":"Dedicated","server_os":"Linux","password":true,"vac":true,"version":"7961495","steam_id":85568392924515191,"keywords":["nocrits","nodmgspread","payload","uncletopia"],"game_id":440,"stv_port":27036,"stv_name":"Uncletopia | Chicago | 3 | All Maps | STV","players":[{"user_id":166,"name":"clavin_","steam_id":76561198046398447,"connected_time":2976000000000,"state":"active","ping":56},{"user_id":103,"name":"rice","steam_id":76561198119326733,"connected_time":6446000000000,"state":"active","ping":83},{"user_id":192,"name":"The No-Longer Mute","steam_id":76561198078359985,"connected_time":793000000000,"state":"active","ping":64},{"user_id":172,"name":"Sunshine","steam_id":76561198885528098,"connected_time":2848000000000,"state":"active","ping":75},{"user_id":188,"name":"soltuno","steam_id":76561198074430565,"connected_time":1225000000000,"state":"active","ping":123},{"user_id":193,"name":"gideon nav my beloved","steam_id":76561198259092181,"connected_time":783000000000,"state":"active","ping":63},{"user_id":104,"name":"Crabby Patty","steam_id":76561198071150936,"connected_time":6404000000000,"state":"active","ping":81},{"user_id":184,"name":"Polar","steam_id":76561198271964253,"connected_time":1372000000000,"state":"active","ping":77},{"user_id":146,"name":"\"eLaStiGo GoMeZ\"","steam_id":76561198056834532,"connected_time":3776000000000,"state":"active","ping":59},{"user_id":153,"name":"Pfc. BRUH [10th MD]","steam_id":76561198870051584,"connected_time":3467000000000,"state":"active","ping":96},{"user_id":180,"name":"Pepefuckurmom","steam_id":76561199467404806,"connected_time":2421000000000,"state":"active","ping":170},{"user_id":144,"name":"Big Bill Haywood","steam_id":76561198142290733,"connected_time":3919000000000,"state":"active","ping":74},{"user_id":168,"name":"xX$VV@G_R3@P3R_$3X_$1\u0026Y3R_2008X","steam_id":76561198207215752,"connected_time":2963000000000,"state":"active","ping":109},{"user_id":174,"name":"Sickmind33","steam_id":76561198036248611,"connected_time":2816000000000,"state":"active","ping":43},{"user_id":154,"name":"toss","steam_id":76561198024060038,"connected_time":3467000000000,"state":"active","ping":71},{"user_id":123,"name":"Gailus (She/Her)","steam_id":76561198319509387,"connected_time":5084000000000,"state":"active","ping":67},{"user_id":177,"name":"Sergeant Joker #savetf2","steam_id":76561198854616604,"connected_time":2689000000000,"state":"active","ping":65},{"user_id":183,"name":"veryscaryreaper","steam_id":76561198380018244,"connected_time":1947000000000,"state":"active","ping":75},{"user_id":169,"name":"Artgrendadier","steam_id":76561198063305359,"connected_time":2961000000000,"state":"active","ping":71},{"user_id":185,"name":"bumrusherz","steam_id":76561198440658195,"connected_time":1343000000000,"state":"active","ping":78},{"user_id":190,"name":"Zadamouse #SaveTF2","steam_id":76561198243810876,"connected_time":856000000000,"state":"active","ping":75},{"user_id":194,"name":"ball (singular)","steam_id":76561198057538549,"connected_time":136000000000,"state":"active","ping":60},{"user_id":187,"name":"OctoHam","steam_id":76561198143371318,"connected_time":1243000000000,"state":"active","ping":95},{"user_id":179,"name":"badasscoolboy57","steam_id":76561198795412055,"connected_time":2480000000000,"state":"active","ping":84}]},{"server_id":403,"name":"Uncletopia | Chicago | 4 | All Maps","name_short":"chi-4","host":"chi-1.us.uncletopia.com","port":27045,"enabled":true,"region":"us-central","cc":"us","latitude":41.881832,"longitude":-87.62318,"reserved":0,"last_update":"0001-01-01T00:00:00Z","name_a2s":"Uncletopia | Chicago | 4 | All Maps","protocol":17,"map":"pl_snowycoast","folder":"tf","game":"Team Fortress","app_id":440,"player_count":24,"max_players":24,"Bots":0,"server_type":"Dedicated","server_os":"Linux","password":true,"vac":true,"version":"7961495","steam_id":85568392924515193,"keywords":["nocrits","nodmgspread","payload","uncletopia"],"game_id":440,"stv_port":27046,"stv_name":"Uncletopia | Chicago | 4 | All Maps | STV","players":[{"user_id":78,"name":"Dr. Derp","steam_id":76561198032242494,"connected_time":1526000000000,"state":"active","ping":60},{"user_id":55,"name":"zuma deluxe","steam_id":76561198059041027,"connected_time":2991000000000,"state":"active","ping":101},{"user_id":54,"name":"Doggo","steam_id":76561198179274557,"connected_time":3275000000000,"state":"active","ping":165},{"user_id":28,"name":"Venk","steam_id":76561198251131422,"connected_time":4664000000000,"state":"active","ping":70},{"user_id":89,"name":"ADRIEN BRODY","steam_id":76561198009299473,"connected_time":114000000000,"state":"active","ping":62},{"user_id":85,"name":"Rushee","steam_id":76561198135962525,"connected_time":172000000000,"state":"active","ping":155},{"user_id":87,"name":"Chicken","steam_id":76561198855273194,"connected_time":152000000000,"state":"active","ping":56},{"user_id":90,"name":"the meat man","steam_id":76561198037921140,"connected_time":100000000000,"state":"active","ping":95},{"user_id":16,"name":"shitass (Reaping and Sowing)","steam_id":76561198210572481,"connected_time":5435000000000,"state":"active","ping":82},{"user_id":17,"name":"soarinlauren","steam_id":76561199482944619,"connected_time":5415000000000,"state":"active","ping":71},{"user_id":84,"name":"hamilton","steam_id":76561198034096096,"connected_time":517000000000,"state":"active","ping":80},{"user_id":50,"name":"Elliot","steam_id":76561198052843856,"connected_time":3732000000000,"state":"active","ping":64},{"user_id":52,"name":"yeah right","steam_id":76561198301127098,"connected_time":3450000000000,"state":"active","ping":111},{"user_id":81,"name":"veemo","steam_id":76561198321393225,"connected_time":797000000000,"state":"active","ping":131},{"user_id":56,"name":"Blanke","steam_id":76561198068912412,"connected_time":2815000000000,"state":"active","ping":79},{"user_id":88,"name":"CabezaGrande","steam_id":76561197972555502,"connected_time":147000000000,"state":"active","ping":76},{"user_id":83,"name":"Abysl","steam_id":76561198991216341,"connected_time":734000000000,"state":"active","ping":97},{"user_id":75,"name":"1st place love live fan","steam_id":76561198037951506,"connected_time":1804000000000,"state":"active","ping":60},{"user_id":82,"name":"shitcock","steam_id":76561199407965593,"connected_time":793000000000,"state":"active","ping":91},{"user_id":57,"name":"GlingGlop95","steam_id":76561198386865528,"connected_time":2809000000000,"state":"active","ping":77},{"user_id":51,"name":"reii","steam_id":76561198134442912,"connected_time":3724000000000,"state":"active","ping":75},{"user_id":45,"name":"YOU WHAT?!","steam_id":76561198418679471,"connected_time":4069000000000,"state":"active","ping":59},{"user_id":79,"name":"Black_chestnut","steam_id":76561198155524915,"connected_time":1406000000000,"state":"active","ping":83},{"user_id":86,"name":"Xyverle","steam_id":76561198799726415,"connected_time":172000000000,"state":"active","ping":56}]},{"server_id":36,"name":"Uncletopia | Chicago | 5 | All Maps","name_short":"chi-5","host":"chi-2.us.uncletopia.com","port":27015,"enabled":true,"region":"us-central","cc":"us","latitude":41.881832,"longitude":-87.62318,"reserved":0,"last_update":"0001-01-01T00:00:00Z","name_a2s":"Uncletopia | Chicago | 5 | All Maps","protocol":17,"map":"koth_viaduct","folder":"tf","game":"Team Fortress","app_id":440,"player_count":0,"max_players":24,"Bots":0,"server_type":"Dedicated","server_os":"Linux","password":true,"vac":true,"version":"7961495","steam_id":85568392924866362,"keywords":["cp","nocrits","nodmgspread","uncletopia"],"game_id":440,"stv_port":27016,"stv_name":"Uncletopia | Chicago | 5 | All Maps | STV","players":null},{"server_id":37,"name":"Uncletopia | Chicago | 6 | All Maps","name_short":"chi-6","host":"chi-2.us.uncletopia.com","port":27025,"enabled":true,"region":"us-central","cc":"us","latitude":41.881832,"longitude":-87.62318,"reserved":0,"last_update":"0001-01-01T00:00:00Z","name_a2s":"Uncletopia | Chicago | 6 | All Maps","protocol":17,"map":"cp_altitude","folder":"tf","game":"Team Fortress","app_id":440,"player_count":24,"max_players":24,"Bots":0,"server_type":"Dedicated","server_os":"Linux","password":true,"vac":true,"version":"7961495","steam_id":85568392924866363,"keywords":["cp","nocrits","nodmgspread","uncletopia"],"game_id":440,"stv_port":27026,"stv_name":"Uncletopia | Chicago | 6 | All Maps | STV","players":[{"user_id":356,"name":"Likeia #Savetf2","steam_id":76561198005214207,"connected_time":301000000000,"state":"active","ping":64},{"user_id":324,"name":"Chicago Shoplifter","steam_id":76561197986530028,"connected_time":2492000000000,"state":"active","ping":101},{"user_id":343,"name":"OrangeShoes","steam_id":76561197971249940,"connected_time":1070000000000,"state":"active","ping":78},{"user_id":309,"name":"ShofaX","steam_id":76561198199768014,"connected_time":3873000000000,"state":"active","ping":75},{"user_id":346,"name":"Shady Businessman","steam_id":76561198143855968,"connected_time":601000000000,"state":"active","ping":90},{"user_id":359,"name":"Menachem","steam_id":76561198041226420,"connected_time":212000000000,"state":"active","ping":46},{"user_id":265,"name":"super clickteam fusion","steam_id":76561198275101482,"connected_time":7565000000000,"state":"active","ping":133},{"user_id":347,"name":"Mkwhackertracker","steam_id":76561198128343704,"connected_time":547000000000,"state":"active","ping":66},{"user_id":327,"name":"SHADY SWEATER SALESMAN","steam_id":76561198014616865,"connected_time":2442000000000,"state":"active","ping":64},{"user_id":348,"name":"poiuytrewqwqwqwqwqwqwqwqwqwqwqw","steam_id":76561199105253001,"connected_time":468000000000,"state":"active","ping":77},{"user_id":303,"name":"An Engineer","steam_id":76561198110381643,"connected_time":4058000000000,"state":"active","ping":70},{"user_id":351,"name":"shniper","steam_id":76561199023476841,"connected_time":417000000000,"state":"active","ping":53},{"user_id":352,"name":"hud_saytext_time 0","steam_id":76561198010327228,"connected_time":411000000000,"state":"active","ping":157},{"user_id":318,"name":"VX Ghost","steam_id":76561198072541436,"connected_time":3410000000000,"state":"active","ping":46},{"user_id":353,"name":"Dr_chilly","steam_id":76561198445383213,"connected_time":398000000000,"state":"active","ping":102},{"user_id":344,"name":"yourcollectivemothers","steam_id":76561198875958142,"connected_time":704000000000,"state":"active","ping":81},{"user_id":361,"name":"Jerphf","steam_id":76561198328825964,"connected_time":57000000000,"state":"active","ping":59},{"user_id":354,"name":"serious","steam_id":76561198040671133,"connected_time":388000000000,"state":"active","ping":58},{"user_id":286,"name":"Visual Depression","steam_id":76561198825918366,"connected_time":5303000000000,"state":"active","ping":105},{"user_id":335,"name":"KarmaKid","steam_id":76561198079580094,"connected_time":2177000000000,"state":"active","ping":60},{"user_id":355,"name":"Zymiren","steam_id":76561198054985471,"connected_time":382000000000,"state":"active","ping":104},{"user_id":358,"name":"Dante Sparda","steam_id":76561198936412406,"connected_time":222000000000,"state":"active","ping":78},{"user_id":360,"name":"OBSERVER","steam_id":76561198072996397,"connected_time":208000000000,"state":"active","ping":61},{"user_id":341,"name":"Inevitable","steam_id":76561198210050169,"connected_time":1357000000000,"state":"active","ping":76}]},{"server_id":38,"name":"Uncletopia | Chicago | 7 | Stopwatch","name_short":"chi-7","host":"chi-2.us.uncletopia.com","port":27035,"enabled":true,"region":"us-central","cc":"us","latitude":41.881832,"longitude":-87.62318,"reserved":0,"last_update":"0001-01-01T00:00:00Z","name_a2s":"Uncletopia | Chicago | 7 | Stopwatch","protocol":17,"map":"pl_badwater","folder":"tf","game":"Team Fortress","app_id":440,"player_count":0,"max_players":24,"Bots":0,"server_type":"Dedicated","server_os":"Linux","password":true,"vac":true,"version":"7961495","steam_id":85568392924866364,"keywords":["nocrits","nodmgspread","payload","uncletopia"],"game_id":440,"stv_port":27036,"stv_name":"Uncletopia | Chicago | 7 | Stopwatch | STV","players":null},{"server_id":39,"name":"Uncletopia | Chicago | 8 | Community","name_short":"chi-8","host":"chi-2.us.uncletopia.com","port":27045,"enabled":true,"region":"us-central","cc":"us","latitude":41.881832,"longitude":-87.62318,"reserved":0,"last_update":"0001-01-01T00:00:00Z","name_a2s":"Uncletopia | Chicago | 8 | Community","protocol":17,"map":"pl_pier","folder":"tf","game":"Team Fortress","app_id":440,"player_count":0,"max_players":24,"Bots":0,"server_type":"Dedicated","server_os":"Linux","password":true,"vac":true,"version":"7961495","steam_id":85568392924866365,"keywords":["nocrits","nodmgspread","payload","uncletopia"],"game_id":440,"stv_port":27046,"stv_name":"Uncletopia | Chicago | 8 | Community | STV","players":null},{"server_id":8,"name":"Uncletopia | Dallas | 1 | All Maps","name_short":"dal-1","host":"dal-1.us.uncletopia.com","port":27015,"enabled":true,"region":"us-central","cc":"us","latitude":32.779167,"longitude":-96.80889,"reserved":0,"last_update":"0001-01-01T00:00:00Z","name_a2s":"Uncletopia | Dallas | 1 | All Maps","protocol":17,"map":"pl_thundermountain","folder":"tf","game":"Team Fortress","app_id":440,"player_count":23,"max_players":24,"Bots":0,"server_type":"Dedicated","server_os":"Linux","password":true,"vac":true,"version":"7961495","steam_id":85568392924469986,"keywords":["nocrits","nodmgspread","payload","uncletopia"],"game_id":440,"stv_port":27016,"stv_name":"Uncletopia | Dallas | 1 | All Maps | STV","players":[{"user_id":181,"name":"SmugCoffeeMan","steam_id":76561198040765030,"connected_time":1085000000000,"state":"spawning","ping":51},{"user_id":192,"name":"Aeris","steam_id":76561198287271028,"connected_time":800000000000,"state":"spawning","ping":57},{"user_id":197,"name":"NekoTrap","steam_id":76561198797624241,"connected_time":657000000000,"state":"spawning","ping":73},{"user_id":206,"name":"GlizzLord","steam_id":76561198321010427,"connected_time":26000000000,"state":"spawning","ping":80},{"user_id":185,"name":"pim","steam_id":76561198095163441,"connected_time":997000000000,"state":"spawning","ping":50},{"user_id":186,"name":"barth","steam_id":76561198292896412,"connected_time":985000000000,"state":"spawning","ping":64},{"user_id":193,"name":"whorgampus","steam_id":76561198043610132,"connected_time":727000000000,"state":"spawning","ping":74},{"user_id":156,"name":"Shameless Kuma Player","steam_id":76561198097700500,"connected_time":3357000000000,"state":"spawning","ping":53},{"user_id":207,"name":"blobb","steam_id":76561198950448488,"connected_time":22000000000,"state":"spawning","ping":58},{"user_id":198,"name":"Darling","steam_id":76561198127525888,"connected_time":648000000000,"state":"spawning","ping":50},{"user_id":205,"name":"Cybertruck","steam_id":76561197993623674,"connected_time":354000000000,"state":"spawning","ping":38},{"user_id":199,"name":"DeliveryBoi","steam_id":76561198199739690,"connected_time":641000000000,"state":"spawning","ping":50},{"user_id":195,"name":"motherofdragons96","steam_id":76561198864779097,"connected_time":723000000000,"state":"spawning","ping":63},{"user_id":196,"name":"squid game","steam_id":76561199248960166,"connected_time":707000000000,"state":"spawning","ping":98},{"user_id":175,"name":"Captain Underbelly","steam_id":76561198811270935,"connected_time":1848000000000,"state":"spawning","ping":79},{"user_id":200,"name":"TheSquirrelofHuscurl","steam_id":76561198073379623,"connected_time":635000000000,"state":"spawning","ping":77},{"user_id":171,"name":"Din√∂bro","steam_id":76561198065597770,"connected_time":2405000000000,"state":"spawning","ping":70},{"user_id":149,"name":"Locomotive","steam_id":76561199152926930,"connected_time":4218000000000,"state":"spawning","ping":51},{"user_id":208,"name":"MegaBruh","steam_id":76561198191771321,"connected_time":15000000000,"state":"spawning","ping":63},{"user_id":42,"name":"HOODOO_LOVER_2007","steam_id":76561199087691214,"connected_time":13468000000000,"state":"spawning","ping":82},{"user_id":180,"name":"Xrath","steam_id":76561198220741860,"connected_time":1248000000000,"state":"spawning","ping":79},{"user_id":189,"name":"Mellou","steam_id":76561198212048740,"connected_time":981000000000,"state":"spawning","ping":50},{"user_id":204,"name":"cixcin","steam_id":76561199215821942,"connected_time":403000000000,"state":"spawning","ping":51}]},{"server_id":108,"name":"Uncletopia | Dallas | 2 | All Maps","name_short":"dal-2","host":"dal-1.us.uncletopia.com","port":27025,"enabled":true,"region":"us-central","cc":"us","latitude":32.779167,"longitude":-96.80889,"reserved":0,"last_update":"0001-01-01T00:00:00Z","name_a2s":"Uncletopia | Dallas | 2 | All Maps","protocol":17,"map":"pl_snowycoast","folder":"tf","game":"Team Fortress","app_id":440,"player_count":24,"max_players":24,"Bots":0,"server_type":"Dedicated","server_os":"Linux","password":true,"vac":true,"version":"7961495","steam_id":85568392924469988,"keywords":["nocrits","nodmgspread","payload","uncletopia"],"game_id":440,"stv_port":27026,"stv_name":"Uncletopia | Dallas | 2 | All Maps | STV","players":[{"user_id":186,"name":"Cookie_Crab","steam_id":76561198088116479,"connected_time":28000000000,"state":"active","ping":67},{"user_id":151,"name":"FROYO shroud","steam_id":76561198020534493,"connected_time":1915000000000,"state":"active","ping":83},{"user_id":125,"name":"rAnch","steam_id":76561198024562587,"connected_time":3695000000000,"state":"active","ping":37},{"user_id":112,"name":"hforce11","steam_id":76561198087647130,"connected_time":4456000000000,"state":"active","ping":60},{"user_id":155,"name":"Adalbern","steam_id":76561197991785034,"connected_time":1774000000000,"state":"active","ping":104},{"user_id":167,"name":"J.C. Leyendenton","steam_id":76561198096306325,"connected_time":1509000000000,"state":"active","ping":92},{"user_id":140,"name":"hubida","steam_id":76561198084582998,"connected_time":3183000000000,"state":"active","ping":48},{"user_id":123,"name":"Shitty Pilot","steam_id":76561198042723469,"connected_time":3764000000000,"state":"active","ping":59},{"user_id":168,"name":"yomommasabitch","steam_id":76561198323217150,"connected_time":1489000000000,"state":"active","ping":42},{"user_id":156,"name":"charm quark","steam_id":76561198098770777,"connected_time":1757000000000,"state":"active","ping":112},{"user_id":184,"name":"Rick Astley Is A F2P?","steam_id":76561199258805660,"connected_time":219000000000,"state":"active","ping":79},{"user_id":183,"name":"Chalk","steam_id":76561199249576243,"connected_time":308000000000,"state":"active","ping":49},{"user_id":173,"name":"Rin \"Hindwing\" Redtail","steam_id":76561199074865638,"connected_time":900000000000,"state":"active","ping":52},{"user_id":171,"name":"chiswola","steam_id":76561198046920142,"connected_time":925000000000,"state":"active","ping":100},{"user_id":181,"name":"Suburban Wolf Dad","steam_id":76561198069234954,"connected_time":395000000000,"state":"active","ping":71},{"user_id":182,"name":"Withered Bonnie (Real)","steam_id":76561198423310113,"connected_time":369000000000,"state":"active","ping":54},{"user_id":176,"name":"7thelden","steam_id":76561198297428761,"connected_time":755000000000,"state":"active","ping":84},{"user_id":120,"name":"Sckuish","steam_id":76561198297216345,"connected_time":4053000000000,"state":"active","ping":45},{"user_id":113,"name":"Oopsie Daisy ‚ùã","steam_id":76561198042144492,"connected_time":4425000000000,"state":"active","ping":76},{"user_id":185,"name":"‚úø","steam_id":76561198138444785,"connected_time":208000000000,"state":"active","ping":91},{"user_id":136,"name":"Chunk Stuffer","steam_id":76561198856508573,"connected_time":3392000000000,"state":"active","ping":39},{"user_id":175,"name":"GCA The Knock Fan","steam_id":76561198133102865,"connected_time":866000000000,"state":"active","ping":54},{"user_id":179,"name":"micah","steam_id":76561197984579630,"connected_time":517000000000,"state":"active","ping":82},{"user_id":166,"name":"rune simpa","steam_id":76561198046174848,"connected_time":1528000000000,"state":"active","ping":58}]},{"server_id":404,"name":"Uncletopia | Dallas | 3 | All Maps","name_short":"dal-3","host":"dal-1.us.uncletopia.com","port":27035,"enabled":true,"region":"us-central","cc":"us","latitude":32.779167,"longitude":-96.80889,"reserved":0,"last_update":"0001-01-01T00:00:00Z","name_a2s":"Uncletopia | Dallas | 3 | All Maps","protocol":17,"map":"cp_dustbowl","folder":"tf","game":"Team Fortress","app_id":440,"player_count":0,"max_players":24,"Bots":0,"server_type":"Dedicated","server_os":"Linux","password":true,"vac":true,"version":"7961495","steam_id":85568392924515219,"keywords":["cp","nocrits","nodmgspread","uncletopia"],"game_id":440,"stv_port":27036,"stv_name":"Uncletopia | Dallas | 3 | All Maps | STV","players":null},{"server_id":405,"name":"Uncletopia | Dallas | 4 | Community","name_short":"dal-4","host":"dal-1.us.uncletopia.com","port":27045,"enabled":true,"region":"us-central","cc":"us","latitude":32.779167,"longitude":-96.80889,"reserved":0,"last_update":"0001-01-01T00:00:00Z","name_a2s":"Uncletopia | Dallas | 4 | Community","protocol":17,"map":"workshop/pl_barnblitz_pro7.ugc582280235","folder":"tf","game":"Team Fortress","app_id":440,"player_count":0,"max_players":24,"Bots":0,"server_type":"Dedicated","server_os":"Linux","password":true,"vac":true,"version":"7961495","steam_id":85568392924515220,"keywords":["nocrits","nodmgspread","payload","uncletopia"],"game_id":440,"stv_port":27046,"stv_name":"Uncletopia | Dallas | 4 | Community | STV","players":null},{"server_id":5,"name":"Uncletopia | Frankfurt | 1 | All Maps","name_short":"frk-1","host":"frk-1.de.uncletopia.com","port":27015,"enabled":true,"region":"eu","cc":"de","latitude":50.110924,"longitude":8.682127,"reserved":0,"last_update":"0001-01-01T00:00:00Z","name_a2s":"Uncletopia | Frankfurt | 1 | All Maps","protocol":17,"map":"pl_swiftwater_final1","folder":"tf","game":"Team Fortress","app_id":440,"player_count":24,"max_players":24,"Bots":0,"server_type":"Dedicated","server_os":"Linux","password":true,"vac":true,"version":"7961495","steam_id":85568392924469989,"keywords":["nocrits","nodmgspread","payload","uncletopia"],"game_id":440,"stv_port":27016,"stv_name":"Uncletopia | Frankfurt | 1 | All Maps | STV","players":[{"user_id":430,"name":"James Deer","steam_id":76561198140014793,"connected_time":6614000000000,"state":"active","ping":69},{"user_id":506,"name":"H-say","steam_id":76561198177400362,"connected_time":580000000000,"state":"active","ping":80},{"user_id":523,"name":"Pvt. Prinny","steam_id":76561198030278562,"connected_time":311000000000,"state":"active","ping":54},{"user_id":431,"name":"fuyunoLuna","steam_id":76561198108237246,"connected_time":6597000000000,"state":"active","ping":57},{"user_id":507,"name":"ArmedWithWings","steam_id":76561198154615474,"connected_time":541000000000,"state":"active","ping":81},{"user_id":508,"name":"MANAVASLANI_2_","steam_id":76561198086060003,"connected_time":520000000000,"state":"active","ping":73},{"user_id":509,"name":"RadialMount","steam_id":76561198063002562,"connected_time":514000000000,"state":"active","ping":60},{"user_id":519,"name":"jovi_","steam_id":76561198449280552,"connected_time":359000000000,"state":"active","ping":58},{"user_id":511,"name":"Janfors","steam_id":76561198874152503,"connected_time":500000000000,"state":"active","ping":80},{"user_id":512,"name":"vortx","steam_id":76561198215087456,"connected_time":438000000000,"state":"active","ping":42},{"user_id":505,"name":"MaxyBlack","steam_id":76561198057318273,"connected_time":605000000000,"state":"active","ping":75},{"user_id":520,"name":"Onecoinsachi","steam_id":76561199085984801,"connected_time":358000000000,"state":"active","ping":73},{"user_id":513,"name":"proph got the rona","steam_id":76561197998803950,"connected_time":436000000000,"state":"active","ping":57},{"user_id":515,"name":"Redsy","steam_id":76561198360088412,"connected_time":432000000000,"state":"active","ping":135},{"user_id":516,"name":"Durin sein Vater","steam_id":76561198021246713,"connected_time":404000000000,"state":"active","ping":41},{"user_id":474,"name":"I919I","steam_id":76561198141049923,"connected_time":3615000000000,"state":"active","ping":76},{"user_id":517,"name":"Plurnk","steam_id":76561198272364461,"connected_time":401000000000,"state":"active","ping":67},{"user_id":525,"name":"Indomitable Truck-sama","steam_id":76561198826861582,"connected_time":95000000000,"state":"active","ping":70},{"user_id":487,"name":"Panino","steam_id":76561198078880332,"connected_time":2504000000000,"state":"active","ping":75},{"user_id":521,"name":"CHRYSE","steam_id":76561198104896547,"connected_time":357000000000,"state":"active","ping":60},{"user_id":488,"name":"nero","steam_id":76561199104782664,"connected_time":2501000000000,"state":"active","ping":70},{"user_id":522,"name":"Bineapple","steam_id":76561198983650763,"connected_time":357000000000,"state":"active","ping":68},{"user_id":524,"name":"syms","steam_id":76561198066679812,"connected_time":184000000000,"state":"active","ping":67},{"user_id":497,"name":"Repa24","steam_id":76561198033016390,"connected_time":1975000000000,"state":"active","ping":84}]},{"server_id":110,"name":"Uncletopia | Frankfurt | 2 | All Maps","name_short":"frk-2","host":"frk-1.de.uncletopia.com","port":27025,"enabled":true,"region":"eu","cc":"de","latitude":50.110924,"longitude":8.682127,"reserved":0,"last_update":"0001-01-01T00:00:00Z","name_a2s":"Uncletopia | Frankfurt | 2 | All Maps","protocol":17,"map":"pl_borneo","folder":"tf","game":"Team Fortress","app_id":440,"player_count":23,"max_players":24,"Bots":0,"server_type":"Dedicated","server_os":"Linux","password":true,"vac":true,"version":"7961495","steam_id":85568392924469990,"keywords":["nocrits","nodmgspread","payload","uncletopia"],"game_id":440,"stv_port":27026,"stv_name":"Uncletopia | Frankfurt | 2 | All Maps | STV","players":[{"user_id":338,"name":"Relaxedd v√§ldigt m√§nniska","steam_id":76561198072727888,"connected_time":256000000000,"state":"active","ping":59},{"user_id":332,"name":"Sixten the Pale","steam_id":76561197981806008,"connected_time":694000000000,"state":"active","ping":71},{"user_id":297,"name":"Saucisse","steam_id":76561198119955969,"connected_time":3917000000000,"state":"active","ping":60},{"user_id":318,"name":"D_Ink","steam_id":76561198267716662,"connected_time":1929000000000,"state":"active","ping":49},{"user_id":258,"name":"After8","steam_id":76561198090750865,"connected_time":6629000000000,"state":"active","ping":60},{"user_id":270,"name":"‚ô†Anti_BOI‚ô†","steam_id":76561198274593231,"connected_time":5454000000000,"state":"active","ping":64},{"user_id":333,"name":"Hildreth","steam_id":76561197995254867,"connected_time":627000000000,"state":"active","ping":59},{"user_id":334,"name":"TheWinter","steam_id":76561198285640556,"connected_time":546000000000,"state":"active","ping":73},{"user_id":312,"name":"Cheers Mate!","steam_id":76561198265192382,"connected_time":2715000000000,"state":"active","ping":59},{"user_id":325,"name":"Osqq :s","steam_id":76561198075465106,"connected_time":1476000000000,"state":"active","ping":65},{"user_id":310,"name":"morbius (a lenda da marvel)","steam_id":76561198156198125,"connected_time":2741000000000,"state":"active","ping":89},{"user_id":257,"name":"Nozzo","steam_id":76561198012367783,"connected_time":6680000000000,"state":"active","ping":61},{"user_id":300,"name":"sokige","steam_id":76561198167112371,"connected_time":3842000000000,"state":"active","ping":91},{"user_id":339,"name":"muZ","steam_id":76561198060145190,"connected_time":206000000000,"state":"active","ping":54},{"user_id":329,"name":"hhhhhh","steam_id":76561198031982574,"connected_time":1202000000000,"state":"active","ping":56},{"user_id":316,"name":"phonkluverr","steam_id":76561198197156573,"connected_time":2142000000000,"state":"active","ping":98},{"user_id":335,"name":"Jeffrey Harpen","steam_id":76561199073314677,"connected_time":535000000000,"state":"active","ping":67},{"user_id":311,"name":"U ALREADY KNOW","steam_id":76561198204858259,"connected_time":2731000000000,"state":"active","ping":92},{"user_id":337,"name":"Medic","steam_id":76561198027856977,"connected_time":375000000000,"state":"active","ping":108},{"user_id":340,"name":"Metalizer","steam_id":76561198099595082,"connected_time":154000000000,"state":"active","ping":79},{"user_id":328,"name":"Coca162","steam_id":76561198230656540,"connected_time":1424000000000,"state":"active","ping":51},{"user_id":296,"name":"Pegasir‚Ñ¢","steam_id":76561198041376808,"connected_time":3953000000000,"state":"active","ping":55},{"user_id":331,"name":"Grey goose 6L by barack obama","steam_id":76561198235787750,"connected_time":789000000000,"state":"active","ping":91}]},{"server_id":308,"name":"Uncletopia | Frankfurt | 3 | All Maps","name_short":"frk-3","host":"frk-1.de.uncletopia.com","port":27035,"enabled":true,"region":"eu","cc":"de","latitude":50.110924,"longitude":8.682127,"reserved":0,"last_update":"0001-01-01T00:00:00Z","name_a2s":"Uncletopia | Frankfurt | 3 | All Maps","protocol":17,"map":"pl_barnblitz","folder":"tf","game":"Team Fortress","app_id":440,"player_count":24,"max_players":24,"Bots":0,"server_type":"Dedicated","server_os":"Linux","password":true,"vac":true,"version":"7961495","steam_id":85568392924504274,"keywords":["nocrits","nodmgspread","payload","uncletopia"],"game_id":440,"stv_port":27036,"stv_name":"Uncletopia | Frankfurt | 3 | All Maps | STV","players":[{"user_id":198,"name":"LiterallyRyanGosling","steam_id":76561199017856691,"connected_time":703000000000,"state":"active","ping":69},{"user_id":174,"name":"Just Call Me Spooky","steam_id":76561198296002067,"connected_time":1796000000000,"state":"active","ping":92},{"user_id":157,"name":"55555","steam_id":76561199060683386,"connected_time":2448000000000,"state":"active","ping":61},{"user_id":134,"name":"PiN hEaD","steam_id":76561198834713682,"connected_time":4322000000000,"state":"active","ping":75},{"user_id":158,"name":"Burak","steam_id":76561198441622971,"connected_time":2409000000000,"state":"active","ping":86},{"user_id":195,"name":"Mischail","steam_id":76561198016127010,"connected_time":745000000000,"state":"active","ping":61},{"user_id":192,"name":"‚íø‚í∫‚í∫‚ìè‚ìÑ","steam_id":76561198123592400,"connected_time":763000000000,"state":"active","ping":79},{"user_id":190,"name":"üîÆDrNobodyüîÆ","steam_id":76561198358529983,"connected_time":1038000000000,"state":"active","ping":95},{"user_id":191,"name":"Qdarks","steam_id":76561198013391340,"connected_time":777000000000,"state":"active","ping":144},{"user_id":138,"name":"cheeselover5","steam_id":76561198105189907,"connected_time":4243000000000,"state":"active","ping":45},{"user_id":201,"name":"yardy","steam_id":76561198079410772,"connected_time":370000000000,"state":"active","ping":84},{"user_id":155,"name":"fish","steam_id":76561198092096689,"connected_time":2593000000000,"state":"active","ping":45},{"user_id":200,"name":"Mr_Touchyou","steam_id":76561198452524697,"connected_time":505000000000,"state":"active","ping":105},{"user_id":178,"name":"mq","steam_id":76561198091888948,"connected_time":1719000000000,"state":"active","ping":55},{"user_id":202,"name":"Alex","steam_id":76561198131191123,"connected_time":46000000000,"state":"active","ping":71},{"user_id":203,"name":"DevFish","steam_id":76561199010456751,"connected_time":44000000000,"state":"active","ping":65},{"user_id":165,"name":"Industrial Revolution","steam_id":76561198230811124,"connected_time":2184000000000,"state":"active","ping":48},{"user_id":194,"name":"manure merchant","steam_id":76561198010109316,"connected_time":761000000000,"state":"active","ping":56},{"user_id":168,"name":"sex toilet","steam_id":76561198412197820,"connected_time":2171000000000,"state":"active","ping":87},{"user_id":196,"name":"UltraCaustic","steam_id":76561198843328797,"connected_time":735000000000,"state":"active","ping":79},{"user_id":173,"name":"confusion","steam_id":76561199199499453,"connected_time":1916000000000,"state":"active","ping":79},{"user_id":147,"name":"DaiDaiMu :3","steam_id":76561198052794823,"connected_time":3815000000000,"state":"active","ping":70},{"user_id":197,"name":"mcevoydanny793","steam_id":76561198866497282,"connected_time":728000000000,"state":"active","ping":85},{"user_id":126,"name":"Imperial City Guard","steam_id":76561198083355845,"connected_time":4956000000000,"state":"active","ping":52}]},{"server_id":309,"name":"Uncletopia | Frankfurt | 4 | All Maps","name_short":"frk-4","host":"frk-1.de.uncletopia.com","port":27045,"enabled":true,"region":"eu","cc":"de","latitude":50.110924,"longitude":8.682127,"reserved":0,"last_update":"0001-01-01T00:00:00Z","name_a2s":"Uncletopia | Frankfurt | 4 | All Maps","protocol":17,"map":"pl_frontier_final","folder":"tf","game":"Team Fortress","app_id":440,"player_count":5,"max_players":24,"Bots":0,"server_type":"Dedicated","server_os":"Linux","password":true,"vac":true,"version":"7961495","steam_id":85568392924504275,"keywords":["nocrits","nodmgspread","payload","uncletopia"],"game_id":440,"stv_port":27046,"stv_name":"Uncletopia | Frankfurt | 4 | All Maps | STV","players":[{"user_id":45,"name":"burritoeater","steam_id":76561199124197813,"connected_time":904000000000,"state":"active","ping":69},{"user_id":46,"name":"David \"Crash\" Murphy","steam_id":76561198292845505,"connected_time":511000000000,"state":"active","ping":113},{"user_id":20,"name":"Kekkonen","steam_id":76561198944072942,"connected_time":4903000000000,"state":"active","ping":75},{"user_id":47,"name":"Mr. Master","steam_id":76561199198569317,"connected_time":253000000000,"state":"active","ping":62},{"user_id":33,"name":"practicing medicine","steam_id":76561198004065704,"connected_time":2882000000000,"state":"active","ping":189}]},{"server_id":310,"name":"Uncletopia | Frankfurt | 5 | All Maps","name_short":"frk-5","host":"frk-1.de.uncletopia.com","port":27055,"enabled":true,"region":"eu","cc":"de","latitude":50.110924,"longitude":8.682127,"reserved":0,"last_update":"0001-01-01T00:00:00Z","name_a2s":"Uncletopia | Frankfurt | 5 | All Maps","protocol":17,"map":"cp_process_final","folder":"tf","game":"Team Fortress","app_id":440,"player_count":24,"max_players":24,"Bots":0,"server_type":"Dedicated","server_os":"Linux","password":true,"vac":true,"version":"7961495","steam_id":85568392924504277,"keywords":["cp","nocrits","nodmgspread","uncletopia"],"game_id":440,"stv_port":27056,"stv_name":"Uncletopia | Frankfurt | 5 | All Maps | STV","players":[{"user_id":332,"name":"Mega Man Legends 3","steam_id":76561198014110199,"connected_time":1189000000000,"state":"active","ping":44},{"user_id":327,"name":"Q U E E N A L E X","steam_id":76561198186341157,"connected_time":1729000000000,"state":"active","ping":58},{"user_id":314,"name":"ShadowTwin","steam_id":76561198046658200,"connected_time":2490000000000,"state":"active","ping":83},{"user_id":340,"name":"Samuel L. Jackson","steam_id":76561198130427881,"connected_time":621000000000,"state":"active","ping":150},{"user_id":330,"name":"L√∂dde","steam_id":76561198274165770,"connected_time":1339000000000,"state":"active","ping":69},{"user_id":331,"name":"Merca #savetf2","steam_id":76561198088782472,"connected_time":1322000000000,"state":"active","ping":47},{"user_id":309,"name":"SpiGo","steam_id":76561198051069962,"connected_time":2709000000000,"state":"active","ping":59},{"user_id":317,"name":"MackPack","steam_id":76561198104243355,"connected_time":2452000000000,"state":"active","ping":53},{"user_id":339,"name":"f√©nix","steam_id":76561198083199151,"connected_time":713000000000,"state":"active","ping":74},{"user_id":307,"name":"SaltyLove","steam_id":76561198268617503,"connected_time":3307000000000,"state":"active","ping":179},{"user_id":336,"name":"ONI","steam_id":76561199038860035,"connected_time":871000000000,"state":"active","ping":76},{"user_id":312,"name":"Ripulihobitti69[FIN]","steam_id":76561198102003678,"connected_time":2510000000000,"state":"active","ping":84},{"user_id":334,"name":"Marabosha","steam_id":76561198137599173,"connected_time":1031000000000,"state":"active","ping":111},{"user_id":328,"name":"Altraverdo","steam_id":76561198063933880,"connected_time":1617000000000,"state":"active","ping":34},{"user_id":338,"name":"Doctor Marijuana","steam_id":76561198288289879,"connected_time":837000000000,"state":"active","ping":61},{"user_id":289,"name":"Glass Kon","steam_id":76561198000042666,"connected_time":4887000000000,"state":"active","ping":158},{"user_id":316,"name":"eepy gaming","steam_id":76561198299094088,"connected_time":2484000000000,"state":"active","ping":160},{"user_id":335,"name":"Valfezant","steam_id":76561199063983797,"connected_time":895000000000,"state":"active","ping":59},{"user_id":318,"name":"Fridge","steam_id":76561198071665589,"connected_time":2287000000000,"state":"active","ping":89},{"user_id":321,"name":"heddwch","steam_id":76561198076097983,"connected_time":2227000000000,"state":"active","ping":74},{"user_id":337,"name":"JohkupohkuXD","steam_id":76561198391108762,"connected_time":846000000000,"state":"active","ping":98},{"user_id":284,"name":"Buru","steam_id":76561198024146649,"connected_time":5158000000000,"state":"active","ping":46},{"user_id":329,"name":"Relic","steam_id":76561199499093258,"connected_time":1405000000000,"state":"active","ping":42},{"user_id":333,"name":"LickKing","steam_id":76561198128569949,"connected_time":1156000000000,"state":"active","ping":54}]},{"server_id":311,"name":"Uncletopia | Frankfurt | 6 | All Maps","name_short":"frk-6","host":"frk-1.de.uncletopia.com","port":27065,"enabled":true,"region":"eu","cc":"de","latitude":50.110924,"longitude":8.682127,"reserved":0,"last_update":"0001-01-01T00:00:00Z","name_a2s":"Uncletopia | Frankfurt | 6 | All Maps","protocol":17,"map":"plr_pipeline","folder":"tf","game":"Team Fortress","app_id":440,"player_count":0,"max_players":24,"Bots":0,"server_type":"Dedicated","server_os":"Linux","password":true,"vac":true,"version":"7961495","steam_id":85568392924504278,"keywords":["nocrits","nodmgspread","payload","uncletopia"],"game_id":440,"stv_port":27066,"stv_name":"Uncletopia | Frankfurt | 6 | All Maps | STV","players":null},{"server_id":23,"name":"Uncletopia | Frankfurt | 7 | Stopwatch","name_short":"frk-7","host":"frk-1.de.uncletopia.com","port":27075,"enabled":true,"region":"eu","cc":"de","latitude":50.110924,"longitude":8.682127,"reserved":0,"last_update":"0001-01-01T00:00:00Z","name_a2s":"Uncletopia | Frankfurt | 7 | Stopwatch","protocol":17,"map":"workshop/koth_bagel_rc6.ugc2514036946","folder":"tf","game":"Team Fortress","app_id":440,"player_count":0,"max_players":24,"Bots":0,"server_type":"Dedicated","server_os":"Linux","password":true,"vac":true,"version":"7961495","steam_id":85568392924742827,"keywords":["cp","nocrits","nodmgspread","uncletopia"],"game_id":440,"stv_port":27076,"stv_name":"Uncletopia | Frankfurt | 7 | Stopwatch | STV","players":null},{"server_id":24,"name":"Uncletopia | Frankfurt | 8 | Community","name_short":"frk-8","host":"frk-1.de.uncletopia.com","port":27085,"enabled":true,"region":"eu","cc":"de","latitude":50.110924,"longitude":8.682127,"reserved":0,"last_update":"0001-01-01T00:00:00Z","name_a2s":"Uncletopia | Frankfurt | 8 | Community","protocol":17,"map":"workshop/koth_kemptown_rc1.ugc767410655","folder":"tf","game":"Team Fortress","app_id":440,"player_count":0,"max_players":24,"Bots":0,"server_type":"Dedicated","server_os":"Linux","password":true,"vac":true,"version":"7961495","steam_id":85568392924742828,"keywords":["cp","nocrits","nodmgspread","uncletopia"],"game_id":440,"stv_port":27086,"stv_name":"Uncletopia | Frankfurt | 8 | Community | STV","players":null},{"server_id":202,"name":"Uncletopia | Hong Kong | 1 | All Maps","name_short":"hgk-1","host":"hgk-1.hk.uncletopia.com","port":27015,"enabled":true,"region":"asia","cc":"hk","latitude":22.302711,"longitude":114.177216,"reserved":0,"last_update":"0001-01-01T00:00:00Z","name_a2s":"Uncletopia | Hong Kong | 1 | All Maps","protocol":17,"map":"koth_viaduct","folder":"tf","game":"Team Fortress","app_id":440,"player_count":0,"max_players":24,"Bots":0,"server_type":"Dedicated","server_os":"Linux","password":true,"vac":true,"version":"7961495","steam_id":85568392924494504,"keywords":["cp","nocrits","nodmgspread","uncletopia"],"game_id":440,"stv_port":27016,"stv_name":"Uncletopia | Hong Kong | 1 | All Maps | STV","players":null},{"server_id":1,"name":"Uncletopia | Los Angeles | 1 | All Maps","name_short":"lax-1","host":"lax-1.us.uncletopia.com","port":27015,"enabled":true,"region":"us-west","cc":"us","latitude":33.94279,"longitude":-118.41004,"reserved":0,"last_update":"0001-01-01T00:00:00Z","name_a2s":"Uncletopia | Los Angeles | 1 | All Maps","protocol":17,"map":"pl_swiftwater_final1","folder":"tf","game":"Team Fortress","app_id":440,"player_count":0,"max_players":24,"Bots":0,"server_type":"Dedicated","server_os":"Linux","password":true,"vac":true,"version":"7961495","steam_id":85568392924469991,"keywords":["nocrits","nodmgspread","payload","uncletopia"],"game_id":440,"stv_port":27016,"stv_name":"Uncletopia | Los Angeles | 1 | All Maps | STV","players":null},{"server_id":112,"name":"Uncletopia | Los Angeles | 2 | All Maps","name_short":"lax-2","host":"lax-1.us.uncletopia.com","port":27025,"enabled":true,"region":"us-west","cc":"us","latitude":33.94279,"longitude":-118.41004,"reserved":0,"last_update":"0001-01-01T00:00:00Z","name_a2s":"Uncletopia | Los Angeles | 2 | All Maps","protocol":17,"map":"pl_pier","folder":"tf","game":"Team Fortress","app_id":440,"player_count":24,"max_players":24,"Bots":0,"server_type":"Dedicated","server_os":"Linux","password":true,"vac":true,"version":"7961495","steam_id":85568392924469992,"keywords":["nocrits","nodmgspread","payload","uncletopia"],"game_id":440,"stv_port":27026,"stv_name":"Uncletopia | Los Angeles | 2 | All Maps | STV","players":[{"user_id":61,"name":"[TF2Apples] Intense Green Apple","steam_id":76561198803561622,"connected_time":146000000000,"state":"active","ping":124},{"user_id":6,"name":"roach","steam_id":76561198354811369,"connected_time":4701000000000,"state":"active","ping":53},{"user_id":8,"name":"Plague Medic","steam_id":76561198035784649,"connected_time":4318000000000,"state":"active","ping":45},{"user_id":39,"name":"CaptainRedbeard","steam_id":76561198058647430,"connected_time":1805000000000,"state":"active","ping":79},{"user_id":11,"name":"usedhalfcart","steam_id":76561198072621852,"connected_time":3832000000000,"state":"active","ping":79},{"user_id":47,"name":"FI LO","steam_id":76561198976530881,"connected_time":1537000000000,"state":"active","ping":40},{"user_id":54,"name":"Ocelot","steam_id":76561198043176782,"connected_time":680000000000,"state":"active","ping":84},{"user_id":49,"name":"Joe Biden (Deceased)","steam_id":76561198170427507,"connected_time":937000000000,"state":"active","ping":41},{"user_id":41,"name":"MelonLikeAFelon","steam_id":76561198060170336,"connected_time":1780000000000,"state":"active","ping":78},{"user_id":46,"name":"Mint Jelly","steam_id":76561197991286751,"connected_time":1544000000000,"state":"active","ping":97},{"user_id":50,"name":"Seven","steam_id":76561198259947055,"connected_time":936000000000,"state":"active","ping":84},{"user_id":21,"name":"Insomniac","steam_id":76561199180653046,"connected_time":2724000000000,"state":"active","ping":163},{"user_id":24,"name":"Brass","steam_id":76561198275581643,"connected_time":2486000000000,"state":"active","ping":97},{"user_id":63,"name":"aiko","steam_id":76561197970056960,"connected_time":25000000000,"state":"active","ping":84},{"user_id":52,"name":"SkooberDoodle","steam_id":76561198828522414,"connected_time":912000000000,"state":"active","ping":105},{"user_id":27,"name":"Lonlily","steam_id":76561198130418647,"connected_time":2409000000000,"state":"active","ping":62},{"user_id":28,"name":"SneekiCheekiQbone","steam_id":76561198045077980,"connected_time":2403000000000,"state":"active","ping":43},{"user_id":42,"name":"mew","steam_id":76561198118644686,"connected_time":1772000000000,"state":"active","ping":50},{"user_id":32,"name":"Skeleop","steam_id":76561198981106464,"connected_time":2264000000000,"state":"active","ping":46},{"user_id":53,"name":"the keebler","steam_id":76561199486326945,"connected_time":879000000000,"state":"active","ping":102},{"user_id":48,"name":"noceof","steam_id":76561198043656816,"connected_time":1454000000000,"state":"active","ping":162},{"user_id":35,"name":"waffle","steam_id":76561198077799844,"connected_time":2141000000000,"state":"active","ping":57},{"user_id":36,"name":"oil","steam_id":76561198099980149,"connected_time":2071000000000,"state":"active","ping":45},{"user_id":37,"name":"CometDrg0n_","steam_id":76561198175713051,"connected_time":1952000000000,"state":"active","ping":72}]},{"server_id":324,"name":"Uncletopia | Los Angeles | 3 | All Maps","name_short":"lax-3","host":"lax-1.us.uncletopia.com","port":27035,"enabled":true,"region":"us-west","cc":"us","latitude":33.94279,"longitude":-118.41004,"reserved":0,"last_update":"0001-01-01T00:00:00Z","name_a2s":"Uncletopia | Los Angeles | 3 | All Maps","protocol":17,"map":"pl_frontier_final","folder":"tf","game":"Team Fortress","app_id":440,"player_count":0,"max_players":24,"Bots":0,"server_type":"Dedicated","server_os":"Linux","password":true,"vac":true,"version":"7961495","steam_id":85568392924510198,"keywords":["nocrits","nodmgspread","payload","uncletopia"],"game_id":440,"stv_port":27036,"stv_name":"Uncletopia | Los Angeles | 3 | All Maps | STV","players":null},{"server_id":25,"name":"Uncletopia | Los Angeles | 4 | Stopwatch","name_short":"lax-4","host":"lax-1.us.uncletopia.com","port":27045,"enabled":true,"region":"us-west","cc":"us","latitude":33.94279,"longitude":-118.41004,"reserved":0,"last_update":"0001-01-01T00:00:00Z","name_a2s":"Uncletopia | Los Angeles | 4 | Stopwatch","protocol":17,"map":"cp_snakewater_final1","folder":"tf","game":"Team Fortress","app_id":440,"player_count":0,"max_players":24,"Bots":0,"server_type":"Dedicated","server_os":"Linux","password":true,"vac":true,"version":"7961495","steam_id":85568392924510199,"keywords":["cp","nocrits","nodmgspread","uncletopia"],"game_id":440,"stv_port":27046,"stv_name":"Uncletopia | Los Angeles | 4 | Stopwatch | STV","players":null},{"server_id":11,"name":"Uncletopia | London | 1 | All Maps","name_short":"lon-1","host":"lon-1.uk.uncletopia.com","port":27015,"enabled":true,"region":"eu","cc":"gb","latitude":51.509865,"longitude":-0.118092,"reserved":0,"last_update":"0001-01-01T00:00:00Z","name_a2s":"Uncletopia | London | 1 | All Maps","protocol":17,"map":"pl_upward","folder":"tf","game":"Team Fortress","app_id":440,"player_count":24,"max_players":24,"Bots":0,"server_type":"Dedicated","server_os":"Linux","password":true,"vac":true,"version":"7961495","steam_id":85568392924367362,"keywords":["nocrits","nodmgspread","payload","uncletopia"],"game_id":440,"stv_port":27016,"stv_name":"Uncletopia | London | 1 | All Maps | STV","players":[{"user_id":576,"name":"BEDA","steam_id":76561198277943630,"connected_time":1075000000000,"state":"active","ping":77},{"user_id":589,"name":"Minimi","steam_id":76561198873850443,"connected_time":127000000000,"state":"active","ping":44},{"user_id":539,"name":"SpacePig","steam_id":76561198044662873,"connected_time":6357000000000,"state":"active","ping":98},{"user_id":546,"name":"KnugenIV","steam_id":76561198127091993,"connected_time":5585000000000,"state":"active","ping":59},{"user_id":582,"name":"Jude!","steam_id":76561197983597798,"connected_time":827000000000,"state":"active","ping":41},{"user_id":574,"name":"Haschgott 2.0","steam_id":76561198049820307,"connected_time":2083000000000,"state":"active","ping":73},{"user_id":570,"name":"Bumblebee","steam_id":76561198033551105,"connected_time":2160000000000,"state":"active","ping":82},{"user_id":549,"name":"keleos82","steam_id":76561198123916013,"connected_time":5384000000000,"state":"active","ping":70},{"user_id":588,"name":"Bun","steam_id":76561197989239999,"connected_time":181000000000,"state":"active","ping":61},{"user_id":575,"name":"Mircoxi","steam_id":76561199407632710,"connected_time":1078000000000,"state":"active","ping":69},{"user_id":566,"name":"Sinnamonsters","steam_id":76561198423422354,"connected_time":2774000000000,"state":"active","ping":144},{"user_id":536,"name":"trite","steam_id":76561197983765323,"connected_time":6622000000000,"state":"active","ping":50},{"user_id":554,"name":"shooer!","steam_id":76561198110531281,"connected_time":5146000000000,"state":"active","ping":65},{"user_id":578,"name":"odran","steam_id":76561199122931272,"connected_time":1051000000000,"state":"active","ping":58},{"user_id":577,"name":"dec","steam_id":76561198009660168,"connected_time":1075000000000,"state":"active","ping":48},{"user_id":552,"name":"Sherlock Bond","steam_id":76561198042045955,"connected_time":5177000000000,"state":"active","ping":61},{"user_id":568,"name":"BreadBubbles","steam_id":76561198174332826,"connected_time":2223000000000,"state":"active","ping":64},{"user_id":581,"name":"nappo","steam_id":76561198060105180,"connected_time":946000000000,"state":"active","ping":78},{"user_id":565,"name":"Judicator Slifer","steam_id":76561198062255803,"connected_time":2782000000000,"state":"active","ping":73},{"user_id":587,"name":"TheBatInBlack","steam_id":76561198116808459,"connected_time":359000000000,"state":"active","ping":39},{"user_id":571,"name":"mcmurrayjack998","steam_id":76561199235624366,"connected_time":2143000000000,"state":"active","ping":149},{"user_id":585,"name":"Kahvi","steam_id":76561198723244199,"connected_time":495000000000,"state":"active","ping":81},{"user_id":562,"name":"‚∏∏aura‚∏∏","steam_id":76561198066258544,"connected_time":3080000000000,"state":"active","ping":60},{"user_id":544,"name":"Purps","steam_id":76561198053886680,"connected_time":5784000000000,"state":"active","ping":34}]},{"server_id":114,"name":"Uncletopia | London | 2 | All Maps","name_short":"lon-2","host":"lon-1.uk.uncletopia.com","port":27025,"enabled":true,"region":"eu","cc":"gb","latitude":51.509865,"longitude":-0.118092,"reserved":0,"last_update":"0001-01-01T00:00:00Z","name_a2s":"Uncletopia | London | 2 | All Maps","protocol":17,"map":"pl_borneo","folder":"tf","game":"Team Fortress","app_id":440,"player_count":24,"max_players":24,"Bots":0,"server_type":"Dedicated","server_os":"Linux","password":true,"vac":true,"version":"7961495","steam_id":85568392924470941,"keywords":["nocrits","nodmgspread","payload","uncletopia"],"game_id":440,"stv_port":27026,"stv_name":"Uncletopia | London | 2 | All Maps | STV","players":[{"user_id":781,"name":"Filip","steam_id":76561198852826447,"connected_time":242000000000,"state":"active","ping":71},{"user_id":780,"name":"Hexakosioihexekontahexaphobia","steam_id":76561198070805240,"connected_time":627000000000,"state":"active","ping":111},{"user_id":779,"name":"Tywhip","steam_id":76561199207545191,"connected_time":921000000000,"state":"active","ping":55},{"user_id":737,"name":"Dewotter","steam_id":76561198007653168,"connected_time":3023000000000,"state":"active","ping":57},{"user_id":745,"name":"lillunya ‚ô°","steam_id":76561198330418866,"connected_time":2266000000000,"state":"active","ping":69},{"user_id":782,"name":"RIBS GROW BACK","steam_id":76561198123659806,"connected_time":200000000000,"state":"active","ping":97},{"user_id":756,"name":"finbar","steam_id":76561198056812396,"connected_time":1803000000000,"state":"active","ping":76},{"user_id":732,"name":"zayd","steam_id":76561198895235231,"connected_time":3298000000000,"state":"active","ping":60},{"user_id":706,"name":"Be_kind","steam_id":76561198053996691,"connected_time":4201000000000,"state":"active","ping":105},{"user_id":752,"name":"SirToast","steam_id":76561199229729107,"connected_time":1930000000000,"state":"active","ping":88},{"user_id":783,"name":"decriminalise goblins","steam_id":76561198048257605,"connected_time":198000000000,"state":"active","ping":67},{"user_id":758,"name":"MovingIsOverRated","steam_id":76561198385633292,"connected_time":1749000000000,"state":"active","ping":92},{"user_id":763,"name":"Valkry","steam_id":76561198083425408,"connected_time":1351000000000,"state":"active","ping":46},{"user_id":790,"name":"–õ—ã—Å—ã–π –∏–∑ –∫—É—Ö–Ω–∏","steam_id":76561199072741842,"connected_time":7000000000,"state":"spawning","ping":84},{"user_id":784,"name":"cuddles","steam_id":76561198805181599,"connected_time":190000000000,"state":"active","ping":58},{"user_id":777,"name":"hawkblob","steam_id":76561198803720565,"connected_time":1018000000000,"state":"active","ping":86},{"user_id":767,"name":"[WPF] I Bleed Butter","steam_id":76561198130814770,"connected_time":1287000000000,"state":"active","ping":61},{"user_id":785,"name":"Dommy","steam_id":76561197990864747,"connected_time":117000000000,"state":"active","ping":60},{"user_id":786,"name":"Cookies","steam_id":76561198139762991,"connected_time":107000000000,"state":"active","ping":78},{"user_id":787,"name":"olof","steam_id":76561198095681561,"connected_time":98000000000,"state":"active","ping":99},{"user_id":768,"name":"Dis1Scrub","steam_id":76561199124334044,"connected_time":1259000000000,"state":"active","ping":84},{"user_id":788,"name":"Knez","steam_id":76561198295674753,"connected_time":86000000000,"state":"active","ping":89},{"user_id":685,"name":"MangoL","steam_id":76561199169391713,"connected_time":6276000000000,"state":"active","ping":87},{"user_id":789,"name":"Bombilla","steam_id":76561198084281798,"connected_time":37000000000,"state":"active","ping":80}]},{"server_id":320,"name":"Uncletopia | London | 3 | All Maps","name_short":"lon-3","host":"lon-1.uk.uncletopia.com","port":27035,"enabled":true,"region":"eu","cc":"gb","latitude":51.509865,"longitude":-0.118092,"reserved":0,"last_update":"0001-01-01T00:00:00Z","name_a2s":"Uncletopia | London | 3 | All Maps","protocol":17,"map":"pl_frontier_final","folder":"tf","game":"Team Fortress","app_id":440,"player_count":24,"max_players":24,"Bots":0,"server_type":"Dedicated","server_os":"Linux","password":true,"vac":true,"version":"7961495","steam_id":85568392924510192,"keywords":["nocrits","nodmgspread","payload","uncletopia"],"game_id":440,"stv_port":27036,"stv_name":"Uncletopia | London | 3 | All Maps | STV","players":[{"user_id":541,"name":"Implywood (they/them)","steam_id":76561198096762648,"connected_time":1775000000000,"state":"active","ping":49},{"user_id":572,"name":"mangoface","steam_id":76561199028760996,"connected_time":272000000000,"state":"active","ping":80},{"user_id":568,"name":"HUGO","steam_id":76561198317134996,"connected_time":668000000000,"state":"active","ping":90},{"user_id":543,"name":"Dr. Funkenstein","steam_id":76561197977816210,"connected_time":1703000000000,"state":"active","ping":64},{"user_id":560,"name":"stormerzz","steam_id":76561198058030238,"connected_time":1429000000000,"state":"active","ping":46},{"user_id":545,"name":"Marshmellow :3 (she/her)","steam_id":76561199102005549,"connected_time":1685000000000,"state":"active","ping":71},{"user_id":546,"name":"ant753","steam_id":76561198103458889,"connected_time":1676000000000,"state":"active","ping":76},{"user_id":332,"name":"yuno appreciator","steam_id":76561198083286511,"connected_time":14108000000000,"state":"active","ping":40},{"user_id":566,"name":"deeazz","steam_id":76561199401283123,"connected_time":763000000000,"state":"active","ping":53},{"user_id":548,"name":"Ducobu 3 for Nintendo Wii NOW","steam_id":76561198056221804,"connected_time":1653000000000,"state":"active","ping":53},{"user_id":565,"name":"Nickbro101","steam_id":76561198044271692,"connected_time":805000000000,"state":"active","ping":48},{"user_id":533,"name":"Ziltoid","steam_id":76561198020753675,"connected_time":2164000000000,"state":"active","ping":75},{"user_id":571,"name":"Son Goku","steam_id":76561199383437138,"connected_time":295000000000,"state":"active","ping":121},{"user_id":570,"name":"Texas Red","steam_id":76561199069782779,"connected_time":363000000000,"state":"active","ping":74},{"user_id":559,"name":"Ben Shapiro Gaming","steam_id":76561198004196048,"connected_time":1476000000000,"state":"active","ping":166},{"user_id":527,"name":"pajasafr","steam_id":76561198114268509,"connected_time":2574000000000,"state":"active","ping":67},{"user_id":551,"name":"guru{Hari}","steam_id":76561197997001681,"connected_time":1596000000000,"state":"active","ping":77},{"user_id":552,"name":"ma","steam_id":76561198055745563,"connected_time":1572000000000,"state":"active","ping":61},{"user_id":573,"name":"7 7","steam_id":76561198190663138,"connected_time":109000000000,"state":"active","ping":97},{"user_id":554,"name":"Definitely J.P. Morgan","steam_id":76561199122376235,"connected_time":1544000000000,"state":"active","ping":167},{"user_id":569,"name":"Aaron Cahill","steam_id":76561198132831088,"connected_time":456000000000,"state":"active","ping":67},{"user_id":574,"name":"obi","steam_id":76561198040154461,"connected_time":92000000000,"state":"active","ping":66},{"user_id":564,"name":"CRANK","steam_id":76561198188720263,"connected_time":904000000000,"state":"active","ping":50},{"user_id":497,"name":"hyvakii705","steam_id":76561198086630552,"connected_time":5206000000000,"state":"active","ping":75}]},{"server_id":321,"name":"Uncletopia | London | 4 | All Maps","name_short":"lon-4","host":"lon-1.uk.uncletopia.com","port":27045,"enabled":true,"region":"eu","cc":"gb","latitude":51.509865,"longitude":-0.118092,"reserved":0,"last_update":"0001-01-01T00:00:00Z","name_a2s":"Uncletopia | London | 4 | All Maps","protocol":17,"map":"cp_snakewater_final1","folder":"tf","game":"Team Fortress","app_id":440,"player_count":24,"max_players":24,"Bots":0,"server_type":"Dedicated","server_os":"Linux","password":true,"vac":true,"version":"7961495","steam_id":85568392924510193,"keywords":["cp","nocrits","nodmgspread","uncletopia"],"game_id":440,"stv_port":27046,"stv_name":"Uncletopia | London | 4 | All Maps | STV","players":[{"user_id":498,"name":"MensRightsActivist","steam_id":76561199482149729,"connected_time":775000000000,"state":"active","ping":107},{"user_id":500,"name":"quickfast","steam_id":76561199438900919,"connected_time":637000000000,"state":"active","ping":44},{"user_id":469,"name":"LEGEND FUMO.","steam_id":76561198061033903,"connected_time":2127000000000,"state":"active","ping":55},{"user_id":443,"name":"Ullr","steam_id":76561198140547483,"connected_time":4397000000000,"state":"active","ping":42},{"user_id":492,"name":"SneakySneaker","steam_id":76561198027302478,"connected_time":1017000000000,"state":"active","ping":50},{"user_id":454,"name":"Bobirulez","steam_id":76561198009125458,"connected_time":3757000000000,"state":"active","ping":75},{"user_id":457,"name":"Udinese Dion","steam_id":76561198067931573,"connected_time":3282000000000,"state":"active","ping":61},{"user_id":476,"name":"Baron","steam_id":76561198021901783,"connected_time":1403000000000,"state":"active","ping":53},{"user_id":480,"name":"Nithle","steam_id":76561198025372740,"connected_time":1273000000000,"state":"active","ping":30},{"user_id":483,"name":"Rock..","steam_id":76561198004641963,"connected_time":1191000000000,"state":"active","ping":79},{"user_id":479,"name":"Teecho","steam_id":76561197995269610,"connected_time":1363000000000,"state":"active","ping":58},{"user_id":447,"name":"ANABOLIC HAMPSTER 2009","steam_id":76561198163081194,"connected_time":4278000000000,"state":"active","ping":44},{"user_id":499,"name":"cat","steam_id":76561198832231975,"connected_time":724000000000,"state":"active","ping":100},{"user_id":452,"name":"agent youppii","steam_id":76561198055264447,"connected_time":4034000000000,"state":"active","ping":54},{"user_id":448,"name":"choob303","steam_id":76561198206375860,"connected_time":4244000000000,"state":"active","ping":54},{"user_id":453,"name":"xavier","steam_id":76561198076494034,"connected_time":3916000000000,"state":"active","ping":52},{"user_id":486,"name":"rets_","steam_id":76561198061551392,"connected_time":1160000000000,"state":"active","ping":61},{"user_id":487,"name":"Economic crisis","steam_id":76561198063562843,"connected_time":1148000000000,"state":"active","ping":76},{"user_id":493,"name":"AmadStatistician","steam_id":76561198163654770,"connected_time":1012000000000,"state":"active","ping":67},{"user_id":436,"name":"ASSEMBLE FROYO BROS","steam_id":76561198116223995,"connected_time":5010000000000,"state":"active","ping":58},{"user_id":494,"name":"WAEEEJ","steam_id":76561198135626480,"connected_time":1010000000000,"state":"active","ping":44},{"user_id":490,"name":"Horo","steam_id":76561198009504508,"connected_time":1115000000000,"state":"active","ping":58},{"user_id":495,"name":":(","steam_id":76561197980736364,"connected_time":1006000000000,"state":"active","ping":82},{"user_id":496,"name":"Conan","steam_id":76561198158321202,"connected_time":991000000000,"state":"active","ping":64}]},{"server_id":21,"name":"Uncletopia | London | 5 | All Maps","name_short":"lon-5","host":"lon-1.uk.uncletopia.com","port":27055,"enabled":true,"region":"eu","cc":"gb","latitude":51.509865,"longitude":-0.118092,"reserved":0,"last_update":"0001-01-01T00:00:00Z","name_a2s":"Uncletopia | London | 5 | All Maps","protocol":17,"map":"pl_borneo","folder":"tf","game":"Team Fortress","app_id":440,"player_count":24,"max_players":24,"Bots":0,"server_type":"Dedicated","server_os":"Linux","password":true,"vac":true,"version":"7961495","steam_id":85568392924742829,"keywords":["nocrits","nodmgspread","payload","uncletopia"],"game_id":440,"stv_port":27056,"stv_name":"Uncletopia | London | 5 | All Maps | STV","players":[{"user_id":461,"name":"SirNerdbird","steam_id":76561198322558306,"connected_time":726000000000,"state":"active","ping":50},{"user_id":462,"name":"padillacampos","steam_id":76561198161923970,"connected_time":687000000000,"state":"active","ping":92},{"user_id":469,"name":"63756d","steam_id":76561198808699024,"connected_time":363000000000,"state":"active","ping":69},{"user_id":452,"name":"Snokie Boi","steam_id":76561198081126247,"connected_time":1387000000000,"state":"active","ping":51},{"user_id":419,"name":"raebbitos","steam_id":76561198167580006,"connected_time":2309000000000,"state":"active","ping":46},{"user_id":464,"name":"Rusty","steam_id":76561198436226658,"connected_time":648000000000,"state":"active","ping":49},{"user_id":480,"name":"log","steam_id":76561199071763311,"connected_time":70000000000,"state":"active","ping":87},{"user_id":467,"name":"plep","steam_id":76561198041463901,"connected_time":522000000000,"state":"active","ping":44},{"user_id":481,"name":"$kelly","steam_id":76561198195270894,"connected_time":66000000000,"state":"active","ping":76},{"user_id":418,"name":"‚ò†Holy(cz)‚ò†","steam_id":76561197985535494,"connected_time":2391000000000,"state":"active","ping":70},{"user_id":470,"name":"Lukullu","steam_id":76561198269414258,"connected_time":362000000000,"state":"active","ping":84},{"user_id":451,"name":"haraldÔº®Ôº°Ôº≤Ôº°Ôº¨Ôº§","steam_id":76561198116998970,"connected_time":1417000000000,"state":"active","ping":78},{"user_id":424,"name":"BELADIT","steam_id":76561198011911501,"connected_time":2270000000000,"state":"active","ping":86},{"user_id":473,"name":"yuck","steam_id":76561197987249568,"connected_time":305000000000,"state":"active","ping":101},{"user_id":483,"name":"Nomad","steam_id":76561198267819704,"connected_time":13000000000,"state":"spawning","ping":52},{"user_id":474,"name":"whip","steam_id":76561198177059485,"connected_time":305000000000,"state":"active","ping":61},{"user_id":475,"name":"Julio Delfuego","steam_id":76561197970736009,"connected_time":273000000000,"state":"active","ping":45},{"user_id":447,"name":"gagalak","steam_id":76561198089979108,"connected_time":1625000000000,"state":"active","ping":98},{"user_id":482,"name":"Germanium_Ge","steam_id":76561198130561775,"connected_time":64000000000,"state":"active","ping":55},{"user_id":477,"name":"Dƒ´ng.Zh√®n1996","steam_id":76561198152681460,"connected_time":248000000000,"state":"active","ping":75},{"user_id":453,"name":"Sybelle","steam_id":76561198219839811,"connected_time":1386000000000,"state":"active","ping":81},{"user_id":478,"name":"Jack Fox","steam_id":76561198132826595,"connected_time":246000000000,"state":"active","ping":93},{"user_id":479,"name":"Buford","steam_id":76561198129828715,"connected_time":229000000000,"state":"active","ping":74},{"user_id":388,"name":"Asfedia","steam_id":76561199386836351,"connected_time":3610000000000,"state":"active","ping":66}]},{"server_id":22,"name":"Uncletopia | London | 6 | All Maps","name_short":"lon-6","host":"lon-1.uk.uncletopia.com","port":27065,"enabled":true,"region":"eu","cc":"gb","latitude":51.509865,"longitude":-0.118092,"reserved":0,"last_update":"0001-01-01T00:00:00Z","name_a2s":"Uncletopia | London | 6 | All Maps","protocol":17,"map":"cp_fastlane","folder":"tf","game":"Team Fortress","app_id":440,"player_count":23,"max_players":24,"Bots":0,"server_type":"Dedicated","server_os":"Linux","password":true,"vac":true,"version":"7961495","steam_id":85568392924742830,"keywords":["cp","nocrits","nodmgspread","uncletopia"],"game_id":440,"stv_port":27066,"stv_name":"Uncletopia | London | 6 | All Maps | STV","players":[{"user_id":303,"name":"oskaroku00","steam_id":76561199025360128,"connected_time":254000000000,"state":"active","ping":68},{"user_id":276,"name":"Daan77","steam_id":76561198129940468,"connected_time":1268000000000,"state":"active","ping":69},{"user_id":274,"name":"Compact","steam_id":76561198995253046,"connected_time":1346000000000,"state":"active","ping":57},{"user_id":297,"name":"Umby","steam_id":76561198166584580,"connected_time":373000000000,"state":"active","ping":37},{"user_id":277,"name":"Yobopan","steam_id":76561198088064860,"connected_time":1239000000000,"state":"active","ping":67},{"user_id":309,"name":"cisgender clown","steam_id":76561199469909295,"connected_time":54000000000,"state":"active","ping":70},{"user_id":300,"name":"armadillo","steam_id":76561198324656652,"connected_time":332000000000,"state":"active","ping":61},{"user_id":283,"name":"Stalin","steam_id":76561199221478774,"connected_time":810000000000,"state":"active","ping":68},{"user_id":298,"name":"Xemor","steam_id":76561198152277238,"connected_time":365000000000,"state":"active","ping":32},{"user_id":285,"name":"ThatJoJoGuy","steam_id":76561199208152141,"connected_time":794000000000,"state":"active","ping":66},{"user_id":286,"name":"Balls","steam_id":76561198086400484,"connected_time":748000000000,"state":"active","ping":64},{"user_id":287,"name":"oshawa_guy","steam_id":76561198121105098,"connected_time":733000000000,"state":"active","ping":151},{"user_id":299,"name":"Sheriff","steam_id":76561197999153301,"connected_time":359000000000,"state":"active","ping":101},{"user_id":288,"name":"Skcall","steam_id":76561198818774460,"connected_time":701000000000,"state":"active","ping":130},{"user_id":310,"name":"shh.... tiny carrots r sleeping","steam_id":76561198069649097,"connected_time":29000000000,"state":"spawning","ping":93},{"user_id":290,"name":"ElisD24","steam_id":76561198063798508,"connected_time":653000000000,"state":"active","ping":57},{"user_id":291,"name":"dansal","steam_id":76561197997042510,"connected_time":645000000000,"state":"active","ping":157},{"user_id":294,"name":"jajaren24680","steam_id":76561199499246778,"connected_time":402000000000,"state":"active","ping":131},{"user_id":304,"name":"brickjoar","steam_id":76561198119492657,"connected_time":221000000000,"state":"active","ping":74},{"user_id":305,"name":"Proud Jojo Fan #TF2SP","steam_id":76561198847327216,"connected_time":182000000000,"state":"active","ping":71},{"user_id":306,"name":"snowii","steam_id":76561198836246326,"connected_time":168000000000,"state":"active","ping":53},{"user_id":312,"name":"AftiksPL","steam_id":76561198875182686,"connected_time":25000000000,"state":"spawning","ping":100},{"user_id":313,"name":"icymelon","steam_id":76561198072239175,"connected_time":25000000000,"state":"active","ping":54}]},{"server_id":40,"name":"Uncletopia | London | 7 | Stopwatch","name_short":"lon-7","host":"lon-1.uk.uncletopia.com","port":27075,"enabled":true,"region":"eu","cc":"gb","latitude":51.509865,"longitude":-0.118092,"reserved":0,"last_update":"0001-01-01T00:00:00Z","name_a2s":"Uncletopia | London | 7 | Stopwatch","protocol":17,"map":"workshop/koth_product_final.ugc454272353","folder":"tf","game":"Team Fortress","app_id":440,"player_count":0,"max_players":24,"Bots":0,"server_type":"Dedicated","server_os":"Linux","password":true,"vac":true,"version":"7961495","steam_id":85568392924964314,"keywords":["cp","nocrits","nodmgspread","uncletopia"],"game_id":440,"stv_port":27076,"stv_name":"Uncletopia | London | 7 | Stopwatch | STV","players":null},{"server_id":41,"name":"Uncletopia | London | 8 | Community","name_short":"lon-8","host":"lon-1.uk.uncletopia.com","port":27085,"enabled":true,"region":"eu","cc":"gb","latitude":51.509865,"longitude":-0.118092,"reserved":0,"last_update":"0001-01-01T00:00:00Z","name_a2s":"Uncletopia | London | 8 | Community","protocol":17,"map":"workshop/koth_trenchfoot_b1a.ugc731436616","folder":"tf","game":"Team Fortress","app_id":440,"player_count":0,"max_players":24,"Bots":0,"server_type":"Dedicated","server_os":"Linux","password":true,"vac":true,"version":"7961495","steam_id":85568392924964315,"keywords":["cp","nocrits","nodmgspread","uncletopia"],"game_id":440,"stv_port":27086,"stv_name":"Uncletopia | London | 8 | Community | STV","players":null},{"server_id":300,"name":"Uncletopia | Montr√©al | 1 | One Thousand Uncles","name_short":"mtl-1","host":"mtl-1.ca.uncletopia.com","port":27015,"enabled":true,"region":"us-east","cc":"ca","latitude":45.50889,"longitude":-73.56167,"reserved":0,"last_update":"0001-01-01T00:00:00Z","name_a2s":"","protocol":0,"map":"","folder":"","game":"","app_id":0,"player_count":2,"max_players":0,"Bots":0,"server_type":"","server_os":"","password":false,"vac":false,"version":"","steam_id":0,"keywords":null,"game_id":0,"stv_port":0,"stv_name":"","players":[{"user_id":138,"name":"BIGGEST MAC","steam_id":76561198847517098,"connected_time":453000000000,"state":"active","ping":73},{"user_id":137,"name":"Watong","steam_id":76561199074388745,"connected_time":822000000000,"state":"active","ping":144}]},{"server_id":301,"name":"Uncletopia | Montr√©al | 2 | One Thousand Uncles","name_short":"mtl-2","host":"mtl-1.ca.uncletopia.com","port":27025,"enabled":true,"region":"us-east","cc":"ca","latitude":45.50889,"longitude":-73.56167,"reserved":0,"last_update":"0001-01-01T00:00:00Z","name_a2s":"","protocol":0,"map":"","folder":"","game":"","app_id":0,"player_count":0,"max_players":0,"Bots":0,"server_type":"","server_os":"","password":false,"vac":false,"version":"","steam_id":0,"keywords":null,"game_id":0,"stv_port":0,"stv_name":"","players":null},{"server_id":302,"name":"Uncletopia | Montr√©al | 3 | One Thousand Uncles","name_short":"mtl-3","host":"mtl-1.ca.uncletopia.com","port":27035,"enabled":true,"region":"us-east","cc":"ca","latitude":45.50889,"longitude":-73.56167,"reserved":0,"last_update":"0001-01-01T00:00:00Z","name_a2s":"","protocol":0,"map":"","folder":"","game":"","app_id":0,"player_count":0,"max_players":0,"Bots":0,"server_type":"","server_os":"","password":false,"vac":false,"version":"","steam_id":0,"keywords":null,"game_id":0,"stv_port":0,"stv_name":"","players":null},{"server_id":13,"name":"Uncletopia | New York City | 1 | All Maps","name_short":"nyc-1","host":"nyc-1.us.uncletopia.com","port":27015,"enabled":true,"region":"us-east","cc":"us","latitude":40.73061,"longitude":-73.93524,"reserved":0,"last_update":"0001-01-01T00:00:00Z","name_a2s":"Uncletopia | New York City | 1 | All Maps","protocol":17,"map":"cp_snakewater_final1","folder":"tf","game":"Team Fortress","app_id":440,"player_count":22,"max_players":24,"Bots":0,"server_type":"Dedicated","server_os":"Linux","password":true,"vac":true,"version":"7961495","steam_id":85568392924469993,"keywords":["cp","nocrits","nodmgspread","uncletopia"],"game_id":440,"stv_port":27016,"stv_name":"Uncletopia | New York City | 1 | All Maps | STV","players":[{"user_id":99,"name":"chum (she.her)","steam_id":76561197974924583,"connected_time":1177000000000,"state":"active","ping":52},{"user_id":114,"name":"eaglesfan609","steam_id":76561198151032242,"connected_time":140000000000,"state":"active","ping":47},{"user_id":38,"name":"Cyberpunk McDonald's Play Place","steam_id":76561198063512035,"connected_time":5827000000000,"state":"active","ping":59},{"user_id":70,"name":"Anxiety.mov","steam_id":76561198028145216,"connected_time":3755000000000,"state":"active","ping":37},{"user_id":106,"name":"oopsboom24","steam_id":76561199105248648,"connected_time":468000000000,"state":"active","ping":85},{"user_id":108,"name":"Oogle","steam_id":76561198041815877,"connected_time":303000000000,"state":"active","ping":58},{"user_id":110,"name":"Phocae","steam_id":76561199317584594,"connected_time":192000000000,"state":"active","ping":77},{"user_id":111,"name":"RedBaron","steam_id":76561198972426107,"connected_time":188000000000,"state":"active","ping":49},{"user_id":112,"name":"Matthew 10:39","steam_id":76561198121933439,"connected_time":185000000000,"state":"active","ping":55},{"user_id":113,"name":"oinkpig234","steam_id":76561198883733811,"connected_time":171000000000,"state":"active","ping":90},{"user_id":90,"name":"StupidSexyFlanders","steam_id":76561198029760463,"connected_time":1864000000000,"state":"active","ping":77},{"user_id":73,"name":"Judge Judy and executioner","steam_id":76561198015235881,"connected_time":3633000000000,"state":"active","ping":57},{"user_id":115,"name":"Lin","steam_id":76561198143746480,"connected_time":122000000000,"state":"active","ping":126},{"user_id":118,"name":"Jrock","steam_id":76561198045715996,"connected_time":3000000000,"state":"spawning","ping":69},{"user_id":36,"name":"MrEdman4","steam_id":76561198062233923,"connected_time":5898000000000,"state":"active","ping":51},{"user_id":77,"name":"Kzgamer","steam_id":76561198809770239,"connected_time":3289000000000,"state":"active","ping":47},{"user_id":117,"name":"MikuViku","steam_id":76561198389247480,"connected_time":39000000000,"state":"active","ping":158},{"user_id":119,"name":"Owwy","steam_id":76561198167858372,"connected_time":2000000000,"state":"spawning","ping":100},{"user_id":97,"name":"chill guy","steam_id":76561198322479866,"connected_time":1426000000000,"state":"active","ping":43},{"user_id":85,"name":"rivera","steam_id":76561198051058706,"connected_time":2255000000000,"state":"active","ping":37},{"user_id":96,"name":"Zawg","steam_id":76561198346423306,"connected_time":1764000000000,"state":"active","ping":67},{"user_id":100,"name":"The Guy","steam_id":76561198799183693,"connected_time":1174000000000,"state":"active","ping":92}]},{"server_id":14,"name":"Uncletopia | New York City | 2 | All Maps","name_short":"nyc-2","host":"nyc-1.us.uncletopia.com","port":27025,"enabled":true,"region":"us-east","cc":"us","latitude":40.73061,"longitude":-73.93524,"reserved":0,"last_update":"0001-01-01T00:00:00Z","name_a2s":"Uncletopia | New York City | 2 | All Maps","protocol":17,"map":"koth_lakeside_final","folder":"tf","game":"Team Fortress","app_id":440,"player_count":0,"max_players":24,"Bots":0,"server_type":"Dedicated","server_os":"Linux","password":true,"vac":true,"version":"7961495","steam_id":85568392924469994,"keywords":["cp","nocrits","nodmgspread","uncletopia"],"game_id":440,"stv_port":27026,"stv_name":"Uncletopia | New York City | 2 | All Maps | STV","players":null},{"server_id":15,"name":"Uncletopia | New York City | 3 | Stopwatch","name_short":"nyc-3","host":"nyc-1.us.uncletopia.com","port":27035,"enabled":true,"region":"us-east","cc":"us","latitude":40.73061,"longitude":-73.93524,"reserved":0,"last_update":"0001-01-01T00:00:00Z","name_a2s":"Uncletopia | New York City | 3 | Stopwatch","protocol":17,"map":"pl_snowycoast","folder":"tf","game":"Team Fortress","app_id":440,"player_count":0,"max_players":24,"Bots":0,"server_type":"Dedicated","server_os":"Linux","password":true,"vac":true,"version":"7961495","steam_id":85568392924742820,"keywords":["nocrits","nodmgspread","payload","uncletopia"],"game_id":440,"stv_port":27036,"stv_name":"Uncletopia | New York City | 3 | Stopwatch | STV","players":null},{"server_id":16,"name":"Uncletopia | New York City | 4 | Community","name_short":"nyc-4","host":"nyc-1.us.uncletopia.com","port":27045,"enabled":true,"region":"us-east","cc":"us","latitude":40.73061,"longitude":-73.93524,"reserved":0,"last_update":"0001-01-01T00:00:00Z","name_a2s":"Uncletopia | New York City | 4 | Community","protocol":17,"map":"cp_altitude","folder":"tf","game":"Team Fortress","app_id":440,"player_count":0,"max_players":24,"Bots":0,"server_type":"Dedicated","server_os":"Linux","password":true,"vac":true,"version":"7961495","steam_id":85568392924742821,"keywords":["cp","nocrits","nodmgspread","uncletopia"],"game_id":440,"stv_port":27046,"stv_name":"Uncletopia | New York City | 4 | Community | STV","players":null},{"server_id":142,"name":"Uncletopia | S√£o Paulo | 1 | All Maps","name_short":"sao-1","host":"sao-1.br.uncletopia.com","port":27015,"enabled":true,"region":"sa","cc":"br","latitude":-23.533773,"longitude":-46.62529,"reserved":0,"last_update":"0001-01-01T00:00:00Z","name_a2s":"Uncletopia | S√£o Paulo | 1 | All Maps","protocol":17,"map":"pl_upward","folder":"tf","game":"Team Fortress","app_id":440,"player_count":0,"max_players":24,"Bots":0,"server_type":"Dedicated","server_os":"Linux","password":true,"vac":true,"version":"7961495","steam_id":85568392924469996,"keywords":["nocrits","nodmgspread","payload","uncletopia"],"game_id":440,"stv_port":27016,"stv_name":"Uncletopia | S√£o Paulo | 1 | All Maps | STV","players":null},{"server_id":143,"name":"Uncletopia | S√£o Paulo | 2 | Community","name_short":"sao-2","host":"sao-2.br.uncletopia.com","port":27015,"enabled":true,"region":"sa","cc":"br","latitude":-23.533773,"longitude":-46.62529,"reserved":0,"last_update":"0001-01-01T00:00:00Z","name_a2s":"Uncletopia | S√£o Paulo | 2 | Community","protocol":17,"map":"pl_badwater","folder":"tf","game":"Team Fortress","app_id":440,"player_count":0,"max_players":24,"Bots":0,"server_type":"Dedicated","server_os":"Linux","password":true,"vac":true,"version":"7961495","steam_id":85568392924485349,"keywords":["nocrits","nodmgspread","payload","uncletopia"],"game_id":440,"stv_port":27016,"stv_name":"Uncletopia | S√£o Paulo | 2 | Community | STV","players":null},{"server_id":7,"name":"Uncletopia | Seattle | 1 | All Maps","name_short":"sea-1","host":"sea-1.us.uncletopia.com","port":27015,"enabled":true,"region":"us-west","cc":"us","latitude":47.608013,"longitude":-122.33517,"reserved":0,"last_update":"0001-01-01T00:00:00Z","name_a2s":"Uncletopia | Seattle | 1 | All Maps","protocol":17,"map":"pl_swiftwater_final1","folder":"tf","game":"Team Fortress","app_id":440,"player_count":24,"max_players":24,"Bots":0,"server_type":"Dedicated","server_os":"Linux","password":true,"vac":true,"version":"7961495","steam_id":85568392924469997,"keywords":["nocrits","nodmgspread","payload","uncletopia"],"game_id":440,"stv_port":27016,"stv_name":"Uncletopia | Seattle | 1 | All Maps | STV","players":[{"user_id":267,"name":"Dairyboi","steam_id":76561198119069462,"connected_time":300000000000,"state":"active","ping":49},{"user_id":248,"name":"Nom Skirrett","steam_id":76561198014600788,"connected_time":2197000000000,"state":"active","ping":60},{"user_id":219,"name":"no vc no c","steam_id":76561197989503095,"connected_time":4168000000000,"state":"active","ping":153},{"user_id":269,"name":"HAHAHAHA!!!","steam_id":76561199208835578,"connected_time":196000000000,"state":"active","ping":58},{"user_id":270,"name":"BigHam","steam_id":76561198157249056,"connected_time":164000000000,"state":"active","ping":59},{"user_id":221,"name":"Zetta","steam_id":76561198045710113,"connected_time":4011000000000,"state":"active","ping":89},{"user_id":243,"name":"Dog","steam_id":76561198041841128,"connected_time":2519000000000,"state":"active","ping":86},{"user_id":260,"name":"Saturnalien","steam_id":76561198057056295,"connected_time":1349000000000,"state":"active","ping":119},{"user_id":257,"name":"MrYadaization","steam_id":76561198050770818,"connected_time":1376000000000,"state":"active","ping":59},{"user_id":252,"name":"ed","steam_id":76561198080475712,"connected_time":1667000000000,"state":"active","ping":71},{"user_id":254,"name":"slushy :))","steam_id":76561198135281802,"connected_time":1390000000000,"state":"active","ping":30},{"user_id":226,"name":"jacix3 [silly doggie :3]","steam_id":76561198205004165,"connected_time":3400000000000,"state":"active","ping":47},{"user_id":268,"name":"a chicken","steam_id":76561198313121580,"connected_time":232000000000,"state":"active","ping":75},{"user_id":274,"name":"Jest","steam_id":76561198170173062,"connected_time":65000000000,"state":"active","ping":76},{"user_id":258,"name":"dree says relax!","steam_id":76561198079178866,"connected_time":1369000000000,"state":"active","ping":120},{"user_id":255,"name":"smeasly","steam_id":76561198028718812,"connected_time":1381000000000,"state":"active","ping":45},{"user_id":272,"name":"Tritium","steam_id":76561198043305626,"connected_time":154000000000,"state":"active","ping":63},{"user_id":265,"name":"Spam The Alien","steam_id":76561199122290968,"connected_time":942000000000,"state":"active","ping":62},{"user_id":273,"name":"snowcap","steam_id":76561198344164944,"connected_time":83000000000,"state":"active","ping":68},{"user_id":275,"name":"[Name Pending]","steam_id":76561198094685223,"connected_time":22000000000,"state":"spawning","ping":104},{"user_id":233,"name":"T√ºCold","steam_id":76561198111278197,"connected_time":2867000000000,"state":"active","ping":45},{"user_id":266,"name":"Keamy","steam_id":76561199471434875,"connected_time":938000000000,"state":"active","ping":45},{"user_id":247,"name":"Daz","steam_id":76561198041431938,"connected_time":2205000000000,"state":"active","ping":51},{"user_id":213,"name":"Pneumo.","steam_id":76561197987911883,"connected_time":4439000000000,"state":"active","ping":59}]},{"server_id":119,"name":"Uncletopia | Seattle | 2 | All Maps","name_short":"sea-2","host":"sea-1.us.uncletopia.com","port":27025,"enabled":true,"region":"us-west","cc":"us","latitude":47.608013,"longitude":-122.33517,"reserved":0,"last_update":"0001-01-01T00:00:00Z","name_a2s":"Uncletopia | Seattle | 2 | All Maps","protocol":17,"map":"pl_upward","folder":"tf","game":"Team Fortress","app_id":440,"player_count":5,"max_players":24,"Bots":0,"server_type":"Dedicated","server_os":"Linux","password":true,"vac":true,"version":"7961495","steam_id":85568392924469998,"keywords":["nocrits","nodmgspread","payload","uncletopia"],"game_id":440,"stv_port":27026,"stv_name":"Uncletopia | Seattle | 2 | All Maps | STV","players":[{"user_id":11,"name":"Spicy Chicken","steam_id":76561198074209737,"connected_time":1679000000000,"state":"active","ping":90},{"user_id":15,"name":"Jade Greenleaf","steam_id":76561198304845413,"connected_time":1364000000000,"state":"active","ping":118},{"user_id":13,"name":"Lazy Broadcasts","steam_id":76561198132871394,"connected_time":1537000000000,"state":"active","ping":50},{"user_id":16,"name":"Goose","steam_id":76561198036774894,"connected_time":1281000000000,"state":"active","ping":34},{"user_id":18,"name":"ChickenFriar","steam_id":76561199119888114,"connected_time":552000000000,"state":"active","ping":135}]},{"server_id":406,"name":"Uncletopia | Seattle | 3 | Stopwatch","name_short":"sea-3","host":"sea-1.us.uncletopia.com","port":27035,"enabled":true,"region":"us-west","cc":"us","latitude":47.608013,"longitude":-122.33517,"reserved":0,"last_update":"0001-01-01T00:00:00Z","name_a2s":"Uncletopia | Seattle | 3 | Stopwatch","protocol":17,"map":"cp_snakewater_final1","folder":"tf","game":"Team Fortress","app_id":440,"player_count":0,"max_players":24,"Bots":0,"server_type":"Dedicated","server_os":"Linux","password":true,"vac":true,"version":"7961495","steam_id":85568392924515217,"keywords":["cp","nocrits","nodmgspread","uncletopia"],"game_id":440,"stv_port":27036,"stv_name":"Uncletopia | Seattle | 3 | Stopwatch | STV","players":null},{"server_id":17,"name":"Uncletopia | San Francisco | 1 | All Maps","name_short":"sfo-1","host":"sfo-1.us.uncletopia.com","port":27015,"enabled":true,"region":"us-west","cc":"us","latitude":37.77397,"longitude":-122.4313,"reserved":0,"last_update":"0001-01-01T00:00:00Z","name_a2s":"Uncletopia | San Francisco | 1 | All Maps","protocol":17,"map":"koth_cascade","folder":"tf","game":"Team Fortress","app_id":440,"player_count":0,"max_players":24,"Bots":0,"server_type":"Dedicated","server_os":"Linux","password":true,"vac":true,"version":"7961495","steam_id":85568392924469999,"keywords":["cp","nocrits","nodmgspread","uncletopia"],"game_id":440,"stv_port":27016,"stv_name":"Uncletopia | San Francisco | 1 | All Maps | STV","players":null},{"server_id":18,"name":"Uncletopia | San Francisco | 2 | All Maps","name_short":"sfo-2","host":"sfo-1.us.uncletopia.com","port":27025,"enabled":true,"region":"us-west","cc":"us","latitude":37.77397,"longitude":-122.4313,"reserved":0,"last_update":"0001-01-01T00:00:00Z","name_a2s":"Uncletopia | San Francisco | 2 | All Maps","protocol":17,"map":"pl_frontier_final","folder":"tf","game":"Team Fortress","app_id":440,"player_count":0,"max_players":24,"Bots":0,"server_type":"Dedicated","server_os":"Linux","password":true,"vac":true,"version":"7961495","steam_id":85568392924470000,"keywords":["nocrits","nodmgspread","payload","uncletopia"],"game_id":440,"stv_port":27026,"stv_name":"Uncletopia | San Francisco | 2 | All Maps | STV","players":null},{"server_id":19,"name":"Uncletopia | San Francisco | 3 | Stopwatch","name_short":"sfo-3","host":"sfo-1.us.uncletopia.com","port":27035,"enabled":true,"region":"us-west","cc":"us","latitude":37.77397,"longitude":-122.4313,"reserved":0,"last_update":"0001-01-01T00:00:00Z","name_a2s":"Uncletopia | San Francisco | 3 | Stopwatch","protocol":17,"map":"pl_pier","folder":"tf","game":"Team Fortress","app_id":440,"player_count":0,"max_players":24,"Bots":0,"server_type":"Dedicated","server_os":"Linux","password":true,"vac":true,"version":"7961495","steam_id":85568392924742824,"keywords":["nocrits","nodmgspread","payload","uncletopia"],"game_id":440,"stv_port":27036,"stv_name":"Uncletopia | San Francisco | 3 | Stopwatch | STV","players":null},{"server_id":20,"name":"Uncletopia | San Francisco | 4 | Community","name_short":"sfo-4","host":"sfo-1.us.uncletopia.com","port":27045,"enabled":true,"region":"us-west","cc":"us","latitude":37.77397,"longitude":-122.4313,"reserved":0,"last_update":"0001-01-01T00:00:00Z","name_a2s":"Uncletopia | San Francisco | 4 | Community","protocol":17,"map":"pl_pier","folder":"tf","game":"Team Fortress","app_id":440,"player_count":0,"max_players":24,"Bots":0,"server_type":"Dedicated","server_os":"Linux","password":true,"vac":true,"version":"7961495","steam_id":85568392924742826,"keywords":["nocrits","nodmgspread","payload","uncletopia"],"game_id":440,"stv_port":27046,"stv_name":"Uncletopia | San Francisco | 4 | Community | STV","players":null},{"server_id":141,"name":"Uncletopia | Sydney | 1 | All Maps","name_short":"syd-1","host":"syd-1.au.uncletopia.com","port":27015,"enabled":true,"region":"au","cc":"au","latitude":-33.865143,"longitude":151.2099,"reserved":0,"last_update":"0001-01-01T00:00:00Z","name_a2s":"Uncletopia | Sydney | 1 | All Maps","protocol":17,"map":"koth_viaduct","folder":"tf","game":"Team Fortress","app_id":440,"player_count":0,"max_players":24,"Bots":0,"server_type":"Dedicated","server_os":"Linux","password":true,"vac":true,"version":"7961495","steam_id":85568392924470001,"keywords":["cp","nocrits","nodmgspread","uncletopia"],"game_id":440,"stv_port":27016,"stv_name":"Uncletopia | Sydney | 1 | All Maps | STV","players":null},{"server_id":123,"name":"Uncletopia | Sydney | 2 | All Maps","name_short":"syd-2","host":"syd-1.au.uncletopia.com","port":27025,"enabled":true,"region":"au","cc":"au","latitude":-33.865143,"longitude":151.2099,"reserved":0,"last_update":"0001-01-01T00:00:00Z","name_a2s":"Uncletopia | Sydney | 2 | All Maps","protocol":17,"map":"koth_lakeside_final","folder":"tf","game":"Team Fortress","app_id":440,"player_count":0,"max_players":24,"Bots":0,"server_type":"Dedicated","server_os":"Linux","password":true,"vac":true,"version":"7961495","steam_id":85568392924470002,"keywords":["cp","nocrits","nodmgspread","uncletopia"],"game_id":440,"stv_port":27026,"stv_name":"Uncletopia | Sydney | 2 | All Maps | STV","players":null},{"server_id":395,"name":"Uncletopia | Sydney | 3 | All Maps","name_short":"syd-3","host":"syd-1.au.uncletopia.com","port":27035,"enabled":true,"region":"au","cc":"au","latitude":-33.865143,"longitude":151.2099,"reserved":0,"last_update":"0001-01-01T00:00:00Z","name_a2s":"Uncletopia | Sydney | 3 | All Maps","protocol":17,"map":"pl_frontier_final","folder":"tf","game":"Team Fortress","app_id":440,"player_count":0,"max_players":24,"Bots":0,"server_type":"Dedicated","server_os":"Linux","password":true,"vac":true,"version":"7961495","steam_id":85568392925194467,"keywords":["nocrits","nodmgspread","payload","uncletopia"],"game_id":440,"stv_port":27036,"stv_name":"Uncletopia | Sydney | 3 | All Maps | STV","players":null},{"server_id":396,"name":"Uncletopia | Sydney | 4 | All Maps","name_short":"syd-4","host":"syd-1.au.uncletopia.com","port":27045,"enabled":true,"region":"au","cc":"au","latitude":-33.865143,"longitude":151.2099,"reserved":0,"last_update":"0001-01-01T00:00:00Z","name_a2s":"Uncletopia | Sydney | 4 | All Maps","protocol":17,"map":"cp_process_final","folder":"tf","game":"Team Fortress","app_id":440,"player_count":0,"max_players":24,"Bots":0,"server_type":"Dedicated","server_os":"Linux","password":true,"vac":true,"version":"7961495","steam_id":85568392925397958,"keywords":["cp","nocrits","nodmgspread","uncletopia"],"game_id":440,"stv_port":27046,"stv_name":"Uncletopia | Sydney | 4 | All Maps | STV","players":null},{"server_id":58,"name":"Uncletopia | Sydney | 5 | Stopwatch","name_short":"syd-5","host":"syd-1.au.uncletopia.com","port":27055,"enabled":true,"region":"au","cc":"au","latitude":-33.865143,"longitude":151.2099,"reserved":0,"last_update":"0001-01-01T00:00:00Z","name_a2s":"Uncletopia | Sydney | 5 | Stopwatch","protocol":17,"map":"pl_frontier_final","folder":"tf","game":"Team Fortress","app_id":440,"player_count":0,"max_players":24,"Bots":0,"server_type":"Dedicated","server_os":"Linux","password":true,"vac":true,"version":"7961495","steam_id":85568392925397959,"keywords":["nocrits","nodmgspread","payload","uncletopia"],"game_id":440,"stv_port":27056,"stv_name":"Uncletopia | Sydney | 5 | Stopwatch | STV","players":null},{"server_id":59,"name":"Uncletopia | Sydney | 6 | Community","name_short":"syd-6","host":"syd-1.au.uncletopia.com","port":27065,"enabled":true,"region":"au","cc":"au","latitude":-33.865143,"longitude":151.2099,"reserved":0,"last_update":"0001-01-01T00:00:00Z","name_a2s":"Uncletopia | Sydney | 6 | Community","protocol":17,"map":"cp_sunshine","folder":"tf","game":"Team Fortress","app_id":440,"player_count":0,"max_players":24,"Bots":0,"server_type":"Dedicated","server_os":"Linux","password":true,"vac":true,"version":"7961495","steam_id":85568392925397960,"keywords":["cp","nocrits","nodmgspread","uncletopia"],"game_id":440,"stv_port":27066,"stv_name":"Uncletopia | Sydney | 6 | Community | STV","players":null},{"server_id":49,"name":"Uncletopia | Warsaw | 1 | One Thousand Uncles","name_short":"waw-1","host":"waw-1.pl.uncletopia.com","port":27015,"enabled":true,"region":"eu","cc":"pl","latitude":52.2297,"longitude":21.017532,"reserved":0,"last_update":"0001-01-01T00:00:00Z","name_a2s":"Uncletopia | Warsaw | 1 | One Thousand Uncles","protocol":17,"map":"pl_thundermountain","folder":"tf","game":"Team Fortress","app_id":440,"player_count":21,"max_players":32,"Bots":16,"server_type":"Dedicated","server_os":"Linux","password":true,"vac":true,"version":"7961495","steam_id":85568392925397850,"keywords":["alltalk","bots","danepve","increased_maxplayers","nocrits","norespawntime","payload","uncletopia"],"game_id":440,"stv_port":0,"stv_name":"","players":[{"user_id":315,"name":"Ramzus","steam_id":76561198012385070,"connected_time":1513000000000,"state":"active","ping":88},{"user_id":319,"name":"blackman.vbhop.2004","steam_id":76561198268384872,"connected_time":342000000000,"state":"active","ping":84},{"user_id":316,"name":"Bottle O' Scrumpy","steam_id":76561199244250562,"connected_time":929000000000,"state":"active","ping":109},{"user_id":300,"name":"‚àö(-Wolf)","steam_id":76561198024769704,"connected_time":5047000000000,"state":"active","ping":61},{"user_id":253,"name":"adv6","steam_id":76561198029789989,"connected_time":7693000000000,"state":"active","ping":75}]},{"server_id":50,"name":"Uncletopia | Warsaw | 2 | One Thousand Uncles","name_short":"waw-2","host":"waw-1.pl.uncletopia.com","port":27025,"enabled":true,"region":"eu","cc":"pl","latitude":52.2297,"longitude":21.017532,"reserved":0,"last_update":"0001-01-01T00:00:00Z","name_a2s":"Uncletopia | Warsaw | 2 | One Thousand Uncles","protocol":17,"map":"pl_thundermountain","folder":"tf","game":"Team Fortress","app_id":440,"player_count":25,"max_players":32,"Bots":16,"server_type":"Dedicated","server_os":"Linux","password":true,"vac":true,"version":"7961495","steam_id":85568392925397851,"keywords":["alltalk","bots","danepve","increased_maxplayers","nocrits","norespawntime","payload","uncletopia"],"game_id":440,"stv_port":0,"stv_name":"","players":[{"user_id":45,"name":"KipxSateee","steam_id":76561198149158137,"connected_time":3895000000000,"state":"active","ping":68},{"user_id":4,"name":"pyro gaming","steam_id":76561198087970118,"connected_time":6189000000000,"state":"active","ping":46},{"user_id":12,"name":"Doctor Medic","steam_id":76561198100957443,"connected_time":6187000000000,"state":"active","ping":77},{"user_id":84,"name":"dollerboy","steam_id":76561199246428577,"connected_time":1139000000000,"state":"active","ping":104},{"user_id":24,"name":"Boomer Shooter Consoomer","steam_id":76561198079752648,"connected_time":6121000000000,"state":"active","ping":76},{"user_id":102,"name":"T Pose Anteater [MFRC]","steam_id":76561198845601442,"connected_time":586000000000,"state":"active","ping":105},{"user_id":31,"name":"Ziemniaczki z koperkiem","steam_id":76561198829123464,"connected_time":5177000000000,"state":"active","ping":39},{"user_id":103,"name":"Voks_","steam_id":76561198159687785,"connected_time":524000000000,"state":"active","ping":64},{"user_id":105,"name":"BUCKET:\\soldier\\Desktop\\","steam_id":76561199047240319,"connected_time":323000000000,"state":"active","ping":790}]},{"server_id":51,"name":"Uncletopia | Warsaw | 3 | All Maps","name_short":"waw-3","host":"waw-1.pl.uncletopia.com","port":27035,"enabled":true,"region":"eu","cc":"pl","latitude":52.2297,"longitude":21.017532,"reserved":0,"last_update":"0001-01-01T00:00:00Z","name_a2s":"Uncletopia | Warsaw | 3 | All Maps","protocol":17,"map":"cp_altitude","folder":"tf","game":"Team Fortress","app_id":440,"player_count":0,"max_players":24,"Bots":0,"server_type":"Dedicated","server_os":"Linux","password":true,"vac":true,"version":"7961495","steam_id":85568392925397852,"keywords":["cp","nocrits","nodmgspread","uncletopia"],"game_id":440,"stv_port":27036,"stv_name":"Uncletopia | Warsaw | 3 | All Maps | STV","players":null},{"server_id":52,"name":"Uncletopia | Warsaw | 4 | All Maps","name_short":"waw-4","host":"waw-1.pl.uncletopia.com","port":27045,"enabled":true,"region":"eu","cc":"pl","latitude":52.2297,"longitude":21.017532,"reserved":0,"last_update":"0001-01-01T00:00:00Z","name_a2s":"Uncletopia | Warsaw | 4 | All Maps","protocol":17,"map":"pl_pier","folder":"tf","game":"Team Fortress","app_id":440,"player_count":9,"max_players":24,"Bots":0,"server_type":"Dedicated","server_os":"Linux","password":true,"vac":true,"version":"7961495","steam_id":85568392925397853,"keywords":["nocrits","nodmgspread","payload","uncletopia"],"game_id":440,"stv_port":27046,"stv_name":"Uncletopia | Warsaw | 4 | All Maps | STV","players":[{"user_id":140,"name":"olsolsols12","steam_id":76561198089444052,"connected_time":2902000000000,"state":"active","ping":67},{"user_id":141,"name":"Carrot","steam_id":76561198119340863,"connected_time":2767000000000,"state":"active","ping":69},{"user_id":142,"name":"mh","steam_id":76561198442932674,"connected_time":2731000000000,"state":"active","ping":65},{"user_id":143,"name":"abipinch","steam_id":76561199104348040,"connected_time":2660000000000,"state":"active","ping":65},{"user_id":145,"name":"niallmrl","steam_id":76561198324221284,"connected_time":2007000000000,"state":"active","ping":62},{"user_id":146,"name":"[Plotholers] odacovA","steam_id":76561199383345208,"connected_time":1594000000000,"state":"active","ping":169},{"user_id":149,"name":"YourAverageF2P","steam_id":76561199489254372,"connected_time":481000000000,"state":"active","ping":93},{"user_id":150,"name":"Giga–°had Pyro","steam_id":76561198140742485,"connected_time":277000000000,"state":"active","ping":76},{"user_id":152,"name":"donatofina","steam_id":76561198353497885,"connected_time":48000000000,"state":"active","ping":96}]},{"server_id":53,"name":"Uncletopia | Warsaw | 5 | Stopwatch","name_short":"waw-5","host":"waw-1.pl.uncletopia.com","port":27055,"enabled":true,"region":"eu","cc":"pl","latitude":52.2297,"longitude":21.017532,"reserved":0,"last_update":"0001-01-01T00:00:00Z","name_a2s":"Uncletopia | Warsaw | 5 | Stopwatch","protocol":17,"map":"workshop/pl_vigil_rc10.ugc1266210012","folder":"tf","game":"Team Fortress","app_id":440,"player_count":0,"max_players":24,"Bots":0,"server_type":"Dedicated","server_os":"Linux","password":true,"vac":true,"version":"7961495","steam_id":85568392925397854,"keywords":["nocrits","nodmgspread","payload","uncletopia"],"game_id":440,"stv_port":27056,"stv_name":"Uncletopia | Warsaw | 5 | Stopwatch | STV","players":null},{"server_id":54,"name":"Uncletopia | Warsaw | 6 | Community","name_short":"waw-6","host":"waw-1.pl.uncletopia.com","port":27065,"enabled":true,"region":"eu","cc":"pl","latitude":52.2297,"longitude":21.017532,"reserved":0,"last_update":"0001-01-01T00:00:00Z","name_a2s":"Uncletopia | Warsaw | 6 | Community","protocol":17,"map":"workshop/koth_slaughter_rc1.ugc1712845210","folder":"tf","game":"Team Fortress","app_id":440,"player_count":0,"max_players":24,"Bots":0,"server_type":"Dedicated","server_os":"Linux","password":true,"vac":true,"version":"7961495","steam_id":85568392925397856,"keywords":["cp","nocrits","nodmgspread","uncletopia"],"game_id":440,"stv_port":27066,"stv_name":"Uncletopia | Warsaw | 6 | Community | STV","players":null}]}