{"status":true,"message":"","result":[{"server_id":9,"name":"Uncletopia | Atlanta | 1 | All Maps","name_short":"atl-1","host":"atl-1.us.uncletopia.com","port":27015,"enabled":true,"region":"us-east","cc":"us","latitude":33.753746,"longitude":-84.38633,"reserved":0,"last_update":"0001-01-01T00:00:00Z","name_a2s":"Uncletopia | Atlanta | 1 | All Maps","protocol":17,"map":"cp_mountainlab","folder":"tf","game":"Team Fortress","app_id":440,"player_count":10,"max_players":24,"Bots":0,"server_type":"Dedicated","server_os":"Linux","password":true,"vac":true,"version":"7882260","steam_id":85568392924469982,"keywords":["cp","nocrits","nodmgspread","uncletopia"],"game_id":440,"stv_port":27016,"stv_name":"Uncletopia | Atlanta | 1 | All Maps | STV","players":[{"user_id":584,"name":"basil smoking weed","steam_id":76561198119590214,"connected_time":1234000000000,"state":"spawning","ping":67},{"user_id":589,"name":"Pixel","steam_id":76561198096221632,"connected_time":840000000000,"state":"spawning","ping":66},{"user_id":583,"name":"Lupin_ch","steam_id":76561197995281903,"connected_time":1263000000000,"state":"spawning","ping":160},{"user_id":467,"name":"Bodhi","steam_id":76561198103230995,"connected_time":14515000000000,"state":"spawning","ping":93},{"user_id":599,"name":"Risky Finger","steam_id":76561198069152698,"connected_time":341000000000,"state":"spawning","ping":148},{"user_id":600,"name":"thebob16","steam_id":76561199005310059,"connected_time":174000000000,"state":"spawning","ping":76},{"user_id":586,"name":"JollyVG","steam_id":76561198044919633,"connected_time":1020000000000,"state":"spawning","ping":51},{"user_id":590,"name":"See You Space Cowboy","steam_id":76561198202240772,"connected_time":775000000000,"state":"spawning","ping":66},{"user_id":576,"name":"Shinebox","steam_id":76561198028250911,"connected_time":1719000000000,"state":"spawning","ping":109},{"user_id":594,"name":"Soto101","steam_id":76561198141538280,"connected_time":660000000000,"state":"spawning","ping":100}]},{"server_id":104,"name":"Uncletopia | Atlanta | 2 | All Maps","name_short":"atl-2","host":"atl-1.us.uncletopia.com","port":27025,"enabled":true,"region":"us-east","cc":"us","latitude":33.753746,"longitude":-84.38633,"reserved":0,"last_update":"0001-01-01T00:00:00Z","name_a2s":"Uncletopia | Atlanta | 2 | All Maps","protocol":17,"map":"pl_barnblitz","folder":"tf","game":"Team Fortress","app_id":440,"player_count":0,"max_players":24,"Bots":0,"server_type":"Dedicated","server_os":"Linux","password":true,"vac":true,"version":"7882260","steam_id":85568392924469983,"keywords":["nocrits","nodmgspread","payload","uncletopia"],"game_id":440,"stv_port":27026,"stv_name":"Uncletopia | Atlanta | 2 | All Maps | STV","players":null},{"server_id":400,"name":"Uncletopia | Atlanta | 3 | Community","name_short":"atl-3","host":"atl-1.us.uncletopia.com","port":27035,"enabled":true,"region":"us-east","cc":"us","latitude":33.753746,"longitude":-84.38633,"reserved":0,"last_update":"0001-01-01T00:00:00Z","name_a2s":"Uncletopia | Atlanta | 3 | Community","protocol":17,"map":"workshop/koth_slaughter_rc1.ugc1712845210","folder":"tf","game":"Team Fortress","app_id":440,"player_count":0,"max_players":24,"Bots":0,"server_type":"Dedicated","server_os":"Linux","password":true,"vac":true,"version":"7882260","steam_id":85568392924515187,"keywords":["cp","nocrits","nodmgspread","uncletopia"],"game_id":440,"stv_port":27036,"stv_name":"Uncletopia | Atlanta | 3 | Community | STV","players":null},{"server_id":401,"name":"Uncletopia | Atlanta | 4 | No Payload","name_short":"atl-4","host":"atl-1.us.uncletopia.com","port":27045,"enabled":true,"region":"us-east","cc":"us","latitude":33.753746,"longitude":-84.38633,"reserved":0,"last_update":"0001-01-01T00:00:00Z","name_a2s":"","protocol":0,"map":"","folder":"","game":"","app_id":0,"player_count":0,"max_players":0,"Bots":0,"server_type":"","server_os":"","password":false,"vac":false,"version":"","steam_id":0,"keywords":null,"game_id":0,"stv_port":0,"stv_name":"","players":null},{"server_id":2,"name":"Uncletopia | Chicago | 1 | All Maps","name_short":"chi-1","host":"chi-1.us.uncletopia.com","port":27015,"enabled":true,"region":"us-central","cc":"us","latitude":41.881832,"longitude":-87.62318,"reserved":0,"last_update":"0001-01-01T00:00:00Z","name_a2s":"Uncletopia | Chicago | 1 | All Maps","protocol":17,"map":"pl_barnblitz","folder":"tf","game":"Team Fortress","app_id":440,"player_count":24,"max_players":24,"Bots":0,"server_type":"Dedicated","server_os":"Linux","password":true,"vac":true,"version":"7882260","steam_id":85568392924469984,"keywords":["nocrits","nodmgspread","payload","uncletopia"],"game_id":440,"stv_port":27016,"stv_name":"Uncletopia | Chicago | 1 | All Maps | STV","players":[{"user_id":940,"name":"We believe in you!","steam_id":76561198219252313,"connected_time":974000000000,"state":"active","ping":64},{"user_id":872,"name":"berserk rape horse","steam_id":76561198153669555,"connected_time":8663000000000,"state":"active","ping":85},{"user_id":795,"name":"Alecto","steam_id":76561198042476864,"connected_time":13818000000000,"state":"active","ping":45},{"user_id":895,"name":"Iceman10a","steam_id":76561198171922098,"connected_time":6903000000000,"state":"active","ping":116},{"user_id":937,"name":"DinoFan11902","steam_id":76561198260348654,"connected_time":1600000000000,"state":"active","ping":75},{"user_id":938,"name":"Wang of Wall St","steam_id":76561198047460598,"connected_time":1222000000000,"state":"active","ping":73},{"user_id":950,"name":"Team Fartpiss Poo","steam_id":76561199163591880,"connected_time":52000000000,"state":"active","ping":86},{"user_id":919,"name":"Generator","steam_id":76561198011762257,"connected_time":3400000000000,"state":"active","ping":118},{"user_id":916,"name":"Underscorn","steam_id":76561198374209415,"connected_time":3938000000000,"state":"active","ping":60},{"user_id":920,"name":"Willy Wonker","steam_id":76561198082944789,"connected_time":3391000000000,"state":"active","ping":93},{"user_id":893,"name":"Takyon","steam_id":76561198172075186,"connected_time":7495000000000,"state":"active","ping":170},{"user_id":951,"name":"dumb dog","steam_id":76561198114227142,"connected_time":49000000000,"state":"active","ping":89},{"user_id":931,"name":"PapaRicka","steam_id":76561198156474931,"connected_time":1939000000000,"state":"active","ping":64},{"user_id":932,"name":"Swiifty","steam_id":76561198148262643,"connected_time":1886000000000,"state":"active","ping":95},{"user_id":917,"name":"ZBaldTop","steam_id":76561199396318132,"connected_time":3786000000000,"state":"active","ping":45},{"user_id":941,"name":"wugmup","steam_id":76561199096287734,"connected_time":932000000000,"state":"active","ping":134},{"user_id":942,"name":"cucumper","steam_id":76561198079504588,"connected_time":918000000000,"state":"active","ping":74},{"user_id":913,"name":"Yukon Cornelius","steam_id":76561198261512781,"connected_time":4308000000000,"state":"active","ping":82},{"user_id":867,"name":"Shakey","steam_id":76561198012340821,"connected_time":8985000000000,"state":"active","ping":146},{"user_id":935,"name":"I dont build","steam_id":76561199013705323,"connected_time":1786000000000,"state":"active","ping":60},{"user_id":943,"name":"woot ivan","steam_id":76561198339929050,"connected_time":882000000000,"state":"active","ping":90},{"user_id":936,"name":"RURU","steam_id":76561198039758987,"connected_time":1768000000000,"state":"active","ping":104},{"user_id":944,"name":"marvxpensiv3","steam_id":76561199020502894,"connected_time":846000000000,"state":"active","ping":140},{"user_id":934,"name":"mel","steam_id":76561198215559840,"connected_time":1811000000000,"state":"active","ping":60}]},{"server_id":106,"name":"Uncletopia | Chicago | 2 | All Maps","name_short":"chi-2","host":"chi-1.us.uncletopia.com","port":27025,"enabled":true,"region":"us-central","cc":"us","latitude":41.881832,"longitude":-87.62318,"reserved":0,"last_update":"0001-01-01T00:00:00Z","name_a2s":"Uncletopia | Chicago | 2 | All Maps","protocol":17,"map":"koth_cascade","folder":"tf","game":"Team Fortress","app_id":440,"player_count":0,"max_players":24,"Bots":0,"server_type":"Dedicated","server_os":"Linux","password":true,"vac":true,"version":"7882260","steam_id":85568392924469985,"keywords":["cp","nocrits","nodmgspread","uncletopia"],"game_id":440,"stv_port":27026,"stv_name":"Uncletopia | Chicago | 2 | All Maps | STV","players":null},{"server_id":402,"name":"Uncletopia | Chicago | 3 | All Maps","name_short":"chi-3","host":"chi-1.us.uncletopia.com","port":27035,"enabled":true,"region":"us-central","cc":"us","latitude":41.881832,"longitude":-87.62318,"reserved":0,"last_update":"0001-01-01T00:00:00Z","name_a2s":"Uncletopia | Chicago | 3 | All Maps","protocol":17,"map":"koth_cascade","folder":"tf","game":"Team Fortress","app_id":440,"player_count":6,"max_players":24,"Bots":0,"server_type":"Dedicated","server_os":"Linux","password":true,"vac":true,"version":"7882260","steam_id":85568392924515191,"keywords":["cp","nocrits","nodmgspread","uncletopia"],"game_id":440,"stv_port":27036,"stv_name":"Uncletopia | Chicago | 3 | All Maps | STV","players":[{"user_id":612,"name":"123","steam_id":76561198106308056,"connected_time":3600000000000,"state":"active","ping":102},{"user_id":613,"name":"Coolstuff #MissUFountain","steam_id":76561198178350213,"connected_time":3538000000000,"state":"active","ping":45},{"user_id":605,"name":"Thequirka #ForFountainMann","steam_id":76561198968058652,"connected_time":4131000000000,"state":"active","ping":95},{"user_id":606,"name":"Phoenix","steam_id":76561199465534945,"connected_time":4110000000000,"state":"active","ping":121},{"user_id":617,"name":"themadlad67","steam_id":76561199309554436,"connected_time":554000000000,"state":"active","ping":88},{"user_id":618,"name":"BlackSaturn","steam_id":76561198853364731,"connected_time":85000000000,"state":"active","ping":100}]},{"server_id":403,"name":"Uncletopia | Chicago | 4 | All Maps","name_short":"chi-4","host":"chi-1.us.uncletopia.com","port":27045,"enabled":true,"region":"us-central","cc":"us","latitude":41.881832,"longitude":-87.62318,"reserved":0,"last_update":"0001-01-01T00:00:00Z","name_a2s":"Uncletopia | Chicago | 4 | All Maps","protocol":17,"map":"pl_upward","folder":"tf","game":"Team Fortress","app_id":440,"player_count":24,"max_players":24,"Bots":0,"server_type":"Dedicated","server_os":"Linux","password":true,"vac":true,"version":"7882260","steam_id":85568392924515193,"keywords":["nocrits","nodmgspread","payload","uncletopia"],"game_id":440,"stv_port":27046,"stv_name":"Uncletopia | Chicago | 4 | All Maps | STV","players":[{"user_id":517,"name":"Archie","steam_id":76561198137112917,"connected_time":3960000000000,"state":"active","ping":106},{"user_id":567,"name":"Shades McKenzie","steam_id":76561198007051107,"connected_time":194000000000,"state":"active","ping":74},{"user_id":568,"name":"Townze","steam_id":76561198081827165,"connected_time":166000000000,"state":"active","ping":51},{"user_id":569,"name":"Bloo","steam_id":76561198042637429,"connected_time":119000000000,"state":"active","ping":84},{"user_id":455,"name":"SLICK PAPI #IMDADDYASF","steam_id":76561198144766439,"connected_time":9150000000000,"state":"active","ping":45},{"user_id":543,"name":"Dylanxp300","steam_id":76561198271974937,"connected_time":1918000000000,"state":"active","ping":74},{"user_id":553,"name":"Devoid","steam_id":76561198254039012,"connected_time":1104000000000,"state":"active","ping":65},{"user_id":570,"name":"❤ A Good Name (she/her) ❤","steam_id":76561198858190691,"connected_time":108000000000,"state":"active","ping":109},{"user_id":571,"name":"Doctor Fortnite","steam_id":76561198104520419,"connected_time":89000000000,"state":"active","ping":62},{"user_id":563,"name":"Marc G","steam_id":76561198062650363,"connected_time":545000000000,"state":"active","ping":50},{"user_id":527,"name":"Yesu","steam_id":76561198026522528,"connected_time":3136000000000,"state":"active","ping":74},{"user_id":539,"name":"Maxxycat","steam_id":76561198194062681,"connected_time":2175000000000,"state":"active","ping":49},{"user_id":572,"name":"Cosmic sR","steam_id":76561198081738675,"connected_time":75000000000,"state":"active","ping":86},{"user_id":479,"name":"VidzCMC","steam_id":76561198848142973,"connected_time":7176000000000,"state":"active","ping":47},{"user_id":551,"name":"Cool","steam_id":76561198396754263,"connected_time":1284000000000,"state":"active","ping":61},{"user_id":564,"name":"STILLZ","steam_id":76561198131892406,"connected_time":515000000000,"state":"active","ping":74},{"user_id":565,"name":"Pongallow","steam_id":76561198146876078,"connected_time":240000000000,"state":"active","ping":45},{"user_id":505,"name":"dusty","steam_id":76561198881665250,"connected_time":5048000000000,"state":"active","ping":100},{"user_id":573,"name":"Man-Pac","steam_id":76561198101628937,"connected_time":60000000000,"state":"active","ping":111},{"user_id":483,"name":"jayytee","steam_id":76561198059575962,"connected_time":6845000000000,"state":"active","ping":56},{"user_id":561,"name":"lanzer","steam_id":76561198049983016,"connected_time":734000000000,"state":"active","ping":181},{"user_id":522,"name":"frog from pond","steam_id":76561198184900753,"connected_time":3373000000000,"state":"active","ping":56},{"user_id":513,"name":"c9","steam_id":76561198136642793,"connected_time":4266000000000,"state":"active","ping":66},{"user_id":566,"name":"WONDER.","steam_id":76561198092527854,"connected_time":239000000000,"state":"active","ping":103}]},{"server_id":36,"name":"Uncletopia | Chicago | 5 | All Maps","name_short":"chi-5","host":"chi-2.us.uncletopia.com","port":27015,"enabled":true,"region":"us-central","cc":"us","latitude":41.881832,"longitude":-87.62318,"reserved":0,"last_update":"0001-01-01T00:00:00Z","name_a2s":"Uncletopia | Chicago | 5 | All Maps","protocol":17,"map":"pl_swiftwater_final1","folder":"tf","game":"Team Fortress","app_id":440,"player_count":0,"max_players":24,"Bots":0,"server_type":"Dedicated","server_os":"Linux","password":true,"vac":true,"version":"7882260","steam_id":85568392924866362,"keywords":["nocrits","nodmgspread","payload","uncletopia"],"game_id":440,"stv_port":27016,"stv_name":"Uncletopia | Chicago | 5 | All Maps | STV","players":null},{"server_id":37,"name":"Uncletopia | Chicago | 6 | All Maps","name_short":"chi-6","host":"chi-2.us.uncletopia.com","port":27025,"enabled":true,"region":"us-central","cc":"us","latitude":41.881832,"longitude":-87.62318,"reserved":0,"last_update":"0001-01-01T00:00:00Z","name_a2s":"Uncletopia | Chicago | 6 | All Maps","protocol":17,"map":"koth_viaduct","folder":"tf","game":"Team Fortress","app_id":440,"player_count":0,"max_players":24,"Bots":0,"server_type":"Dedicated","server_os":"Linux","password":true,"vac":true,"version":"7882260","steam_id":85568392924866363,"keywords":["cp","nocrits","nodmgspread","uncletopia"],"game_id":440,"stv_port":27026,"stv_name":"Uncletopia | Chicago | 6 | All Maps | STV","players":null},{"server_id":38,"name":"Uncletopia | Chicago | 7 | Stopwatch Beta","name_short":"chi-7","host":"chi-2.us.uncletopia.com","port":27035,"enabled":true,"region":"us-central","cc":"us","latitude":41.881832,"longitude":-87.62318,"reserved":0,"last_update":"0001-01-01T00:00:00Z","name_a2s":"Uncletopia | Chicago | 7 | Stopwatch Beta","protocol":17,"map":"pl_upward","folder":"tf","game":"Team Fortress","app_id":440,"player_count":0,"max_players":24,"Bots":0,"server_type":"Dedicated","server_os":"Linux","password":true,"vac":true,"version":"7882260","steam_id":85568392924866364,"keywords":["nocrits","nodmgspread","payload","uncletopia"],"game_id":440,"stv_port":27036,"stv_name":"Uncletopia | Chicago | 7 | Stopwatch Beta | STV","players":null},{"server_id":39,"name":"Uncletopia | Chicago | 8 | Community","name_short":"chi-8","host":"chi-2.us.uncletopia.com","port":27045,"enabled":true,"region":"us-central","cc":"us","latitude":41.881832,"longitude":-87.62318,"reserved":0,"last_update":"0001-01-01T00:00:00Z","name_a2s":"Uncletopia | Chicago | 8 | Community","protocol":17,"map":"workshop/pl_cashworks_final1.ugc2904065412","folder":"tf","game":"Team Fortress","app_id":440,"player_count":0,"max_players":24,"Bots":0,"server_type":"Dedicated","server_os":"Linux","password":true,"vac":true,"version":"7882260","steam_id":85568392924866365,"keywords":["nocrits","nodmgspread","payload","uncletopia"],"game_id":440,"stv_port":27046,"stv_name":"Uncletopia | Chicago | 8 | Community | STV","players":null},{"server_id":8,"name":"Uncletopia | Dallas | 1 | All Maps","name_short":"dal-1","host":"dal-1.us.uncletopia.com","port":27015,"enabled":true,"region":"us-central","cc":"us","latitude":32.779167,"longitude":-96.80889,"reserved":0,"last_update":"0001-01-01T00:00:00Z","name_a2s":"Uncletopia | Dallas | 1 | All Maps","protocol":17,"map":"cp_snakewater_final1","folder":"tf","game":"Team Fortress","app_id":440,"player_count":18,"max_players":24,"Bots":0,"server_type":"Dedicated","server_os":"Linux","password":true,"vac":true,"version":"7882260","steam_id":85568392924469986,"keywords":["cp","nocrits","nodmgspread","uncletopia"],"game_id":440,"stv_port":27016,"stv_name":"Uncletopia | Dallas | 1 | All Maps | STV","players":[{"user_id":531,"name":"Bread Wizard","steam_id":76561198268866941,"connected_time":5969000000000,"state":"active","ping":69},{"user_id":583,"name":"patam :)","steam_id":76561199139871691,"connected_time":855000000000,"state":"active","ping":77},{"user_id":532,"name":"OmegaExiled","steam_id":76561198322167154,"connected_time":5906000000000,"state":"active","ping":77},{"user_id":586,"name":"Lore","steam_id":76561198098407538,"connected_time":29000000000,"state":"active","ping":75},{"user_id":527,"name":"MoiMoi","steam_id":76561198873850038,"connected_time":6293000000000,"state":"active","ping":75},{"user_id":528,"name":"Kng","steam_id":76561198993248203,"connected_time":6279000000000,"state":"active","ping":73},{"user_id":564,"name":"Arthur","steam_id":76561198023277743,"connected_time":2579000000000,"state":"active","ping":81},{"user_id":563,"name":"TheXenoKing","steam_id":76561198127424141,"connected_time":2694000000000,"state":"active","ping":117},{"user_id":587,"name":"C^a^L","steam_id":76561198241124222,"connected_time":25000000000,"state":"active","ping":88},{"user_id":536,"name":"(◎﹏◎)","steam_id":76561198007464245,"connected_time":5596000000000,"state":"active","ping":76},{"user_id":554,"name":"frank","steam_id":76561198137777483,"connected_time":3336000000000,"state":"active","ping":86},{"user_id":580,"name":"Grandpa Baozhai","steam_id":76561198086667725,"connected_time":1502000000000,"state":"active","ping":105},{"user_id":577,"name":"helvede","steam_id":76561198876949544,"connected_time":1593000000000,"state":"active","ping":62},{"user_id":585,"name":"Hatfam","steam_id":76561199192629036,"connected_time":175000000000,"state":"active","ping":98},{"user_id":559,"name":"bes","steam_id":76561198168659693,"connected_time":3234000000000,"state":"active","ping":64},{"user_id":557,"name":"Gamut","steam_id":76561199185822800,"connected_time":3298000000000,"state":"active","ping":69},{"user_id":579,"name":"SLUMDOG","steam_id":76561198119728432,"connected_time":1579000000000,"state":"active","ping":83},{"user_id":582,"name":"Colonel Salt","steam_id":76561198207009563,"connected_time":933000000000,"state":"active","ping":52}]},{"server_id":108,"name":"Uncletopia | Dallas | 2 | All Maps","name_short":"dal-2","host":"dal-1.us.uncletopia.com","port":27025,"enabled":true,"region":"us-central","cc":"us","latitude":32.779167,"longitude":-96.80889,"reserved":0,"last_update":"0001-01-01T00:00:00Z","name_a2s":"Uncletopia | Dallas | 2 | All Maps","protocol":17,"map":"cp_snakewater_final1","folder":"tf","game":"Team Fortress","app_id":440,"player_count":0,"max_players":24,"Bots":0,"server_type":"Dedicated","server_os":"Linux","password":true,"vac":true,"version":"7882260","steam_id":85568392924469988,"keywords":["cp","nocrits","nodmgspread","uncletopia"],"game_id":440,"stv_port":27026,"stv_name":"Uncletopia | Dallas | 2 | All Maps | STV","players":null},{"server_id":5,"name":"Uncletopia | Frankfurt | 1 | All Maps","name_short":"frk-1","host":"frk-1.de.uncletopia.com","port":27015,"enabled":true,"region":"eu","cc":"de","latitude":50.110924,"longitude":8.682127,"reserved":0,"last_update":"0001-01-01T00:00:00Z","name_a2s":"Uncletopia | Frankfurt | 1 | All Maps","protocol":17,"map":"pl_snowycoast","folder":"tf","game":"Team Fortress","app_id":440,"player_count":0,"max_players":24,"Bots":0,"server_type":"Dedicated","server_os":"Linux","password":true,"vac":true,"version":"7882260","steam_id":85568392924469989,"keywords":["nocrits","nodmgspread","payload","uncletopia"],"game_id":440,"stv_port":27016,"stv_name":"Uncletopia | Frankfurt | 1 | All Maps | STV","players":null},{"server_id":110,"name":"Uncletopia | Frankfurt | 2 | All Maps","name_short":"frk-2","host":"frk-1.de.uncletopia.com","port":27025,"enabled":true,"region":"eu","cc":"de","latitude":50.110924,"longitude":8.682127,"reserved":0,"last_update":"0001-01-01T00:00:00Z","name_a2s":"Uncletopia | Frankfurt | 2 | All Maps","protocol":17,"map":"cp_sunshine","folder":"tf","game":"Team Fortress","app_id":440,"player_count":0,"max_players":24,"Bots":0,"server_type":"Dedicated","server_os":"Linux","password":true,"vac":true,"version":"7882260","steam_id":85568392924469990,"keywords":["cp","nocrits","nodmgspread","uncletopia"],"game_id":440,"stv_port":27026,"stv_name":"Uncletopia | Frankfurt | 2 | All Maps | STV","players":null},{"server_id":308,"name":"Uncletopia | Frankfurt | 3 | All Maps","name_short":"frk-3","host":"frk-1.de.uncletopia.com","port":27035,"enabled":true,"region":"eu","cc":"de","latitude":50.110924,"longitude":8.682127,"reserved":0,"last_update":"0001-01-01T00:00:00Z","name_a2s":"Uncletopia | Frankfurt | 3 | All Maps","protocol":17,"map":"cp_sunshine","folder":"tf","game":"Team Fortress","app_id":440,"player_count":0,"max_players":24,"Bots":0,"server_type":"Dedicated","server_os":"Linux","password":true,"vac":true,"version":"7882260","steam_id":85568392924504274,"keywords":["cp","nocrits","nodmgspread","uncletopia"],"game_id":440,"stv_port":27036,"stv_name":"Uncletopia | Frankfurt | 3 | All Maps | STV","players":null},{"server_id":309,"name":"Uncletopia | Frankfurt | 4 | All Maps","name_short":"frk-4","host":"frk-1.de.uncletopia.com","port":27045,"enabled":true,"region":"eu","cc":"de","latitude":50.110924,"longitude":8.682127,"reserved":0,"last_update":"0001-01-01T00:00:00Z","name_a2s":"Uncletopia | Frankfurt | 4 | All Maps","protocol":17,"map":"pl_swiftwater_final1","folder":"tf","game":"Team Fortress","app_id":440,"player_count":0,"max_players":24,"Bots":0,"server_type":"Dedicated","server_os":"Linux","password":true,"vac":true,"version":"7882260","steam_id":85568392924504275,"keywords":["nocrits","nodmgspread","payload","uncletopia"],"game_id":440,"stv_port":27046,"stv_name":"Uncletopia | Frankfurt | 4 | All Maps | STV","players":null},{"server_id":310,"name":"Uncletopia | Frankfurt | 5 | All Maps","name_short":"frk-5","host":"frk-1.de.uncletopia.com","port":27055,"enabled":true,"region":"eu","cc":"de","latitude":50.110924,"longitude":8.682127,"reserved":0,"last_update":"0001-01-01T00:00:00Z","name_a2s":"Uncletopia | Frankfurt | 5 | All Maps","protocol":17,"map":"pl_borneo","folder":"tf","game":"Team Fortress","app_id":440,"player_count":0,"max_players":24,"Bots":0,"server_type":"Dedicated","server_os":"Linux","password":true,"vac":true,"version":"7882260","steam_id":85568392924504277,"keywords":["nocrits","nodmgspread","payload","uncletopia"],"game_id":440,"stv_port":27056,"stv_name":"Uncletopia | Frankfurt | 5 | All Maps | STV","players":null},{"server_id":311,"name":"Uncletopia | Frankfurt | 6 | All Maps","name_short":"frk-6","host":"frk-1.de.uncletopia.com","port":27065,"enabled":true,"region":"eu","cc":"de","latitude":50.110924,"longitude":8.682127,"reserved":0,"last_update":"0001-01-01T00:00:00Z","name_a2s":"Uncletopia | Frankfurt | 6 | All Maps","protocol":17,"map":"cp_snakewater_final1","folder":"tf","game":"Team Fortress","app_id":440,"player_count":0,"max_players":24,"Bots":0,"server_type":"Dedicated","server_os":"Linux","password":true,"vac":true,"version":"7882260","steam_id":85568392924504278,"keywords":["cp","nocrits","nodmgspread","uncletopia"],"game_id":440,"stv_port":27066,"stv_name":"Uncletopia | Frankfurt | 6 | All Maps | STV","players":null},{"server_id":23,"name":"Uncletopia | Frankfurt | 7 | Stopwatch Beta","name_short":"frk-7","host":"frk-1.de.uncletopia.com","port":27075,"enabled":true,"region":"eu","cc":"de","latitude":50.110924,"longitude":8.682127,"reserved":0,"last_update":"0001-01-01T00:00:00Z","name_a2s":"Uncletopia | Frankfurt | 7 | Stopwatch Beta","protocol":17,"map":"cp_snakewater_final1","folder":"tf","game":"Team Fortress","app_id":440,"player_count":0,"max_players":24,"Bots":0,"server_type":"Dedicated","server_os":"Linux","password":true,"vac":true,"version":"7882260","steam_id":85568392924742827,"keywords":["cp","nocrits","nodmgspread","uncletopia"],"game_id":440,"stv_port":27076,"stv_name":"Uncletopia | Frankfurt | 7 | Stopwatch Beta | STV","players":null},{"server_id":24,"name":"Uncletopia | Frankfurt | 8 | Community","name_short":"frk-8","host":"frk-1.de.uncletopia.com","port":27085,"enabled":true,"region":"eu","cc":"de","latitude":50.110924,"longitude":8.682127,"reserved":0,"last_update":"0001-01-01T00:00:00Z","name_a2s":"Uncletopia | Frankfurt | 8 | Community","protocol":17,"map":"cp_mountainlab","folder":"tf","game":"Team Fortress","app_id":440,"player_count":0,"max_players":24,"Bots":0,"server_type":"Dedicated","server_os":"Linux","password":true,"vac":true,"version":"7882260","steam_id":85568392924742828,"keywords":["cp","nocrits","nodmgspread","uncletopia"],"game_id":440,"stv_port":27086,"stv_name":"Uncletopia | Frankfurt | 8 | Community | STV","players":null},{"server_id":202,"name":"Uncletopia | Hong Kong | 1 | All Maps","name_short":"hgk-1","host":"hgk-1.hk.uncletopia.com","port":27015,"enabled":true,"region":"asia","cc":"hk","latitude":22.302711,"longitude":114.177216,"reserved":0,"last_update":"0001-01-01T00:00:00Z","name_a2s":"Uncletopia | Hong Kong | 1 | All Maps","protocol":17,"map":"pl_barnblitz","folder":"tf","game":"Team Fortress","app_id":440,"player_count":0,"max_players":24,"Bots":0,"server_type":"Dedicated","server_os":"Linux","password":true,"vac":true,"version":"7882260","steam_id":85568392924494504,"keywords":["nocrits","nodmgspread","payload","uncletopia"],"game_id":440,"stv_port":27016,"stv_name":"Uncletopia | Hong Kong | 1 | All Maps | STV","players":null},{"server_id":1,"name":"Uncletopia | Los Angeles | 1 | All Maps","name_short":"lax-1","host":"lax-1.us.uncletopia.com","port":27015,"enabled":true,"region":"us-west","cc":"us","latitude":33.94279,"longitude":-118.41004,"reserved":0,"last_update":"0001-01-01T00:00:00Z","name_a2s":"Uncletopia | Los Angeles | 1 | All Maps","protocol":17,"map":"pl_barnblitz","folder":"tf","game":"Team Fortress","app_id":440,"player_count":15,"max_players":24,"Bots":0,"server_type":"Dedicated","server_os":"Linux","password":true,"vac":true,"version":"7882260","steam_id":85568392924469991,"keywords":["nocrits","nodmgspread","payload","uncletopia"],"game_id":440,"stv_port":27016,"stv_name":"Uncletopia | Los Angeles | 1 | All Maps | STV","players":[{"user_id":260,"name":"ena - d","steam_id":76561198072329335,"connected_time":5195000000000,"state":"active","ping":104},{"user_id":286,"name":"A Little Guy","steam_id":76561198142464684,"connected_time":1809000000000,"state":"active","ping":74},{"user_id":294,"name":"SadChicken λ","steam_id":76561198082458968,"connected_time":910000000000,"state":"active","ping":73},{"user_id":302,"name":"pissfingers","steam_id":76561198357713517,"connected_time":395000000000,"state":"active","ping":114},{"user_id":257,"name":"+Alice-","steam_id":76561198869945051,"connected_time":5445000000000,"state":"active","ping":90},{"user_id":304,"name":"Syrup","steam_id":76561198335677073,"connected_time":129000000000,"state":"active","ping":58},{"user_id":305,"name":"[Colorbomb]","steam_id":76561198006316527,"connected_time":122000000000,"state":"active","ping":56},{"user_id":284,"name":"nescoceo","steam_id":76561198040801160,"connected_time":1916000000000,"state":"active","ping":60},{"user_id":306,"name":"Goob","steam_id":76561198256918638,"connected_time":118000000000,"state":"active","ping":54},{"user_id":288,"name":"Rusty","steam_id":76561198055585129,"connected_time":1681000000000,"state":"active","ping":73},{"user_id":289,"name":"cometgm","steam_id":76561198054201515,"connected_time":1675000000000,"state":"active","ping":54},{"user_id":307,"name":"zuna","steam_id":76561199038981515,"connected_time":67000000000,"state":"active","ping":47},{"user_id":291,"name":"SanitysEdge","steam_id":76561198130732813,"connected_time":1481000000000,"state":"active","ping":44},{"user_id":258,"name":"white muslim dane cook","steam_id":76561198000979872,"connected_time":5387000000000,"state":"active","ping":43},{"user_id":278,"name":"She?","steam_id":76561198080963759,"connected_time":2356000000000,"state":"active","ping":63}]},{"server_id":112,"name":"Uncletopia | Los Angeles | 2 | All Maps","name_short":"lax-2","host":"lax-1.us.uncletopia.com","port":27025,"enabled":true,"region":"us-west","cc":"us","latitude":33.94279,"longitude":-118.41004,"reserved":0,"last_update":"0001-01-01T00:00:00Z","name_a2s":"Uncletopia | Los Angeles | 2 | All Maps","protocol":17,"map":"cp_mountainlab","folder":"tf","game":"Team Fortress","app_id":440,"player_count":0,"max_players":24,"Bots":0,"server_type":"Dedicated","server_os":"Linux","password":true,"vac":true,"version":"7882260","steam_id":85568392924469992,"keywords":["cp","nocrits","nodmgspread","uncletopia"],"game_id":440,"stv_port":27026,"stv_name":"Uncletopia | Los Angeles | 2 | All Maps | STV","players":null},{"server_id":324,"name":"Uncletopia | Los Angeles | 3 | All Maps","name_short":"lax-3","host":"lax-1.us.uncletopia.com","port":27035,"enabled":true,"region":"us-west","cc":"us","latitude":33.94279,"longitude":-118.41004,"reserved":0,"last_update":"0001-01-01T00:00:00Z","name_a2s":"Uncletopia | Los Angeles | 3 | All Maps","protocol":17,"map":"cp_dustbowl","folder":"tf","game":"Team Fortress","app_id":440,"player_count":3,"max_players":24,"Bots":0,"server_type":"Dedicated","server_os":"Linux","password":true,"vac":true,"version":"7882260","steam_id":85568392924510198,"keywords":["cp","nocrits","nodmgspread","uncletopia"],"game_id":440,"stv_port":27036,"stv_name":"Uncletopia | Los Angeles | 3 | All Maps | STV","players":[{"user_id":246,"name":"Frosty","steam_id":76561198301526305,"connected_time":1641000000000,"state":"active","ping":74},{"user_id":247,"name":"Jade Furry","steam_id":76561198037376688,"connected_time":1512000000000,"state":"active","ping":54},{"user_id":231,"name":"Grizzakk","steam_id":76561198115821923,"connected_time":3604000000000,"state":"active","ping":85}]},{"server_id":25,"name":"Uncletopia | Los Angeles | 4 | Stopwatch Beta","name_short":"lax-4","host":"lax-1.us.uncletopia.com","port":27045,"enabled":true,"region":"us-west","cc":"us","latitude":33.94279,"longitude":-118.41004,"reserved":0,"last_update":"0001-01-01T00:00:00Z","name_a2s":"Uncletopia | Los Angeles | 4 | Stopwatch Beta","protocol":17,"map":"koth_viaduct","folder":"tf","game":"Team Fortress","app_id":440,"player_count":0,"max_players":24,"Bots":0,"server_type":"Dedicated","server_os":"Linux","password":true,"vac":true,"version":"7882260","steam_id":85568392924510199,"keywords":["cp","nocrits","nodmgspread","uncletopia"],"game_id":440,"stv_port":27046,"stv_name":"Uncletopia | Los Angeles | 4 | Stopwatch Beta | STV","players":null},{"server_id":11,"name":"Uncletopia | London | 1 | All Maps","name_short":"lon-1","host":"lon-1.uk.uncletopia.com","port":27015,"enabled":true,"region":"eu","cc":"gb","latitude":51.509865,"longitude":-0.118092,"reserved":0,"last_update":"0001-01-01T00:00:00Z","name_a2s":"Uncletopia | London | 1 | All Maps","protocol":17,"map":"pl_snowycoast","folder":"tf","game":"Team Fortress","app_id":440,"player_count":0,"max_players":24,"Bots":0,"server_type":"Dedicated","server_os":"Linux","password":true,"vac":true,"version":"7882260","steam_id":85568392924367362,"keywords":["nocrits","nodmgspread","payload","uncletopia"],"game_id":440,"stv_port":27016,"stv_name":"Uncletopia | London | 1 | All Maps | STV","players":null},{"server_id":114,"name":"Uncletopia | London | 2 | All Maps","name_short":"lon-2","host":"lon-1.uk.uncletopia.com","port":27025,"enabled":true,"region":"eu","cc":"gb","latitude":51.509865,"longitude":-0.118092,"reserved":0,"last_update":"0001-01-01T00:00:00Z","name_a2s":"Uncletopia | London | 2 | All Maps","protocol":17,"map":"koth_highpass","folder":"tf","game":"Team Fortress","app_id":440,"player_count":0,"max_players":24,"Bots":0,"server_type":"Dedicated","server_os":"Linux","password":true,"vac":true,"version":"7882260","steam_id":85568392924470941,"keywords":["cp","nocrits","nodmgspread","uncletopia"],"game_id":440,"stv_port":27026,"stv_name":"Uncletopia | London | 2 | All Maps | STV","players":null},{"server_id":320,"name":"Uncletopia | London | 3 | All Maps","name_short":"lon-3","host":"lon-1.uk.uncletopia.com","port":27035,"enabled":true,"region":"eu","cc":"gb","latitude":51.509865,"longitude":-0.118092,"reserved":0,"last_update":"0001-01-01T00:00:00Z","name_a2s":"Uncletopia | London | 3 | All Maps","protocol":17,"map":"pl_upward","folder":"tf","game":"Team Fortress","app_id":440,"player_count":14,"max_players":24,"Bots":0,"server_type":"Dedicated","server_os":"Linux","password":true,"vac":true,"version":"7882260","steam_id":85568392924510192,"keywords":["nocrits","nodmgspread","payload","uncletopia"],"game_id":440,"stv_port":27036,"stv_name":"Uncletopia | London | 3 | All Maps | STV","players":[{"user_id":3,"name":"Боевой комар","steam_id":76561198796564094,"connected_time":1951000000000,"state":"active","ping":85},{"user_id":4,"name":"ElTamagoshi","steam_id":76561198419143622,"connected_time":1559000000000,"state":"active","ping":78},{"user_id":23,"name":"Canis[Magnus]Pectus","steam_id":76561198363775072,"connected_time":61000000000,"state":"active","ping":127},{"user_id":13,"name":"Cosmetic brain","steam_id":76561198055936410,"connected_time":858000000000,"state":"active","ping":74},{"user_id":7,"name":"Hedge Knight","steam_id":76561198989449047,"connected_time":1185000000000,"state":"active","ping":128},{"user_id":14,"name":"on that weebshit","steam_id":76561199474448245,"connected_time":816000000000,"state":"active","ping":86},{"user_id":9,"name":"Volmari","steam_id":76561198054253542,"connected_time":1161000000000,"state":"active","ping":84},{"user_id":17,"name":"wide appreciator","steam_id":76561198083286511,"connected_time":558000000000,"state":"active","ping":33},{"user_id":11,"name":"Genuine","steam_id":76561197966295765,"connected_time":1072000000000,"state":"active","ping":45},{"user_id":15,"name":"JAZZ COMMANDO","steam_id":76561198031766068,"connected_time":770000000000,"state":"active","ping":46},{"user_id":16,"name":"Senor Ding Dong","steam_id":76561198102702616,"connected_time":688000000000,"state":"active","ping":79},{"user_id":18,"name":"ASS?!?!?!?!?","steam_id":76561199159262388,"connected_time":538000000000,"state":"active","ping":94},{"user_id":21,"name":"BungiDungi","steam_id":76561198292524709,"connected_time":392000000000,"state":"active","ping":71},{"user_id":22,"name":"FNF","steam_id":76561199151422826,"connected_time":204000000000,"state":"active","ping":108}]},{"server_id":321,"name":"Uncletopia | London | 4 | All Maps","name_short":"lon-4","host":"lon-1.uk.uncletopia.com","port":27045,"enabled":true,"region":"eu","cc":"gb","latitude":51.509865,"longitude":-0.118092,"reserved":0,"last_update":"0001-01-01T00:00:00Z","name_a2s":"Uncletopia | London | 4 | All Maps","protocol":17,"map":"cp_dustbowl","folder":"tf","game":"Team Fortress","app_id":440,"player_count":0,"max_players":24,"Bots":0,"server_type":"Dedicated","server_os":"Linux","password":true,"vac":true,"version":"7882260","steam_id":85568392924510193,"keywords":["cp","nocrits","nodmgspread","uncletopia"],"game_id":440,"stv_port":27046,"stv_name":"Uncletopia | London | 4 | All Maps | STV","players":null},{"server_id":21,"name":"Uncletopia | London | 5 | All Maps","name_short":"lon-5","host":"lon-1.uk.uncletopia.com","port":27055,"enabled":true,"region":"eu","cc":"gb","latitude":51.509865,"longitude":-0.118092,"reserved":0,"last_update":"0001-01-01T00:00:00Z","name_a2s":"Uncletopia | London | 5 | All Maps","protocol":17,"map":"koth_viaduct","folder":"tf","game":"Team Fortress","app_id":440,"player_count":0,"max_players":24,"Bots":0,"server_type":"Dedicated","server_os":"Linux","password":true,"vac":true,"version":"7882260","steam_id":85568392924742829,"keywords":["cp","nocrits","nodmgspread","uncletopia"],"game_id":440,"stv_port":27056,"stv_name":"Uncletopia | London | 5 | All Maps | STV","players":null},{"server_id":22,"name":"Uncletopia | London | 6 | All Maps","name_short":"lon-6","host":"lon-1.uk.uncletopia.com","port":27065,"enabled":true,"region":"eu","cc":"gb","latitude":51.509865,"longitude":-0.118092,"reserved":0,"last_update":"0001-01-01T00:00:00Z","name_a2s":"Uncletopia | London | 6 | All Maps","protocol":17,"map":"koth_lakeside_final","folder":"tf","game":"Team Fortress","app_id":440,"player_count":0,"max_players":24,"Bots":0,"server_type":"Dedicated","server_os":"Linux","password":true,"vac":true,"version":"7882260","steam_id":85568392924742830,"keywords":["cp","nocrits","nodmgspread","uncletopia"],"game_id":440,"stv_port":27066,"stv_name":"Uncletopia | London | 6 | All Maps | STV","players":null},{"server_id":40,"name":"Uncletopia | London | 7 | No Payload","name_short":"lon-7","host":"lon-1.uk.uncletopia.com","port":27075,"enabled":true,"region":"eu","cc":"gb","latitude":51.509865,"longitude":-0.118092,"reserved":0,"last_update":"0001-01-01T00:00:00Z","name_a2s":"Uncletopia | London | 7 | No Payload","protocol":17,"map":"pl_upward","folder":"tf","game":"Team Fortress","app_id":440,"player_count":0,"max_players":24,"Bots":0,"server_type":"Dedicated","server_os":"Linux","password":true,"vac":true,"version":"7882260","steam_id":85568392924964314,"keywords":["nocrits","nodmgspread","payload","uncletopia"],"game_id":440,"stv_port":27076,"stv_name":"Uncletopia | London | 7 | No Payload | STV","players":null},{"server_id":41,"name":"Uncletopia | London | 8 | Community","name_short":"lon-8","host":"lon-1.uk.uncletopia.com","port":27085,"enabled":true,"region":"eu","cc":"gb","latitude":51.509865,"longitude":-0.118092,"reserved":0,"last_update":"0001-01-01T00:00:00Z","name_a2s":"Uncletopia | London | 8 | Community","protocol":17,"map":"pl_upward","folder":"tf","game":"Team Fortress","app_id":440,"player_count":0,"max_players":24,"Bots":0,"server_type":"Dedicated","server_os":"Linux","password":true,"vac":true,"version":"7882260","steam_id":85568392924964315,"keywords":["nocrits","nodmgspread","payload","uncletopia"],"game_id":440,"stv_port":27086,"stv_name":"Uncletopia | London | 8 | Community | STV","players":null},{"server_id":300,"name":"Uncletopia | Montréal | 1 | All Maps","name_short":"mtl-1","host":"mtl-1.ca.uncletopia.com","port":27015,"enabled":true,"region":"us-east","cc":"ca","latitude":45.50889,"longitude":-73.56167,"reserved":0,"last_update":"0001-01-01T00:00:00Z","name_a2s":"Uncletopia | Montréal | 1 | All Maps","protocol":17,"map":"koth_cascade","folder":"tf","game":"Team Fortress","app_id":440,"player_count":0,"max_players":24,"Bots":0,"server_type":"Dedicated","server_os":"Linux","password":true,"vac":true,"version":"7882260","steam_id":85568392924500087,"keywords":["cp","nocrits","nodmgspread","uncletopia"],"game_id":440,"stv_port":27016,"stv_name":"Uncletopia | Montréal | 1 | All Maps | STV","players":null},{"server_id":301,"name":"Uncletopia | Montréal | 2 | All Maps","name_short":"mtl-2","host":"mtl-1.ca.uncletopia.com","port":27025,"enabled":true,"region":"us-east","cc":"ca","latitude":45.50889,"longitude":-73.56167,"reserved":0,"last_update":"0001-01-01T00:00:00Z","name_a2s":"Uncletopia | Montréal | 2 | All Maps","protocol":17,"map":"cp_process_final","folder":"tf","game":"Team Fortress","app_id":440,"player_count":0,"max_players":24,"Bots":0,"server_type":"Dedicated","server_os":"Linux","password":true,"vac":true,"version":"7882260","steam_id":85568392924500088,"keywords":["cp","nocrits","nodmgspread","uncletopia"],"game_id":440,"stv_port":27026,"stv_name":"Uncletopia | Montréal | 2 | All Maps | STV","players":null},{"server_id":302,"name":"Uncletopia | Montréal | 3 | All Maps","name_short":"mtl-3","host":"mtl-1.ca.uncletopia.com","port":27035,"enabled":true,"region":"us-east","cc":"ca","latitude":45.50889,"longitude":-73.56167,"reserved":0,"last_update":"0001-01-01T00:00:00Z","name_a2s":"Uncletopia | Montréal | 3 | All Maps","protocol":17,"map":"koth_highpass","folder":"tf","game":"Team Fortress","app_id":440,"player_count":0,"max_players":24,"Bots":0,"server_type":"Dedicated","server_os":"Linux","password":true,"vac":true,"version":"7882260","steam_id":85568392924500089,"keywords":["cp","nocrits","nodmgspread","uncletopia"],"game_id":440,"stv_port":27036,"stv_name":"Uncletopia | Montréal | 3 | All Maps | STV","players":null},{"server_id":303,"name":"Uncletopia | Montréal | 4 | No Payload","name_short":"mtl-4","host":"mtl-1.ca.uncletopia.com","port":27045,"enabled":true,"region":"us-east","cc":"ca","latitude":45.50889,"longitude":-73.56167,"reserved":0,"last_update":"0001-01-01T00:00:00Z","name_a2s":"Uncletopia | Montréal | 4 | No Payload","protocol":17,"map":"koth_highpass","folder":"tf","game":"Team Fortress","app_id":440,"player_count":0,"max_players":24,"Bots":0,"server_type":"Dedicated","server_os":"Linux","password":true,"vac":true,"version":"7882260","steam_id":85568392924500090,"keywords":["cp","nocrits","nodmgspread","uncletopia"],"game_id":440,"stv_port":27046,"stv_name":"Uncletopia | Montréal | 4 | No Payload | STV","players":null},{"server_id":13,"name":"Uncletopia | New York City | 1 | All Maps","name_short":"nyc-1","host":"nyc-1.us.uncletopia.com","port":27015,"enabled":true,"region":"us-east","cc":"us","latitude":40.73061,"longitude":-73.93524,"reserved":0,"last_update":"0001-01-01T00:00:00Z","name_a2s":"Uncletopia | New York City | 1 | All Maps","protocol":17,"map":"cp_sunshine","folder":"tf","game":"Team Fortress","app_id":440,"player_count":0,"max_players":24,"Bots":0,"server_type":"Dedicated","server_os":"Linux","password":true,"vac":true,"version":"7882260","steam_id":85568392924469993,"keywords":["cp","nocrits","nodmgspread","uncletopia"],"game_id":440,"stv_port":27016,"stv_name":"Uncletopia | New York City | 1 | All Maps | STV","players":null},{"server_id":14,"name":"Uncletopia | New York City | 2 | All Maps","name_short":"nyc-2","host":"nyc-1.us.uncletopia.com","port":27025,"enabled":true,"region":"us-east","cc":"us","latitude":40.73061,"longitude":-73.93524,"reserved":0,"last_update":"0001-01-01T00:00:00Z","name_a2s":"Uncletopia | New York City | 2 | All Maps","protocol":17,"map":"pl_barnblitz","folder":"tf","game":"Team Fortress","app_id":440,"player_count":24,"max_players":24,"Bots":0,"server_type":"Dedicated","server_os":"Linux","password":true,"vac":true,"version":"7882260","steam_id":85568392924469994,"keywords":["nocrits","nodmgspread","payload","uncletopia"],"game_id":440,"stv_port":27026,"stv_name":"Uncletopia | New York City | 2 | All Maps | STV","players":[{"user_id":517,"name":"Virtual Zorua","steam_id":76561198196180302,"connected_time":7408000000000,"state":"active","ping":58},{"user_id":592,"name":"Sleepy","steam_id":76561198273471153,"connected_time":776000000000,"state":"active","ping":60},{"user_id":572,"name":"skosgo -eg","steam_id":76561197996403345,"connected_time":2455000000000,"state":"active","ping":116},{"user_id":606,"name":"Khaiden","steam_id":76561198104454754,"connected_time":271000000000,"state":"active","ping":154},{"user_id":596,"name":"HmCloud_TTV","steam_id":76561198390473149,"connected_time":599000000000,"state":"active","ping":95},{"user_id":586,"name":"Blobbyfish","steam_id":76561198822962650,"connected_time":995000000000,"state":"active","ping":49},{"user_id":587,"name":"Starkiller","steam_id":76561198101643120,"connected_time":969000000000,"state":"active","ping":92},{"user_id":598,"name":"A Shiny Meat Bicycle","steam_id":76561198358757709,"connected_time":506000000000,"state":"active","ping":89},{"user_id":546,"name":"Ankh","steam_id":76561198095930645,"connected_time":5540000000000,"state":"active","ping":111},{"user_id":549,"name":"3 dogs n' a trenchcoat","steam_id":76561198330205913,"connected_time":4929000000000,"state":"active","ping":59},{"user_id":588,"name":"IMM0RTAL","steam_id":76561198013747901,"connected_time":967000000000,"state":"active","ping":64},{"user_id":566,"name":"Holo","steam_id":76561198348567663,"connected_time":3385000000000,"state":"active","ping":138},{"user_id":583,"name":"seppo on bi","steam_id":76561198126358045,"connected_time":1426000000000,"state":"active","ping":58},{"user_id":603,"name":"Paleo","steam_id":76561198053493855,"connected_time":349000000000,"state":"active","ping":69},{"user_id":601,"name":"sweaterfan","steam_id":76561199389567214,"connected_time":417000000000,"state":"active","ping":66},{"user_id":529,"name":"tony hawk","steam_id":76561198172050802,"connected_time":6198000000000,"state":"active","ping":134},{"user_id":594,"name":"Belts the Puppet","steam_id":76561198322969864,"connected_time":708000000000,"state":"active","ping":72},{"user_id":591,"name":"Dumbdumn5","steam_id":76561198047415330,"connected_time":824000000000,"state":"active","ping":72},{"user_id":593,"name":"walter, walter","steam_id":76561198066052209,"connected_time":720000000000,"state":"active","ping":145},{"user_id":604,"name":"Nacho Slug","steam_id":76561198069161360,"connected_time":324000000000,"state":"active","ping":64},{"user_id":605,"name":"Link","steam_id":76561198090113742,"connected_time":316000000000,"state":"active","ping":73},{"user_id":545,"name":"eple","steam_id":76561198017686306,"connected_time":5623000000000,"state":"active","ping":133},{"user_id":607,"name":"tr3@d0f4","steam_id":76561198000757362,"connected_time":248000000000,"state":"active","ping":71},{"user_id":608,"name":"Sir Iasis","steam_id":76561198035666760,"connected_time":45000000000,"state":"active","ping":82}]},{"server_id":15,"name":"Uncletopia | New York City | 3 | Stopwatch Beta","name_short":"nyc-3","host":"nyc-1.us.uncletopia.com","port":27035,"enabled":true,"region":"us-east","cc":"us","latitude":40.73061,"longitude":-73.93524,"reserved":0,"last_update":"0001-01-01T00:00:00Z","name_a2s":"Uncletopia | New York City | 3 | Stopwatch Beta","protocol":17,"map":"pl_borneo","folder":"tf","game":"Team Fortress","app_id":440,"player_count":0,"max_players":24,"Bots":0,"server_type":"Dedicated","server_os":"Linux","password":true,"vac":true,"version":"7882260","steam_id":85568392924742820,"keywords":["nocrits","nodmgspread","payload","uncletopia"],"game_id":440,"stv_port":27036,"stv_name":"Uncletopia | New York City | 3 | Stopwatch Beta | STV","players":null},{"server_id":16,"name":"Uncletopia | New York City | 4 | Community","name_short":"nyc-4","host":"nyc-1.us.uncletopia.com","port":27045,"enabled":true,"region":"us-east","cc":"us","latitude":40.73061,"longitude":-73.93524,"reserved":0,"last_update":"0001-01-01T00:00:00Z","name_a2s":"Uncletopia | New York City | 4 | Community","protocol":17,"map":"workshop/koth_ramjam_rc1.ugc459778887","folder":"tf","game":"Team Fortress","app_id":440,"player_count":0,"max_players":24,"Bots":0,"server_type":"Dedicated","server_os":"Linux","password":true,"vac":true,"version":"7882260","steam_id":85568392924742821,"keywords":["cp","nocrits","nodmgspread","uncletopia"],"game_id":440,"stv_port":27046,"stv_name":"Uncletopia | New York City | 4 | Community | STV","players":null},{"server_id":142,"name":"Uncletopia | São Paulo | 1 | All Maps","name_short":"sao-1","host":"sao-1.br.uncletopia.com","port":27015,"enabled":true,"region":"sa","cc":"br","latitude":-23.533773,"longitude":-46.62529,"reserved":0,"last_update":"0001-01-01T00:00:00Z","name_a2s":"Uncletopia | São Paulo | 1 | All Maps","protocol":17,"map":"koth_nucleus","folder":"tf","game":"Team Fortress","app_id":440,"player_count":0,"max_players":24,"Bots":0,"server_type":"Dedicated","server_os":"Linux","password":true,"vac":true,"version":"7882260","steam_id":85568392924469996,"keywords":["cp","nocrits","nodmgspread","uncletopia"],"game_id":440,"stv_port":27016,"stv_name":"Uncletopia | São Paulo | 1 | All Maps | STV","players":null},{"server_id":143,"name":"Uncletopia | São Paulo | 2 | All Maps","name_short":"sao-2","host":"sao-2.br.uncletopia.com","port":27015,"enabled":true,"region":"sa","cc":"br","latitude":-23.533773,"longitude":-46.62529,"reserved":0,"last_update":"0001-01-01T00:00:00Z","name_a2s":"Uncletopia | São Paulo | 2 | All Maps","protocol":17,"map":"koth_highpass","folder":"tf","game":"Team Fortress","app_id":440,"player_count":0,"max_players":24,"Bots":0,"server_type":"Dedicated","server_os":"Linux","password":true,"vac":true,"version":"7882260","steam_id":85568392924485349,"keywords":["cp","nocrits","nodmgspread","uncletopia"],"game_id":440,"stv_port":27016,"stv_name":"Uncletopia | São Paulo | 2 | All Maps | STV","players":null},{"server_id":7,"name":"Uncletopia | Seattle | 1 | All Maps","name_short":"sea-1","host":"sea-1.us.uncletopia.com","port":27015,"enabled":true,"region":"us-west","cc":"us","latitude":47.608013,"longitude":-122.33517,"reserved":0,"last_update":"0001-01-01T00:00:00Z","name_a2s":"Uncletopia | Seattle | 1 | All Maps","protocol":17,"map":"pl_upward","folder":"tf","game":"Team Fortress","app_id":440,"player_count":24,"max_players":24,"Bots":0,"server_type":"Dedicated","server_os":"Linux","password":true,"vac":true,"version":"7882260","steam_id":85568392924469997,"keywords":["nocrits","nodmgspread","payload","uncletopia"],"game_id":440,"stv_port":27016,"stv_name":"Uncletopia | Seattle | 1 | All Maps | STV","players":[{"user_id":842,"name":"jom","steam_id":76561198044597012,"connected_time":391000000000,"state":"active","ping":50},{"user_id":843,"name":"«Dᵃʳᵏ.,,.Tᵉᵐᵖ»","steam_id":76561198018185884,"connected_time":287000000000,"state":"active","ping":35},{"user_id":828,"name":"Akira (they/them)","steam_id":76561198294601519,"connected_time":1732000000000,"state":"active","ping":37},{"user_id":830,"name":"SAVECASEY","steam_id":76561198857896847,"connected_time":1666000000000,"state":"active","ping":76},{"user_id":835,"name":"SCUD missile up your ass","steam_id":76561198066452726,"connected_time":793000000000,"state":"active","ping":70},{"user_id":846,"name":"Party","steam_id":76561198044994809,"connected_time":182000000000,"state":"active","ping":60},{"user_id":818,"name":"Linksaver1 (He/Him)","steam_id":76561198096312838,"connected_time":3111000000000,"state":"active","ping":68},{"user_id":829,"name":"SoundByte_","steam_id":76561198173284173,"connected_time":1723000000000,"state":"active","ping":49},{"user_id":840,"name":"hedahman","steam_id":76561198052398134,"connected_time":484000000000,"state":"active","ping":45},{"user_id":789,"name":"beeble!","steam_id":76561198219538525,"connected_time":5577000000000,"state":"active","ping":104},{"user_id":810,"name":"dumb gay opossum","steam_id":76561198010230351,"connected_time":3659000000000,"state":"active","ping":48},{"user_id":822,"name":"cheeto dorito","steam_id":76561198107941274,"connected_time":2415000000000,"state":"active","ping":75},{"user_id":813,"name":"Grill Skills","steam_id":76561198053575147,"connected_time":3612000000000,"state":"active","ping":62},{"user_id":837,"name":"SearingGustav #tG","steam_id":76561198040560786,"connected_time":575000000000,"state":"active","ping":63},{"user_id":847,"name":"Kozaky","steam_id":76561198047144993,"connected_time":143000000000,"state":"active","ping":51},{"user_id":838,"name":"Finkly","steam_id":76561198049828110,"connected_time":575000000000,"state":"active","ping":44},{"user_id":850,"name":"moopmop","steam_id":76561198065224965,"connected_time":9000000000,"state":"active","ping":63},{"user_id":831,"name":"Tuba","steam_id":76561198209166329,"connected_time":1559000000000,"state":"active","ping":94},{"user_id":816,"name":"forest (italian)","steam_id":76561198157960257,"connected_time":3471000000000,"state":"active","ping":44},{"user_id":841,"name":"ether","steam_id":76561198210322871,"connected_time":467000000000,"state":"active","ping":69},{"user_id":827,"name":":Closed.","steam_id":76561198212598967,"connected_time":1737000000000,"state":"active","ping":66},{"user_id":845,"name":"pigswill","steam_id":76561197999081865,"connected_time":238000000000,"state":"active","ping":121},{"user_id":848,"name":"fucking batman","steam_id":76561198419896433,"connected_time":111000000000,"state":"active","ping":44},{"user_id":825,"name":"perc 10","steam_id":76561198116471653,"connected_time":2250000000000,"state":"active","ping":70}]},{"server_id":119,"name":"Uncletopia | Seattle | 2 | All Maps","name_short":"sea-2","host":"sea-1.us.uncletopia.com","port":27025,"enabled":true,"region":"us-west","cc":"us","latitude":47.608013,"longitude":-122.33517,"reserved":0,"last_update":"0001-01-01T00:00:00Z","name_a2s":"Uncletopia | Seattle | 2 | All Maps","protocol":17,"map":"pl_pier","folder":"tf","game":"Team Fortress","app_id":440,"player_count":19,"max_players":24,"Bots":0,"server_type":"Dedicated","server_os":"Linux","password":true,"vac":true,"version":"7882260","steam_id":85568392924469998,"keywords":["nocrits","nodmgspread","payload","uncletopia"],"game_id":440,"stv_port":27026,"stv_name":"Uncletopia | Seattle | 2 | All Maps | STV","players":[{"user_id":666,"name":"gorlab","steam_id":76561198025089694,"connected_time":1499000000000,"state":"connecting","ping":88},{"user_id":677,"name":"resh","steam_id":76561198239598834,"connected_time":573000000000,"state":"connecting","ping":143},{"user_id":652,"name":"oil","steam_id":76561198099980149,"connected_time":1918000000000,"state":"connecting","ping":103},{"user_id":682,"name":"sun","steam_id":76561198011329825,"connected_time":5000000000,"state":"connecting","ping":69},{"user_id":655,"name":"delight","steam_id":76561197980280272,"connected_time":1910000000000,"state":"connecting","ping":57},{"user_id":656,"name":"ruof 9p","steam_id":76561198009121060,"connected_time":1909000000000,"state":"connecting","ping":57},{"user_id":620,"name":"yungevilbruh","steam_id":76561198127631900,"connected_time":4341000000000,"state":"connecting","ping":82},{"user_id":641,"name":"Dim","steam_id":76561198061411324,"connected_time":3403000000000,"state":"connecting","ping":132},{"user_id":621,"name":"Sum","steam_id":76561198081684676,"connected_time":4339000000000,"state":"connecting","ping":78},{"user_id":671,"name":"sinyeon","steam_id":76561198125363469,"connected_time":1121000000000,"state":"connecting","ping":193},{"user_id":657,"name":"p9 thunderous prophet","steam_id":76561198131166135,"connected_time":1904000000000,"state":"connecting","ping":60},{"user_id":623,"name":"chocolat3823","steam_id":76561199249875689,"connected_time":4337000000000,"state":"spawning","ping":87},{"user_id":667,"name":"louise sneeze","steam_id":76561198062451648,"connected_time":1442000000000,"state":"connecting","ping":128},{"user_id":664,"name":"roryisonamobilehotspot","steam_id":76561198065825165,"connected_time":1807000000000,"state":"connecting","ping":152},{"user_id":625,"name":"SpongeBucket","steam_id":76561198393553085,"connected_time":4328000000000,"state":"connecting","ping":114},{"user_id":679,"name":"smeasly","steam_id":76561198028718812,"connected_time":235000000000,"state":"connecting","ping":40},{"user_id":660,"name":"NEBULA","steam_id":76561198086878595,"connected_time":1887000000000,"state":"connecting","ping":94},{"user_id":676,"name":"Kaiga","steam_id":76561198044052046,"connected_time":588000000000,"state":"connecting","ping":163},{"user_id":674,"name":"grey","steam_id":76561198050618142,"connected_time":805000000000,"state":"connecting","ping":47}]},{"server_id":406,"name":"Uncletopia | Seattle | 3 | Stopwatch Beta","name_short":"sea-3","host":"sea-1.us.uncletopia.com","port":27035,"enabled":true,"region":"us-west","cc":"us","latitude":47.608013,"longitude":-122.33517,"reserved":0,"last_update":"0001-01-01T00:00:00Z","name_a2s":"Uncletopia | Seattle | 3 | Stopwatch Beta","protocol":17,"map":"koth_lakeside_final","folder":"tf","game":"Team Fortress","app_id":440,"player_count":0,"max_players":24,"Bots":0,"server_type":"Dedicated","server_os":"Linux","password":true,"vac":true,"version":"7882260","steam_id":85568392924515217,"keywords":["cp","nocrits","nodmgspread","uncletopia"],"game_id":440,"stv_port":27036,"stv_name":"Uncletopia | Seattle | 3 | Stopwatch Beta | STV","players":null},{"server_id":17,"name":"Uncletopia | San Francisco | 1 | All Maps","name_short":"sfo-1","host":"sfo-1.us.uncletopia.com","port":27015,"enabled":true,"region":"us-west","cc":"us","latitude":37.77397,"longitude":-122.4313,"reserved":0,"last_update":"0001-01-01T00:00:00Z","name_a2s":"Uncletopia | San Francisco | 1 | All Maps","protocol":17,"map":"pl_badwater","folder":"tf","game":"Team Fortress","app_id":440,"player_count":24,"max_players":24,"Bots":0,"server_type":"Dedicated","server_os":"Linux","password":true,"vac":true,"version":"7882260","steam_id":85568392924469999,"keywords":["nocrits","nodmgspread","payload","uncletopia"],"game_id":440,"stv_port":27016,"stv_name":"Uncletopia | San Francisco | 1 | All Maps | STV","players":[{"user_id":851,"name":"Porktimus Rind","steam_id":76561198050582941,"connected_time":1436000000000,"state":"active","ping":107},{"user_id":871,"name":"Jazz2T","steam_id":76561198154418867,"connected_time":9000000000,"state":"active","ping":273},{"user_id":846,"name":"00","steam_id":76561198041700636,"connected_time":2266000000000,"state":"active","ping":44},{"user_id":828,"name":"lasagnalarry12","steam_id":76561198162688146,"connected_time":3248000000000,"state":"active","ping":50},{"user_id":870,"name":"Tiny Microwave Quiches :3","steam_id":76561198025463423,"connected_time":47000000000,"state":"active","ping":66},{"user_id":830,"name":"Saggle","steam_id":76561198056075147,"connected_time":3183000000000,"state":"active","ping":182},{"user_id":833,"name":"Leidon","steam_id":76561198078386945,"connected_time":3038000000000,"state":"active","ping":53},{"user_id":872,"name":"NAHBUTLIKE???","steam_id":76561199471794973,"connected_time":8000000000,"state":"spawning","ping":63},{"user_id":699,"name":"Rasputia","steam_id":76561198132051047,"connected_time":11906000000000,"state":"active","ping":64},{"user_id":850,"name":"set","steam_id":76561198294281809,"connected_time":1570000000000,"state":"active","ping":62},{"user_id":847,"name":"Jawn","steam_id":76561198424248616,"connected_time":2242000000000,"state":"active","ping":156},{"user_id":860,"name":"Weaver","steam_id":76561198042017282,"connected_time":1133000000000,"state":"active","ping":44},{"user_id":869,"name":"Nightlygalad","steam_id":76561198170693990,"connected_time":577000000000,"state":"active","ping":55},{"user_id":861,"name":"val","steam_id":76561198067815201,"connected_time":1115000000000,"state":"active","ping":45},{"user_id":832,"name":"stboncho","steam_id":76561198172275301,"connected_time":3141000000000,"state":"active","ping":55},{"user_id":858,"name":"BurdBrain","steam_id":76561197962097737,"connected_time":1186000000000,"state":"active","ping":68},{"user_id":843,"name":"SnootyLizard1","steam_id":76561198331502261,"connected_time":2420000000000,"state":"active","ping":64},{"user_id":862,"name":"toodles","steam_id":76561198127639913,"connected_time":1076000000000,"state":"active","ping":57},{"user_id":837,"name":"FI LO","steam_id":76561198976530881,"connected_time":2980000000000,"state":"active","ping":44},{"user_id":855,"name":"phon","steam_id":76561198140659236,"connected_time":1316000000000,"state":"active","ping":54},{"user_id":863,"name":"bengineer","steam_id":76561198171912174,"connected_time":1069000000000,"state":"active","ping":67},{"user_id":865,"name":"Childhood Obesity","steam_id":76561198061190813,"connected_time":1059000000000,"state":"active","ping":75},{"user_id":866,"name":"Irony is pretty cringy","steam_id":76561198120391460,"connected_time":1058000000000,"state":"active","ping":58},{"user_id":867,"name":"ネコ Harpako","steam_id":76561198163587660,"connected_time":1058000000000,"state":"active","ping":63}]},{"server_id":18,"name":"Uncletopia | San Francisco | 2 | All Maps","name_short":"sfo-2","host":"sfo-1.us.uncletopia.com","port":27025,"enabled":true,"region":"us-west","cc":"us","latitude":37.77397,"longitude":-122.4313,"reserved":0,"last_update":"0001-01-01T00:00:00Z","name_a2s":"Uncletopia | San Francisco | 2 | All Maps","protocol":17,"map":"koth_lakeside_final","folder":"tf","game":"Team Fortress","app_id":440,"player_count":0,"max_players":24,"Bots":0,"server_type":"Dedicated","server_os":"Linux","password":true,"vac":true,"version":"7882260","steam_id":85568392924470000,"keywords":["cp","nocrits","nodmgspread","uncletopia"],"game_id":440,"stv_port":27026,"stv_name":"Uncletopia | San Francisco | 2 | All Maps | STV","players":null},{"server_id":19,"name":"Uncletopia | San Francisco | 3 | Stopwatch Beta","name_short":"sfo-3","host":"sfo-1.us.uncletopia.com","port":27035,"enabled":true,"region":"us-west","cc":"us","latitude":37.77397,"longitude":-122.4313,"reserved":0,"last_update":"0001-01-01T00:00:00Z","name_a2s":"Uncletopia | San Francisco | 3 | Stopwatch Beta","protocol":17,"map":"workshop/koth_clearcut_b15.ugc2107050255","folder":"tf","game":"Team Fortress","app_id":440,"player_count":0,"max_players":24,"Bots":0,"server_type":"Dedicated","server_os":"Linux","password":true,"vac":true,"version":"7882260","steam_id":85568392924742824,"keywords":["cp","nocrits","nodmgspread","uncletopia"],"game_id":440,"stv_port":27036,"stv_name":"Uncletopia | San Francisco | 3 | Stopwatch Beta | STV","players":null},{"server_id":20,"name":"Uncletopia | San Francisco | 4 | Community","name_short":"sfo-4","host":"sfo-1.us.uncletopia.com","port":27045,"enabled":true,"region":"us-west","cc":"us","latitude":37.77397,"longitude":-122.4313,"reserved":0,"last_update":"0001-01-01T00:00:00Z","name_a2s":"Uncletopia | San Francisco | 4 | Community","protocol":17,"map":"workshop/koth_bagel_rc6.ugc2514036946","folder":"tf","game":"Team Fortress","app_id":440,"player_count":0,"max_players":24,"Bots":0,"server_type":"Dedicated","server_os":"Linux","password":true,"vac":true,"version":"7882260","steam_id":85568392924742826,"keywords":["cp","nocrits","nodmgspread","uncletopia"],"game_id":440,"stv_port":27046,"stv_name":"Uncletopia | San Francisco | 4 | Community | STV","players":null},{"server_id":141,"name":"Uncletopia | Sydney | 1 | All Maps","name_short":"syd-1","host":"syd-1.au.uncletopia.com","port":27015,"enabled":true,"region":"au","cc":"au","latitude":-33.865143,"longitude":151.2099,"reserved":0,"last_update":"0001-01-01T00:00:00Z","name_a2s":"Uncletopia | Sydney | 1 | All Maps","protocol":17,"map":"pl_badwater","folder":"tf","game":"Team Fortress","app_id":440,"player_count":24,"max_players":24,"Bots":0,"server_type":"Dedicated","server_os":"Linux","password":true,"vac":true,"version":"7882260","steam_id":85568392924470001,"keywords":["nocrits","nodmgspread","payload","uncletopia"],"game_id":440,"stv_port":27016,"stv_name":"Uncletopia | Sydney | 1 | All Maps | STV","players":[{"user_id":84,"name":"Psycho Pyro","steam_id":76561198062187870,"connected_time":270000000000,"state":"active","ping":43},{"user_id":51,"name":"Flex of Funk","steam_id":76561198035899262,"connected_time":2211000000000,"state":"active","ping":72},{"user_id":71,"name":"\u003e\u003e=a-0\u003c\u003c","steam_id":76561198393127547,"connected_time":1221000000000,"state":"active","ping":61},{"user_id":55,"name":"Zepi","steam_id":76561198018887052,"connected_time":2086000000000,"state":"active","ping":52},{"user_id":78,"name":"chemeliouss","steam_id":76561199048396830,"connected_time":718000000000,"state":"active","ping":72},{"user_id":77,"name":"Sparky","steam_id":76561198117687688,"connected_time":824000000000,"state":"active","ping":59},{"user_id":34,"name":"Not A F2P","steam_id":76561198376756608,"connected_time":3388000000000,"state":"active","ping":60},{"user_id":85,"name":"Manbake","steam_id":76561198043455984,"connected_time":268000000000,"state":"active","ping":50},{"user_id":35,"name":"FlatChestEnthusiast","steam_id":76561198027125951,"connected_time":3182000000000,"state":"active","ping":91},{"user_id":79,"name":"Soru","steam_id":76561198010844786,"connected_time":636000000000,"state":"active","ping":70},{"user_id":80,"name":"no vc no c","steam_id":76561197989503095,"connected_time":630000000000,"state":"active","ping":179},{"user_id":83,"name":"The Goon","steam_id":76561198434696450,"connected_time":565000000000,"state":"active","ping":145},{"user_id":82,"name":"Quetap","steam_id":76561198327462566,"connected_time":595000000000,"state":"active","ping":49},{"user_id":38,"name":"Dupiter","steam_id":76561198108820767,"connected_time":2996000000000,"state":"active","ping":49},{"user_id":64,"name":"Genuline","steam_id":76561198126426787,"connected_time":1639000000000,"state":"active","ping":45},{"user_id":86,"name":"Morgenstern","steam_id":76561198253080474,"connected_time":72000000000,"state":"active","ping":61},{"user_id":89,"name":"ox","steam_id":76561198072382387,"connected_time":31000000000,"state":"active","ping":67},{"user_id":44,"name":"send me ur Gerrards","steam_id":76561198301282416,"connected_time":2676000000000,"state":"active","ping":53},{"user_id":88,"name":"Scrumpeh","steam_id":76561198058085957,"connected_time":53000000000,"state":"active","ping":62},{"user_id":49,"name":"TKO Stretchy","steam_id":76561198154827555,"connected_time":2427000000000,"state":"active","ping":55},{"user_id":57,"name":"Islandofawesome","steam_id":76561198047527920,"connected_time":1996000000000,"state":"active","ping":51},{"user_id":58,"name":"Moment","steam_id":76561198904933247,"connected_time":1995000000000,"state":"active","ping":73},{"user_id":62,"name":"Matt","steam_id":76561198006791420,"connected_time":1847000000000,"state":"active","ping":99},{"user_id":61,"name":"1337","steam_id":76561198014150202,"connected_time":1911000000000,"state":"active","ping":108}]},{"server_id":123,"name":"Uncletopia | Sydney | 2 | All Maps","name_short":"syd-2","host":"syd-1.au.uncletopia.com","port":27025,"enabled":true,"region":"au","cc":"au","latitude":-33.865143,"longitude":151.2099,"reserved":0,"last_update":"0001-01-01T00:00:00Z","name_a2s":"Uncletopia | Sydney | 2 | All Maps","protocol":17,"map":"cp_dustbowl","folder":"tf","game":"Team Fortress","app_id":440,"player_count":1,"max_players":24,"Bots":0,"server_type":"Dedicated","server_os":"Linux","password":true,"vac":true,"version":"7882260","steam_id":85568392924470002,"keywords":["cp","nocrits","nodmgspread","uncletopia"],"game_id":440,"stv_port":27026,"stv_name":"Uncletopia | Sydney | 2 | All Maps | STV","players":[{"user_id":26,"name":"i was born at a very young age","steam_id":76561199222027878,"connected_time":2162000000000,"state":"active","ping":63}]},{"server_id":395,"name":"Uncletopia | Sydney | 3 | All Maps","name_short":"syd-3","host":"syd-1.au.uncletopia.com","port":27035,"enabled":true,"region":"au","cc":"au","latitude":-33.865143,"longitude":151.2099,"reserved":0,"last_update":"0001-01-01T00:00:00Z","name_a2s":"Uncletopia | Sydney | 3 | All Maps","protocol":17,"map":"pl_pier","folder":"tf","game":"Team Fortress","app_id":440,"player_count":24,"max_players":24,"Bots":0,"server_type":"Dedicated","server_os":"Linux","password":true,"vac":true,"version":"7882260","steam_id":85568392925194467,"keywords":["nocrits","nodmgspread","payload","uncletopia"],"game_id":440,"stv_port":27036,"stv_name":"Uncletopia | Sydney | 3 | All Maps | STV","players":[{"user_id":129,"name":"lavanderpumpernickle","steam_id":76561199093611800,"connected_time":1618000000000,"state":"active","ping":69},{"user_id":137,"name":"Robotrannic","steam_id":76561198166465998,"connected_time":1013000000000,"state":"active","ping":74},{"user_id":144,"name":"Král","steam_id":76561198013907370,"connected_time":730000000000,"state":"active","ping":57},{"user_id":131,"name":"dumbomb","steam_id":76561198048066069,"connected_time":1485000000000,"state":"active","ping":81},{"user_id":153,"name":"Rosemary","steam_id":76561198996803743,"connected_time":41000000000,"state":"active","ping":88},{"user_id":138,"name":"Lancer","steam_id":76561198122813810,"connected_time":1002000000000,"state":"active","ping":87},{"user_id":152,"name":"Currently Shmeating","steam_id":76561198040873064,"connected_time":314000000000,"state":"active","ping":69},{"user_id":150,"name":"SPOOK","steam_id":76561198121355625,"connected_time":383000000000,"state":"active","ping":82},{"user_id":133,"name":"bumbling idiot","steam_id":76561198127848228,"connected_time":1235000000000,"state":"active","ping":68},{"user_id":112,"name":"Sentry Gun (EpicGuy4227)","steam_id":76561198094132328,"connected_time":3316000000000,"state":"active","ping":54},{"user_id":132,"name":"shitpost supreme","steam_id":76561198131736449,"connected_time":1384000000000,"state":"active","ping":75},{"user_id":136,"name":"jone","steam_id":76561198285234796,"connected_time":1116000000000,"state":"active","ping":90},{"user_id":139,"name":"Milker","steam_id":76561197969370286,"connected_time":887000000000,"state":"active","ping":67},{"user_id":69,"name":"voxii","steam_id":76561198099698281,"connected_time":6879000000000,"state":"active","ping":67},{"user_id":143,"name":"ow","steam_id":76561198133277383,"connected_time":764000000000,"state":"active","ping":45},{"user_id":151,"name":"MINK","steam_id":76561198039032658,"connected_time":364000000000,"state":"active","ping":67},{"user_id":120,"name":"Hungry for thumbtacks","steam_id":76561198059129270,"connected_time":2559000000000,"state":"active","ping":63},{"user_id":106,"name":"Jodelkönig Franzl Lang","steam_id":76561198007667830,"connected_time":3928000000000,"state":"active","ping":58},{"user_id":74,"name":"Mooty","steam_id":76561198301293435,"connected_time":6685000000000,"state":"active","ping":47},{"user_id":146,"name":"Bigrichard","steam_id":76561198032092945,"connected_time":619000000000,"state":"active","ping":88},{"user_id":124,"name":"Alphandiscobean","steam_id":76561198025845937,"connected_time":2296000000000,"state":"active","ping":55},{"user_id":147,"name":"BANH MI","steam_id":76561198069191264,"connected_time":609000000000,"state":"active","ping":84},{"user_id":148,"name":"Olly","steam_id":76561198078303228,"connected_time":608000000000,"state":"active","ping":63},{"user_id":96,"name":"Marmalade Cat","steam_id":76561198086309767,"connected_time":5454000000000,"state":"active","ping":63}]},{"server_id":396,"name":"Uncletopia | Sydney | 4 | All Maps","name_short":"syd-4","host":"syd-1.au.uncletopia.com","port":27045,"enabled":true,"region":"au","cc":"au","latitude":-33.865143,"longitude":151.2099,"reserved":0,"last_update":"0001-01-01T00:00:00Z","name_a2s":"Uncletopia | Sydney | 4 | All Maps","protocol":17,"map":"cp_altitude","folder":"tf","game":"Team Fortress","app_id":440,"player_count":0,"max_players":24,"Bots":0,"server_type":"Dedicated","server_os":"Linux","password":true,"vac":true,"version":"7882260","steam_id":85568392925397958,"keywords":["cp","nocrits","nodmgspread","uncletopia"],"game_id":440,"stv_port":27046,"stv_name":"Uncletopia | Sydney | 4 | All Maps | STV","players":null},{"server_id":58,"name":"Uncletopia | Sydney | 5 | Stopwatch Beta","name_short":"syd-5","host":"syd-1.au.uncletopia.com","port":27055,"enabled":true,"region":"au","cc":"au","latitude":-33.865143,"longitude":151.2099,"reserved":0,"last_update":"0001-01-01T00:00:00Z","name_a2s":"Uncletopia | Sydney | 5 | Stopwatch Beta","protocol":17,"map":"koth_viaduct","folder":"tf","game":"Team Fortress","app_id":440,"player_count":0,"max_players":24,"Bots":0,"server_type":"Dedicated","server_os":"Linux","password":true,"vac":true,"version":"7882260","steam_id":85568392925397959,"keywords":["cp","nocrits","nodmgspread","uncletopia"],"game_id":440,"stv_port":27056,"stv_name":"Uncletopia | Sydney | 5 | Stopwatch Beta | STV","players":null},{"server_id":59,"name":"Uncletopia | Sydney | 6 | Community","name_short":"syd-6","host":"syd-1.au.uncletopia.com","port":27065,"enabled":true,"region":"au","cc":"au","latitude":-33.865143,"longitude":151.2099,"reserved":0,"last_update":"0001-01-01T00:00:00Z","name_a2s":"Uncletopia | Sydney | 6 | Community","protocol":17,"map":"workshop/koth_kemptown_rc1.ugc767410655","folder":"tf","game":"Team Fortress","app_id":440,"player_count":0,"max_players":24,"Bots":0,"server_type":"Dedicated","server_os":"Linux","password":true,"vac":true,"version":"7882260","steam_id":85568392925397960,"keywords":["cp","nocrits","nodmgspread","uncletopia"],"game_id":440,"stv_port":27066,"stv_name":"Uncletopia | Sydney | 6 | Community | STV","players":null},{"server_id":49,"name":"Uncletopia | Warsaw | 1 | All Maps","name_short":"waw-1","host":"waw-1.pl.uncletopia.com","port":27015,"enabled":true,"region":"eu","cc":"pl","latitude":52.2297,"longitude":21.017532,"reserved":0,"last_update":"0001-01-01T00:00:00Z","name_a2s":"","protocol":0,"map":"","folder":"","game":"","app_id":0,"player_count":0,"max_players":0,"Bots":0,"server_type":"","server_os":"","password":false,"vac":false,"version":"","steam_id":0,"keywords":null,"game_id":0,"stv_port":0,"stv_name":"","players":null},{"server_id":50,"name":"Uncletopia | Warsaw | 2 | All Maps","name_short":"waw-2","host":"waw-1.pl.uncletopia.com","port":27025,"enabled":true,"region":"eu","cc":"pl","latitude":52.2297,"longitude":21.017532,"reserved":0,"last_update":"0001-01-01T00:00:00Z","name_a2s":"Uncletopia | Warsaw | 2 | All Maps","protocol":17,"map":"koth_viaduct","folder":"tf","game":"Team Fortress","app_id":440,"player_count":0,"max_players":24,"Bots":0,"server_type":"Dedicated","server_os":"Linux","password":true,"vac":true,"version":"7882260","steam_id":85568392925397851,"keywords":["cp","nocrits","nodmgspread","uncletopia"],"game_id":440,"stv_port":27026,"stv_name":"Uncletopia | Warsaw | 2 | All Maps | STV","players":null},{"server_id":51,"name":"Uncletopia | Warsaw | 3 | All Maps","name_short":"waw-3","host":"waw-1.pl.uncletopia.com","port":27035,"enabled":true,"region":"eu","cc":"pl","latitude":52.2297,"longitude":21.017532,"reserved":0,"last_update":"0001-01-01T00:00:00Z","name_a2s":"Uncletopia | Warsaw | 3 | All Maps","protocol":17,"map":"pl_badwater","folder":"tf","game":"Team Fortress","app_id":440,"player_count":0,"max_players":24,"Bots":0,"server_type":"Dedicated","server_os":"Linux","password":true,"vac":true,"version":"7882260","steam_id":85568392925397852,"keywords":["nocrits","nodmgspread","payload","uncletopia"],"game_id":440,"stv_port":27036,"stv_name":"Uncletopia | Warsaw | 3 | All Maps | STV","players":null},{"server_id":52,"name":"Uncletopia | Warsaw | 4 | All Maps","name_short":"waw-4","host":"waw-1.pl.uncletopia.com","port":27045,"enabled":true,"region":"eu","cc":"pl","latitude":52.2297,"longitude":21.017532,"reserved":0,"last_update":"0001-01-01T00:00:00Z","name_a2s":"Uncletopia | Warsaw | 4 | All Maps","protocol":17,"map":"koth_cascade","folder":"tf","game":"Team Fortress","app_id":440,"player_count":0,"max_players":24,"Bots":0,"server_type":"Dedicated","server_os":"Linux","password":true,"vac":true,"version":"7882260","steam_id":85568392925397853,"keywords":["cp","nocrits","nodmgspread","uncletopia"],"game_id":440,"stv_port":27046,"stv_name":"Uncletopia | Warsaw | 4 | All Maps | STV","players":null},{"server_id":53,"name":"Uncletopia | Warsaw | 5 | Stopwatch Beta","name_short":"waw-5","host":"waw-1.pl.uncletopia.com","port":27055,"enabled":true,"region":"eu","cc":"pl","latitude":52.2297,"longitude":21.017532,"reserved":0,"last_update":"0001-01-01T00:00:00Z","name_a2s":"Uncletopia | Warsaw | 5 | Stopwatch Beta","protocol":17,"map":"cp_dustbowl","folder":"tf","game":"Team Fortress","app_id":440,"player_count":0,"max_players":24,"Bots":0,"server_type":"Dedicated","server_os":"Linux","password":true,"vac":true,"version":"7882260","steam_id":85568392925397854,"keywords":["cp","nocrits","nodmgspread","uncletopia"],"game_id":440,"stv_port":27056,"stv_name":"Uncletopia | Warsaw | 5 | Stopwatch Beta | STV","players":null},{"server_id":54,"name":"Uncletopia | Warsaw | 6 | Community","name_short":"waw-6","host":"waw-1.pl.uncletopia.com","port":27065,"enabled":true,"region":"eu","cc":"pl","latitude":52.2297,"longitude":21.017532,"reserved":0,"last_update":"0001-01-01T00:00:00Z","name_a2s":"Uncletopia | Warsaw | 6 | Community","protocol":17,"map":"cp_dustbowl","folder":"tf","game":"Team Fortress","app_id":440,"player_count":0,"max_players":24,"Bots":0,"server_type":"Dedicated","server_os":"Linux","password":true,"vac":true,"version":"7882260","steam_id":85568392925397856,"keywords":["cp","nocrits","nodmgspread","uncletopia"],"game_id":440,"stv_port":27066,"stv_name":"Uncletopia | Warsaw | 6 | Community | STV","players":null}]}