{"status":true,"message":"","result":[{"server_id":9,"name":"Uncletopia | Atlanta | 1 | All Maps","name_short":"atl-1","host":"atl-1.us.uncletopia.com","port":27015,"enabled":true,"region":"us-east","cc":"us","latitude":33.753746,"longitude":-84.38633,"reserved":0,"last_update":"0001-01-01T00:00:00Z","name_a2s":"Uncletopia | Atlanta | 1 | All Maps","protocol":17,"map":"cp_mountainlab","folder":"tf","game":"Team Fortress","app_id":440,"player_count":0,"max_players":24,"Bots":0,"server_type":"Dedicated","server_os":"Linux","password":true,"vac":true,"version":"7932396","steam_id":85568392924469982,"keywords":["cp","nocrits","nodmgspread","uncletopia"],"game_id":440,"stv_port":27016,"stv_name":"Uncletopia | Atlanta | 1 | All Maps | STV","players":null},{"server_id":104,"name":"Uncletopia | Atlanta | 2 | All Maps","name_short":"atl-2","host":"atl-1.us.uncletopia.com","port":27025,"enabled":true,"region":"us-east","cc":"us","latitude":33.753746,"longitude":-84.38633,"reserved":0,"last_update":"0001-01-01T00:00:00Z","name_a2s":"Uncletopia | Atlanta | 2 | All Maps","protocol":17,"map":"cp_snakewater_final1","folder":"tf","game":"Team Fortress","app_id":440,"player_count":0,"max_players":24,"Bots":0,"server_type":"Dedicated","server_os":"Linux","password":true,"vac":true,"version":"7932396","steam_id":85568392924469983,"keywords":["cp","nocrits","nodmgspread","uncletopia"],"game_id":440,"stv_port":27026,"stv_name":"Uncletopia | Atlanta | 2 | All Maps | STV","players":null},{"server_id":400,"name":"Uncletopia | Atlanta | 3 | Community","name_short":"atl-3","host":"atl-1.us.uncletopia.com","port":27035,"enabled":true,"region":"us-east","cc":"us","latitude":33.753746,"longitude":-84.38633,"reserved":0,"last_update":"0001-01-01T00:00:00Z","name_a2s":"Uncletopia | Atlanta | 3 | Community","protocol":17,"map":"workshop/cp_bruhstbowl_b5.ugc2878604990","folder":"tf","game":"Team Fortress","app_id":440,"player_count":0,"max_players":24,"Bots":0,"server_type":"Dedicated","server_os":"Linux","password":true,"vac":true,"version":"7932396","steam_id":85568392924515187,"keywords":["cp","nocrits","nodmgspread","uncletopia"],"game_id":440,"stv_port":27036,"stv_name":"Uncletopia | Atlanta | 3 | Community | STV","players":null},{"server_id":401,"name":"Uncletopia | Atlanta | 4 | No Payload","name_short":"atl-4","host":"atl-1.us.uncletopia.com","port":27045,"enabled":true,"region":"us-east","cc":"us","latitude":33.753746,"longitude":-84.38633,"reserved":0,"last_update":"0001-01-01T00:00:00Z","name_a2s":"","protocol":0,"map":"","folder":"","game":"","app_id":0,"player_count":0,"max_players":0,"Bots":0,"server_type":"","server_os":"","password":false,"vac":false,"version":"","steam_id":0,"keywords":null,"game_id":0,"stv_port":0,"stv_name":"","players":null},{"server_id":2,"name":"Uncletopia | Chicago | 1 | All Maps","name_short":"chi-1","host":"chi-1.us.uncletopia.com","port":27015,"enabled":true,"region":"us-central","cc":"us","latitude":41.881832,"longitude":-87.62318,"reserved":0,"last_update":"0001-01-01T00:00:00Z","name_a2s":"Uncletopia | Chicago | 1 | All Maps","protocol":17,"map":"pl_snowycoast","folder":"tf","game":"Team Fortress","app_id":440,"player_count":22,"max_players":24,"Bots":0,"server_type":"Dedicated","server_os":"Linux","password":true,"vac":true,"version":"7932396","steam_id":85568392924469984,"keywords":["nocrits","nodmgspread","payload","uncletopia"],"game_id":440,"stv_port":27016,"stv_name":"Uncletopia | Chicago | 1 | All Maps | STV","players":[{"user_id":519,"name":"Dr. Medicine","steam_id":76561198165309820,"connected_time":889000000000,"state":"active","ping":100},{"user_id":515,"name":"dunkin'","steam_id":76561198066114874,"connected_time":1588000000000,"state":"active","ping":94},{"user_id":482,"name":"0x01FE","steam_id":76561198838881917,"connected_time":4890000000000,"state":"active","ping":71},{"user_id":455,"name":"God","steam_id":76561198131089513,"connected_time":6483000000000,"state":"active","ping":45},{"user_id":502,"name":"Doubting Dave","steam_id":76561198066410749,"connected_time":2567000000000,"state":"active","ping":74},{"user_id":535,"name":"Proxy-mo","steam_id":76561198221741428,"connected_time":174000000000,"state":"active","ping":76},{"user_id":521,"name":"Spicy Chicken","steam_id":76561198074209737,"connected_time":796000000000,"state":"active","ping":56},{"user_id":505,"name":"‚Äî‚óÄ‚ñÆ‚ñÆ‚ñ∂„Ää„Ää","steam_id":76561198115467946,"connected_time":2457000000000,"state":"active","ping":75},{"user_id":511,"name":"al-Kohol","steam_id":76561197998530400,"connected_time":2122000000000,"state":"active","ping":102},{"user_id":529,"name":"MINI CRIT!999","steam_id":76561198027649268,"connected_time":646000000000,"state":"active","ping":78},{"user_id":536,"name":"Horsemeat Burger","steam_id":76561197995714103,"connected_time":41000000000,"state":"active","ping":87},{"user_id":486,"name":"8th Ward","steam_id":76561198405839882,"connected_time":4764000000000,"state":"active","ping":62},{"user_id":537,"name":"Glontch","steam_id":76561198155294045,"connected_time":33000000000,"state":"active","ping":75},{"user_id":525,"name":"Sacred","steam_id":76561199195970456,"connected_time":713000000000,"state":"active","ping":55},{"user_id":514,"name":"·≤º ·≤º","steam_id":76561198149443710,"connected_time":1597000000000,"state":"active","ping":109},{"user_id":527,"name":"Nuts Berserk","steam_id":76561198145709870,"connected_time":701000000000,"state":"active","ping":78},{"user_id":516,"name":"theconqueror","steam_id":76561199229806456,"connected_time":1517000000000,"state":"active","ping":75},{"user_id":528,"name":"Slowpoke Rodriguez","steam_id":76561198079296657,"connected_time":698000000000,"state":"active","ping":90},{"user_id":518,"name":"orgasmo","steam_id":76561198047355245,"connected_time":1289000000000,"state":"active","ping":60},{"user_id":534,"name":"Smoby","steam_id":76561198823256099,"connected_time":302000000000,"state":"active","ping":140},{"user_id":459,"name":"Dr. Blair Chao","steam_id":76561198146027518,"connected_time":6246000000000,"state":"active","ping":68},{"user_id":532,"name":"Dzhoshua","steam_id":76561198071915251,"connected_time":588000000000,"state":"active","ping":59}]},{"server_id":106,"name":"Uncletopia | Chicago | 2 | All Maps","name_short":"chi-2","host":"chi-1.us.uncletopia.com","port":27025,"enabled":true,"region":"us-central","cc":"us","latitude":41.881832,"longitude":-87.62318,"reserved":0,"last_update":"0001-01-01T00:00:00Z","name_a2s":"Uncletopia | Chicago | 2 | All Maps","protocol":17,"map":"cp_process_final","folder":"tf","game":"Team Fortress","app_id":440,"player_count":0,"max_players":24,"Bots":0,"server_type":"Dedicated","server_os":"Linux","password":true,"vac":true,"version":"7932396","steam_id":85568392924469985,"keywords":["cp","nocrits","nodmgspread","uncletopia"],"game_id":440,"stv_port":27026,"stv_name":"Uncletopia | Chicago | 2 | All Maps | STV","players":null},{"server_id":402,"name":"Uncletopia | Chicago | 3 | All Maps","name_short":"chi-3","host":"chi-1.us.uncletopia.com","port":27035,"enabled":true,"region":"us-central","cc":"us","latitude":41.881832,"longitude":-87.62318,"reserved":0,"last_update":"0001-01-01T00:00:00Z","name_a2s":"Uncletopia | Chicago | 3 | All Maps","protocol":17,"map":"cp_altitude","folder":"tf","game":"Team Fortress","app_id":440,"player_count":0,"max_players":24,"Bots":0,"server_type":"Dedicated","server_os":"Linux","password":true,"vac":true,"version":"7932396","steam_id":85568392924515191,"keywords":["cp","nocrits","nodmgspread","uncletopia"],"game_id":440,"stv_port":27036,"stv_name":"Uncletopia | Chicago | 3 | All Maps | STV","players":null},{"server_id":403,"name":"Uncletopia | Chicago | 4 | All Maps","name_short":"chi-4","host":"chi-1.us.uncletopia.com","port":27045,"enabled":true,"region":"us-central","cc":"us","latitude":41.881832,"longitude":-87.62318,"reserved":0,"last_update":"0001-01-01T00:00:00Z","name_a2s":"Uncletopia | Chicago | 4 | All Maps","protocol":17,"map":"koth_highpass","folder":"tf","game":"Team Fortress","app_id":440,"player_count":0,"max_players":24,"Bots":0,"server_type":"Dedicated","server_os":"Linux","password":true,"vac":true,"version":"7932396","steam_id":85568392924515193,"keywords":["cp","nocrits","nodmgspread","uncletopia"],"game_id":440,"stv_port":27046,"stv_name":"Uncletopia | Chicago | 4 | All Maps | STV","players":null},{"server_id":36,"name":"Uncletopia | Chicago | 5 | All Maps","name_short":"chi-5","host":"chi-2.us.uncletopia.com","port":27015,"enabled":true,"region":"us-central","cc":"us","latitude":41.881832,"longitude":-87.62318,"reserved":0,"last_update":"0001-01-01T00:00:00Z","name_a2s":"Uncletopia | Chicago | 5 | All Maps","protocol":17,"map":"koth_viaduct","folder":"tf","game":"Team Fortress","app_id":440,"player_count":19,"max_players":24,"Bots":0,"server_type":"Dedicated","server_os":"Linux","password":true,"vac":true,"version":"7932396","steam_id":85568392924866362,"keywords":["cp","nocrits","nodmgspread","uncletopia"],"game_id":440,"stv_port":27016,"stv_name":"Uncletopia | Chicago | 5 | All Maps | STV","players":[{"user_id":550,"name":"The Deders","steam_id":76561198002639950,"connected_time":964000000000,"state":"active","ping":73},{"user_id":554,"name":"ovenfresh01","steam_id":76561199086062124,"connected_time":939000000000,"state":"active","ping":76},{"user_id":570,"name":"Dr. Hashbrown","steam_id":76561198410780370,"connected_time":245000000000,"state":"active","ping":99},{"user_id":569,"name":"NinjaJD","steam_id":76561198272575882,"connected_time":290000000000,"state":"active","ping":102},{"user_id":558,"name":"dyyd7706","steam_id":76561199230461523,"connected_time":637000000000,"state":"active","ping":82},{"user_id":531,"name":"Broomstick Handle","steam_id":76561198069100701,"connected_time":2789000000000,"state":"active","ping":79},{"user_id":559,"name":"Drachma","steam_id":76561198007310514,"connected_time":557000000000,"state":"active","ping":70},{"user_id":548,"name":"comet","steam_id":76561198149217841,"connected_time":1048000000000,"state":"active","ping":96},{"user_id":552,"name":"Viol3tOni","steam_id":76561198079208738,"connected_time":949000000000,"state":"active","ping":100},{"user_id":542,"name":"Frog","steam_id":76561198170199881,"connected_time":1357000000000,"state":"active","ping":60},{"user_id":573,"name":"JelloMotion","steam_id":76561198045892038,"connected_time":25000000000,"state":"active","ping":70},{"user_id":543,"name":"üÖúüÖîüÖîüÖöüÖ¢üÖ£üÖî\ufffd\ufffd\ufffd","steam_id":76561197999748343,"connected_time":1339000000000,"state":"active","ping":60},{"user_id":560,"name":"St. Michael","steam_id":76561198037611052,"connected_time":508000000000,"state":"active","ping":62},{"user_id":491,"name":"Enrico_Gucci","steam_id":76561198089919580,"connected_time":5992000000000,"state":"active","ping":79},{"user_id":567,"name":"Beefstin","steam_id":76561198417372989,"connected_time":311000000000,"state":"active","ping":95},{"user_id":561,"name":"Bald Rice","steam_id":76561199019142767,"connected_time":474000000000,"state":"active","ping":64},{"user_id":562,"name":"Samazoid","steam_id":76561198308864364,"connected_time":456000000000,"state":"active","ping":68},{"user_id":565,"name":"a","steam_id":76561198058079708,"connected_time":358000000000,"state":"active","ping":46},{"user_id":566,"name":"stall","steam_id":76561199152861652,"connected_time":325000000000,"state":"active","ping":54}]},{"server_id":37,"name":"Uncletopia | Chicago | 6 | All Maps","name_short":"chi-6","host":"chi-2.us.uncletopia.com","port":27025,"enabled":true,"region":"us-central","cc":"us","latitude":41.881832,"longitude":-87.62318,"reserved":0,"last_update":"0001-01-01T00:00:00Z","name_a2s":"Uncletopia | Chicago | 6 | All Maps","protocol":17,"map":"cp_well","folder":"tf","game":"Team Fortress","app_id":440,"player_count":22,"max_players":24,"Bots":0,"server_type":"Dedicated","server_os":"Linux","password":true,"vac":true,"version":"7932396","steam_id":85568392924866363,"keywords":["cp","nocrits","nodmgspread","uncletopia"],"game_id":440,"stv_port":27026,"stv_name":"Uncletopia | Chicago | 6 | All Maps | STV","players":[{"user_id":530,"name":"come to butthead","steam_id":76561198020322241,"connected_time":1001000000000,"state":"active","ping":64},{"user_id":543,"name":"DanthePunman","steam_id":76561198453724913,"connected_time":118000000000,"state":"active","ping":60},{"user_id":471,"name":"zee","steam_id":76561197994492154,"connected_time":5868000000000,"state":"active","ping":174},{"user_id":535,"name":"Rainy","steam_id":76561198025609304,"connected_time":827000000000,"state":"active","ping":73},{"user_id":532,"name":"DeanAdamFry","steam_id":76561198054153160,"connected_time":964000000000,"state":"active","ping":137},{"user_id":539,"name":"mashallah","steam_id":76561198075111427,"connected_time":298000000000,"state":"active","ping":71},{"user_id":511,"name":"MizzterBlizzard","steam_id":76561198117592828,"connected_time":2920000000000,"state":"active","ping":61},{"user_id":516,"name":"shitass | troutsupply.net","steam_id":76561198210572481,"connected_time":2310000000000,"state":"active","ping":84},{"user_id":541,"name":"Save","steam_id":76561198032740584,"connected_time":268000000000,"state":"active","ping":65},{"user_id":496,"name":"Ludcmorais","steam_id":76561198359217809,"connected_time":4442000000000,"state":"active","ping":190},{"user_id":542,"name":"NoSignal","steam_id":76561198094723903,"connected_time":261000000000,"state":"active","ping":69},{"user_id":534,"name":"wsg","steam_id":76561197967761806,"connected_time":876000000000,"state":"active","ping":163},{"user_id":510,"name":"esoobac","steam_id":76561198010370396,"connected_time":2966000000000,"state":"active","ping":45},{"user_id":506,"name":"Jezzus","steam_id":76561199289676387,"connected_time":3594000000000,"state":"active","ping":84},{"user_id":512,"name":"[PERC30] Yung Lean, The Owl Kin","steam_id":76561198049853944,"connected_time":2834000000000,"state":"active","ping":85},{"user_id":529,"name":"TF3.aflyingmouse","steam_id":76561198058134934,"connected_time":1306000000000,"state":"active","ping":118},{"user_id":484,"name":"BERLIN BAEST","steam_id":76561199407580843,"connected_time":5192000000000,"state":"active","ping":128},{"user_id":505,"name":"doro","steam_id":76561198099041747,"connected_time":3600000000000,"state":"active","ping":94},{"user_id":504,"name":"Pub Davinci","steam_id":76561198083975056,"connected_time":3666000000000,"state":"active","ping":105},{"user_id":544,"name":"realhedgehog2082","steam_id":76561198168931330,"connected_time":83000000000,"state":"active","ping":65},{"user_id":514,"name":"azure","steam_id":76561198067497459,"connected_time":2502000000000,"state":"active","ping":74}]},{"server_id":38,"name":"Uncletopia | Chicago | 7 | Stopwatch Beta","name_short":"chi-7","host":"chi-2.us.uncletopia.com","port":27035,"enabled":true,"region":"us-central","cc":"us","latitude":41.881832,"longitude":-87.62318,"reserved":0,"last_update":"0001-01-01T00:00:00Z","name_a2s":"Uncletopia | Chicago | 7 | Stopwatch Beta","protocol":17,"map":"workshop/koth_ashville_final.ugc2130459942","folder":"tf","game":"Team Fortress","app_id":440,"player_count":0,"max_players":24,"Bots":0,"server_type":"Dedicated","server_os":"Linux","password":true,"vac":true,"version":"7932396","steam_id":85568392924866364,"keywords":["cp","nocrits","nodmgspread","uncletopia"],"game_id":440,"stv_port":27036,"stv_name":"Uncletopia | Chicago | 7 | Stopwatch Beta | STV","players":null},{"server_id":39,"name":"Uncletopia | Chicago | 8 | Community","name_short":"chi-8","host":"chi-2.us.uncletopia.com","port":27045,"enabled":true,"region":"us-central","cc":"us","latitude":41.881832,"longitude":-87.62318,"reserved":0,"last_update":"0001-01-01T00:00:00Z","name_a2s":"Uncletopia | Chicago | 8 | Community","protocol":17,"map":"workshop/cp_indulge.ugc528106646","folder":"tf","game":"Team Fortress","app_id":440,"player_count":0,"max_players":24,"Bots":0,"server_type":"Dedicated","server_os":"Linux","password":true,"vac":true,"version":"7932396","steam_id":85568392924866365,"keywords":["cp","nocrits","nodmgspread","uncletopia"],"game_id":440,"stv_port":27046,"stv_name":"Uncletopia | Chicago | 8 | Community | STV","players":null},{"server_id":8,"name":"Uncletopia | Dallas | 1 | All Maps","name_short":"dal-1","host":"dal-1.us.uncletopia.com","port":27015,"enabled":true,"region":"us-central","cc":"us","latitude":32.779167,"longitude":-96.80889,"reserved":0,"last_update":"0001-01-01T00:00:00Z","name_a2s":"Uncletopia | Dallas | 1 | All Maps","protocol":17,"map":"cp_sunshine","folder":"tf","game":"Team Fortress","app_id":440,"player_count":19,"max_players":24,"Bots":0,"server_type":"Dedicated","server_os":"Linux","password":true,"vac":true,"version":"7932396","steam_id":85568392924469986,"keywords":["cp","nocrits","nodmgspread","uncletopia"],"game_id":440,"stv_port":27016,"stv_name":"Uncletopia | Dallas | 1 | All Maps | STV","players":[{"user_id":740,"name":"Mike","steam_id":76561198122500429,"connected_time":18000000000,"state":"active","ping":83},{"user_id":671,"name":"lancer","steam_id":76561199124468228,"connected_time":5040000000000,"state":"active","ping":50},{"user_id":734,"name":"Cambonieboo","steam_id":76561198139174433,"connected_time":451000000000,"state":"active","ping":62},{"user_id":727,"name":"Nahvee","steam_id":76561198119759695,"connected_time":873000000000,"state":"active","ping":59},{"user_id":735,"name":"SnakeyK","steam_id":76561198038414152,"connected_time":400000000000,"state":"active","ping":76},{"user_id":737,"name":"Mox Nix","steam_id":76561198978778718,"connected_time":337000000000,"state":"active","ping":135},{"user_id":723,"name":"[MT]KingCyrus20","steam_id":76561198042337527,"connected_time":1575000000000,"state":"active","ping":55},{"user_id":651,"name":"LederBoy","steam_id":76561198051822369,"connected_time":7154000000000,"state":"active","ping":84},{"user_id":728,"name":"t2h","steam_id":76561198057944303,"connected_time":833000000000,"state":"active","ping":100},{"user_id":739,"name":"Gooter","steam_id":76561198185268445,"connected_time":247000000000,"state":"active","ping":54},{"user_id":699,"name":"VHSTAPE","steam_id":76561198036560740,"connected_time":3411000000000,"state":"active","ping":69},{"user_id":733,"name":"jalapeno handjob","steam_id":76561198123298824,"connected_time":556000000000,"state":"active","ping":56},{"user_id":729,"name":"Ooodleglobs·É¶","steam_id":76561198360201222,"connected_time":818000000000,"state":"active","ping":83},{"user_id":713,"name":"Shroast","steam_id":76561199014781978,"connected_time":2532000000000,"state":"active","ping":90},{"user_id":715,"name":"Dot.","steam_id":76561198149463984,"connected_time":2480000000000,"state":"active","ping":64},{"user_id":730,"name":"insane jester","steam_id":76561198079609974,"connected_time":791000000000,"state":"active","ping":79},{"user_id":738,"name":"Confodio","steam_id":76561198068367876,"connected_time":292000000000,"state":"active","ping":78},{"user_id":732,"name":"Nero25","steam_id":76561198027720631,"connected_time":766000000000,"state":"active","ping":107},{"user_id":722,"name":"motherfucker 2.0","steam_id":76561198141189209,"connected_time":2195000000000,"state":"active","ping":45}]},{"server_id":108,"name":"Uncletopia | Dallas | 2 | All Maps","name_short":"dal-2","host":"dal-1.us.uncletopia.com","port":27025,"enabled":true,"region":"us-central","cc":"us","latitude":32.779167,"longitude":-96.80889,"reserved":0,"last_update":"0001-01-01T00:00:00Z","name_a2s":"Uncletopia | Dallas | 2 | All Maps","protocol":17,"map":"pl_frontier_final","folder":"tf","game":"Team Fortress","app_id":440,"player_count":22,"max_players":24,"Bots":0,"server_type":"Dedicated","server_os":"Linux","password":true,"vac":true,"version":"7932396","steam_id":85568392924469988,"keywords":["nocrits","nodmgspread","payload","uncletopia"],"game_id":440,"stv_port":27026,"stv_name":"Uncletopia | Dallas | 2 | All Maps | STV","players":[{"user_id":616,"name":"controller spy","steam_id":76561198327083342,"connected_time":1236000000000,"state":"active","ping":41},{"user_id":606,"name":"Mud Goblin","steam_id":76561198839118505,"connected_time":1858000000000,"state":"active","ping":90},{"user_id":619,"name":"J0hnnY","steam_id":76561198303097033,"connected_time":762000000000,"state":"active","ping":106},{"user_id":624,"name":"Panda Loser","steam_id":76561198828745176,"connected_time":363000000000,"state":"active","ping":91},{"user_id":607,"name":"dr. scout trout","steam_id":76561198200989811,"connected_time":1848000000000,"state":"active","ping":103},{"user_id":585,"name":"SmileOneTwoThree","steam_id":76561198045624336,"connected_time":2929000000000,"state":"active","ping":67},{"user_id":623,"name":"James $pleen","steam_id":76561198206402815,"connected_time":423000000000,"state":"active","ping":63},{"user_id":591,"name":"dmax02040","steam_id":76561199428864090,"connected_time":2519000000000,"state":"active","ping":87},{"user_id":602,"name":"aimbot (true)","steam_id":76561199059257565,"connected_time":1988000000000,"state":"active","ping":58},{"user_id":625,"name":"Allotrope","steam_id":76561197998450103,"connected_time":278000000000,"state":"active","ping":46},{"user_id":626,"name":"(‚óéÔπè‚óé)","steam_id":76561198007464245,"connected_time":147000000000,"state":"active","ping":76},{"user_id":609,"name":"ProjectSinclair","steam_id":76561198927854184,"connected_time":1826000000000,"state":"active","ping":63},{"user_id":627,"name":"Crisp","steam_id":76561198132644084,"connected_time":145000000000,"state":"active","ping":85},{"user_id":610,"name":"mel","steam_id":76561198215559840,"connected_time":1744000000000,"state":"active","ping":60},{"user_id":600,"name":"Slayer","steam_id":76561198158725593,"connected_time":2052000000000,"state":"active","ping":93},{"user_id":628,"name":"HammerHead","steam_id":76561197975668646,"connected_time":103000000000,"state":"active","ping":51},{"user_id":629,"name":"Starkiller","steam_id":76561198101643120,"connected_time":73000000000,"state":"active","ping":47},{"user_id":604,"name":"Calcium Deficiency!","steam_id":76561198079508469,"connected_time":1952000000000,"state":"active","ping":47},{"user_id":620,"name":"BlueJayBlues","steam_id":76561198101966116,"connected_time":761000000000,"state":"active","ping":87},{"user_id":622,"name":"Byte The Protogen","steam_id":76561199229871383,"connected_time":655000000000,"state":"active","ping":87},{"user_id":631,"name":"Pitch is a Stick","steam_id":76561198800287853,"connected_time":51000000000,"state":"active","ping":127},{"user_id":621,"name":"Tanuki with a gun.","steam_id":76561198027487285,"connected_time":723000000000,"state":"active","ping":90}]},{"server_id":5,"name":"Uncletopia | Frankfurt | 1 | All Maps","name_short":"frk-1","host":"frk-1.de.uncletopia.com","port":27015,"enabled":true,"region":"eu","cc":"de","latitude":50.110924,"longitude":8.682127,"reserved":0,"last_update":"0001-01-01T00:00:00Z","name_a2s":"Uncletopia | Frankfurt | 1 | All Maps","protocol":17,"map":"pl_borneo","folder":"tf","game":"Team Fortress","app_id":440,"player_count":0,"max_players":24,"Bots":0,"server_type":"Dedicated","server_os":"Linux","password":true,"vac":true,"version":"7932396","steam_id":85568392924469989,"keywords":["nocrits","nodmgspread","payload","uncletopia"],"game_id":440,"stv_port":27016,"stv_name":"Uncletopia | Frankfurt | 1 | All Maps | STV","players":null},{"server_id":110,"name":"Uncletopia | Frankfurt | 2 | All Maps","name_short":"frk-2","host":"frk-1.de.uncletopia.com","port":27025,"enabled":true,"region":"eu","cc":"de","latitude":50.110924,"longitude":8.682127,"reserved":0,"last_update":"0001-01-01T00:00:00Z","name_a2s":"Uncletopia | Frankfurt | 2 | All Maps","protocol":17,"map":"pl_snowycoast","folder":"tf","game":"Team Fortress","app_id":440,"player_count":0,"max_players":24,"Bots":0,"server_type":"Dedicated","server_os":"Linux","password":true,"vac":true,"version":"7932396","steam_id":85568392924469990,"keywords":["nocrits","nodmgspread","payload","uncletopia"],"game_id":440,"stv_port":27026,"stv_name":"Uncletopia | Frankfurt | 2 | All Maps | STV","players":null},{"server_id":308,"name":"Uncletopia | Frankfurt | 3 | All Maps","name_short":"frk-3","host":"frk-1.de.uncletopia.com","port":27035,"enabled":true,"region":"eu","cc":"de","latitude":50.110924,"longitude":8.682127,"reserved":0,"last_update":"0001-01-01T00:00:00Z","name_a2s":"Uncletopia | Frankfurt | 3 | All Maps","protocol":17,"map":"cp_mountainlab","folder":"tf","game":"Team Fortress","app_id":440,"player_count":0,"max_players":24,"Bots":0,"server_type":"Dedicated","server_os":"Linux","password":true,"vac":true,"version":"7932396","steam_id":85568392924504274,"keywords":["cp","nocrits","nodmgspread","uncletopia"],"game_id":440,"stv_port":27036,"stv_name":"Uncletopia | Frankfurt | 3 | All Maps | STV","players":null},{"server_id":309,"name":"Uncletopia | Frankfurt | 4 | All Maps","name_short":"frk-4","host":"frk-1.de.uncletopia.com","port":27045,"enabled":true,"region":"eu","cc":"de","latitude":50.110924,"longitude":8.682127,"reserved":0,"last_update":"0001-01-01T00:00:00Z","name_a2s":"Uncletopia | Frankfurt | 4 | All Maps","protocol":17,"map":"koth_lakeside_final","folder":"tf","game":"Team Fortress","app_id":440,"player_count":0,"max_players":24,"Bots":0,"server_type":"Dedicated","server_os":"Linux","password":true,"vac":true,"version":"7932396","steam_id":85568392924504275,"keywords":["cp","nocrits","nodmgspread","uncletopia"],"game_id":440,"stv_port":27046,"stv_name":"Uncletopia | Frankfurt | 4 | All Maps | STV","players":null},{"server_id":310,"name":"Uncletopia | Frankfurt | 5 | All Maps","name_short":"frk-5","host":"frk-1.de.uncletopia.com","port":27055,"enabled":true,"region":"eu","cc":"de","latitude":50.110924,"longitude":8.682127,"reserved":0,"last_update":"0001-01-01T00:00:00Z","name_a2s":"Uncletopia | Frankfurt | 5 | All Maps","protocol":17,"map":"pl_swiftwater_final1","folder":"tf","game":"Team Fortress","app_id":440,"player_count":0,"max_players":24,"Bots":0,"server_type":"Dedicated","server_os":"Linux","password":true,"vac":true,"version":"7932396","steam_id":85568392924504277,"keywords":["nocrits","nodmgspread","payload","uncletopia"],"game_id":440,"stv_port":27056,"stv_name":"Uncletopia | Frankfurt | 5 | All Maps | STV","players":null},{"server_id":311,"name":"Uncletopia | Frankfurt | 6 | All Maps","name_short":"frk-6","host":"frk-1.de.uncletopia.com","port":27065,"enabled":true,"region":"eu","cc":"de","latitude":50.110924,"longitude":8.682127,"reserved":0,"last_update":"0001-01-01T00:00:00Z","name_a2s":"Uncletopia | Frankfurt | 6 | All Maps","protocol":17,"map":"pl_badwater","folder":"tf","game":"Team Fortress","app_id":440,"player_count":0,"max_players":24,"Bots":0,"server_type":"Dedicated","server_os":"Linux","password":true,"vac":true,"version":"7932396","steam_id":85568392924504278,"keywords":["nocrits","nodmgspread","payload","uncletopia"],"game_id":440,"stv_port":27066,"stv_name":"Uncletopia | Frankfurt | 6 | All Maps | STV","players":null},{"server_id":23,"name":"Uncletopia | Frankfurt | 7 | Stopwatch Beta","name_short":"frk-7","host":"frk-1.de.uncletopia.com","port":27075,"enabled":true,"region":"eu","cc":"de","latitude":50.110924,"longitude":8.682127,"reserved":0,"last_update":"0001-01-01T00:00:00Z","name_a2s":"Uncletopia | Frankfurt | 7 | Stopwatch Beta","protocol":17,"map":"pl_snowycoast","folder":"tf","game":"Team Fortress","app_id":440,"player_count":0,"max_players":24,"Bots":0,"server_type":"Dedicated","server_os":"Linux","password":true,"vac":true,"version":"7932396","steam_id":85568392924742827,"keywords":["nocrits","nodmgspread","payload","uncletopia"],"game_id":440,"stv_port":27076,"stv_name":"Uncletopia | Frankfurt | 7 | Stopwatch Beta | STV","players":null},{"server_id":24,"name":"Uncletopia | Frankfurt | 8 | Community","name_short":"frk-8","host":"frk-1.de.uncletopia.com","port":27085,"enabled":true,"region":"eu","cc":"de","latitude":50.110924,"longitude":8.682127,"reserved":0,"last_update":"0001-01-01T00:00:00Z","name_a2s":"Uncletopia | Frankfurt | 8 | Community","protocol":17,"map":"workshop/cp_logjam_rc12.ugc454812035","folder":"tf","game":"Team Fortress","app_id":440,"player_count":0,"max_players":24,"Bots":0,"server_type":"Dedicated","server_os":"Linux","password":true,"vac":true,"version":"7932396","steam_id":85568392924742828,"keywords":["cp","nocrits","nodmgspread","uncletopia"],"game_id":440,"stv_port":27086,"stv_name":"Uncletopia | Frankfurt | 8 | Community | STV","players":null},{"server_id":202,"name":"Uncletopia | Hong Kong | 1 | All Maps","name_short":"hgk-1","host":"hgk-1.hk.uncletopia.com","port":27015,"enabled":true,"region":"asia","cc":"hk","latitude":22.302711,"longitude":114.177216,"reserved":0,"last_update":"0001-01-01T00:00:00Z","name_a2s":"Uncletopia | Hong Kong | 1 | All Maps","protocol":17,"map":"pl_barnblitz","folder":"tf","game":"Team Fortress","app_id":440,"player_count":21,"max_players":24,"Bots":0,"server_type":"Dedicated","server_os":"Linux","password":true,"vac":true,"version":"7932396","steam_id":85568392924494504,"keywords":["nocrits","nodmgspread","payload","uncletopia"],"game_id":440,"stv_port":27016,"stv_name":"Uncletopia | Hong Kong | 1 | All Maps | STV","players":[{"user_id":42,"name":"thirteen","steam_id":76561198194007803,"connected_time":366000000000,"state":"active","ping":64},{"user_id":26,"name":"Dplot","steam_id":76561198082218510,"connected_time":2091000000000,"state":"active","ping":97},{"user_id":7,"name":"jarell","steam_id":76561198271534653,"connected_time":4551000000000,"state":"active","ping":56},{"user_id":29,"name":"Table","steam_id":76561199094388107,"connected_time":1748000000000,"state":"active","ping":62},{"user_id":9,"name":"GamerGaming14","steam_id":76561199231294382,"connected_time":4365000000000,"state":"active","ping":119},{"user_id":34,"name":"Butt_grater","steam_id":76561198929466103,"connected_time":1189000000000,"state":"active","ping":75},{"user_id":17,"name":"Cultist","steam_id":76561199025561672,"connected_time":2965000000000,"state":"active","ping":104},{"user_id":21,"name":"huh :-)","steam_id":76561198293775978,"connected_time":2460000000000,"state":"active","ping":93},{"user_id":38,"name":"takoter boy","steam_id":76561198944322758,"connected_time":855000000000,"state":"active","ping":122},{"user_id":30,"name":"Nulifye","steam_id":76561199004775558,"connected_time":1567000000000,"state":"active","ping":95},{"user_id":36,"name":"[ RJN ] MeeLee","steam_id":76561199227871384,"connected_time":985000000000,"state":"active","ping":56},{"user_id":31,"name":":weed:","steam_id":76561198386626651,"connected_time":1458000000000,"state":"active","ping":61},{"user_id":37,"name":"Chomer","steam_id":76561199034546642,"connected_time":954000000000,"state":"active","ping":113},{"user_id":39,"name":"cstr","steam_id":76561198125946388,"connected_time":727000000000,"state":"active","ping":83},{"user_id":41,"name":"gero's boytoy","steam_id":76561199226227211,"connected_time":447000000000,"state":"active","ping":76},{"user_id":43,"name":"junbi OK","steam_id":76561198116387218,"connected_time":339000000000,"state":"active","ping":90},{"user_id":44,"name":"BROYO d4nny","steam_id":76561198965889429,"connected_time":278000000000,"state":"active","ping":99},{"user_id":45,"name":"dax.","steam_id":76561198321885643,"connected_time":265000000000,"state":"active","ping":45},{"user_id":49,"name":"PJ ^^","steam_id":76561198041371593,"connected_time":139000000000,"state":"active","ping":98},{"user_id":50,"name":"Michael Scott","steam_id":76561198023082794,"connected_time":100000000000,"state":"active","ping":52},{"user_id":48,"name":"Noyour","steam_id":76561198323259830,"connected_time":153000000000,"state":"active","ping":113}]},{"server_id":1,"name":"Uncletopia | Los Angeles | 1 | All Maps","name_short":"lax-1","host":"lax-1.us.uncletopia.com","port":27015,"enabled":true,"region":"us-west","cc":"us","latitude":33.94279,"longitude":-118.41004,"reserved":0,"last_update":"0001-01-01T00:00:00Z","name_a2s":"Uncletopia | Los Angeles | 1 | All Maps","protocol":17,"map":"cp_dustbowl","folder":"tf","game":"Team Fortress","app_id":440,"player_count":17,"max_players":24,"Bots":0,"server_type":"Dedicated","server_os":"Linux","password":true,"vac":true,"version":"7932396","steam_id":85568392924469991,"keywords":["cp","nocrits","nodmgspread","uncletopia"],"game_id":440,"stv_port":27016,"stv_name":"Uncletopia | Los Angeles | 1 | All Maps | STV","players":[{"user_id":499,"name":"The Foolish Samurai","steam_id":76561198094494945,"connected_time":5257000000000,"state":"active","ping":74},{"user_id":504,"name":"T _ T","steam_id":76561198041907345,"connected_time":4622000000000,"state":"active","ping":51},{"user_id":543,"name":"weed","steam_id":76561198149929071,"connected_time":419000000000,"state":"active","ping":69},{"user_id":542,"name":"MORE BOUNCE TO THE OUNCE","steam_id":76561198243399336,"connected_time":485000000000,"state":"active","ping":62},{"user_id":544,"name":"frank n furter","steam_id":76561198308883028,"connected_time":414000000000,"state":"active","ping":57},{"user_id":505,"name":"Chiaki Nanami","steam_id":76561198164782653,"connected_time":4621000000000,"state":"active","ping":121},{"user_id":546,"name":"wugmup","steam_id":76561199096287734,"connected_time":389000000000,"state":"active","ping":65},{"user_id":547,"name":"lamb cutlet","steam_id":76561199063557758,"connected_time":362000000000,"state":"active","ping":115},{"user_id":514,"name":"Fish Lambert","steam_id":76561198098279668,"connected_time":3363000000000,"state":"active","ping":56},{"user_id":549,"name":"Lexx","steam_id":76561198116165881,"connected_time":208000000000,"state":"active","ping":77},{"user_id":508,"name":"Moomin","steam_id":76561198072726213,"connected_time":4321000000000,"state":"active","ping":54},{"user_id":550,"name":"Excrement","steam_id":76561198167740127,"connected_time":156000000000,"state":"active","ping":64},{"user_id":509,"name":"social distance warrior","steam_id":76561198128992994,"connected_time":4317000000000,"state":"active","ping":67},{"user_id":515,"name":"Twitch.tv/Jinx_VM","steam_id":76561198280150602,"connected_time":3360000000000,"state":"active","ping":82},{"user_id":506,"name":"gerg","steam_id":76561197997127387,"connected_time":4619000000000,"state":"active","ping":59},{"user_id":538,"name":"Sterling Nano","steam_id":76561198048580088,"connected_time":642000000000,"state":"active","ping":68},{"user_id":534,"name":"MeatBall","steam_id":76561199055196261,"connected_time":925000000000,"state":"active","ping":141}]},{"server_id":112,"name":"Uncletopia | Los Angeles | 2 | All Maps","name_short":"lax-2","host":"lax-1.us.uncletopia.com","port":27025,"enabled":true,"region":"us-west","cc":"us","latitude":33.94279,"longitude":-118.41004,"reserved":0,"last_update":"0001-01-01T00:00:00Z","name_a2s":"Uncletopia | Los Angeles | 2 | All Maps","protocol":17,"map":"pl_borneo","folder":"tf","game":"Team Fortress","app_id":440,"player_count":23,"max_players":24,"Bots":0,"server_type":"Dedicated","server_os":"Linux","password":true,"vac":true,"version":"7932396","steam_id":85568392924469992,"keywords":["nocrits","nodmgspread","payload","uncletopia"],"game_id":440,"stv_port":27026,"stv_name":"Uncletopia | Los Angeles | 2 | All Maps | STV","players":[{"user_id":435,"name":"Woodstock","steam_id":76561198041442667,"connected_time":1812000000000,"state":"active","ping":67},{"user_id":444,"name":"incredirocks","steam_id":76561198061079993,"connected_time":1219000000000,"state":"active","ping":105},{"user_id":414,"name":"Ezekiel Total Drama","steam_id":76561198300707464,"connected_time":2836000000000,"state":"active","ping":50},{"user_id":445,"name":"thorn648","steam_id":76561198012565777,"connected_time":1207000000000,"state":"active","ping":100},{"user_id":446,"name":"SCUD missile up your ass","steam_id":76561198066452726,"connected_time":1199000000000,"state":"active","ping":50},{"user_id":439,"name":"sleepy","steam_id":76561199008634102,"connected_time":1542000000000,"state":"active","ping":86},{"user_id":395,"name":"The Benefactor","steam_id":76561198307247913,"connected_time":3910000000000,"state":"active","ping":45},{"user_id":440,"name":"Painkiller","steam_id":76561198049787400,"connected_time":1538000000000,"state":"active","ping":59},{"user_id":453,"name":"Townze","steam_id":76561198081827165,"connected_time":507000000000,"state":"active","ping":85},{"user_id":425,"name":"Nostalgia Bender","steam_id":76561198078930736,"connected_time":2351000000000,"state":"active","ping":58},{"user_id":447,"name":"rxqueen","steam_id":76561198049258493,"connected_time":1152000000000,"state":"active","ping":88},{"user_id":437,"name":"cream team","steam_id":76561198139043953,"connected_time":1608000000000,"state":"active","ping":78},{"user_id":456,"name":"Bamboo","steam_id":76561198043139553,"connected_time":197000000000,"state":"active","ping":65},{"user_id":430,"name":"Pho","steam_id":76561198306515742,"connected_time":2119000000000,"state":"active","ping":59},{"user_id":455,"name":"nella","steam_id":76561198079349621,"connected_time":497000000000,"state":"active","ping":51},{"user_id":454,"name":"k'ouft","steam_id":76561198080207021,"connected_time":505000000000,"state":"active","ping":50},{"user_id":375,"name":"Taffy","steam_id":76561198276612538,"connected_time":4888000000000,"state":"active","ping":59},{"user_id":408,"name":"YouCantSpellNutritionW/OutNUT","steam_id":76561198060588059,"connected_time":3496000000000,"state":"active","ping":53},{"user_id":436,"name":"SQbuilder","steam_id":76561198076473375,"connected_time":1737000000000,"state":"active","ping":38},{"user_id":426,"name":"Drowse","steam_id":76561198029794548,"connected_time":2275000000000,"state":"active","ping":63},{"user_id":452,"name":"the cock strangler","steam_id":76561198161368766,"connected_time":539000000000,"state":"active","ping":70},{"user_id":403,"name":"Trippy","steam_id":76561199090730294,"connected_time":3683000000000,"state":"active","ping":81},{"user_id":432,"name":"jim awesome","steam_id":76561198337486020,"connected_time":2037000000000,"state":"active","ping":61}]},{"server_id":324,"name":"Uncletopia | Los Angeles | 3 | All Maps","name_short":"lax-3","host":"lax-1.us.uncletopia.com","port":27035,"enabled":true,"region":"us-west","cc":"us","latitude":33.94279,"longitude":-118.41004,"reserved":0,"last_update":"0001-01-01T00:00:00Z","name_a2s":"Uncletopia | Los Angeles | 3 | All Maps","protocol":17,"map":"cp_mountainlab","folder":"tf","game":"Team Fortress","app_id":440,"player_count":0,"max_players":24,"Bots":0,"server_type":"Dedicated","server_os":"Linux","password":true,"vac":true,"version":"7932396","steam_id":85568392924510198,"keywords":["cp","nocrits","nodmgspread","uncletopia"],"game_id":440,"stv_port":27036,"stv_name":"Uncletopia | Los Angeles | 3 | All Maps | STV","players":null},{"server_id":25,"name":"Uncletopia | Los Angeles | 4 | Stopwatch Beta","name_short":"lax-4","host":"lax-1.us.uncletopia.com","port":27045,"enabled":true,"region":"us-west","cc":"us","latitude":33.94279,"longitude":-118.41004,"reserved":0,"last_update":"0001-01-01T00:00:00Z","name_a2s":"Uncletopia | Los Angeles | 4 | Stopwatch Beta","protocol":17,"map":"pl_swiftwater_final1","folder":"tf","game":"Team Fortress","app_id":440,"player_count":0,"max_players":24,"Bots":0,"server_type":"Dedicated","server_os":"Linux","password":true,"vac":true,"version":"7932396","steam_id":85568392924510199,"keywords":["nocrits","nodmgspread","payload","uncletopia"],"game_id":440,"stv_port":27046,"stv_name":"Uncletopia | Los Angeles | 4 | Stopwatch Beta | STV","players":null},{"server_id":11,"name":"Uncletopia | London | 1 | All Maps","name_short":"lon-1","host":"lon-1.uk.uncletopia.com","port":27015,"enabled":true,"region":"eu","cc":"gb","latitude":51.509865,"longitude":-0.118092,"reserved":0,"last_update":"0001-01-01T00:00:00Z","name_a2s":"Uncletopia | London | 1 | All Maps","protocol":17,"map":"koth_viaduct","folder":"tf","game":"Team Fortress","app_id":440,"player_count":0,"max_players":24,"Bots":0,"server_type":"Dedicated","server_os":"Linux","password":true,"vac":true,"version":"7932396","steam_id":85568392924367362,"keywords":["cp","nocrits","nodmgspread","uncletopia"],"game_id":440,"stv_port":27016,"stv_name":"Uncletopia | London | 1 | All Maps | STV","players":null},{"server_id":114,"name":"Uncletopia | London | 2 | All Maps","name_short":"lon-2","host":"lon-1.uk.uncletopia.com","port":27025,"enabled":true,"region":"eu","cc":"gb","latitude":51.509865,"longitude":-0.118092,"reserved":0,"last_update":"0001-01-01T00:00:00Z","name_a2s":"Uncletopia | London | 2 | All Maps","protocol":17,"map":"cp_sunshine","folder":"tf","game":"Team Fortress","app_id":440,"player_count":0,"max_players":24,"Bots":0,"server_type":"Dedicated","server_os":"Linux","password":true,"vac":true,"version":"7932396","steam_id":85568392924470941,"keywords":["cp","nocrits","nodmgspread","uncletopia"],"game_id":440,"stv_port":27026,"stv_name":"Uncletopia | London | 2 | All Maps | STV","players":null},{"server_id":320,"name":"Uncletopia | London | 3 | All Maps","name_short":"lon-3","host":"lon-1.uk.uncletopia.com","port":27035,"enabled":true,"region":"eu","cc":"gb","latitude":51.509865,"longitude":-0.118092,"reserved":0,"last_update":"0001-01-01T00:00:00Z","name_a2s":"Uncletopia | London | 3 | All Maps","protocol":17,"map":"pl_frontier_final","folder":"tf","game":"Team Fortress","app_id":440,"player_count":0,"max_players":24,"Bots":0,"server_type":"Dedicated","server_os":"Linux","password":true,"vac":true,"version":"7932396","steam_id":85568392924510192,"keywords":["nocrits","nodmgspread","payload","uncletopia"],"game_id":440,"stv_port":27036,"stv_name":"Uncletopia | London | 3 | All Maps | STV","players":null},{"server_id":321,"name":"Uncletopia | London | 4 | All Maps","name_short":"lon-4","host":"lon-1.uk.uncletopia.com","port":27045,"enabled":true,"region":"eu","cc":"gb","latitude":51.509865,"longitude":-0.118092,"reserved":0,"last_update":"0001-01-01T00:00:00Z","name_a2s":"Uncletopia | London | 4 | All Maps","protocol":17,"map":"pl_snowycoast","folder":"tf","game":"Team Fortress","app_id":440,"player_count":0,"max_players":24,"Bots":0,"server_type":"Dedicated","server_os":"Linux","password":true,"vac":true,"version":"7932396","steam_id":85568392924510193,"keywords":["nocrits","nodmgspread","payload","uncletopia"],"game_id":440,"stv_port":27046,"stv_name":"Uncletopia | London | 4 | All Maps | STV","players":null},{"server_id":21,"name":"Uncletopia | London | 5 | All Maps","name_short":"lon-5","host":"lon-1.uk.uncletopia.com","port":27055,"enabled":true,"region":"eu","cc":"gb","latitude":51.509865,"longitude":-0.118092,"reserved":0,"last_update":"0001-01-01T00:00:00Z","name_a2s":"Uncletopia | London | 5 | All Maps","protocol":17,"map":"cp_altitude","folder":"tf","game":"Team Fortress","app_id":440,"player_count":0,"max_players":24,"Bots":0,"server_type":"Dedicated","server_os":"Linux","password":true,"vac":true,"version":"7932396","steam_id":85568392924742829,"keywords":["cp","nocrits","nodmgspread","uncletopia"],"game_id":440,"stv_port":27056,"stv_name":"Uncletopia | London | 5 | All Maps | STV","players":null},{"server_id":22,"name":"Uncletopia | London | 6 | All Maps","name_short":"lon-6","host":"lon-1.uk.uncletopia.com","port":27065,"enabled":true,"region":"eu","cc":"gb","latitude":51.509865,"longitude":-0.118092,"reserved":0,"last_update":"0001-01-01T00:00:00Z","name_a2s":"Uncletopia | London | 6 | All Maps","protocol":17,"map":"cp_mountainlab","folder":"tf","game":"Team Fortress","app_id":440,"player_count":0,"max_players":24,"Bots":0,"server_type":"Dedicated","server_os":"Linux","password":true,"vac":true,"version":"7932396","steam_id":85568392924742830,"keywords":["cp","nocrits","nodmgspread","uncletopia"],"game_id":440,"stv_port":27066,"stv_name":"Uncletopia | London | 6 | All Maps | STV","players":null},{"server_id":40,"name":"Uncletopia | London | 7 | No Payload","name_short":"lon-7","host":"lon-1.uk.uncletopia.com","port":27075,"enabled":true,"region":"eu","cc":"gb","latitude":51.509865,"longitude":-0.118092,"reserved":0,"last_update":"0001-01-01T00:00:00Z","name_a2s":"Uncletopia | London | 7 | No Payload","protocol":17,"map":"koth_cascade","folder":"tf","game":"Team Fortress","app_id":440,"player_count":0,"max_players":24,"Bots":0,"server_type":"Dedicated","server_os":"Linux","password":true,"vac":true,"version":"7932396","steam_id":85568392924964314,"keywords":["cp","nocrits","nodmgspread","uncletopia"],"game_id":440,"stv_port":27076,"stv_name":"Uncletopia | London | 7 | No Payload | STV","players":null},{"server_id":41,"name":"Uncletopia | London | 8 | Community","name_short":"lon-8","host":"lon-1.uk.uncletopia.com","port":27085,"enabled":true,"region":"eu","cc":"gb","latitude":51.509865,"longitude":-0.118092,"reserved":0,"last_update":"0001-01-01T00:00:00Z","name_a2s":"Uncletopia | London | 8 | Community","protocol":17,"map":"cp_process_final","folder":"tf","game":"Team Fortress","app_id":440,"player_count":0,"max_players":24,"Bots":0,"server_type":"Dedicated","server_os":"Linux","password":true,"vac":true,"version":"7932396","steam_id":85568392924964315,"keywords":["cp","nocrits","nodmgspread","uncletopia"],"game_id":440,"stv_port":27086,"stv_name":"Uncletopia | London | 8 | Community | STV","players":null},{"server_id":300,"name":"Uncletopia | Montr√©al | 1 | All Maps","name_short":"mtl-1","host":"mtl-1.ca.uncletopia.com","port":27015,"enabled":true,"region":"us-east","cc":"ca","latitude":45.50889,"longitude":-73.56167,"reserved":0,"last_update":"0001-01-01T00:00:00Z","name_a2s":"Uncletopia | Montr√©al | 1 | All Maps","protocol":17,"map":"pl_upward","folder":"tf","game":"Team Fortress","app_id":440,"player_count":0,"max_players":24,"Bots":0,"server_type":"Dedicated","server_os":"Linux","password":true,"vac":true,"version":"7932396","steam_id":85568392924500087,"keywords":["nocrits","nodmgspread","payload","uncletopia"],"game_id":440,"stv_port":27016,"stv_name":"Uncletopia | Montr√©al | 1 | All Maps | STV","players":null},{"server_id":301,"name":"Uncletopia | Montr√©al | 2 | All Maps","name_short":"mtl-2","host":"mtl-1.ca.uncletopia.com","port":27025,"enabled":true,"region":"us-east","cc":"ca","latitude":45.50889,"longitude":-73.56167,"reserved":0,"last_update":"0001-01-01T00:00:00Z","name_a2s":"Uncletopia | Montr√©al | 2 | All Maps","protocol":17,"map":"koth_highpass","folder":"tf","game":"Team Fortress","app_id":440,"player_count":0,"max_players":24,"Bots":0,"server_type":"Dedicated","server_os":"Linux","password":true,"vac":true,"version":"7932396","steam_id":85568392924500088,"keywords":["cp","nocrits","nodmgspread","uncletopia"],"game_id":440,"stv_port":27026,"stv_name":"Uncletopia | Montr√©al | 2 | All Maps | STV","players":null},{"server_id":302,"name":"Uncletopia | Montr√©al | 3 | All Maps","name_short":"mtl-3","host":"mtl-1.ca.uncletopia.com","port":27035,"enabled":true,"region":"us-east","cc":"ca","latitude":45.50889,"longitude":-73.56167,"reserved":0,"last_update":"0001-01-01T00:00:00Z","name_a2s":"Uncletopia | Montr√©al | 3 | All Maps","protocol":17,"map":"koth_lakeside_final","folder":"tf","game":"Team Fortress","app_id":440,"player_count":0,"max_players":24,"Bots":0,"server_type":"Dedicated","server_os":"Linux","password":true,"vac":true,"version":"7932396","steam_id":85568392924500089,"keywords":["cp","nocrits","nodmgspread","uncletopia"],"game_id":440,"stv_port":27036,"stv_name":"Uncletopia | Montr√©al | 3 | All Maps | STV","players":null},{"server_id":303,"name":"Uncletopia | Montr√©al | 4 | No Payload","name_short":"mtl-4","host":"mtl-1.ca.uncletopia.com","port":27045,"enabled":true,"region":"us-east","cc":"ca","latitude":45.50889,"longitude":-73.56167,"reserved":0,"last_update":"0001-01-01T00:00:00Z","name_a2s":"Uncletopia | Montr√©al | 4 | No Payload","protocol":17,"map":"cp_gullywash_final1","folder":"tf","game":"Team Fortress","app_id":440,"player_count":0,"max_players":24,"Bots":0,"server_type":"Dedicated","server_os":"Linux","password":true,"vac":true,"version":"7932396","steam_id":85568392924500090,"keywords":["cp","nocrits","nodmgspread","uncletopia"],"game_id":440,"stv_port":27046,"stv_name":"Uncletopia | Montr√©al | 4 | No Payload | STV","players":null},{"server_id":13,"name":"Uncletopia | New York City | 1 | All Maps","name_short":"nyc-1","host":"nyc-1.us.uncletopia.com","port":27015,"enabled":true,"region":"us-east","cc":"us","latitude":40.73061,"longitude":-73.93524,"reserved":0,"last_update":"0001-01-01T00:00:00Z","name_a2s":"Uncletopia | New York City | 1 | All Maps","protocol":17,"map":"cp_gorge","folder":"tf","game":"Team Fortress","app_id":440,"player_count":24,"max_players":24,"Bots":0,"server_type":"Dedicated","server_os":"Linux","password":true,"vac":true,"version":"7932396","steam_id":85568392924469993,"keywords":["cp","nocrits","nodmgspread","uncletopia"],"game_id":440,"stv_port":27016,"stv_name":"Uncletopia | New York City | 1 | All Maps | STV","players":[{"user_id":409,"name":"bongo","steam_id":76561198052555095,"connected_time":1486000000000,"state":"active","ping":72},{"user_id":418,"name":"jooby","steam_id":76561198131065492,"connected_time":1292000000000,"state":"active","ping":73},{"user_id":407,"name":"baby spice","steam_id":76561199100831175,"connected_time":1494000000000,"state":"active","ping":49},{"user_id":424,"name":"Rusted Cake","steam_id":76561198209755931,"connected_time":611000000000,"state":"active","ping":107},{"user_id":423,"name":"Chad","steam_id":76561198222313772,"connected_time":654000000000,"state":"active","ping":121},{"user_id":410,"name":"mouse","steam_id":76561198300153474,"connected_time":1473000000000,"state":"active","ping":74},{"user_id":414,"name":"Model CHP-3Y","steam_id":76561198107806145,"connected_time":1421000000000,"state":"active","ping":68},{"user_id":408,"name":"belkrem","steam_id":76561198294934792,"connected_time":1490000000000,"state":"active","ping":90},{"user_id":411,"name":"daemon","steam_id":76561198001541433,"connected_time":1453000000000,"state":"active","ping":60},{"user_id":425,"name":"Jaystation","steam_id":76561198212065932,"connected_time":596000000000,"state":"active","ping":102},{"user_id":426,"name":"BuncusBeffer","steam_id":76561198285936616,"connected_time":595000000000,"state":"active","ping":133},{"user_id":394,"name":"Blobbyfish","steam_id":76561198822962650,"connected_time":2149000000000,"state":"active","ping":55},{"user_id":404,"name":"erf","steam_id":76561198078203677,"connected_time":1755000000000,"state":"active","ping":51},{"user_id":427,"name":"Capn' Crunk","steam_id":76561198848399887,"connected_time":464000000000,"state":"active","ping":53},{"user_id":412,"name":"Vladikr1","steam_id":76561198401495362,"connected_time":1449000000000,"state":"active","ping":67},{"user_id":413,"name":"C Papi","steam_id":76561198027779564,"connected_time":1446000000000,"state":"active","ping":60},{"user_id":428,"name":"Constipated Barry","steam_id":76561198004482269,"connected_time":411000000000,"state":"active","ping":108},{"user_id":390,"name":"SHADY SWEATER SALESMAN","steam_id":76561198014616865,"connected_time":2377000000000,"state":"active","ping":47},{"user_id":420,"name":"Professor Peppermint","steam_id":76561198184017082,"connected_time":1216000000000,"state":"active","ping":83},{"user_id":416,"name":"Vivi The VVitch","steam_id":76561198199110998,"connected_time":1399000000000,"state":"active","ping":135},{"user_id":335,"name":"Virtual Zorua","steam_id":76561198196180302,"connected_time":6670000000000,"state":"active","ping":63},{"user_id":417,"name":"Masotan","steam_id":76561199047187302,"connected_time":1379000000000,"state":"active","ping":60},{"user_id":419,"name":"1stLemonAid","steam_id":76561198281567539,"connected_time":1229000000000,"state":"active","ping":163},{"user_id":421,"name":"Daisy Le Nerd","steam_id":76561198149350087,"connected_time":1160000000000,"state":"active","ping":167}]},{"server_id":14,"name":"Uncletopia | New York City | 2 | All Maps","name_short":"nyc-2","host":"nyc-1.us.uncletopia.com","port":27025,"enabled":true,"region":"us-east","cc":"us","latitude":40.73061,"longitude":-73.93524,"reserved":0,"last_update":"0001-01-01T00:00:00Z","name_a2s":"Uncletopia | New York City | 2 | All Maps","protocol":17,"map":"cp_snakewater_final1","folder":"tf","game":"Team Fortress","app_id":440,"player_count":0,"max_players":24,"Bots":0,"server_type":"Dedicated","server_os":"Linux","password":true,"vac":true,"version":"7932396","steam_id":85568392924469994,"keywords":["cp","nocrits","nodmgspread","uncletopia"],"game_id":440,"stv_port":27026,"stv_name":"Uncletopia | New York City | 2 | All Maps | STV","players":null},{"server_id":15,"name":"Uncletopia | New York City | 3 | Stopwatch Beta","name_short":"nyc-3","host":"nyc-1.us.uncletopia.com","port":27035,"enabled":true,"region":"us-east","cc":"us","latitude":40.73061,"longitude":-73.93524,"reserved":0,"last_update":"0001-01-01T00:00:00Z","name_a2s":"Uncletopia | New York City | 3 | Stopwatch Beta","protocol":17,"map":"workshop/koth_product_final.ugc454272353","folder":"tf","game":"Team Fortress","app_id":440,"player_count":0,"max_players":24,"Bots":0,"server_type":"Dedicated","server_os":"Linux","password":true,"vac":true,"version":"7932396","steam_id":85568392924742820,"keywords":["cp","nocrits","nodmgspread","uncletopia"],"game_id":440,"stv_port":27036,"stv_name":"Uncletopia | New York City | 3 | Stopwatch Beta | STV","players":null},{"server_id":16,"name":"Uncletopia | New York City | 4 | Community","name_short":"nyc-4","host":"nyc-1.us.uncletopia.com","port":27045,"enabled":true,"region":"us-east","cc":"us","latitude":40.73061,"longitude":-73.93524,"reserved":0,"last_update":"0001-01-01T00:00:00Z","name_a2s":"Uncletopia | New York City | 4 | Community","protocol":17,"map":"workshop/pl_emerge_rc2.ugc888027758","folder":"tf","game":"Team Fortress","app_id":440,"player_count":0,"max_players":24,"Bots":0,"server_type":"Dedicated","server_os":"Linux","password":true,"vac":true,"version":"7932396","steam_id":85568392924742821,"keywords":["nocrits","nodmgspread","payload","uncletopia"],"game_id":440,"stv_port":27046,"stv_name":"Uncletopia | New York City | 4 | Community | STV","players":null},{"server_id":142,"name":"Uncletopia | S√£o Paulo | 1 | All Maps","name_short":"sao-1","host":"sao-1.br.uncletopia.com","port":27015,"enabled":true,"region":"sa","cc":"br","latitude":-23.533773,"longitude":-46.62529,"reserved":0,"last_update":"0001-01-01T00:00:00Z","name_a2s":"Uncletopia | S√£o Paulo | 1 | All Maps","protocol":17,"map":"koth_lakeside_final","folder":"tf","game":"Team Fortress","app_id":440,"player_count":0,"max_players":24,"Bots":0,"server_type":"Dedicated","server_os":"Linux","password":true,"vac":true,"version":"7932396","steam_id":85568392924469996,"keywords":["cp","nocrits","nodmgspread","uncletopia"],"game_id":440,"stv_port":27016,"stv_name":"Uncletopia | S√£o Paulo | 1 | All Maps | STV","players":null},{"server_id":143,"name":"Uncletopia | S√£o Paulo | 2 | All Maps","name_short":"sao-2","host":"sao-2.br.uncletopia.com","port":27015,"enabled":true,"region":"sa","cc":"br","latitude":-23.533773,"longitude":-46.62529,"reserved":0,"last_update":"0001-01-01T00:00:00Z","name_a2s":"Uncletopia | S√£o Paulo | 2 | All Maps","protocol":17,"map":"plr_nightfall_final","folder":"tf","game":"Team Fortress","app_id":440,"player_count":0,"max_players":24,"Bots":0,"server_type":"Dedicated","server_os":"Linux","password":true,"vac":true,"version":"7932396","steam_id":85568392924485349,"keywords":["nocrits","nodmgspread","payload","uncletopia"],"game_id":440,"stv_port":27016,"stv_name":"Uncletopia | S√£o Paulo | 2 | All Maps | STV","players":null},{"server_id":7,"name":"Uncletopia | Seattle | 1 | All Maps","name_short":"sea-1","host":"sea-1.us.uncletopia.com","port":27015,"enabled":true,"region":"us-west","cc":"us","latitude":47.608013,"longitude":-122.33517,"reserved":0,"last_update":"0001-01-01T00:00:00Z","name_a2s":"Uncletopia | Seattle | 1 | All Maps","protocol":17,"map":"pl_frontier_final","folder":"tf","game":"Team Fortress","app_id":440,"player_count":24,"max_players":24,"Bots":0,"server_type":"Dedicated","server_os":"Linux","password":true,"vac":true,"version":"7932396","steam_id":85568392924469997,"keywords":["nocrits","nodmgspread","payload","uncletopia"],"game_id":440,"stv_port":27016,"stv_name":"Uncletopia | Seattle | 1 | All Maps | STV","players":[{"user_id":487,"name":"ed (bowl of soup in hand)","steam_id":76561198080475712,"connected_time":1140000000000,"state":"active","ping":67},{"user_id":486,"name":"rat gets the cheese","steam_id":76561198031234032,"connected_time":1161000000000,"state":"active","ping":90},{"user_id":458,"name":"quaq","steam_id":76561198059604047,"connected_time":2886000000000,"state":"active","ping":36},{"user_id":370,"name":"NEBULA","steam_id":76561198086878595,"connected_time":11381000000000,"state":"active","ping":70},{"user_id":468,"name":"thunderous prophet","steam_id":76561198131166135,"connected_time":2031000000000,"state":"active","ping":43},{"user_id":490,"name":"Cheeseoid","steam_id":76561198073836524,"connected_time":991000000000,"state":"active","ping":104},{"user_id":491,"name":"ghostt·óù","steam_id":76561199214430703,"connected_time":44000000000,"state":"active","ping":136},{"user_id":488,"name":"Lone_Explorer","steam_id":76561198081972715,"connected_time":1080000000000,"state":"active","ping":63},{"user_id":481,"name":"i.love.ants.321","steam_id":76561198169755734,"connected_time":1611000000000,"state":"active","ping":69},{"user_id":483,"name":"delight","steam_id":76561197980280272,"connected_time":1524000000000,"state":"active","ping":45},{"user_id":454,"name":"Chocc-_-","steam_id":76561198068070211,"connected_time":3042000000000,"state":"active","ping":88},{"user_id":437,"name":"Dcoyotzi","steam_id":76561199124707627,"connected_time":5278000000000,"state":"active","ping":82},{"user_id":452,"name":"nut man","steam_id":76561198254501474,"connected_time":3050000000000,"state":"active","ping":107},{"user_id":489,"name":"jorts","steam_id":76561199041179985,"connected_time":1070000000000,"state":"active","ping":47},{"user_id":482,"name":"resh","steam_id":76561198239598834,"connected_time":1602000000000,"state":"active","ping":128},{"user_id":409,"name":"oil","steam_id":76561198099980149,"connected_time":7861000000000,"state":"active","ping":75},{"user_id":436,"name":"gorlab","steam_id":76561198025089694,"connected_time":5306000000000,"state":"active","ping":68},{"user_id":432,"name":"lusty","steam_id":76561198138478947,"connected_time":5711000000000,"state":"active","ping":38},{"user_id":465,"name":"Clit Yeastwood","steam_id":76561199042672094,"connected_time":2136000000000,"state":"active","ping":68},{"user_id":484,"name":"rorywashere /·ê† - Àï -„Éû ‚≥ä","steam_id":76561198065825165,"connected_time":1477000000000,"state":"active","ping":120},{"user_id":462,"name":"invb","steam_id":76561197998263914,"connected_time":2659000000000,"state":"active","ping":112},{"user_id":466,"name":"kips","steam_id":76561198047171706,"connected_time":2111000000000,"state":"active","ping":54},{"user_id":467,"name":"HeavenHearst","steam_id":76561198066083947,"connected_time":2103000000000,"state":"active","ping":110},{"user_id":476,"name":"Finkly","steam_id":76561198049828110,"connected_time":1881000000000,"state":"active","ping":49}]},{"server_id":119,"name":"Uncletopia | Seattle | 2 | All Maps","name_short":"sea-2","host":"sea-1.us.uncletopia.com","port":27025,"enabled":true,"region":"us-west","cc":"us","latitude":47.608013,"longitude":-122.33517,"reserved":0,"last_update":"0001-01-01T00:00:00Z","name_a2s":"Uncletopia | Seattle | 2 | All Maps","protocol":17,"map":"pl_badwater","folder":"tf","game":"Team Fortress","app_id":440,"player_count":18,"max_players":24,"Bots":0,"server_type":"Dedicated","server_os":"Linux","password":true,"vac":true,"version":"7932396","steam_id":85568392924469998,"keywords":["nocrits","nodmgspread","payload","uncletopia"],"game_id":440,"stv_port":27026,"stv_name":"Uncletopia | Seattle | 2 | All Maps | STV","players":[{"user_id":576,"name":"The King of Piss World","steam_id":76561198082806956,"connected_time":93000000000,"state":"spawning","ping":164},{"user_id":563,"name":"Rusty","steam_id":76561198055585129,"connected_time":1134000000000,"state":"spawning","ping":79},{"user_id":571,"name":"Stev the Prurient Oxymoron","steam_id":76561197999442625,"connected_time":506000000000,"state":"spawning","ping":47},{"user_id":557,"name":"sillymoder2005","steam_id":76561198202235495,"connected_time":1544000000000,"state":"spawning","ping":60},{"user_id":545,"name":"RavenwolF","steam_id":76561197963374354,"connected_time":2591000000000,"state":"spawning","ping":131},{"user_id":572,"name":"juan.flores97","steam_id":76561199144213960,"connected_time":293000000000,"state":"spawning","ping":179},{"user_id":556,"name":"Sovereign","steam_id":76561198018841787,"connected_time":2065000000000,"state":"spawning","ping":83},{"user_id":577,"name":"The Dinkle","steam_id":76561198098155041,"connected_time":7000000000,"state":"connecting","ping":61},{"user_id":559,"name":"chocolat3823","steam_id":76561199249875689,"connected_time":1347000000000,"state":"spawning","ping":97},{"user_id":541,"name":"sandman","steam_id":76561198144772540,"connected_time":2733000000000,"state":"spawning","ping":250},{"user_id":565,"name":"Sgt Autmn","steam_id":76561198072047939,"connected_time":1081000000000,"state":"spawning","ping":79},{"user_id":555,"name":"Brandon_411","steam_id":76561198024522909,"connected_time":2160000000000,"state":"spawning","ping":62},{"user_id":543,"name":"kenZino","steam_id":76561197967971192,"connected_time":2677000000000,"state":"spawning","ping":63},{"user_id":549,"name":"Ymiir","steam_id":76561198118284271,"connected_time":2462000000000,"state":"spawning","ping":95},{"user_id":569,"name":"Starchy","steam_id":76561199010488736,"connected_time":567000000000,"state":"spawning","ping":85},{"user_id":566,"name":"JPMÂ≤©","steam_id":76561198043967997,"connected_time":737000000000,"state":"spawning","ping":84},{"user_id":547,"name":"Crunchy","steam_id":76561198240523882,"connected_time":2545000000000,"state":"spawning","ping":133},{"user_id":562,"name":"engineer gaming","steam_id":76561197969873415,"connected_time":1242000000000,"state":"spawning","ping":233}]},{"server_id":406,"name":"Uncletopia | Seattle | 3 | Stopwatch Beta","name_short":"sea-3","host":"sea-1.us.uncletopia.com","port":27035,"enabled":true,"region":"us-west","cc":"us","latitude":47.608013,"longitude":-122.33517,"reserved":0,"last_update":"0001-01-01T00:00:00Z","name_a2s":"Uncletopia | Seattle | 3 | Stopwatch Beta","protocol":17,"map":"workshop/koth_clearcut_b15.ugc2107050255","folder":"tf","game":"Team Fortress","app_id":440,"player_count":0,"max_players":24,"Bots":0,"server_type":"Dedicated","server_os":"Linux","password":true,"vac":true,"version":"7932396","steam_id":85568392924515217,"keywords":["cp","nocrits","nodmgspread","uncletopia"],"game_id":440,"stv_port":27036,"stv_name":"Uncletopia | Seattle | 3 | Stopwatch Beta | STV","players":null},{"server_id":17,"name":"Uncletopia | San Francisco | 1 | All Maps","name_short":"sfo-1","host":"sfo-1.us.uncletopia.com","port":27015,"enabled":true,"region":"us-west","cc":"us","latitude":37.77397,"longitude":-122.4313,"reserved":0,"last_update":"0001-01-01T00:00:00Z","name_a2s":"Uncletopia | San Francisco | 1 | All Maps","protocol":17,"map":"pl_swiftwater_final1","folder":"tf","game":"Team Fortress","app_id":440,"player_count":0,"max_players":24,"Bots":0,"server_type":"Dedicated","server_os":"Linux","password":true,"vac":true,"version":"7932396","steam_id":85568392924469999,"keywords":["nocrits","nodmgspread","payload","uncletopia"],"game_id":440,"stv_port":27016,"stv_name":"Uncletopia | San Francisco | 1 | All Maps | STV","players":null},{"server_id":18,"name":"Uncletopia | San Francisco | 2 | All Maps","name_short":"sfo-2","host":"sfo-1.us.uncletopia.com","port":27025,"enabled":true,"region":"us-west","cc":"us","latitude":37.77397,"longitude":-122.4313,"reserved":0,"last_update":"0001-01-01T00:00:00Z","name_a2s":"Uncletopia | San Francisco | 2 | All Maps","protocol":17,"map":"pl_thundermountain","folder":"tf","game":"Team Fortress","app_id":440,"player_count":24,"max_players":24,"Bots":0,"server_type":"Dedicated","server_os":"Linux","password":true,"vac":true,"version":"7932396","steam_id":85568392924470000,"keywords":["nocrits","nodmgspread","payload","uncletopia"],"game_id":440,"stv_port":27026,"stv_name":"Uncletopia | San Francisco | 2 | All Maps | STV","players":[{"user_id":265,"name":"bear","steam_id":76561198909415646,"connected_time":615000000000,"state":"active","ping":89},{"user_id":244,"name":"Bird of Paradise","steam_id":76561198891152046,"connected_time":2099000000000,"state":"active","ping":134},{"user_id":255,"name":"naturia","steam_id":76561198092317849,"connected_time":1228000000000,"state":"active","ping":47},{"user_id":263,"name":"-_-","steam_id":76561198048754646,"connected_time":633000000000,"state":"active","ping":56},{"user_id":236,"name":"Yourevilcow","steam_id":76561198077311513,"connected_time":2388000000000,"state":"active","ping":68},{"user_id":230,"name":"Jaxanine","steam_id":76561198290951630,"connected_time":2699000000000,"state":"active","ping":108},{"user_id":254,"name":"Lumi","steam_id":76561198089978036,"connected_time":1279000000000,"state":"active","ping":116},{"user_id":270,"name":"JECA","steam_id":76561198123375988,"connected_time":149000000000,"state":"active","ping":163},{"user_id":205,"name":"riSygneD","steam_id":76561198331618687,"connected_time":4361000000000,"state":"active","ping":45},{"user_id":266,"name":"Dying","steam_id":76561198028304196,"connected_time":558000000000,"state":"active","ping":55},{"user_id":271,"name":"soupy","steam_id":76561197974283797,"connected_time":144000000000,"state":"active","ping":109},{"user_id":267,"name":"Alex","steam_id":76561198140423612,"connected_time":516000000000,"state":"active","ping":68},{"user_id":256,"name":"chrome 2008 (she/they)","steam_id":76561198321277216,"connected_time":1212000000000,"state":"active","ping":60},{"user_id":257,"name":"Zion Chavez","steam_id":76561198178536999,"connected_time":1203000000000,"state":"active","ping":67},{"user_id":245,"name":"the one who knocks","steam_id":76561198373946121,"connected_time":2006000000000,"state":"active","ping":68},{"user_id":264,"name":"sams","steam_id":76561199093161260,"connected_time":631000000000,"state":"active","ping":70},{"user_id":259,"name":"Sleuth","steam_id":76561198418288939,"connected_time":1171000000000,"state":"active","ping":62},{"user_id":262,"name":"Shinnooooo","steam_id":76561198152128596,"connected_time":645000000000,"state":"active","ping":66},{"user_id":219,"name":"boof","steam_id":76561198053901968,"connected_time":3653000000000,"state":"active","ping":113},{"user_id":239,"name":"Your Dinosaurs","steam_id":76561198392670237,"connected_time":2248000000000,"state":"active","ping":55},{"user_id":268,"name":"Roosterrex","steam_id":76561198094828784,"connected_time":504000000000,"state":"active","ping":66},{"user_id":223,"name":"chocky","steam_id":76561198057491296,"connected_time":3305000000000,"state":"active","ping":65},{"user_id":269,"name":"fungus","steam_id":76561198155478710,"connected_time":461000000000,"state":"active","ping":43},{"user_id":261,"name":"474i89hv459vh46o","steam_id":76561198070668728,"connected_time":1043000000000,"state":"active","ping":53}]},{"server_id":19,"name":"Uncletopia | San Francisco | 3 | Stopwatch Beta","name_short":"sfo-3","host":"sfo-1.us.uncletopia.com","port":27035,"enabled":true,"region":"us-west","cc":"us","latitude":37.77397,"longitude":-122.4313,"reserved":0,"last_update":"0001-01-01T00:00:00Z","name_a2s":"Uncletopia | San Francisco | 3 | Stopwatch Beta","protocol":17,"map":"koth_highpass","folder":"tf","game":"Team Fortress","app_id":440,"player_count":0,"max_players":24,"Bots":0,"server_type":"Dedicated","server_os":"Linux","password":true,"vac":true,"version":"7932396","steam_id":85568392924742824,"keywords":["cp","nocrits","nodmgspread","uncletopia"],"game_id":440,"stv_port":27036,"stv_name":"Uncletopia | San Francisco | 3 | Stopwatch Beta | STV","players":null},{"server_id":20,"name":"Uncletopia | San Francisco | 4 | Community","name_short":"sfo-4","host":"sfo-1.us.uncletopia.com","port":27045,"enabled":true,"region":"us-west","cc":"us","latitude":37.77397,"longitude":-122.4313,"reserved":0,"last_update":"0001-01-01T00:00:00Z","name_a2s":"Uncletopia | San Francisco | 4 | Community","protocol":17,"map":"workshop/cp_croissant_final.ugc458840209","folder":"tf","game":"Team Fortress","app_id":440,"player_count":5,"max_players":24,"Bots":0,"server_type":"Dedicated","server_os":"Linux","password":true,"vac":true,"version":"7932396","steam_id":85568392924742826,"keywords":["cp","nocrits","nodmgspread","uncletopia"],"game_id":440,"stv_port":27046,"stv_name":"Uncletopia | San Francisco | 4 | Community | STV","players":[{"user_id":106,"name":"Head hurt (Yippie)","steam_id":76561198094469642,"connected_time":563000000000,"state":"active","ping":92},{"user_id":97,"name":"town.midi","steam_id":76561198059041027,"connected_time":2190000000000,"state":"active","ping":73},{"user_id":103,"name":"sand hanitizer","steam_id":76561198109625221,"connected_time":1711000000000,"state":"active","ping":102},{"user_id":25,"name":"BoX_hEaD101","steam_id":76561198200875467,"connected_time":7646000000000,"state":"active","ping":64},{"user_id":58,"name":"Mr. DeLarge","steam_id":76561198336820066,"connected_time":5666000000000,"state":"active","ping":73}]},{"server_id":141,"name":"Uncletopia | Sydney | 1 | All Maps","name_short":"syd-1","host":"syd-1.au.uncletopia.com","port":27015,"enabled":true,"region":"au","cc":"au","latitude":-33.865143,"longitude":151.2099,"reserved":0,"last_update":"0001-01-01T00:00:00Z","name_a2s":"Uncletopia | Sydney | 1 | All Maps","protocol":17,"map":"pl_barnblitz","folder":"tf","game":"Team Fortress","app_id":440,"player_count":24,"max_players":24,"Bots":0,"server_type":"Dedicated","server_os":"Linux","password":true,"vac":true,"version":"7932396","steam_id":85568392924470001,"keywords":["nocrits","nodmgspread","payload","uncletopia"],"game_id":440,"stv_port":27016,"stv_name":"Uncletopia | Sydney | 1 | All Maps | STV","players":[{"user_id":210,"name":"Jodelk√∂nig Franzl Lang","steam_id":76561198007667830,"connected_time":1371000000000,"state":"active","ping":58},{"user_id":200,"name":"saturation","steam_id":76561199457046392,"connected_time":2005000000000,"state":"active","ping":111},{"user_id":216,"name":"qpbd","steam_id":76561198073922951,"connected_time":563000000000,"state":"active","ping":44},{"user_id":215,"name":"pedal powered brain","steam_id":76561198000568803,"connected_time":582000000000,"state":"active","ping":50},{"user_id":218,"name":"soupy","steam_id":76561198073734936,"connected_time":555000000000,"state":"active","ping":87},{"user_id":159,"name":"The Throngler","steam_id":76561198119304370,"connected_time":4422000000000,"state":"active","ping":58},{"user_id":170,"name":"AmethystDragon10","steam_id":76561198412979983,"connected_time":4135000000000,"state":"active","ping":77},{"user_id":156,"name":"Chops","steam_id":76561198071178936,"connected_time":4812000000000,"state":"active","ping":97},{"user_id":165,"name":"Zort","steam_id":76561198056414289,"connected_time":4239000000000,"state":"active","ping":68},{"user_id":198,"name":"Pompadouraus","steam_id":76561198327530525,"connected_time":2173000000000,"state":"active","ping":79},{"user_id":221,"name":"Snowy","steam_id":76561198255720598,"connected_time":425000000000,"state":"active","ping":46},{"user_id":183,"name":"Warren","steam_id":76561198120350917,"connected_time":3289000000000,"state":"active","ping":35},{"user_id":203,"name":"Rhysand4rch","steam_id":76561199065212827,"connected_time":1733000000000,"state":"active","ping":57},{"user_id":197,"name":"Empol√©","steam_id":76561198363939040,"connected_time":2203000000000,"state":"active","ping":89},{"user_id":220,"name":"look lyke a fly or sumn","steam_id":76561198836003115,"connected_time":439000000000,"state":"active","ping":63},{"user_id":171,"name":"infernoraz","steam_id":76561198117582261,"connected_time":4133000000000,"state":"active","ping":45},{"user_id":204,"name":"Venom Spitz","steam_id":76561198163510505,"connected_time":1707000000000,"state":"active","ping":74},{"user_id":199,"name":"I'm using a controller","steam_id":76561198152210509,"connected_time":2156000000000,"state":"active","ping":61},{"user_id":209,"name":"dreamydoggy","steam_id":76561198448243169,"connected_time":1439000000000,"state":"active","ping":66},{"user_id":202,"name":"Second Lieutenant Pisser","steam_id":76561198866538028,"connected_time":1794000000000,"state":"active","ping":97},{"user_id":212,"name":"pissmaster","steam_id":76561197990537324,"connected_time":1320000000000,"state":"active","ping":104},{"user_id":207,"name":"BobTheHuminoid","steam_id":76561199241312725,"connected_time":1566000000000,"state":"active","ping":61},{"user_id":214,"name":"Plant","steam_id":76561199128944380,"connected_time":1233000000000,"state":"active","ping":61},{"user_id":128,"name":"sf/k","steam_id":76561198047758776,"connected_time":7915000000000,"state":"active","ping":58}]},{"server_id":123,"name":"Uncletopia | Sydney | 2 | All Maps","name_short":"syd-2","host":"syd-1.au.uncletopia.com","port":27025,"enabled":true,"region":"au","cc":"au","latitude":-33.865143,"longitude":151.2099,"reserved":0,"last_update":"0001-01-01T00:00:00Z","name_a2s":"Uncletopia | Sydney | 2 | All Maps","protocol":17,"map":"pl_barnblitz","folder":"tf","game":"Team Fortress","app_id":440,"player_count":1,"max_players":24,"Bots":0,"server_type":"Dedicated","server_os":"Linux","password":true,"vac":true,"version":"7932396","steam_id":85568392924470002,"keywords":["nocrits","nodmgspread","payload","uncletopia"],"game_id":440,"stv_port":27026,"stv_name":"Uncletopia | Sydney | 2 | All Maps | STV","players":[{"user_id":11,"name":"Zeppy","steam_id":76561198074766231,"connected_time":267000000000,"state":"active","ping":61}]},{"server_id":395,"name":"Uncletopia | Sydney | 3 | All Maps","name_short":"syd-3","host":"syd-1.au.uncletopia.com","port":27035,"enabled":true,"region":"au","cc":"au","latitude":-33.865143,"longitude":151.2099,"reserved":0,"last_update":"0001-01-01T00:00:00Z","name_a2s":"Uncletopia | Sydney | 3 | All Maps","protocol":17,"map":"koth_lakeside_final","folder":"tf","game":"Team Fortress","app_id":440,"player_count":1,"max_players":24,"Bots":0,"server_type":"Dedicated","server_os":"Linux","password":true,"vac":true,"version":"7932396","steam_id":85568392925194467,"keywords":["cp","nocrits","nodmgspread","uncletopia"],"game_id":440,"stv_port":27036,"stv_name":"Uncletopia | Sydney | 3 | All Maps | STV","players":[{"user_id":8,"name":"The :)","steam_id":76561198958059883,"connected_time":465000000000,"state":"active","ping":82}]},{"server_id":396,"name":"Uncletopia | Sydney | 4 | All Maps","name_short":"syd-4","host":"syd-1.au.uncletopia.com","port":27045,"enabled":true,"region":"au","cc":"au","latitude":-33.865143,"longitude":151.2099,"reserved":0,"last_update":"0001-01-01T00:00:00Z","name_a2s":"Uncletopia | Sydney | 4 | All Maps","protocol":17,"map":"koth_viaduct","folder":"tf","game":"Team Fortress","app_id":440,"player_count":14,"max_players":24,"Bots":0,"server_type":"Dedicated","server_os":"Linux","password":true,"vac":true,"version":"7932396","steam_id":85568392925397958,"keywords":["cp","nocrits","nodmgspread","uncletopia"],"game_id":440,"stv_port":27046,"stv_name":"Uncletopia | Sydney | 4 | All Maps | STV","players":[{"user_id":23,"name":"The_Green_Jelly","steam_id":76561198381061704,"connected_time":4124000000000,"state":"active","ping":91},{"user_id":49,"name":"tarzan","steam_id":76561199141724031,"connected_time":747000000000,"state":"active","ping":72},{"user_id":50,"name":"Caydens_world","steam_id":76561199217655212,"connected_time":623000000000,"state":"active","ping":90},{"user_id":52,"name":"Artificial.Ignorance","steam_id":76561198453090180,"connected_time":520000000000,"state":"active","ping":220},{"user_id":48,"name":"quite","steam_id":76561199085719869,"connected_time":845000000000,"state":"active","ping":68},{"user_id":51,"name":"mixyad3","steam_id":76561198046461767,"connected_time":532000000000,"state":"active","ping":57},{"user_id":53,"name":"Blu Scout","steam_id":76561199229466711,"connected_time":446000000000,"state":"active","ping":68},{"user_id":41,"name":"Denszeal","steam_id":76561198313718095,"connected_time":1919000000000,"state":"active","ping":75},{"user_id":54,"name":"RR H√∏se_ (t.tv/hose___)","steam_id":76561198987926475,"connected_time":414000000000,"state":"active","ping":83},{"user_id":55,"name":"henry \"gamer\" henderson","steam_id":76561198127414048,"connected_time":393000000000,"state":"active","ping":41},{"user_id":58,"name":"stub","steam_id":76561198237014504,"connected_time":145000000000,"state":"active","ping":59},{"user_id":43,"name":"Turret","steam_id":76561198054728921,"connected_time":1696000000000,"state":"active","ping":42},{"user_id":57,"name":"gazza","steam_id":76561198195761449,"connected_time":317000000000,"state":"active","ping":61},{"user_id":59,"name":"Frog Friend","steam_id":76561198054505772,"connected_time":125000000000,"state":"active","ping":63}]},{"server_id":58,"name":"Uncletopia | Sydney | 5 | Stopwatch Beta","name_short":"syd-5","host":"syd-1.au.uncletopia.com","port":27055,"enabled":true,"region":"au","cc":"au","latitude":-33.865143,"longitude":151.2099,"reserved":0,"last_update":"0001-01-01T00:00:00Z","name_a2s":"Uncletopia | Sydney | 5 | Stopwatch Beta","protocol":17,"map":"pl_pier","folder":"tf","game":"Team Fortress","app_id":440,"player_count":0,"max_players":24,"Bots":0,"server_type":"Dedicated","server_os":"Linux","password":true,"vac":true,"version":"7932396","steam_id":85568392925397959,"keywords":["nocrits","nodmgspread","payload","uncletopia"],"game_id":440,"stv_port":27056,"stv_name":"Uncletopia | Sydney | 5 | Stopwatch Beta | STV","players":null},{"server_id":59,"name":"Uncletopia | Sydney | 6 | Community","name_short":"syd-6","host":"syd-1.au.uncletopia.com","port":27065,"enabled":true,"region":"au","cc":"au","latitude":-33.865143,"longitude":151.2099,"reserved":0,"last_update":"0001-01-01T00:00:00Z","name_a2s":"Uncletopia | Sydney | 6 | Community","protocol":17,"map":"pl_frontier_final","folder":"tf","game":"Team Fortress","app_id":440,"player_count":0,"max_players":24,"Bots":0,"server_type":"Dedicated","server_os":"Linux","password":true,"vac":true,"version":"7932396","steam_id":85568392925397960,"keywords":["nocrits","nodmgspread","payload","uncletopia"],"game_id":440,"stv_port":27066,"stv_name":"Uncletopia | Sydney | 6 | Community | STV","players":null},{"server_id":49,"name":"Uncletopia | Warsaw | 1 | All Maps","name_short":"waw-1","host":"waw-1.pl.uncletopia.com","port":27015,"enabled":true,"region":"eu","cc":"pl","latitude":52.2297,"longitude":21.017532,"reserved":0,"last_update":"0001-01-01T00:00:00Z","name_a2s":"","protocol":0,"map":"","folder":"","game":"","app_id":0,"player_count":0,"max_players":0,"Bots":0,"server_type":"","server_os":"","password":false,"vac":false,"version":"","steam_id":0,"keywords":null,"game_id":0,"stv_port":0,"stv_name":"","players":null},{"server_id":50,"name":"Uncletopia | Warsaw | 2 | All Maps","name_short":"waw-2","host":"waw-1.pl.uncletopia.com","port":27025,"enabled":true,"region":"eu","cc":"pl","latitude":52.2297,"longitude":21.017532,"reserved":0,"last_update":"0001-01-01T00:00:00Z","name_a2s":"Uncletopia | Warsaw | 2 | All Maps","protocol":17,"map":"koth_highpass","folder":"tf","game":"Team Fortress","app_id":440,"player_count":0,"max_players":24,"Bots":0,"server_type":"Dedicated","server_os":"Linux","password":true,"vac":true,"version":"7932396","steam_id":85568392925397851,"keywords":["cp","nocrits","nodmgspread","uncletopia"],"game_id":440,"stv_port":27026,"stv_name":"Uncletopia | Warsaw | 2 | All Maps | STV","players":null},{"server_id":51,"name":"Uncletopia | Warsaw | 3 | All Maps","name_short":"waw-3","host":"waw-1.pl.uncletopia.com","port":27035,"enabled":true,"region":"eu","cc":"pl","latitude":52.2297,"longitude":21.017532,"reserved":0,"last_update":"0001-01-01T00:00:00Z","name_a2s":"Uncletopia | Warsaw | 3 | All Maps","protocol":17,"map":"pl_badwater","folder":"tf","game":"Team Fortress","app_id":440,"player_count":0,"max_players":24,"Bots":0,"server_type":"Dedicated","server_os":"Linux","password":true,"vac":true,"version":"7932396","steam_id":85568392925397852,"keywords":["nocrits","nodmgspread","payload","uncletopia"],"game_id":440,"stv_port":27036,"stv_name":"Uncletopia | Warsaw | 3 | All Maps | STV","players":null},{"server_id":52,"name":"Uncletopia | Warsaw | 4 | All Maps","name_short":"waw-4","host":"waw-1.pl.uncletopia.com","port":27045,"enabled":true,"region":"eu","cc":"pl","latitude":52.2297,"longitude":21.017532,"reserved":0,"last_update":"0001-01-01T00:00:00Z","name_a2s":"Uncletopia | Warsaw | 4 | All Maps","protocol":17,"map":"koth_cascade","folder":"tf","game":"Team Fortress","app_id":440,"player_count":0,"max_players":24,"Bots":0,"server_type":"Dedicated","server_os":"Linux","password":true,"vac":true,"version":"7932396","steam_id":85568392925397853,"keywords":["cp","nocrits","nodmgspread","uncletopia"],"game_id":440,"stv_port":27046,"stv_name":"Uncletopia | Warsaw | 4 | All Maps | STV","players":null},{"server_id":53,"name":"Uncletopia | Warsaw | 5 | Stopwatch Beta","name_short":"waw-5","host":"waw-1.pl.uncletopia.com","port":27055,"enabled":true,"region":"eu","cc":"pl","latitude":52.2297,"longitude":21.017532,"reserved":0,"last_update":"0001-01-01T00:00:00Z","name_a2s":"Uncletopia | Warsaw | 5 | Stopwatch Beta","protocol":17,"map":"cp_altitude","folder":"tf","game":"Team Fortress","app_id":440,"player_count":0,"max_players":24,"Bots":0,"server_type":"Dedicated","server_os":"Linux","password":true,"vac":true,"version":"7932396","steam_id":85568392925397854,"keywords":["cp","nocrits","nodmgspread","uncletopia"],"game_id":440,"stv_port":27056,"stv_name":"Uncletopia | Warsaw | 5 | Stopwatch Beta | STV","players":null},{"server_id":54,"name":"Uncletopia | Warsaw | 6 | Community","name_short":"waw-6","host":"waw-1.pl.uncletopia.com","port":27065,"enabled":true,"region":"eu","cc":"pl","latitude":52.2297,"longitude":21.017532,"reserved":0,"last_update":"0001-01-01T00:00:00Z","name_a2s":"Uncletopia | Warsaw | 6 | Community","protocol":17,"map":"pl_upward","folder":"tf","game":"Team Fortress","app_id":440,"player_count":0,"max_players":24,"Bots":0,"server_type":"Dedicated","server_os":"Linux","password":true,"vac":true,"version":"7932396","steam_id":85568392925397856,"keywords":["nocrits","nodmgspread","payload","uncletopia"],"game_id":440,"stv_port":27066,"stv_name":"Uncletopia | Warsaw | 6 | Community | STV","players":null}]}