{"status":true,"message":"","result":[{"server_id":9,"name":"Uncletopia | Atlanta | 1 | All Maps","name_short":"atl-1","host":"atl-1.us.uncletopia.com","port":27015,"enabled":true,"region":"us-east","cc":"us","latitude":33.753746,"longitude":-84.38633,"reserved":0,"last_update":"0001-01-01T00:00:00Z","name_a2s":"Uncletopia | Atlanta | 1 | All Maps","protocol":17,"map":"pl_pier","folder":"tf","game":"Team Fortress","app_id":440,"player_count":24,"max_players":24,"Bots":0,"server_type":"Dedicated","server_os":"Linux","password":true,"vac":true,"version":"7961495","steam_id":85568392924469982,"keywords":["nocrits","nodmgspread","payload","uncletopia"],"game_id":440,"stv_port":27016,"stv_name":"Uncletopia | Atlanta | 1 | All Maps | STV","players":[{"user_id":75,"name":"ATL2 | Hugecliff","steam_id":76561198044288534,"connected_time":1462000000000,"state":"active","ping":68},{"user_id":33,"name":"Killbasa","steam_id":76561198064868400,"connected_time":4910000000000,"state":"active","ping":71},{"user_id":48,"name":"chexo4","steam_id":76561198150532531,"connected_time":3584000000000,"state":"active","ping":51},{"user_id":68,"name":"e doctor","steam_id":76561198081851446,"connected_time":2197000000000,"state":"active","ping":65},{"user_id":97,"name":"frick sniper","steam_id":76561198079603532,"connected_time":57000000000,"state":"active","ping":70},{"user_id":86,"name":"Shame","steam_id":76561198100490994,"connected_time":1312000000000,"state":"active","ping":61},{"user_id":96,"name":"whatsthisbutton","steam_id":76561198292839428,"connected_time":342000000000,"state":"active","ping":64},{"user_id":63,"name":"KillSwitch","steam_id":76561198271909107,"connected_time":2432000000000,"state":"active","ping":112},{"user_id":70,"name":"iiamiizzyy","steam_id":76561198355030751,"connected_time":2098000000000,"state":"active","ping":70},{"user_id":64,"name":"Artixes","steam_id":76561198379574232,"connected_time":2278000000000,"state":"active","ping":42},{"user_id":76,"name":"NotoriousThicc","steam_id":76561198244650474,"connected_time":1449000000000,"state":"active","ping":91},{"user_id":94,"name":"freyja","steam_id":76561198249206656,"connected_time":758000000000,"state":"active","ping":88},{"user_id":57,"name":"Thotimus Begonimus","steam_id":76561197970275938,"connected_time":3263000000000,"state":"active","ping":47},{"user_id":69,"name":"Wessle T","steam_id":76561198295353875,"connected_time":2186000000000,"state":"active","ping":68},{"user_id":98,"name":"Aviyarn","steam_id":76561199074194652,"connected_time":56000000000,"state":"spawning","ping":67},{"user_id":90,"name":"Kuri","steam_id":76561199037050183,"connected_time":1023000000000,"state":"active","ping":89},{"user_id":91,"name":"willyum","steam_id":76561198168168261,"connected_time":1023000000000,"state":"active","ping":63},{"user_id":66,"name":"recycle","steam_id":76561198819562111,"connected_time":2257000000000,"state":"active","ping":75},{"user_id":83,"name":"lionel messi","steam_id":76561198138455706,"connected_time":1338000000000,"state":"active","ping":80},{"user_id":45,"name":"scrungle","steam_id":76561198041102272,"connected_time":4370000000000,"state":"active","ping":75},{"user_id":56,"name":"Ryoko","steam_id":76561198084725087,"connected_time":3506000000000,"state":"active","ping":80},{"user_id":52,"name":"Aku+","steam_id":76561198813782795,"connected_time":3549000000000,"state":"active","ping":167},{"user_id":84,"name":"Blade Racer","steam_id":76561198155896703,"connected_time":1337000000000,"state":"active","ping":71},{"user_id":79,"name":"Kick Down Door 6:00AM TUCK☃RO","steam_id":76561197976146738,"connected_time":1350000000000,"state":"active","ping":77}]},{"server_id":104,"name":"Uncletopia | Atlanta | 2 | All Maps","name_short":"atl-2","host":"atl-1.us.uncletopia.com","port":27025,"enabled":true,"region":"us-east","cc":"us","latitude":33.753746,"longitude":-84.38633,"reserved":0,"last_update":"0001-01-01T00:00:00Z","name_a2s":"Uncletopia | Atlanta | 2 | All Maps","protocol":17,"map":"pl_snowycoast","folder":"tf","game":"Team Fortress","app_id":440,"player_count":0,"max_players":24,"Bots":0,"server_type":"Dedicated","server_os":"Linux","password":true,"vac":true,"version":"7961495","steam_id":85568392924469983,"keywords":["nocrits","nodmgspread","payload","uncletopia"],"game_id":440,"stv_port":27026,"stv_name":"Uncletopia | Atlanta | 2 | All Maps | STV","players":null},{"server_id":400,"name":"Uncletopia | Atlanta | 3 | Stopwatch","name_short":"atl-3","host":"atl-1.us.uncletopia.com","port":27035,"enabled":true,"region":"us-east","cc":"us","latitude":33.753746,"longitude":-84.38633,"reserved":0,"last_update":"0001-01-01T00:00:00Z","name_a2s":"Uncletopia | Atlanta | 3 | Stopwatch","protocol":17,"map":"workshop/koth_clearcut_b15.ugc2107050255","folder":"tf","game":"Team Fortress","app_id":440,"player_count":0,"max_players":24,"Bots":0,"server_type":"Dedicated","server_os":"Linux","password":true,"vac":true,"version":"7961495","steam_id":85568392924515187,"keywords":["cp","nocrits","nodmgspread","uncletopia"],"game_id":440,"stv_port":27036,"stv_name":"Uncletopia | Atlanta | 3 | Stopwatch | STV","players":null},{"server_id":401,"name":"Uncletopia | Atlanta | 4 | Community","name_short":"atl-4","host":"atl-1.us.uncletopia.com","port":27045,"enabled":true,"region":"us-east","cc":"us","latitude":33.753746,"longitude":-84.38633,"reserved":0,"last_update":"0001-01-01T00:00:00Z","name_a2s":"Uncletopia | Atlanta | 4 | Community","protocol":17,"map":"workshop/koth_slaughter_rc1.ugc1712845210","folder":"tf","game":"Team Fortress","app_id":440,"player_count":0,"max_players":24,"Bots":0,"server_type":"Dedicated","server_os":"Linux","password":true,"vac":true,"version":"7961495","steam_id":85568392924515188,"keywords":["cp","nocrits","nodmgspread","uncletopia"],"game_id":440,"stv_port":27046,"stv_name":"Uncletopia | Atlanta | 4 | Community | STV","players":null},{"server_id":2,"name":"Uncletopia | Chicago | 1 | All Maps","name_short":"chi-1","host":"chi-1.us.uncletopia.com","port":27015,"enabled":true,"region":"us-central","cc":"us","latitude":41.881832,"longitude":-87.62318,"reserved":0,"last_update":"0001-01-01T00:00:00Z","name_a2s":"Uncletopia | Chicago | 1 | All Maps","protocol":17,"map":"koth_highpass","folder":"tf","game":"Team Fortress","app_id":440,"player_count":23,"max_players":24,"Bots":0,"server_type":"Dedicated","server_os":"Linux","password":true,"vac":true,"version":"7961495","steam_id":85568392924469984,"keywords":["cp","nocrits","nodmgspread","uncletopia"],"game_id":440,"stv_port":27016,"stv_name":"Uncletopia | Chicago | 1 | All Maps | STV","players":[{"user_id":201,"name":"BLOCKHEAD","steam_id":76561198808224331,"connected_time":6527000000000,"state":"active","ping":101},{"user_id":261,"name":"Kilphax","steam_id":76561197993814144,"connected_time":1743000000000,"state":"active","ping":54},{"user_id":284,"name":"UwU","steam_id":76561198971629959,"connected_time":61000000000,"state":"active","ping":134},{"user_id":285,"name":"2.5 Oz of Paprika","steam_id":76561198174647666,"connected_time":26000000000,"state":"active","ping":80},{"user_id":263,"name":"Jerumbo","steam_id":76561198920780345,"connected_time":1733000000000,"state":"active","ping":52},{"user_id":211,"name":"Flavortown Thanos","steam_id":76561198004853966,"connected_time":6274000000000,"state":"active","ping":88},{"user_id":273,"name":"Other Players, My One Weakness","steam_id":76561197989247588,"connected_time":687000000000,"state":"active","ping":71},{"user_id":268,"name":"TurtledoveJones","steam_id":76561198010200051,"connected_time":1174000000000,"state":"active","ping":46},{"user_id":235,"name":"ACKnowledge","steam_id":76561198036189303,"connected_time":3849000000000,"state":"active","ping":58},{"user_id":275,"name":"Shameless Kuma Player","steam_id":76561198097700500,"connected_time":376000000000,"state":"active","ping":81},{"user_id":281,"name":"Warhead","steam_id":76561198067746049,"connected_time":103000000000,"state":"active","ping":85},{"user_id":189,"name":"Lennu","steam_id":76561198060730154,"connected_time":8227000000000,"state":"active","ping":74},{"user_id":259,"name":"peachy","steam_id":76561198028721790,"connected_time":2068000000000,"state":"active","ping":88},{"user_id":270,"name":"DevoutPage14990","steam_id":76561198831347354,"connected_time":781000000000,"state":"active","ping":74},{"user_id":217,"name":"ThatGamingKiwi","steam_id":76561199170522237,"connected_time":5796000000000,"state":"active","ping":65},{"user_id":282,"name":"BeefClapper420","steam_id":76561198080892634,"connected_time":97000000000,"state":"active","ping":65},{"user_id":266,"name":"TehOneZoot","steam_id":76561198121944243,"connected_time":1504000000000,"state":"active","ping":75},{"user_id":283,"name":"Primordial pouch","steam_id":76561198077993687,"connected_time":94000000000,"state":"active","ping":75},{"user_id":210,"name":"Rode hard, put away wet","steam_id":76561198062764039,"connected_time":6335000000000,"state":"active","ping":60},{"user_id":269,"name":"beep","steam_id":76561199096448766,"connected_time":989000000000,"state":"active","ping":61},{"user_id":215,"name":"B.","steam_id":76561198040445907,"connected_time":6061000000000,"state":"active","ping":75},{"user_id":271,"name":"0bliv","steam_id":76561198122715915,"connected_time":725000000000,"state":"active","ping":192},{"user_id":272,"name":"floofy","steam_id":76561198389769098,"connected_time":725000000000,"state":"active","ping":78}]},{"server_id":106,"name":"Uncletopia | Chicago | 2 | All Maps","name_short":"chi-2","host":"chi-1.us.uncletopia.com","port":27025,"enabled":true,"region":"us-central","cc":"us","latitude":41.881832,"longitude":-87.62318,"reserved":0,"last_update":"0001-01-01T00:00:00Z","name_a2s":"Uncletopia | Chicago | 2 | All Maps","protocol":17,"map":"cp_dustbowl","folder":"tf","game":"Team Fortress","app_id":440,"player_count":0,"max_players":24,"Bots":0,"server_type":"Dedicated","server_os":"Linux","password":true,"vac":true,"version":"7961495","steam_id":85568392924469985,"keywords":["cp","nocrits","nodmgspread","uncletopia"],"game_id":440,"stv_port":27026,"stv_name":"Uncletopia | Chicago | 2 | All Maps | STV","players":null},{"server_id":402,"name":"Uncletopia | Chicago | 3 | All Maps","name_short":"chi-3","host":"chi-1.us.uncletopia.com","port":27035,"enabled":true,"region":"us-central","cc":"us","latitude":41.881832,"longitude":-87.62318,"reserved":0,"last_update":"0001-01-01T00:00:00Z","name_a2s":"Uncletopia | Chicago | 3 | All Maps","protocol":17,"map":"plr_pipeline","folder":"tf","game":"Team Fortress","app_id":440,"player_count":0,"max_players":24,"Bots":0,"server_type":"Dedicated","server_os":"Linux","password":true,"vac":true,"version":"7961495","steam_id":85568392924515191,"keywords":["nocrits","nodmgspread","payload","uncletopia"],"game_id":440,"stv_port":27036,"stv_name":"Uncletopia | Chicago | 3 | All Maps | STV","players":null},{"server_id":403,"name":"Uncletopia | Chicago | 4 | All Maps","name_short":"chi-4","host":"chi-1.us.uncletopia.com","port":27045,"enabled":true,"region":"us-central","cc":"us","latitude":41.881832,"longitude":-87.62318,"reserved":0,"last_update":"0001-01-01T00:00:00Z","name_a2s":"Uncletopia | Chicago | 4 | All Maps","protocol":17,"map":"pl_rumford_event","folder":"tf","game":"Team Fortress","app_id":440,"player_count":0,"max_players":24,"Bots":0,"server_type":"Dedicated","server_os":"Linux","password":true,"vac":true,"version":"7961495","steam_id":85568392924515193,"keywords":["nocrits","nodmgspread","payload","uncletopia"],"game_id":440,"stv_port":27046,"stv_name":"Uncletopia | Chicago | 4 | All Maps | STV","players":null},{"server_id":36,"name":"Uncletopia | Chicago | 5 | All Maps","name_short":"chi-5","host":"chi-2.us.uncletopia.com","port":27015,"enabled":true,"region":"us-central","cc":"us","latitude":41.881832,"longitude":-87.62318,"reserved":0,"last_update":"0001-01-01T00:00:00Z","name_a2s":"Uncletopia | Chicago | 5 | All Maps","protocol":17,"map":"pl_borneo","folder":"tf","game":"Team Fortress","app_id":440,"player_count":0,"max_players":24,"Bots":0,"server_type":"Dedicated","server_os":"Linux","password":true,"vac":true,"version":"7961495","steam_id":85568392924866362,"keywords":["nocrits","nodmgspread","payload","uncletopia"],"game_id":440,"stv_port":27016,"stv_name":"Uncletopia | Chicago | 5 | All Maps | STV","players":null},{"server_id":37,"name":"Uncletopia | Chicago | 6 | All Maps","name_short":"chi-6","host":"chi-2.us.uncletopia.com","port":27025,"enabled":true,"region":"us-central","cc":"us","latitude":41.881832,"longitude":-87.62318,"reserved":0,"last_update":"0001-01-01T00:00:00Z","name_a2s":"Uncletopia | Chicago | 6 | All Maps","protocol":17,"map":"pl_barnblitz","folder":"tf","game":"Team Fortress","app_id":440,"player_count":24,"max_players":24,"Bots":0,"server_type":"Dedicated","server_os":"Linux","password":true,"vac":true,"version":"7961495","steam_id":85568392924866363,"keywords":["nocrits","nodmgspread","payload","uncletopia"],"game_id":440,"stv_port":27026,"stv_name":"Uncletopia | Chicago | 6 | All Maps | STV","players":[{"user_id":144,"name":"nick","steam_id":76561198055079352,"connected_time":1761000000000,"state":"active","ping":75},{"user_id":172,"name":"Female Gamer","steam_id":76561199366482682,"connected_time":87000000000,"state":"active","ping":97},{"user_id":149,"name":"Cipher","steam_id":76561198098790276,"connected_time":1540000000000,"state":"active","ping":63},{"user_id":45,"name":"dantheman","steam_id":76561199486390813,"connected_time":7941000000000,"state":"active","ping":85},{"user_id":121,"name":"❤Ellie❤","steam_id":76561198071357098,"connected_time":3315000000000,"state":"active","ping":175},{"user_id":159,"name":"Squash","steam_id":76561198054254518,"connected_time":1170000000000,"state":"active","ping":63},{"user_id":173,"name":"tanktripper","steam_id":76561198101758127,"connected_time":26000000000,"state":"spawning","ping":89},{"user_id":157,"name":"you just got dyked on","steam_id":76561198018977723,"connected_time":1318000000000,"state":"active","ping":93},{"user_id":150,"name":"yomommasabitch","steam_id":76561198323217150,"connected_time":1534000000000,"state":"active","ping":61},{"user_id":165,"name":"stall","steam_id":76561199152861652,"connected_time":316000000000,"state":"active","ping":59},{"user_id":152,"name":"Gary Budussy","steam_id":76561197969793969,"connected_time":1525000000000,"state":"active","ping":56},{"user_id":145,"name":"RadicalToad","steam_id":76561198151116956,"connected_time":1611000000000,"state":"active","ping":87},{"user_id":77,"name":"everything is a lie (wake up)","steam_id":76561198144436132,"connected_time":6096000000000,"state":"active","ping":76},{"user_id":104,"name":"I'm Only 4 Inches","steam_id":76561198055542546,"connected_time":4159000000000,"state":"active","ping":41},{"user_id":147,"name":"Combo","steam_id":76561198067224160,"connected_time":1548000000000,"state":"active","ping":112},{"user_id":166,"name":"sruihn","steam_id":76561199088399231,"connected_time":306000000000,"state":"active","ping":46},{"user_id":163,"name":"dr peppah chug!","steam_id":76561198068835693,"connected_time":321000000000,"state":"active","ping":100},{"user_id":151,"name":"Shitty Pilot","steam_id":76561198042723469,"connected_time":1529000000000,"state":"active","ping":67},{"user_id":98,"name":"Acro","steam_id":76561198092451804,"connected_time":5416000000000,"state":"active","ping":84},{"user_id":167,"name":"SenpaiZetch","steam_id":76561199132227118,"connected_time":300000000000,"state":"active","ping":73},{"user_id":169,"name":"1920","steam_id":76561198111669774,"connected_time":283000000000,"state":"active","ping":57},{"user_id":171,"name":"Jump Taunter","steam_id":76561199151398882,"connected_time":116000000000,"state":"active","ping":91},{"user_id":122,"name":"tim allen fanboy","steam_id":76561198167910869,"connected_time":3312000000000,"state":"active","ping":49},{"user_id":133,"name":"It's FoolMoon","steam_id":76561198153344375,"connected_time":2848000000000,"state":"active","ping":72}]},{"server_id":38,"name":"Uncletopia | Chicago | 7 | Stopwatch","name_short":"chi-7","host":"chi-2.us.uncletopia.com","port":27035,"enabled":true,"region":"us-central","cc":"us","latitude":41.881832,"longitude":-87.62318,"reserved":0,"last_update":"0001-01-01T00:00:00Z","name_a2s":"Uncletopia | Chicago | 7 | Stopwatch","protocol":17,"map":"cp_snakewater_final1","folder":"tf","game":"Team Fortress","app_id":440,"player_count":0,"max_players":24,"Bots":0,"server_type":"Dedicated","server_os":"Linux","password":true,"vac":true,"version":"7961495","steam_id":85568392924866364,"keywords":["cp","nocrits","nodmgspread","uncletopia"],"game_id":440,"stv_port":27036,"stv_name":"Uncletopia | Chicago | 7 | Stopwatch | STV","players":null},{"server_id":39,"name":"Uncletopia | Chicago | 8 | Community","name_short":"chi-8","host":"chi-2.us.uncletopia.com","port":27045,"enabled":true,"region":"us-central","cc":"us","latitude":41.881832,"longitude":-87.62318,"reserved":0,"last_update":"0001-01-01T00:00:00Z","name_a2s":"Uncletopia | Chicago | 8 | Community","protocol":17,"map":"workshop/koth_slaughter_rc1.ugc1712845210","folder":"tf","game":"Team Fortress","app_id":440,"player_count":0,"max_players":24,"Bots":0,"server_type":"Dedicated","server_os":"Linux","password":true,"vac":true,"version":"7961495","steam_id":85568392924866365,"keywords":["cp","nocrits","nodmgspread","uncletopia"],"game_id":440,"stv_port":27046,"stv_name":"Uncletopia | Chicago | 8 | Community | STV","players":null},{"server_id":8,"name":"Uncletopia | Dallas | 1 | All Maps","name_short":"dal-1","host":"dal-1.us.uncletopia.com","port":27015,"enabled":true,"region":"us-central","cc":"us","latitude":32.779167,"longitude":-96.80889,"reserved":0,"last_update":"0001-01-01T00:00:00Z","name_a2s":"Uncletopia | Dallas | 1 | All Maps","protocol":17,"map":"pl_upward","folder":"tf","game":"Team Fortress","app_id":440,"player_count":24,"max_players":24,"Bots":0,"server_type":"Dedicated","server_os":"Linux","password":true,"vac":true,"version":"7961495","steam_id":85568392924469986,"keywords":["nocrits","nodmgspread","payload","uncletopia"],"game_id":440,"stv_port":27016,"stv_name":"Uncletopia | Dallas | 1 | All Maps | STV","players":[{"user_id":143,"name":"Just washed","steam_id":76561199030160932,"connected_time":19000000000,"state":"active","ping":76},{"user_id":73,"name":"YoyoMama","steam_id":76561198260113828,"connected_time":6101000000000,"state":"active","ping":86},{"user_id":96,"name":"gulch","steam_id":76561199227946025,"connected_time":4272000000000,"state":"active","ping":47},{"user_id":69,"name":"Nestor","steam_id":76561198070782619,"connected_time":6407000000000,"state":"active","ping":78},{"user_id":135,"name":"aisu","steam_id":76561198043768507,"connected_time":818000000000,"state":"active","ping":77},{"user_id":136,"name":"Skooot","steam_id":76561198800357246,"connected_time":744000000000,"state":"active","ping":82},{"user_id":98,"name":"beats (across the sea)","steam_id":76561199245717718,"connected_time":4254000000000,"state":"active","ping":74},{"user_id":125,"name":"BIG LION","steam_id":76561198091880358,"connected_time":1767000000000,"state":"active","ping":68},{"user_id":141,"name":"cloaker","steam_id":76561199453618642,"connected_time":40000000000,"state":"active","ping":84},{"user_id":133,"name":"RudimentaryPeni","steam_id":76561198012909414,"connected_time":1040000000000,"state":"active","ping":78},{"user_id":114,"name":"sandwich artist","steam_id":76561198070635731,"connected_time":2833000000000,"state":"active","ping":61},{"user_id":130,"name":"Decapitation Station","steam_id":76561198201796098,"connected_time":1239000000000,"state":"active","ping":76},{"user_id":91,"name":"Danitom","steam_id":76561198000717813,"connected_time":4658000000000,"state":"active","ping":93},{"user_id":144,"name":"zinnk","steam_id":76561198092081825,"connected_time":17000000000,"state":"active","ping":82},{"user_id":128,"name":"POLICE","steam_id":76561198120757569,"connected_time":1669000000000,"state":"active","ping":76},{"user_id":116,"name":"coda","steam_id":76561198092052685,"connected_time":2824000000000,"state":"active","ping":79},{"user_id":100,"name":"Ketsu","steam_id":76561198208215161,"connected_time":4232000000000,"state":"active","ping":61},{"user_id":110,"name":"Just a Festive TimeButt","steam_id":76561198074261742,"connected_time":3183000000000,"state":"active","ping":90},{"user_id":127,"name":"KaosInfinite","steam_id":76561198009126350,"connected_time":1754000000000,"state":"active","ping":67},{"user_id":139,"name":"RamenNoodles","steam_id":76561198325805701,"connected_time":68000000000,"state":"active","ping":70},{"user_id":134,"name":"Dr. Han","steam_id":76561198811130843,"connected_time":1009000000000,"state":"active","ping":93},{"user_id":117,"name":"Blaze","steam_id":76561198043797702,"connected_time":2818000000000,"state":"active","ping":83},{"user_id":88,"name":"rad killl raccoon","steam_id":76561198980975595,"connected_time":5219000000000,"state":"active","ping":104},{"user_id":142,"name":"BananaMangoFestival2013","steam_id":76561198218558897,"connected_time":39000000000,"state":"active","ping":225}]},{"server_id":108,"name":"Uncletopia | Dallas | 2 | All Maps","name_short":"dal-2","host":"dal-1.us.uncletopia.com","port":27025,"enabled":true,"region":"us-central","cc":"us","latitude":32.779167,"longitude":-96.80889,"reserved":0,"last_update":"0001-01-01T00:00:00Z","name_a2s":"Uncletopia | Dallas | 2 | All Maps","protocol":17,"map":"cp_mountainlab","folder":"tf","game":"Team Fortress","app_id":440,"player_count":0,"max_players":24,"Bots":0,"server_type":"Dedicated","server_os":"Linux","password":true,"vac":true,"version":"7961495","steam_id":85568392924469988,"keywords":["cp","nocrits","nodmgspread","uncletopia"],"game_id":440,"stv_port":27026,"stv_name":"Uncletopia | Dallas | 2 | All Maps | STV","players":null},{"server_id":404,"name":"Uncletopia | Dallas | 3 | All Maps","name_short":"dal-3","host":"dal-1.us.uncletopia.com","port":27035,"enabled":true,"region":"us-central","cc":"us","latitude":32.779167,"longitude":-96.80889,"reserved":0,"last_update":"0001-01-01T00:00:00Z","name_a2s":"Uncletopia | Dallas | 3 | All Maps","protocol":17,"map":"cp_coldfront","folder":"tf","game":"Team Fortress","app_id":440,"player_count":0,"max_players":24,"Bots":0,"server_type":"Dedicated","server_os":"Linux","password":true,"vac":true,"version":"7961495","steam_id":85568392924515219,"keywords":["cp","nocrits","nodmgspread","uncletopia"],"game_id":440,"stv_port":27036,"stv_name":"Uncletopia | Dallas | 3 | All Maps | STV","players":null},{"server_id":405,"name":"Uncletopia | Dallas | 4 | Community","name_short":"dal-4","host":"dal-1.us.uncletopia.com","port":27045,"enabled":true,"region":"us-central","cc":"us","latitude":32.779167,"longitude":-96.80889,"reserved":0,"last_update":"0001-01-01T00:00:00Z","name_a2s":"Uncletopia | Dallas | 4 | Community","protocol":17,"map":"workshop/koth_synthetic_rc6a.ugc1549817316","folder":"tf","game":"Team Fortress","app_id":440,"player_count":3,"max_players":24,"Bots":0,"server_type":"Dedicated","server_os":"Linux","password":true,"vac":true,"version":"7961495","steam_id":85568392924515220,"keywords":["cp","nocrits","nodmgspread","uncletopia"],"game_id":440,"stv_port":27046,"stv_name":"Uncletopia | Dallas | 4 | Community | STV","players":[{"user_id":3,"name":"Orange","steam_id":76561198169914315,"connected_time":635000000000,"state":"active","ping":72},{"user_id":4,"name":"drillstevejr","steam_id":76561198905993824,"connected_time":526000000000,"state":"active","ping":98},{"user_id":5,"name":"Crλf227","steam_id":76561198196211121,"connected_time":134000000000,"state":"active","ping":57}]},{"server_id":5,"name":"Uncletopia | Frankfurt | 1 | All Maps","name_short":"frk-1","host":"frk-1.de.uncletopia.com","port":27015,"enabled":true,"region":"eu","cc":"de","latitude":50.110924,"longitude":8.682127,"reserved":0,"last_update":"0001-01-01T00:00:00Z","name_a2s":"Uncletopia | Frankfurt | 1 | All Maps","protocol":17,"map":"cp_egypt_final","folder":"tf","game":"Team Fortress","app_id":440,"player_count":23,"max_players":24,"Bots":0,"server_type":"Dedicated","server_os":"Linux","password":true,"vac":true,"version":"7961495","steam_id":85568392924469989,"keywords":["cp","nocrits","nodmgspread","uncletopia"],"game_id":440,"stv_port":27016,"stv_name":"Uncletopia | Frankfurt | 1 | All Maps | STV","players":[{"user_id":314,"name":"Fishlover30","steam_id":76561199197436568,"connected_time":471000000000,"state":"active","ping":63},{"user_id":279,"name":"MR BUBBLES","steam_id":76561198019005259,"connected_time":3387000000000,"state":"active","ping":83},{"user_id":319,"name":"A literal heavy","steam_id":76561199219233587,"connected_time":74000000000,"state":"active","ping":81},{"user_id":311,"name":"skown","steam_id":76561198977269281,"connected_time":760000000000,"state":"active","ping":61},{"user_id":294,"name":"an idiot","steam_id":76561198172542535,"connected_time":1817000000000,"state":"active","ping":76},{"user_id":307,"name":"Laru","steam_id":76561197998838438,"connected_time":1298000000000,"state":"active","ping":76},{"user_id":316,"name":"Pfaff Ferenc","steam_id":76561199502583278,"connected_time":245000000000,"state":"active","ping":60},{"user_id":274,"name":"Hussain_144","steam_id":76561198346029208,"connected_time":3758000000000,"state":"active","ping":168},{"user_id":317,"name":"bAdmon","steam_id":76561197961785793,"connected_time":212000000000,"state":"active","ping":59},{"user_id":268,"name":"anders McFlanders","steam_id":76561198022811995,"connected_time":4066000000000,"state":"active","ping":50},{"user_id":320,"name":"photonbinding","steam_id":76561198250996330,"connected_time":31000000000,"state":"spawning","ping":166},{"user_id":310,"name":"bryophyta","steam_id":76561197968945306,"connected_time":1035000000000,"state":"active","ping":74},{"user_id":297,"name":"snsmac","steam_id":76561198082821185,"connected_time":1635000000000,"state":"active","ping":35},{"user_id":247,"name":"✚Чыж✚","steam_id":76561198273074492,"connected_time":4748000000000,"state":"active","ping":102},{"user_id":293,"name":"Igor_","steam_id":76561198930843769,"connected_time":1856000000000,"state":"active","ping":83},{"user_id":298,"name":"soupalognionycrouton","steam_id":76561199021878433,"connected_time":1634000000000,"state":"active","ping":73},{"user_id":306,"name":"Kapi^^","steam_id":76561198218467540,"connected_time":1315000000000,"state":"active","ping":64},{"user_id":253,"name":"Yonio","steam_id":76561198408428132,"connected_time":4683000000000,"state":"active","ping":73},{"user_id":318,"name":"Ádóóó\u003c3","steam_id":76561198186810393,"connected_time":145000000000,"state":"active","ping":77},{"user_id":304,"name":"Irrelevant \u003c---","steam_id":76561199195727551,"connected_time":1448000000000,"state":"active","ping":54},{"user_id":236,"name":"radu","steam_id":76561198067346802,"connected_time":5197000000000,"state":"active","ping":75},{"user_id":291,"name":"Purple Soup :D","steam_id":76561198985100366,"connected_time":2207000000000,"state":"active","ping":86},{"user_id":237,"name":"sokige","steam_id":76561198167112371,"connected_time":5027000000000,"state":"active","ping":97}]},{"server_id":110,"name":"Uncletopia | Frankfurt | 2 | All Maps","name_short":"frk-2","host":"frk-1.de.uncletopia.com","port":27025,"enabled":true,"region":"eu","cc":"de","latitude":50.110924,"longitude":8.682127,"reserved":0,"last_update":"0001-01-01T00:00:00Z","name_a2s":"Uncletopia | Frankfurt | 2 | All Maps","protocol":17,"map":"pl_barnblitz","folder":"tf","game":"Team Fortress","app_id":440,"player_count":23,"max_players":24,"Bots":0,"server_type":"Dedicated","server_os":"Linux","password":true,"vac":true,"version":"7961495","steam_id":85568392924469990,"keywords":["nocrits","nodmgspread","payload","uncletopia"],"game_id":440,"stv_port":27026,"stv_name":"Uncletopia | Frankfurt | 2 | All Maps | STV","players":[{"user_id":300,"name":"Fortnite Balls HD","steam_id":76561198133341026,"connected_time":485000000000,"state":"active","ping":82},{"user_id":250,"name":"Chaos_Sherzan","steam_id":76561198086749551,"connected_time":4882000000000,"state":"active","ping":80},{"user_id":265,"name":"Nuuskis","steam_id":76561198084042012,"connected_time":2938000000000,"state":"active","ping":90},{"user_id":257,"name":"Doctor Mobius","steam_id":76561197971281806,"connected_time":3897000000000,"state":"active","ping":49},{"user_id":308,"name":"Suo.Txt","steam_id":76561199247349744,"connected_time":116000000000,"state":"active","ping":77},{"user_id":288,"name":"Glada Snickaren","steam_id":76561198019037458,"connected_time":946000000000,"state":"active","ping":56},{"user_id":291,"name":"Carrot Arc","steam_id":76561198164957006,"connected_time":902000000000,"state":"active","ping":75},{"user_id":292,"name":"THE SPIRIT","steam_id":76561198170744597,"connected_time":894000000000,"state":"active","ping":61},{"user_id":282,"name":"heddwch","steam_id":76561198076097983,"connected_time":1823000000000,"state":"active","ping":79},{"user_id":267,"name":"Combat Wombat","steam_id":76561197994720068,"connected_time":2839000000000,"state":"active","ping":63},{"user_id":309,"name":"COFFEE","steam_id":76561198869355986,"connected_time":9000000000,"state":"spawning","ping":60},{"user_id":285,"name":"TotallyRealRunarTvålfager™","steam_id":76561198018228013,"connected_time":1526000000000,"state":"active","ping":57},{"user_id":297,"name":"kgf","steam_id":76561198181442259,"connected_time":549000000000,"state":"active","ping":46},{"user_id":280,"name":"Doriian","steam_id":76561198071438810,"connected_time":2193000000000,"state":"active","ping":75},{"user_id":220,"name":"else1","steam_id":76561197996558319,"connected_time":7007000000000,"state":"active","ping":77},{"user_id":270,"name":"fernandobmwm355555","steam_id":76561198086609447,"connected_time":2821000000000,"state":"active","ping":48},{"user_id":293,"name":"Pixar Cars on the PS2","steam_id":76561198079386295,"connected_time":874000000000,"state":"active","ping":55},{"user_id":264,"name":"CrackleHead","steam_id":76561198158835908,"connected_time":3197000000000,"state":"active","ping":104},{"user_id":299,"name":"mc.balthabuddy","steam_id":76561198106225372,"connected_time":517000000000,"state":"active","ping":49},{"user_id":294,"name":"please do not the cat","steam_id":76561198089003514,"connected_time":865000000000,"state":"active","ping":45},{"user_id":307,"name":"『Dorarhim』","steam_id":76561198220232352,"connected_time":138000000000,"state":"active","ping":60},{"user_id":277,"name":"Markein","steam_id":76561198360754280,"connected_time":2322000000000,"state":"active","ping":45},{"user_id":253,"name":"Uganda Warrior","steam_id":76561198120502313,"connected_time":4548000000000,"state":"active","ping":58}]},{"server_id":308,"name":"Uncletopia | Frankfurt | 3 | All Maps","name_short":"frk-3","host":"frk-1.de.uncletopia.com","port":27035,"enabled":true,"region":"eu","cc":"de","latitude":50.110924,"longitude":8.682127,"reserved":0,"last_update":"0001-01-01T00:00:00Z","name_a2s":"Uncletopia | Frankfurt | 3 | All Maps","protocol":17,"map":"cp_process_final","folder":"tf","game":"Team Fortress","app_id":440,"player_count":7,"max_players":24,"Bots":0,"server_type":"Dedicated","server_os":"Linux","password":true,"vac":true,"version":"7961495","steam_id":85568392924504274,"keywords":["cp","nocrits","nodmgspread","uncletopia"],"game_id":440,"stv_port":27036,"stv_name":"Uncletopia | Frankfurt | 3 | All Maps | STV","players":[{"user_id":22,"name":"WIZARD","steam_id":76561198199570742,"connected_time":1298000000000,"state":"active","ping":95},{"user_id":20,"name":"GüçlüAYraNsAĞ","steam_id":76561199184988396,"connected_time":1384000000000,"state":"active","ping":93},{"user_id":23,"name":"Draugluin","steam_id":76561199219965276,"connected_time":1175000000000,"state":"active","ping":54},{"user_id":24,"name":"vixel","steam_id":76561198450168311,"connected_time":615000000000,"state":"active","ping":86},{"user_id":25,"name":"Mango_Archimedes","steam_id":76561199096635508,"connected_time":603000000000,"state":"active","ping":49},{"user_id":26,"name":"джегеми хэпкингс","steam_id":76561198131531394,"connected_time":251000000000,"state":"active","ping":80},{"user_id":27,"name":"^1MARAMA PALEX","steam_id":76561198311372563,"connected_time":44000000000,"state":"active","ping":61}]},{"server_id":309,"name":"Uncletopia | Frankfurt | 4 | All Maps","name_short":"frk-4","host":"frk-1.de.uncletopia.com","port":27045,"enabled":true,"region":"eu","cc":"de","latitude":50.110924,"longitude":8.682127,"reserved":0,"last_update":"0001-01-01T00:00:00Z","name_a2s":"Uncletopia | Frankfurt | 4 | All Maps","protocol":17,"map":"koth_harvest_final","folder":"tf","game":"Team Fortress","app_id":440,"player_count":24,"max_players":24,"Bots":0,"server_type":"Dedicated","server_os":"Linux","password":true,"vac":true,"version":"7961495","steam_id":85568392924504275,"keywords":["cp","nocrits","nodmgspread","uncletopia"],"game_id":440,"stv_port":27046,"stv_name":"Uncletopia | Frankfurt | 4 | All Maps | STV","players":[{"user_id":29,"name":"Pepe the Frog","steam_id":76561199500477314,"connected_time":5022000000000,"state":"active","ping":115},{"user_id":46,"name":"Akagi","steam_id":76561198045340032,"connected_time":3586000000000,"state":"active","ping":59},{"user_id":126,"name":"[EXDr]Specky","steam_id":76561198302518477,"connected_time":522000000000,"state":"active","ping":59},{"user_id":117,"name":"Lauchboiz | Bannic","steam_id":76561198060362129,"connected_time":1098000000000,"state":"active","ping":45},{"user_id":124,"name":"smart birdie","steam_id":76561199055185732,"connected_time":585000000000,"state":"active","ping":83},{"user_id":122,"name":"Günther","steam_id":76561198333417038,"connected_time":715000000000,"state":"active","ping":81},{"user_id":112,"name":"grr","steam_id":76561199429407130,"connected_time":1334000000000,"state":"active","ping":78},{"user_id":90,"name":"DocTwoEight","steam_id":76561198153488940,"connected_time":2306000000000,"state":"active","ping":61},{"user_id":44,"name":"Cem","steam_id":76561198138221277,"connected_time":3630000000000,"state":"active","ping":122},{"user_id":103,"name":"Zerfesh","steam_id":76561198117534358,"connected_time":1911000000000,"state":"active","ping":82},{"user_id":120,"name":"Gregor Samsa","steam_id":76561198973069177,"connected_time":783000000000,"state":"active","ping":49},{"user_id":104,"name":"Dardemai","steam_id":76561199231958959,"connected_time":1874000000000,"state":"active","ping":89},{"user_id":133,"name":"Carry Krypl","steam_id":76561198136938121,"connected_time":316000000000,"state":"active","ping":49},{"user_id":116,"name":"My Extraordinary Left Nut","steam_id":76561198338129578,"connected_time":1135000000000,"state":"active","ping":56},{"user_id":125,"name":"Ptahotep","steam_id":76561198008708645,"connected_time":571000000000,"state":"active","ping":48},{"user_id":49,"name":"Alpha","steam_id":76561198137640473,"connected_time":3552000000000,"state":"active","ping":83},{"user_id":114,"name":"Sn1Ch","steam_id":76561198073076943,"connected_time":1241000000000,"state":"active","ping":77},{"user_id":127,"name":"orange","steam_id":76561198153181940,"connected_time":496000000000,"state":"active","ping":71},{"user_id":129,"name":"krunabomber","steam_id":76561198012946164,"connected_time":455000000000,"state":"active","ping":74},{"user_id":62,"name":"soup","steam_id":76561198386933065,"connected_time":3270000000000,"state":"active","ping":65},{"user_id":121,"name":"smk","steam_id":76561198068027379,"connected_time":772000000000,"state":"active","ping":78},{"user_id":110,"name":"NonProphet","steam_id":76561198280149820,"connected_time":1680000000000,"state":"active","ping":60},{"user_id":92,"name":"Mr_Touchyou","steam_id":76561198452524697,"connected_time":2295000000000,"state":"active","ping":104},{"user_id":132,"name":"h","steam_id":76561199117830682,"connected_time":343000000000,"state":"active","ping":98}]},{"server_id":310,"name":"Uncletopia | Frankfurt | 5 | All Maps","name_short":"frk-5","host":"frk-1.de.uncletopia.com","port":27055,"enabled":true,"region":"eu","cc":"de","latitude":50.110924,"longitude":8.682127,"reserved":0,"last_update":"0001-01-01T00:00:00Z","name_a2s":"Uncletopia | Frankfurt | 5 | All Maps","protocol":17,"map":"koth_highpass","folder":"tf","game":"Team Fortress","app_id":440,"player_count":0,"max_players":24,"Bots":0,"server_type":"Dedicated","server_os":"Linux","password":true,"vac":true,"version":"7961495","steam_id":85568392924504277,"keywords":["cp","nocrits","nodmgspread","uncletopia"],"game_id":440,"stv_port":27056,"stv_name":"Uncletopia | Frankfurt | 5 | All Maps | STV","players":null},{"server_id":311,"name":"Uncletopia | Frankfurt | 6 | All Maps","name_short":"frk-6","host":"frk-1.de.uncletopia.com","port":27065,"enabled":true,"region":"eu","cc":"de","latitude":50.110924,"longitude":8.682127,"reserved":0,"last_update":"0001-01-01T00:00:00Z","name_a2s":"Uncletopia | Frankfurt | 6 | All Maps","protocol":17,"map":"pl_rumford_event","folder":"tf","game":"Team Fortress","app_id":440,"player_count":24,"max_players":24,"Bots":0,"server_type":"Dedicated","server_os":"Linux","password":true,"vac":true,"version":"7961495","steam_id":85568392924504278,"keywords":["nocrits","nodmgspread","payload","uncletopia"],"game_id":440,"stv_port":27066,"stv_name":"Uncletopia | Frankfurt | 6 | All Maps | STV","players":[{"user_id":326,"name":"Feet Bandit","steam_id":76561199152252878,"connected_time":195000000000,"state":"active","ping":193},{"user_id":314,"name":"Tom Wambsgans","steam_id":76561198148332956,"connected_time":723000000000,"state":"active","ping":128},{"user_id":316,"name":"deflox","steam_id":76561198087450635,"connected_time":705000000000,"state":"active","ping":44},{"user_id":255,"name":"sticks","steam_id":76561198127099299,"connected_time":4367000000000,"state":"active","ping":54},{"user_id":328,"name":"Idiot","steam_id":76561199256424165,"connected_time":59000000000,"state":"spawning","ping":74},{"user_id":325,"name":"Speedyjoestar","steam_id":76561198907130963,"connected_time":218000000000,"state":"active","ping":61},{"user_id":317,"name":"big bug buttz","steam_id":76561198115106008,"connected_time":694000000000,"state":"active","ping":63},{"user_id":318,"name":"Supercoxylac","steam_id":76561198376300138,"connected_time":674000000000,"state":"active","ping":56},{"user_id":283,"name":"Dr. Sus","steam_id":76561198344435644,"connected_time":2736000000000,"state":"active","ping":60},{"user_id":323,"name":"Medigun beam addict","steam_id":76561198256328990,"connected_time":551000000000,"state":"active","ping":89},{"user_id":312,"name":"somenameidc","steam_id":76561198819545774,"connected_time":848000000000,"state":"active","ping":49},{"user_id":319,"name":"Mr. Hunts","steam_id":76561197981910397,"connected_time":666000000000,"state":"active","ping":72},{"user_id":300,"name":"Frenzy","steam_id":76561198005710500,"connected_time":2064000000000,"state":"active","ping":54},{"user_id":311,"name":"Name","steam_id":76561197990757157,"connected_time":1054000000000,"state":"active","ping":75},{"user_id":286,"name":"CreepyPanda","steam_id":76561198316611815,"connected_time":2687000000000,"state":"active","ping":56},{"user_id":290,"name":"potar","steam_id":76561198017677744,"connected_time":2562000000000,"state":"active","ping":93},{"user_id":310,"name":"Coac","steam_id":76561198085265740,"connected_time":1235000000000,"state":"active","ping":73},{"user_id":291,"name":"Jethro Tull","steam_id":76561199034041634,"connected_time":2547000000000,"state":"active","ping":59},{"user_id":307,"name":"goofster","steam_id":76561199052275857,"connected_time":1550000000000,"state":"active","ping":105},{"user_id":320,"name":"floppy muppet","steam_id":76561198003076261,"connected_time":641000000000,"state":"active","ping":135},{"user_id":263,"name":"drogoz","steam_id":76561198078538472,"connected_time":3975000000000,"state":"active","ping":59},{"user_id":278,"name":"Chinpo to bōru no gōmon","steam_id":76561199214163032,"connected_time":2939000000000,"state":"active","ping":87},{"user_id":304,"name":"Siegmeyer","steam_id":76561198328543549,"connected_time":1845000000000,"state":"active","ping":85},{"user_id":324,"name":"Rembo","steam_id":76561198406769841,"connected_time":471000000000,"state":"active","ping":99}]},{"server_id":23,"name":"Uncletopia | Frankfurt | 7 | Stopwatch","name_short":"frk-7","host":"frk-1.de.uncletopia.com","port":27075,"enabled":true,"region":"eu","cc":"de","latitude":50.110924,"longitude":8.682127,"reserved":0,"last_update":"0001-01-01T00:00:00Z","name_a2s":"Uncletopia | Frankfurt | 7 | Stopwatch","protocol":17,"map":"workshop/koth_product_final.ugc454272353","folder":"tf","game":"Team Fortress","app_id":440,"player_count":24,"max_players":24,"Bots":0,"server_type":"Dedicated","server_os":"Linux","password":true,"vac":true,"version":"7961495","steam_id":85568392924742827,"keywords":["cp","nocrits","nodmgspread","uncletopia"],"game_id":440,"stv_port":27076,"stv_name":"Uncletopia | Frankfurt | 7 | Stopwatch | STV","players":[{"user_id":219,"name":"Waffy","steam_id":76561199045810038,"connected_time":1644000000000,"state":"active","ping":53},{"user_id":209,"name":"Štěpán","steam_id":76561198275742101,"connected_time":2091000000000,"state":"active","ping":53},{"user_id":227,"name":"PHANTOM","steam_id":76561199047116669,"connected_time":768000000000,"state":"active","ping":99},{"user_id":148,"name":"Finnish Farmer","steam_id":76561198205366043,"connected_time":4601000000000,"state":"active","ping":70},{"user_id":199,"name":"Rodia","steam_id":76561197968293161,"connected_time":2431000000000,"state":"active","ping":65},{"user_id":243,"name":"Michael","steam_id":76561198003146906,"connected_time":155000000000,"state":"active","ping":55},{"user_id":217,"name":"Dicartal","steam_id":76561198295793592,"connected_time":1851000000000,"state":"active","ping":130},{"user_id":244,"name":"CAR DOOR","steam_id":76561198055283295,"connected_time":59000000000,"state":"active","ping":41},{"user_id":236,"name":"St1nkyTrickst3r","steam_id":76561198844775977,"connected_time":352000000000,"state":"active","ping":74},{"user_id":238,"name":"Pudlich","steam_id":76561198300089671,"connected_time":290000000000,"state":"active","ping":60},{"user_id":229,"name":"tete","steam_id":76561198045222850,"connected_time":616000000000,"state":"active","ping":71},{"user_id":179,"name":"P3rsErkki","steam_id":76561198063093495,"connected_time":3401000000000,"state":"active","ping":59},{"user_id":230,"name":"xavier","steam_id":76561198076494034,"connected_time":598000000000,"state":"active","ping":54},{"user_id":239,"name":"full of nefarious acts","steam_id":76561198079524152,"connected_time":259000000000,"state":"active","ping":45},{"user_id":212,"name":"Average meme enjoyer","steam_id":76561199087566663,"connected_time":2031000000000,"state":"active","ping":77},{"user_id":182,"name":"Bajas","steam_id":76561198179339326,"connected_time":3309000000000,"state":"active","ping":76},{"user_id":240,"name":"combine","steam_id":76561198007909007,"connected_time":241000000000,"state":"active","ping":45},{"user_id":211,"name":"Andy","steam_id":76561198046918834,"connected_time":2075000000000,"state":"active","ping":53},{"user_id":223,"name":"tola","steam_id":76561199504168033,"connected_time":972000000000,"state":"active","ping":63},{"user_id":205,"name":"ghenios","steam_id":76561198030011207,"connected_time":2290000000000,"state":"active","ping":85},{"user_id":228,"name":"Kaisbald","steam_id":76561198151929487,"connected_time":668000000000,"state":"active","ping":93},{"user_id":235,"name":"JENNY","steam_id":76561198072302273,"connected_time":527000000000,"state":"active","ping":50},{"user_id":226,"name":"akakez","steam_id":76561198095432821,"connected_time":850000000000,"state":"active","ping":117},{"user_id":242,"name":"gus","steam_id":76561198876303958,"connected_time":198000000000,"state":"active","ping":119}]},{"server_id":24,"name":"Uncletopia | Frankfurt | 8 | Community","name_short":"frk-8","host":"frk-1.de.uncletopia.com","port":27085,"enabled":true,"region":"eu","cc":"de","latitude":50.110924,"longitude":8.682127,"reserved":0,"last_update":"0001-01-01T00:00:00Z","name_a2s":"Uncletopia | Frankfurt | 8 | Community","protocol":17,"map":"workshop/pl_boundary_final1.ugc456799153","folder":"tf","game":"Team Fortress","app_id":440,"player_count":0,"max_players":24,"Bots":0,"server_type":"Dedicated","server_os":"Linux","password":true,"vac":true,"version":"7961495","steam_id":85568392924742828,"keywords":["nocrits","nodmgspread","payload","uncletopia"],"game_id":440,"stv_port":27086,"stv_name":"Uncletopia | Frankfurt | 8 | Community | STV","players":null},{"server_id":202,"name":"Uncletopia | Hong Kong | 1 | All Maps","name_short":"hgk-1","host":"hgk-1.hk.uncletopia.com","port":27015,"enabled":true,"region":"asia","cc":"hk","latitude":22.302711,"longitude":114.177216,"reserved":0,"last_update":"0001-01-01T00:00:00Z","name_a2s":"Uncletopia | Hong Kong | 1 | All Maps","protocol":17,"map":"pl_borneo","folder":"tf","game":"Team Fortress","app_id":440,"player_count":0,"max_players":24,"Bots":0,"server_type":"Dedicated","server_os":"Linux","password":true,"vac":true,"version":"7961495","steam_id":85568392924494504,"keywords":["nocrits","nodmgspread","payload","uncletopia"],"game_id":440,"stv_port":27016,"stv_name":"Uncletopia | Hong Kong | 1 | All Maps | STV","players":null},{"server_id":1,"name":"Uncletopia | Los Angeles | 1 | All Maps","name_short":"lax-1","host":"lax-1.us.uncletopia.com","port":27015,"enabled":true,"region":"us-west","cc":"us","latitude":33.94279,"longitude":-118.41004,"reserved":0,"last_update":"0001-01-01T00:00:00Z","name_a2s":"Uncletopia | Los Angeles | 1 | All Maps","protocol":17,"map":"pl_upward","folder":"tf","game":"Team Fortress","app_id":440,"player_count":4,"max_players":24,"Bots":0,"server_type":"Dedicated","server_os":"Linux","password":true,"vac":true,"version":"7961495","steam_id":85568392924469991,"keywords":["nocrits","nodmgspread","payload","uncletopia"],"game_id":440,"stv_port":27016,"stv_name":"Uncletopia | Los Angeles | 1 | All Maps | STV","players":[{"user_id":8,"name":"jr_","steam_id":76561198313937899,"connected_time":147000000000,"state":"active","ping":213},{"user_id":4,"name":"Oktayey","steam_id":76561198143213426,"connected_time":1373000000000,"state":"active","ping":50},{"user_id":6,"name":"imng","steam_id":76561198014988031,"connected_time":301000000000,"state":"active","ping":89},{"user_id":7,"name":"François Viète","steam_id":76561198072975518,"connected_time":297000000000,"state":"active","ping":87}]},{"server_id":112,"name":"Uncletopia | Los Angeles | 2 | All Maps","name_short":"lax-2","host":"lax-1.us.uncletopia.com","port":27025,"enabled":true,"region":"us-west","cc":"us","latitude":33.94279,"longitude":-118.41004,"reserved":0,"last_update":"0001-01-01T00:00:00Z","name_a2s":"Uncletopia | Los Angeles | 2 | All Maps","protocol":17,"map":"koth_cascade","folder":"tf","game":"Team Fortress","app_id":440,"player_count":0,"max_players":24,"Bots":0,"server_type":"Dedicated","server_os":"Linux","password":true,"vac":true,"version":"7961495","steam_id":85568392924469992,"keywords":["cp","nocrits","nodmgspread","uncletopia"],"game_id":440,"stv_port":27026,"stv_name":"Uncletopia | Los Angeles | 2 | All Maps | STV","players":null},{"server_id":324,"name":"Uncletopia | Los Angeles | 3 | All Maps","name_short":"lax-3","host":"lax-1.us.uncletopia.com","port":27035,"enabled":true,"region":"us-west","cc":"us","latitude":33.94279,"longitude":-118.41004,"reserved":0,"last_update":"0001-01-01T00:00:00Z","name_a2s":"Uncletopia | Los Angeles | 3 | All Maps","protocol":17,"map":"pl_hoodoo_final","folder":"tf","game":"Team Fortress","app_id":440,"player_count":0,"max_players":24,"Bots":0,"server_type":"Dedicated","server_os":"Linux","password":true,"vac":true,"version":"7961495","steam_id":85568392924510198,"keywords":["nocrits","nodmgspread","payload","uncletopia"],"game_id":440,"stv_port":27036,"stv_name":"Uncletopia | Los Angeles | 3 | All Maps | STV","players":null},{"server_id":25,"name":"Uncletopia | Los Angeles | 4 | Stopwatch","name_short":"lax-4","host":"lax-1.us.uncletopia.com","port":27045,"enabled":true,"region":"us-west","cc":"us","latitude":33.94279,"longitude":-118.41004,"reserved":0,"last_update":"0001-01-01T00:00:00Z","name_a2s":"Uncletopia | Los Angeles | 4 | Stopwatch","protocol":17,"map":"pl_upward","folder":"tf","game":"Team Fortress","app_id":440,"player_count":0,"max_players":24,"Bots":0,"server_type":"Dedicated","server_os":"Linux","password":true,"vac":true,"version":"7961495","steam_id":85568392924510199,"keywords":["nocrits","nodmgspread","payload","uncletopia"],"game_id":440,"stv_port":27046,"stv_name":"Uncletopia | Los Angeles | 4 | Stopwatch | STV","players":null},{"server_id":11,"name":"Uncletopia | London | 1 | All Maps","name_short":"lon-1","host":"lon-1.uk.uncletopia.com","port":27015,"enabled":true,"region":"eu","cc":"gb","latitude":51.509865,"longitude":-0.118092,"reserved":0,"last_update":"0001-01-01T00:00:00Z","name_a2s":"Uncletopia | London | 1 | All Maps","protocol":17,"map":"cp_process_final","folder":"tf","game":"Team Fortress","app_id":440,"player_count":24,"max_players":24,"Bots":0,"server_type":"Dedicated","server_os":"Linux","password":true,"vac":true,"version":"7961495","steam_id":85568392924367362,"keywords":["cp","nocrits","nodmgspread","uncletopia"],"game_id":440,"stv_port":27016,"stv_name":"Uncletopia | London | 1 | All Maps | STV","players":[{"user_id":266,"name":"Richard nixon roleplayer","steam_id":76561198236015392,"connected_time":2233000000000,"state":"active","ping":113},{"user_id":248,"name":"one two buckle my shoe","steam_id":76561198010662796,"connected_time":3372000000000,"state":"active","ping":45},{"user_id":276,"name":"Son Goku","steam_id":76561199383437138,"connected_time":825000000000,"state":"active","ping":121},{"user_id":251,"name":"cactusj4","steam_id":76561199243398487,"connected_time":3211000000000,"state":"active","ping":55},{"user_id":286,"name":"map","steam_id":76561198370196400,"connected_time":198000000000,"state":"active","ping":90},{"user_id":228,"name":"three four buckle some more","steam_id":76561198046873337,"connected_time":4491000000000,"state":"active","ping":58},{"user_id":283,"name":"Radigan-Flanders::","steam_id":76561198100439744,"connected_time":527000000000,"state":"active","ping":32},{"user_id":226,"name":"soil.dirt.earth","steam_id":76561198014377623,"connected_time":5074000000000,"state":"active","ping":30},{"user_id":223,"name":"4:38","steam_id":76561198072892783,"connected_time":5914000000000,"state":"active","ping":72},{"user_id":287,"name":"Slifer the Egyptian God Furry","steam_id":76561198062255803,"connected_time":107000000000,"state":"active","ping":71},{"user_id":230,"name":"reika","steam_id":76561198043601838,"connected_time":4483000000000,"state":"active","ping":60},{"user_id":263,"name":"I Love Filtered Water","steam_id":76561198016042113,"connected_time":2315000000000,"state":"active","ping":89},{"user_id":264,"name":"toad (ungodly gigantic)","steam_id":76561198870327755,"connected_time":2296000000000,"state":"active","ping":79},{"user_id":282,"name":"BadFemboy","steam_id":76561198072320671,"connected_time":546000000000,"state":"active","ping":31},{"user_id":261,"name":"0:21","steam_id":76561198797266244,"connected_time":2351000000000,"state":"active","ping":62},{"user_id":279,"name":"ein","steam_id":76561198152162834,"connected_time":595000000000,"state":"active","ping":99},{"user_id":273,"name":"Ratman","steam_id":76561198121888714,"connected_time":1712000000000,"state":"active","ping":46},{"user_id":278,"name":"R0mulone","steam_id":76561198352513792,"connected_time":671000000000,"state":"active","ping":61},{"user_id":284,"name":"square. possibly cube","steam_id":76561198104896547,"connected_time":422000000000,"state":"active","ping":88},{"user_id":255,"name":"Ullr","steam_id":76561198140547483,"connected_time":2783000000000,"state":"active","ping":45},{"user_id":247,"name":"charlotte","steam_id":76561198075129898,"connected_time":3383000000000,"state":"active","ping":42},{"user_id":145,"name":"cp lover (beta tester)","steam_id":76561198413275515,"connected_time":11049000000000,"state":"active","ping":76},{"user_id":256,"name":"Kora","steam_id":76561198343198306,"connected_time":2783000000000,"state":"active","ping":69},{"user_id":203,"name":"whimsy. (live)","steam_id":76561198878171763,"connected_time":7872000000000,"state":"active","ping":51}]},{"server_id":114,"name":"Uncletopia | London | 2 | All Maps","name_short":"lon-2","host":"lon-1.uk.uncletopia.com","port":27025,"enabled":true,"region":"eu","cc":"gb","latitude":51.509865,"longitude":-0.118092,"reserved":0,"last_update":"0001-01-01T00:00:00Z","name_a2s":"Uncletopia | London | 2 | All Maps","protocol":17,"map":"pl_barnblitz","folder":"tf","game":"Team Fortress","app_id":440,"player_count":24,"max_players":24,"Bots":0,"server_type":"Dedicated","server_os":"Linux","password":true,"vac":true,"version":"7961495","steam_id":85568392924470941,"keywords":["nocrits","nodmgspread","payload","uncletopia"],"game_id":440,"stv_port":27026,"stv_name":"Uncletopia | London | 2 | All Maps | STV","players":[{"user_id":326,"name":"Regen","steam_id":76561198038665095,"connected_time":57000000000,"state":"active","ping":56},{"user_id":174,"name":"Wayan","steam_id":76561198354695464,"connected_time":10564000000000,"state":"active","ping":124},{"user_id":307,"name":"Retrogue","steam_id":76561198131776972,"connected_time":1175000000000,"state":"active","ping":42},{"user_id":317,"name":"wG silentes","steam_id":76561197999595616,"connected_time":443000000000,"state":"active","ping":45},{"user_id":318,"name":"MelFunnySmell","steam_id":76561198077506613,"connected_time":416000000000,"state":"active","ping":74},{"user_id":275,"name":"Lord of Birds","steam_id":76561198268952995,"connected_time":2628000000000,"state":"active","ping":54},{"user_id":325,"name":"Cillian","steam_id":76561199046965320,"connected_time":110000000000,"state":"active","ping":63},{"user_id":299,"name":"Lyell","steam_id":76561198350329389,"connected_time":1311000000000,"state":"active","ping":70},{"user_id":327,"name":"BLINKY","steam_id":76561198990110546,"connected_time":9000000000,"state":"spawning","ping":412},{"user_id":308,"name":"Space","steam_id":76561198378357559,"connected_time":1019000000000,"state":"active","ping":44},{"user_id":284,"name":"RiX","steam_id":76561197969053733,"connected_time":2345000000000,"state":"active","ping":45},{"user_id":324,"name":"slurpboi69","steam_id":76561197975837958,"connected_time":131000000000,"state":"active","ping":76},{"user_id":314,"name":"Hexagon","steam_id":76561198151205758,"connected_time":592000000000,"state":"active","ping":59},{"user_id":263,"name":"Marcel","steam_id":76561198348686648,"connected_time":3750000000000,"state":"active","ping":46},{"user_id":260,"name":"GrumpyGrey","steam_id":76561199504695656,"connected_time":3836000000000,"state":"active","ping":32},{"user_id":312,"name":"SausageRoll","steam_id":76561197994072622,"connected_time":833000000000,"state":"active","ping":41},{"user_id":295,"name":"mrznja","steam_id":76561198170334258,"connected_time":1910000000000,"state":"active","ping":75},{"user_id":257,"name":"Waltism","steam_id":76561199447676489,"connected_time":4002000000000,"state":"active","ping":86},{"user_id":279,"name":"\u003cGNGWD\u003e CrocAsaurus","steam_id":76561198213982408,"connected_time":2549000000000,"state":"active","ping":57},{"user_id":319,"name":"brotalium","steam_id":76561198055439054,"connected_time":392000000000,"state":"active","ping":119},{"user_id":321,"name":"pijacka","steam_id":76561198103899658,"connected_time":364000000000,"state":"active","ping":75},{"user_id":281,"name":"Largo","steam_id":76561198844368927,"connected_time":2432000000000,"state":"active","ping":74},{"user_id":323,"name":"WasnaG","steam_id":76561197994445955,"connected_time":280000000000,"state":"active","ping":66},{"user_id":306,"name":"PurpleLightning","steam_id":76561198103537029,"connected_time":1187000000000,"state":"active","ping":138}]},{"server_id":320,"name":"Uncletopia | London | 3 | All Maps","name_short":"lon-3","host":"lon-1.uk.uncletopia.com","port":27035,"enabled":true,"region":"eu","cc":"gb","latitude":51.509865,"longitude":-0.118092,"reserved":0,"last_update":"0001-01-01T00:00:00Z","name_a2s":"Uncletopia | London | 3 | All Maps","protocol":17,"map":"pl_frontier_final","folder":"tf","game":"Team Fortress","app_id":440,"player_count":21,"max_players":24,"Bots":0,"server_type":"Dedicated","server_os":"Linux","password":true,"vac":true,"version":"7961495","steam_id":85568392924510192,"keywords":["nocrits","nodmgspread","payload","uncletopia"],"game_id":440,"stv_port":27036,"stv_name":"Uncletopia | London | 3 | All Maps | STV","players":[{"user_id":28,"name":"Brikermaster564","steam_id":76561199059400393,"connected_time":2480000000000,"state":"active","ping":61},{"user_id":33,"name":"B∞p | ❤Fasto❤","steam_id":76561198118298527,"connected_time":975000000000,"state":"active","ping":53},{"user_id":34,"name":"B∞p | ❤Hina❤","steam_id":76561198058465921,"connected_time":968000000000,"state":"active","ping":55},{"user_id":47,"name":"woople","steam_id":76561198076625889,"connected_time":345000000000,"state":"active","ping":82},{"user_id":35,"name":"Tankedup_","steam_id":76561198168659251,"connected_time":962000000000,"state":"active","ping":45},{"user_id":60,"name":"Pharaoh","steam_id":76561198974553024,"connected_time":34000000000,"state":"spawning","ping":94},{"user_id":57,"name":"Jason Goldstriker","steam_id":76561198175035159,"connected_time":102000000000,"state":"active","ping":82},{"user_id":38,"name":"1 toke 4 mars bars","steam_id":76561198056460000,"connected_time":795000000000,"state":"active","ping":50},{"user_id":54,"name":"Cobalt","steam_id":76561198349228196,"connected_time":164000000000,"state":"active","ping":39},{"user_id":43,"name":"TickTock|Mink","steam_id":76561198069809794,"connected_time":650000000000,"state":"active","ping":157},{"user_id":44,"name":"Jussukka","steam_id":76561198122894683,"connected_time":531000000000,"state":"active","ping":66},{"user_id":45,"name":"Rubi","steam_id":76561198139410003,"connected_time":517000000000,"state":"active","ping":60},{"user_id":46,"name":"Assassin+","steam_id":76561197994310420,"connected_time":435000000000,"state":"active","ping":62},{"user_id":48,"name":"Syd","steam_id":76561198020515027,"connected_time":304000000000,"state":"active","ping":75},{"user_id":53,"name":"Bread","steam_id":76561198040142466,"connected_time":195000000000,"state":"active","ping":87},{"user_id":50,"name":"Sergeant Joker","steam_id":76561198854616604,"connected_time":292000000000,"state":"active","ping":129},{"user_id":56,"name":"Tekky☻","steam_id":76561197990987315,"connected_time":103000000000,"state":"active","ping":34},{"user_id":52,"name":"BLÅHAJ","steam_id":76561199353672293,"connected_time":213000000000,"state":"active","ping":55},{"user_id":58,"name":"Lemon","steam_id":76561198188535947,"connected_time":98000000000,"state":"active","ping":59},{"user_id":61,"name":"Mr.P","steam_id":76561198866020812,"connected_time":29000000000,"state":"active","ping":79},{"user_id":62,"name":"Kaek","steam_id":76561197960283484,"connected_time":21000000000,"state":"active","ping":79}]},{"server_id":321,"name":"Uncletopia | London | 4 | All Maps","name_short":"lon-4","host":"lon-1.uk.uncletopia.com","port":27045,"enabled":true,"region":"eu","cc":"gb","latitude":51.509865,"longitude":-0.118092,"reserved":0,"last_update":"0001-01-01T00:00:00Z","name_a2s":"Uncletopia | London | 4 | All Maps","protocol":17,"map":"cp_sunshine","folder":"tf","game":"Team Fortress","app_id":440,"player_count":24,"max_players":24,"Bots":0,"server_type":"Dedicated","server_os":"Linux","password":true,"vac":true,"version":"7961495","steam_id":85568392924510193,"keywords":["cp","nocrits","nodmgspread","uncletopia"],"game_id":440,"stv_port":27046,"stv_name":"Uncletopia | London | 4 | All Maps | STV","players":[{"user_id":315,"name":"American Chjeff (✪oficial)","steam_id":76561198019917466,"connected_time":928000000000,"state":"active","ping":42},{"user_id":317,"name":"British Disapproval","steam_id":76561198001375260,"connected_time":655000000000,"state":"active","ping":43},{"user_id":319,"name":"slug","steam_id":76561198065902089,"connected_time":464000000000,"state":"active","ping":58},{"user_id":307,"name":"crit hit!","steam_id":76561198112693639,"connected_time":1367000000000,"state":"active","ping":51},{"user_id":249,"name":"sex haver","steam_id":76561198798892497,"connected_time":3665000000000,"state":"active","ping":47},{"user_id":303,"name":"DiscoTraveler","steam_id":76561199240168088,"connected_time":1592000000000,"state":"active","ping":128},{"user_id":320,"name":"Dmskooje","steam_id":76561198127600559,"connected_time":459000000000,"state":"active","ping":47},{"user_id":291,"name":"Stinkyeseses","steam_id":76561198402218127,"connected_time":1896000000000,"state":"active","ping":105},{"user_id":329,"name":"tiamat","steam_id":76561198116027948,"connected_time":184000000000,"state":"active","ping":76},{"user_id":322,"name":"Rudoss","steam_id":76561198018415787,"connected_time":424000000000,"state":"active","ping":75},{"user_id":323,"name":"Begone","steam_id":76561199093369711,"connected_time":332000000000,"state":"active","ping":98},{"user_id":316,"name":"BELADIT","steam_id":76561198011911501,"connected_time":696000000000,"state":"active","ping":75},{"user_id":318,"name":"Banzar1","steam_id":76561198170325423,"connected_time":639000000000,"state":"active","ping":123},{"user_id":324,"name":"Javier dorsaless","steam_id":76561198179324075,"connected_time":319000000000,"state":"active","ping":73},{"user_id":327,"name":"ztrs6","steam_id":76561198314853803,"connected_time":303000000000,"state":"active","ping":99},{"user_id":263,"name":"Dakeyras","steam_id":76561198057069564,"connected_time":2573000000000,"state":"active","ping":88},{"user_id":265,"name":"Udinese Dion","steam_id":76561198067931573,"connected_time":2548000000000,"state":"active","ping":61},{"user_id":308,"name":"Valfezant","steam_id":76561199063983797,"connected_time":1351000000000,"state":"active","ping":74},{"user_id":326,"name":"RLCrazyCat3","steam_id":76561197983757878,"connected_time":316000000000,"state":"active","ping":49},{"user_id":281,"name":"333res","steam_id":76561198148106704,"connected_time":2202000000000,"state":"active","ping":77},{"user_id":299,"name":"sondi","steam_id":76561198045466209,"connected_time":1734000000000,"state":"active","ping":75},{"user_id":283,"name":"KLAMA  ❤","steam_id":76561198351549661,"connected_time":2164000000000,"state":"active","ping":75},{"user_id":328,"name":"Alyosha","steam_id":76561198032771167,"connected_time":300000000000,"state":"active","ping":76},{"user_id":246,"name":"Nittugai","steam_id":76561198067366462,"connected_time":3745000000000,"state":"active","ping":69}]},{"server_id":21,"name":"Uncletopia | London | 5 | All Maps","name_short":"lon-5","host":"lon-1.uk.uncletopia.com","port":27055,"enabled":true,"region":"eu","cc":"gb","latitude":51.509865,"longitude":-0.118092,"reserved":0,"last_update":"0001-01-01T00:00:00Z","name_a2s":"Uncletopia | London | 5 | All Maps","protocol":17,"map":"pl_pier","folder":"tf","game":"Team Fortress","app_id":440,"player_count":24,"max_players":24,"Bots":0,"server_type":"Dedicated","server_os":"Linux","password":true,"vac":true,"version":"7961495","steam_id":85568392924742829,"keywords":["nocrits","nodmgspread","payload","uncletopia"],"game_id":440,"stv_port":27056,"stv_name":"Uncletopia | London | 5 | All Maps | STV","players":[{"user_id":169,"name":"Random","steam_id":76561199116602799,"connected_time":249000000000,"state":"active","ping":32},{"user_id":149,"name":"Endi","steam_id":76561198914938199,"connected_time":1561000000000,"state":"active","ping":90},{"user_id":170,"name":"Ern(x)","steam_id":76561198141807070,"connected_time":227000000000,"state":"active","ping":90},{"user_id":128,"name":"rts","steam_id":76561199090876980,"connected_time":2723000000000,"state":"active","ping":65},{"user_id":118,"name":"chocy milk addict","steam_id":76561199042178118,"connected_time":3466000000000,"state":"active","ping":60},{"user_id":145,"name":"Femboy Thighs","steam_id":76561198115496457,"connected_time":1717000000000,"state":"active","ping":43},{"user_id":171,"name":"Miku.Hatsune.2007","steam_id":76561198199687607,"connected_time":220000000000,"state":"active","ping":60},{"user_id":160,"name":"Cookies and Bakies","steam_id":76561198017442928,"connected_time":753000000000,"state":"active","ping":57},{"user_id":100,"name":".::[SerafeTTiN]::.","steam_id":76561198009471724,"connected_time":4500000000000,"state":"active","ping":96},{"user_id":166,"name":"YuraGreek","steam_id":76561198050182252,"connected_time":583000000000,"state":"active","ping":89},{"user_id":168,"name":"Visphiric - All Muted","steam_id":76561198071938027,"connected_time":444000000000,"state":"active","ping":43},{"user_id":159,"name":"Egor Pomidor","steam_id":76561199175688390,"connected_time":1006000000000,"state":"active","ping":88},{"user_id":154,"name":"Bags.","steam_id":76561198045708372,"connected_time":1487000000000,"state":"active","ping":50},{"user_id":167,"name":"Oviraptor Supreme","steam_id":76561198044262534,"connected_time":503000000000,"state":"active","ping":150},{"user_id":142,"name":"NALA","steam_id":76561198039806469,"connected_time":1900000000000,"state":"active","ping":75},{"user_id":172,"name":"Dream","steam_id":76561198802024369,"connected_time":210000000000,"state":"active","ping":40},{"user_id":173,"name":"Olof Dancer","steam_id":76561198262033890,"connected_time":206000000000,"state":"active","ping":105},{"user_id":155,"name":"BeLL","steam_id":76561198151932192,"connected_time":1481000000000,"state":"active","ping":76},{"user_id":132,"name":"meow","steam_id":76561198087215038,"connected_time":2670000000000,"state":"active","ping":87},{"user_id":156,"name":"RocketBoy08","steam_id":76561198833978944,"connected_time":1424000000000,"state":"active","ping":102},{"user_id":174,"name":"Frazzles","steam_id":76561199228009586,"connected_time":199000000000,"state":"active","ping":39},{"user_id":92,"name":"nordstream bomber","steam_id":76561199401283123,"connected_time":5133000000000,"state":"active","ping":35},{"user_id":126,"name":"LOBZIK","steam_id":76561198114830120,"connected_time":2925000000000,"state":"active","ping":78},{"user_id":175,"name":"lumiukko","steam_id":76561199103891073,"connected_time":185000000000,"state":"active","ping":82}]},{"server_id":22,"name":"Uncletopia | London | 6 | All Maps","name_short":"lon-6","host":"lon-1.uk.uncletopia.com","port":27065,"enabled":true,"region":"eu","cc":"gb","latitude":51.509865,"longitude":-0.118092,"reserved":0,"last_update":"0001-01-01T00:00:00Z","name_a2s":"Uncletopia | London | 6 | All Maps","protocol":17,"map":"pl_borneo","folder":"tf","game":"Team Fortress","app_id":440,"player_count":24,"max_players":24,"Bots":0,"server_type":"Dedicated","server_os":"Linux","password":true,"vac":true,"version":"7961495","steam_id":85568392924742830,"keywords":["nocrits","nodmgspread","payload","uncletopia"],"game_id":440,"stv_port":27066,"stv_name":"Uncletopia | London | 6 | All Maps | STV","players":[{"user_id":235,"name":"zinzyk","steam_id":76561198128011822,"connected_time":354000000000,"state":"active","ping":65},{"user_id":233,"name":"Drift7114","steam_id":76561199044419505,"connected_time":371000000000,"state":"active","ping":59},{"user_id":153,"name":"co","steam_id":76561198188225497,"connected_time":5978000000000,"state":"active","ping":61},{"user_id":185,"name":"Red wine gaming","steam_id":76561198134378108,"connected_time":3262000000000,"state":"active","ping":69},{"user_id":200,"name":"Cleveland Gaming","steam_id":76561198144066745,"connected_time":2888000000000,"state":"active","ping":139},{"user_id":204,"name":"Zamorocian","steam_id":76561198076604017,"connected_time":2259000000000,"state":"active","ping":44},{"user_id":192,"name":"Witcher","steam_id":76561198073550998,"connected_time":3063000000000,"state":"active","ping":64},{"user_id":219,"name":"Kazuya","steam_id":76561198172101254,"connected_time":1169000000000,"state":"active","ping":77},{"user_id":170,"name":"Codex","steam_id":76561198068748584,"connected_time":4401000000000,"state":"active","ping":52},{"user_id":182,"name":"Hepçil","steam_id":76561199113978553,"connected_time":3412000000000,"state":"active","ping":96},{"user_id":224,"name":"silicon based life form","steam_id":76561199127121346,"connected_time":819000000000,"state":"active","ping":42},{"user_id":229,"name":"Wardruna96","steam_id":76561199057083828,"connected_time":554000000000,"state":"active","ping":75},{"user_id":230,"name":"cinny","steam_id":76561198832112629,"connected_time":532000000000,"state":"active","ping":89},{"user_id":231,"name":"DrExplosive","steam_id":76561198063678579,"connected_time":471000000000,"state":"active","ping":50},{"user_id":217,"name":"32","steam_id":76561199382978934,"connected_time":1327000000000,"state":"active","ping":82},{"user_id":234,"name":"bung","steam_id":76561198119399850,"connected_time":366000000000,"state":"active","ping":45},{"user_id":226,"name":"Christmas_Kiwi","steam_id":76561199259353499,"connected_time":809000000000,"state":"active","ping":54},{"user_id":216,"name":"munkle","steam_id":76561198153943749,"connected_time":1402000000000,"state":"active","ping":74},{"user_id":212,"name":"The Funny Cat-Heaby","steam_id":76561198439978112,"connected_time":1823000000000,"state":"active","ping":90},{"user_id":236,"name":"Rin-Nakaret","steam_id":76561197971051188,"connected_time":256000000000,"state":"active","ping":60},{"user_id":218,"name":"hasky","steam_id":76561197986052798,"connected_time":1212000000000,"state":"active","ping":61},{"user_id":123,"name":":)","steam_id":76561198039964082,"connected_time":8820000000000,"state":"active","ping":60},{"user_id":199,"name":"0xDEADBEEF","steam_id":76561199075416111,"connected_time":2897000000000,"state":"active","ping":73},{"user_id":227,"name":"Private Sloppy","steam_id":76561198019861196,"connected_time":808000000000,"state":"active","ping":116}]},{"server_id":40,"name":"Uncletopia | London | 7 | Stopwatch","name_short":"lon-7","host":"lon-1.uk.uncletopia.com","port":27075,"enabled":true,"region":"eu","cc":"gb","latitude":51.509865,"longitude":-0.118092,"reserved":0,"last_update":"0001-01-01T00:00:00Z","name_a2s":"Uncletopia | London | 7 | Stopwatch","protocol":17,"map":"workshop/koth_clearcut_b15.ugc2107050255","folder":"tf","game":"Team Fortress","app_id":440,"player_count":0,"max_players":24,"Bots":0,"server_type":"Dedicated","server_os":"Linux","password":true,"vac":true,"version":"7961495","steam_id":85568392924964314,"keywords":["cp","nocrits","nodmgspread","uncletopia"],"game_id":440,"stv_port":27076,"stv_name":"Uncletopia | London | 7 | Stopwatch | STV","players":null},{"server_id":41,"name":"Uncletopia | London | 8 | Community","name_short":"lon-8","host":"lon-1.uk.uncletopia.com","port":27085,"enabled":true,"region":"eu","cc":"gb","latitude":51.509865,"longitude":-0.118092,"reserved":0,"last_update":"0001-01-01T00:00:00Z","name_a2s":"Uncletopia | London | 8 | Community","protocol":17,"map":"workshop/koth_product_final.ugc454272353","folder":"tf","game":"Team Fortress","app_id":440,"player_count":0,"max_players":24,"Bots":0,"server_type":"Dedicated","server_os":"Linux","password":true,"vac":true,"version":"7961495","steam_id":85568392924964315,"keywords":["cp","nocrits","nodmgspread","uncletopia"],"game_id":440,"stv_port":27086,"stv_name":"Uncletopia | London | 8 | Community | STV","players":null},{"server_id":300,"name":"Uncletopia | Montréal | 1 | One Thousand Uncles","name_short":"mtl-1","host":"mtl-1.ca.uncletopia.com","port":27015,"enabled":true,"region":"us-east","cc":"ca","latitude":45.50889,"longitude":-73.56167,"reserved":0,"last_update":"0001-01-01T00:00:00Z","name_a2s":"Uncletopia | Montréal | 1 | One Thousand Uncles","protocol":17,"map":"pl_chilly","folder":"tf","game":"Team Fortress","app_id":440,"player_count":0,"max_players":32,"Bots":0,"server_type":"Dedicated","server_os":"Linux","password":true,"vac":true,"version":"7961495","steam_id":85568392924500087,"keywords":["alltalk","danepve","increased_maxplayers","norespawntime","payload","uncletopia"],"game_id":440,"stv_port":0,"stv_name":"","players":null},{"server_id":301,"name":"Uncletopia | Montréal | 2 | One Thousand Uncles","name_short":"mtl-2","host":"mtl-1.ca.uncletopia.com","port":27025,"enabled":true,"region":"us-east","cc":"ca","latitude":45.50889,"longitude":-73.56167,"reserved":0,"last_update":"0001-01-01T00:00:00Z","name_a2s":"Uncletopia | Montréal | 2 | One Thousand Uncles","protocol":17,"map":"pl_chilly","folder":"tf","game":"Team Fortress","app_id":440,"player_count":0,"max_players":32,"Bots":0,"server_type":"Dedicated","server_os":"Linux","password":true,"vac":true,"version":"7961495","steam_id":85568392924500088,"keywords":["alltalk","danepve","increased_maxplayers","norespawntime","payload","uncletopia"],"game_id":440,"stv_port":0,"stv_name":"","players":null},{"server_id":302,"name":"Uncletopia | Montréal | 3 | One Thousand Uncles","name_short":"mtl-3","host":"mtl-1.ca.uncletopia.com","port":27035,"enabled":true,"region":"us-east","cc":"ca","latitude":45.50889,"longitude":-73.56167,"reserved":0,"last_update":"0001-01-01T00:00:00Z","name_a2s":"Uncletopia | Montréal | 3 | One Thousand Uncles","protocol":17,"map":"pl_upward","folder":"tf","game":"Team Fortress","app_id":440,"player_count":0,"max_players":32,"Bots":0,"server_type":"Dedicated","server_os":"Linux","password":true,"vac":true,"version":"7961495","steam_id":85568392924500089,"keywords":["alltalk","danepve","increased_maxplayers","norespawntime","payload","uncletopia"],"game_id":440,"stv_port":0,"stv_name":"","players":null},{"server_id":13,"name":"Uncletopia | New York City | 1 | All Maps","name_short":"nyc-1","host":"nyc-1.us.uncletopia.com","port":27015,"enabled":true,"region":"us-east","cc":"us","latitude":40.73061,"longitude":-73.93524,"reserved":0,"last_update":"0001-01-01T00:00:00Z","name_a2s":"Uncletopia | New York City | 1 | All Maps","protocol":17,"map":"koth_brazil","folder":"tf","game":"Team Fortress","app_id":440,"player_count":1,"max_players":24,"Bots":0,"server_type":"Dedicated","server_os":"Linux","password":true,"vac":true,"version":"7961495","steam_id":85568392924469993,"keywords":["cp","nocrits","nodmgspread","uncletopia"],"game_id":440,"stv_port":27016,"stv_name":"Uncletopia | New York City | 1 | All Maps | STV","players":[{"user_id":3,"name":"the pest","steam_id":76561198826298849,"connected_time":91000000000,"state":"active","ping":67}]},{"server_id":14,"name":"Uncletopia | New York City | 2 | All Maps","name_short":"nyc-2","host":"nyc-1.us.uncletopia.com","port":27025,"enabled":true,"region":"us-east","cc":"us","latitude":40.73061,"longitude":-73.93524,"reserved":0,"last_update":"0001-01-01T00:00:00Z","name_a2s":"Uncletopia | New York City | 2 | All Maps","protocol":17,"map":"cp_granary","folder":"tf","game":"Team Fortress","app_id":440,"player_count":0,"max_players":24,"Bots":0,"server_type":"Dedicated","server_os":"Linux","password":true,"vac":true,"version":"7961495","steam_id":85568392924469994,"keywords":["cp","nocrits","nodmgspread","uncletopia"],"game_id":440,"stv_port":27026,"stv_name":"Uncletopia | New York City | 2 | All Maps | STV","players":null},{"server_id":15,"name":"Uncletopia | New York City | 3 | Stopwatch","name_short":"nyc-3","host":"nyc-1.us.uncletopia.com","port":27035,"enabled":true,"region":"us-east","cc":"us","latitude":40.73061,"longitude":-73.93524,"reserved":0,"last_update":"0001-01-01T00:00:00Z","name_a2s":"Uncletopia | New York City | 3 | Stopwatch","protocol":17,"map":"workshop/cp_reckoner_rc6.ugc674719999","folder":"tf","game":"Team Fortress","app_id":440,"player_count":0,"max_players":24,"Bots":0,"server_type":"Dedicated","server_os":"Linux","password":true,"vac":true,"version":"7961495","steam_id":85568392924742820,"keywords":["cp","nocrits","nodmgspread","uncletopia"],"game_id":440,"stv_port":27036,"stv_name":"Uncletopia | New York City | 3 | Stopwatch | STV","players":null},{"server_id":16,"name":"Uncletopia | New York City | 4 | Community","name_short":"nyc-4","host":"nyc-1.us.uncletopia.com","port":27045,"enabled":true,"region":"us-east","cc":"us","latitude":40.73061,"longitude":-73.93524,"reserved":0,"last_update":"0001-01-01T00:00:00Z","name_a2s":"Uncletopia | New York City | 4 | Community","protocol":17,"map":"workshop/cp_indulge.ugc528106646","folder":"tf","game":"Team Fortress","app_id":440,"player_count":0,"max_players":24,"Bots":0,"server_type":"Dedicated","server_os":"Linux","password":true,"vac":true,"version":"7961495","steam_id":85568392924742821,"keywords":["cp","nocrits","nodmgspread","uncletopia"],"game_id":440,"stv_port":27046,"stv_name":"Uncletopia | New York City | 4 | Community | STV","players":null},{"server_id":142,"name":"Uncletopia | São Paulo | 1 | All Maps","name_short":"sao-1","host":"sao-1.br.uncletopia.com","port":27015,"enabled":true,"region":"sa","cc":"br","latitude":-23.533773,"longitude":-46.62529,"reserved":0,"last_update":"0001-01-01T00:00:00Z","name_a2s":"Uncletopia | São Paulo | 1 | All Maps","protocol":17,"map":"cp_granary","folder":"tf","game":"Team Fortress","app_id":440,"player_count":0,"max_players":24,"Bots":0,"server_type":"Dedicated","server_os":"Linux","password":true,"vac":true,"version":"7961495","steam_id":85568392924469996,"keywords":["cp","nocrits","nodmgspread","uncletopia"],"game_id":440,"stv_port":27016,"stv_name":"Uncletopia | São Paulo | 1 | All Maps | STV","players":null},{"server_id":143,"name":"Uncletopia | São Paulo | 2 | Community","name_short":"sao-2","host":"sao-2.br.uncletopia.com","port":27015,"enabled":true,"region":"sa","cc":"br","latitude":-23.533773,"longitude":-46.62529,"reserved":0,"last_update":"0001-01-01T00:00:00Z","name_a2s":"Uncletopia | São Paulo | 2 | Community","protocol":17,"map":"workshop/cp_croissant_final.ugc458840209","folder":"tf","game":"Team Fortress","app_id":440,"player_count":0,"max_players":24,"Bots":0,"server_type":"Dedicated","server_os":"Linux","password":true,"vac":true,"version":"7961495","steam_id":85568392924485349,"keywords":["cp","nocrits","nodmgspread","uncletopia"],"game_id":440,"stv_port":27016,"stv_name":"Uncletopia | São Paulo | 2 | Community | STV","players":null},{"server_id":7,"name":"Uncletopia | Seattle | 1 | All Maps","name_short":"sea-1","host":"sea-1.us.uncletopia.com","port":27015,"enabled":true,"region":"us-west","cc":"us","latitude":47.608013,"longitude":-122.33517,"reserved":0,"last_update":"0001-01-01T00:00:00Z","name_a2s":"Uncletopia | Seattle | 1 | All Maps","protocol":17,"map":"koth_cascade","folder":"tf","game":"Team Fortress","app_id":440,"player_count":0,"max_players":24,"Bots":0,"server_type":"Dedicated","server_os":"Linux","password":true,"vac":true,"version":"7961495","steam_id":85568392924469997,"keywords":["cp","nocrits","nodmgspread","uncletopia"],"game_id":440,"stv_port":27016,"stv_name":"Uncletopia | Seattle | 1 | All Maps | STV","players":null},{"server_id":119,"name":"Uncletopia | Seattle | 2 | All Maps","name_short":"sea-2","host":"sea-1.us.uncletopia.com","port":27025,"enabled":true,"region":"us-west","cc":"us","latitude":47.608013,"longitude":-122.33517,"reserved":0,"last_update":"0001-01-01T00:00:00Z","name_a2s":"Uncletopia | Seattle | 2 | All Maps","protocol":17,"map":"koth_lakeside_final","folder":"tf","game":"Team Fortress","app_id":440,"player_count":0,"max_players":24,"Bots":0,"server_type":"Dedicated","server_os":"Linux","password":true,"vac":true,"version":"7961495","steam_id":85568392924469998,"keywords":["cp","nocrits","nodmgspread","uncletopia"],"game_id":440,"stv_port":27026,"stv_name":"Uncletopia | Seattle | 2 | All Maps | STV","players":null},{"server_id":406,"name":"Uncletopia | Seattle | 3 | Stopwatch","name_short":"sea-3","host":"sea-1.us.uncletopia.com","port":27035,"enabled":true,"region":"us-west","cc":"us","latitude":47.608013,"longitude":-122.33517,"reserved":0,"last_update":"0001-01-01T00:00:00Z","name_a2s":"Uncletopia | Seattle | 3 | Stopwatch","protocol":17,"map":"workshop/pl_barnblitz_pro7.ugc582280235","folder":"tf","game":"Team Fortress","app_id":440,"player_count":0,"max_players":24,"Bots":0,"server_type":"Dedicated","server_os":"Linux","password":true,"vac":true,"version":"7961495","steam_id":85568392924515217,"keywords":["nocrits","nodmgspread","payload","uncletopia"],"game_id":440,"stv_port":27036,"stv_name":"Uncletopia | Seattle | 3 | Stopwatch | STV","players":null},{"server_id":17,"name":"Uncletopia | San Francisco | 1 | All Maps","name_short":"sfo-1","host":"sfo-1.us.uncletopia.com","port":27015,"enabled":true,"region":"us-west","cc":"us","latitude":37.77397,"longitude":-122.4313,"reserved":0,"last_update":"0001-01-01T00:00:00Z","name_a2s":"Uncletopia | San Francisco | 1 | All Maps","protocol":17,"map":"koth_highpass","folder":"tf","game":"Team Fortress","app_id":440,"player_count":0,"max_players":24,"Bots":0,"server_type":"Dedicated","server_os":"Linux","password":true,"vac":true,"version":"7961495","steam_id":85568392924469999,"keywords":["cp","nocrits","nodmgspread","uncletopia"],"game_id":440,"stv_port":27016,"stv_name":"Uncletopia | San Francisco | 1 | All Maps | STV","players":null},{"server_id":18,"name":"Uncletopia | San Francisco | 2 | All Maps","name_short":"sfo-2","host":"sfo-1.us.uncletopia.com","port":27025,"enabled":true,"region":"us-west","cc":"us","latitude":37.77397,"longitude":-122.4313,"reserved":0,"last_update":"0001-01-01T00:00:00Z","name_a2s":"Uncletopia | San Francisco | 2 | All Maps","protocol":17,"map":"cp_dustbowl","folder":"tf","game":"Team Fortress","app_id":440,"player_count":0,"max_players":24,"Bots":0,"server_type":"Dedicated","server_os":"Linux","password":true,"vac":true,"version":"7961495","steam_id":85568392924470000,"keywords":["cp","nocrits","nodmgspread","uncletopia"],"game_id":440,"stv_port":27026,"stv_name":"Uncletopia | San Francisco | 2 | All Maps | STV","players":null},{"server_id":19,"name":"Uncletopia | San Francisco | 3 | Stopwatch","name_short":"sfo-3","host":"sfo-1.us.uncletopia.com","port":27035,"enabled":true,"region":"us-west","cc":"us","latitude":37.77397,"longitude":-122.4313,"reserved":0,"last_update":"0001-01-01T00:00:00Z","name_a2s":"Uncletopia | San Francisco | 3 | Stopwatch","protocol":17,"map":"workshop/koth_product_final.ugc454272353","folder":"tf","game":"Team Fortress","app_id":440,"player_count":0,"max_players":24,"Bots":0,"server_type":"Dedicated","server_os":"Linux","password":true,"vac":true,"version":"7961495","steam_id":85568392924742824,"keywords":["cp","nocrits","nodmgspread","uncletopia"],"game_id":440,"stv_port":27036,"stv_name":"Uncletopia | San Francisco | 3 | Stopwatch | STV","players":null},{"server_id":20,"name":"Uncletopia | San Francisco | 4 | Community","name_short":"sfo-4","host":"sfo-1.us.uncletopia.com","port":27045,"enabled":true,"region":"us-west","cc":"us","latitude":37.77397,"longitude":-122.4313,"reserved":0,"last_update":"0001-01-01T00:00:00Z","name_a2s":"Uncletopia | San Francisco | 4 | Community","protocol":17,"map":"workshop/pl_cactuscanyon_redux_final2.ugc2579644293","folder":"tf","game":"Team Fortress","app_id":440,"player_count":0,"max_players":24,"Bots":0,"server_type":"Dedicated","server_os":"Linux","password":true,"vac":true,"version":"7961495","steam_id":85568392924742826,"keywords":["nocrits","nodmgspread","payload","uncletopia"],"game_id":440,"stv_port":27046,"stv_name":"Uncletopia | San Francisco | 4 | Community | STV","players":null},{"server_id":141,"name":"Uncletopia | Sydney | 1 | All Maps","name_short":"syd-1","host":"syd-1.au.uncletopia.com","port":27015,"enabled":true,"region":"au","cc":"au","latitude":-33.865143,"longitude":151.2099,"reserved":0,"last_update":"0001-01-01T00:00:00Z","name_a2s":"Uncletopia | Sydney | 1 | All Maps","protocol":17,"map":"ctf_turbine","folder":"tf","game":"Team Fortress","app_id":440,"player_count":0,"max_players":24,"Bots":0,"server_type":"Dedicated","server_os":"Linux","password":true,"vac":true,"version":"7961495","steam_id":85568392924470001,"keywords":["ctf","nocrits","nodmgspread","uncletopia"],"game_id":440,"stv_port":27016,"stv_name":"Uncletopia | Sydney | 1 | All Maps | STV","players":null},{"server_id":123,"name":"Uncletopia | Sydney | 2 | All Maps","name_short":"syd-2","host":"syd-1.au.uncletopia.com","port":27025,"enabled":true,"region":"au","cc":"au","latitude":-33.865143,"longitude":151.2099,"reserved":0,"last_update":"0001-01-01T00:00:00Z","name_a2s":"Uncletopia | Sydney | 2 | All Maps","protocol":17,"map":"pl_pier","folder":"tf","game":"Team Fortress","app_id":440,"player_count":0,"max_players":24,"Bots":0,"server_type":"Dedicated","server_os":"Linux","password":true,"vac":true,"version":"7961495","steam_id":85568392924470002,"keywords":["nocrits","nodmgspread","payload","uncletopia"],"game_id":440,"stv_port":27026,"stv_name":"Uncletopia | Sydney | 2 | All Maps | STV","players":null},{"server_id":395,"name":"Uncletopia | Sydney | 3 | All Maps","name_short":"syd-3","host":"syd-1.au.uncletopia.com","port":27035,"enabled":true,"region":"au","cc":"au","latitude":-33.865143,"longitude":151.2099,"reserved":0,"last_update":"0001-01-01T00:00:00Z","name_a2s":"Uncletopia | Sydney | 3 | All Maps","protocol":17,"map":"cp_metalworks","folder":"tf","game":"Team Fortress","app_id":440,"player_count":0,"max_players":24,"Bots":0,"server_type":"Dedicated","server_os":"Linux","password":true,"vac":true,"version":"7961495","steam_id":85568392925194467,"keywords":["cp","nocrits","nodmgspread","uncletopia"],"game_id":440,"stv_port":27036,"stv_name":"Uncletopia | Sydney | 3 | All Maps | STV","players":null},{"server_id":396,"name":"Uncletopia | Sydney | 4 | All Maps","name_short":"syd-4","host":"syd-1.au.uncletopia.com","port":27045,"enabled":true,"region":"au","cc":"au","latitude":-33.865143,"longitude":151.2099,"reserved":0,"last_update":"0001-01-01T00:00:00Z","name_a2s":"Uncletopia | Sydney | 4 | All Maps","protocol":17,"map":"koth_cascade","folder":"tf","game":"Team Fortress","app_id":440,"player_count":0,"max_players":24,"Bots":0,"server_type":"Dedicated","server_os":"Linux","password":true,"vac":true,"version":"7961495","steam_id":85568392925397958,"keywords":["cp","nocrits","nodmgspread","uncletopia"],"game_id":440,"stv_port":27046,"stv_name":"Uncletopia | Sydney | 4 | All Maps | STV","players":null},{"server_id":58,"name":"Uncletopia | Sydney | 5 | Stopwatch","name_short":"syd-5","host":"syd-1.au.uncletopia.com","port":27055,"enabled":true,"region":"au","cc":"au","latitude":-33.865143,"longitude":151.2099,"reserved":0,"last_update":"0001-01-01T00:00:00Z","name_a2s":"Uncletopia | Sydney | 5 | Stopwatch","protocol":17,"map":"cp_sunshine","folder":"tf","game":"Team Fortress","app_id":440,"player_count":0,"max_players":24,"Bots":0,"server_type":"Dedicated","server_os":"Linux","password":true,"vac":true,"version":"7961495","steam_id":85568392925397959,"keywords":["cp","nocrits","nodmgspread","uncletopia"],"game_id":440,"stv_port":27056,"stv_name":"Uncletopia | Sydney | 5 | Stopwatch | STV","players":null},{"server_id":59,"name":"Uncletopia | Sydney | 6 | Community","name_short":"syd-6","host":"syd-1.au.uncletopia.com","port":27065,"enabled":true,"region":"au","cc":"au","latitude":-33.865143,"longitude":151.2099,"reserved":0,"last_update":"0001-01-01T00:00:00Z","name_a2s":"Uncletopia | Sydney | 6 | Community","protocol":17,"map":"workshop/koth_trenchfoot_ab1.ugc731436616","folder":"tf","game":"Team Fortress","app_id":440,"player_count":0,"max_players":24,"Bots":0,"server_type":"Dedicated","server_os":"Linux","password":true,"vac":true,"version":"7961495","steam_id":85568392925397960,"keywords":["cp","nocrits","nodmgspread","uncletopia"],"game_id":440,"stv_port":27066,"stv_name":"Uncletopia | Sydney | 6 | Community | STV","players":null},{"server_id":49,"name":"Uncletopia | Warsaw | 1 | One Thousand Uncles","name_short":"waw-1","host":"waw-1.pl.uncletopia.com","port":27015,"enabled":true,"region":"eu","cc":"pl","latitude":52.2297,"longitude":21.017532,"reserved":0,"last_update":"0001-01-01T00:00:00Z","name_a2s":"Uncletopia | Warsaw | 1 | One Thousand Uncles","protocol":17,"map":"cp_altitude","folder":"tf","game":"Team Fortress","app_id":440,"player_count":28,"max_players":32,"Bots":16,"server_type":"Dedicated","server_os":"Linux","password":true,"vac":true,"version":"7961495","steam_id":85568392925397850,"keywords":["alltalk","bots","cp","danepve","increased_maxplayers","norespawntime","uncletopia"],"game_id":440,"stv_port":0,"stv_name":"","players":[{"user_id":322,"name":"Rayco","steam_id":76561198048013129,"connected_time":4320000000000,"state":"active","ping":66},{"user_id":373,"name":"Whelchur","steam_id":76561199442895952,"connected_time":1196000000000,"state":"active","ping":88},{"user_id":384,"name":"Barbatruc","steam_id":76561198119019916,"connected_time":60000000000,"state":"active","ping":68},{"user_id":349,"name":"Denton","steam_id":76561198367991717,"connected_time":2113000000000,"state":"active","ping":51},{"user_id":375,"name":"Atletlioglu","steam_id":76561199218188958,"connected_time":1153000000000,"state":"active","ping":101},{"user_id":377,"name":"Meat Dragon","steam_id":76561198120319256,"connected_time":819000000000,"state":"active","ping":163},{"user_id":382,"name":"Boris_Bober","steam_id":76561199176831467,"connected_time":536000000000,"state":"active","ping":73},{"user_id":385,"name":"Vecraubung","steam_id":76561198050018221,"connected_time":39000000000,"state":"active","ping":30},{"user_id":380,"name":"BOTEK","steam_id":76561198235938884,"connected_time":641000000000,"state":"active","ping":64},{"user_id":386,"name":"v0mask0","steam_id":76561199187281791,"connected_time":27000000000,"state":"spawning","ping":63},{"user_id":356,"name":"Katta363","steam_id":76561198877144992,"connected_time":1393000000000,"state":"active","ping":277},{"user_id":341,"name":"Valoxi","steam_id":76561197995042938,"connected_time":2395000000000,"state":"active","ping":73}]},{"server_id":50,"name":"Uncletopia | Warsaw | 2 | One Thousand Uncles","name_short":"waw-2","host":"waw-1.pl.uncletopia.com","port":27025,"enabled":true,"region":"eu","cc":"pl","latitude":52.2297,"longitude":21.017532,"reserved":0,"last_update":"0001-01-01T00:00:00Z","name_a2s":"Uncletopia | Warsaw | 2 | One Thousand Uncles","protocol":17,"map":"cp_egypt_final","folder":"tf","game":"Team Fortress","app_id":440,"player_count":0,"max_players":32,"Bots":0,"server_type":"Dedicated","server_os":"Linux","password":true,"vac":true,"version":"7961495","steam_id":85568392925397851,"keywords":["alltalk","cp","danepve","increased_maxplayers","norespawntime","uncletopia"],"game_id":440,"stv_port":0,"stv_name":"","players":null},{"server_id":51,"name":"Uncletopia | Warsaw | 3 | All Maps","name_short":"waw-3","host":"waw-1.pl.uncletopia.com","port":27035,"enabled":true,"region":"eu","cc":"pl","latitude":52.2297,"longitude":21.017532,"reserved":0,"last_update":"0001-01-01T00:00:00Z","name_a2s":"Uncletopia | Warsaw | 3 | All Maps","protocol":17,"map":"pl_swiftwater_final1","folder":"tf","game":"Team Fortress","app_id":440,"player_count":0,"max_players":24,"Bots":0,"server_type":"Dedicated","server_os":"Linux","password":true,"vac":true,"version":"7961495","steam_id":85568392925397852,"keywords":["nocrits","nodmgspread","payload","uncletopia"],"game_id":440,"stv_port":27036,"stv_name":"Uncletopia | Warsaw | 3 | All Maps | STV","players":null},{"server_id":52,"name":"Uncletopia | Warsaw | 4 | All Maps","name_short":"waw-4","host":"waw-1.pl.uncletopia.com","port":27045,"enabled":true,"region":"eu","cc":"pl","latitude":52.2297,"longitude":21.017532,"reserved":0,"last_update":"0001-01-01T00:00:00Z","name_a2s":"Uncletopia | Warsaw | 4 | All Maps","protocol":17,"map":"koth_cascade","folder":"tf","game":"Team Fortress","app_id":440,"player_count":0,"max_players":24,"Bots":0,"server_type":"Dedicated","server_os":"Linux","password":true,"vac":true,"version":"7961495","steam_id":85568392925397853,"keywords":["cp","nocrits","nodmgspread","uncletopia"],"game_id":440,"stv_port":27046,"stv_name":"Uncletopia | Warsaw | 4 | All Maps | STV","players":null},{"server_id":53,"name":"Uncletopia | Warsaw | 5 | Stopwatch","name_short":"waw-5","host":"waw-1.pl.uncletopia.com","port":27055,"enabled":true,"region":"eu","cc":"pl","latitude":52.2297,"longitude":21.017532,"reserved":0,"last_update":"0001-01-01T00:00:00Z","name_a2s":"Uncletopia | Warsaw | 5 | Stopwatch","protocol":17,"map":"koth_highpass","folder":"tf","game":"Team Fortress","app_id":440,"player_count":2,"max_players":24,"Bots":0,"server_type":"Dedicated","server_os":"Linux","password":true,"vac":true,"version":"7961495","steam_id":85568392925397854,"keywords":["cp","nocrits","nodmgspread","uncletopia"],"game_id":440,"stv_port":27056,"stv_name":"Uncletopia | Warsaw | 5 | Stopwatch | STV","players":[{"user_id":9,"name":"bonkboy","steam_id":76561199101335057,"connected_time":3178000000000,"state":"active","ping":74},{"user_id":12,"name":"Roddy St. James","steam_id":76561199139267147,"connected_time":1299000000000,"state":"active","ping":74}]},{"server_id":54,"name":"Uncletopia | Warsaw | 6 | Community","name_short":"waw-6","host":"waw-1.pl.uncletopia.com","port":27065,"enabled":true,"region":"eu","cc":"pl","latitude":52.2297,"longitude":21.017532,"reserved":0,"last_update":"0001-01-01T00:00:00Z","name_a2s":"Uncletopia | Warsaw | 6 | Community","protocol":17,"map":"workshop/pl_highwood_b13.ugc1769496557","folder":"tf","game":"Team Fortress","app_id":440,"player_count":0,"max_players":24,"Bots":0,"server_type":"Dedicated","server_os":"Linux","password":true,"vac":true,"version":"7961495","steam_id":85568392925397856,"keywords":["nocrits","nodmgspread","payload","uncletopia"],"game_id":440,"stv_port":27066,"stv_name":"Uncletopia | Warsaw | 6 | Community | STV","players":null}]}