{"status":true,"message":"","result":[{"server_id":9,"name":"Uncletopia | Atlanta | 1 | All Maps","name_short":"atl-1","host":"atl-1.us.uncletopia.com","port":27015,"enabled":true,"region":"us-east","cc":"us","latitude":33.753746,"longitude":-84.38633,"reserved":0,"last_update":"0001-01-01T00:00:00Z","name_a2s":"Uncletopia | Atlanta | 1 | All Maps","protocol":17,"map":"pl_upward","folder":"tf","game":"Team Fortress","app_id":440,"player_count":24,"max_players":24,"Bots":0,"server_type":"Dedicated","server_os":"Linux","password":true,"vac":true,"version":"7742253","steam_id":85568392924469982,"keywords":["nocrits","nodmgspread","payload","uncletopia"],"game_id":440,"stv_port":27016,"stv_name":"Uncletopia | Atlanta | 1 | All Maps | STV","players":[{"user_id":66,"name":"toffeecoffee","steam_id":76561198248625526,"connected_time":630000000000,"state":"active","ping":105},{"user_id":15,"name":"Rappitor","steam_id":76561198105613110,"connected_time":2732000000000,"state":"active","ping":69},{"user_id":67,"name":"Snake Handler","steam_id":76561198027198306,"connected_time":592000000000,"state":"active","ping":85},{"user_id":17,"name":"Chill","steam_id":76561198313364985,"connected_time":2717000000000,"state":"active","ping":94},{"user_id":19,"name":"Motreir","steam_id":76561198151717946,"connected_time":2695000000000,"state":"active","ping":78},{"user_id":39,"name":"Chap","steam_id":76561198294226443,"connected_time":2067000000000,"state":"active","ping":115},{"user_id":61,"name":"Stampdawg","steam_id":76561198050500060,"connected_time":790000000000,"state":"active","ping":76},{"user_id":22,"name":"GrantTheMedicYT","steam_id":76561199077176696,"connected_time":2521000000000,"state":"active","ping":91},{"user_id":52,"name":"Frostbite Kangaroo","steam_id":76561198118261178,"connected_time":1825000000000,"state":"active","ping":67},{"user_id":53,"name":"cactusthepablo","steam_id":76561199242875426,"connected_time":1812000000000,"state":"active","ping":66},{"user_id":54,"name":"hoboways","steam_id":76561198168035195,"connected_time":1769000000000,"state":"active","ping":76},{"user_id":69,"name":"Commodore_Perry","steam_id":76561197986675784,"connected_time":124000000000,"state":"active","ping":77},{"user_id":27,"name":"sphinxmagoo","steam_id":76561198057001653,"connected_time":2412000000000,"state":"active","ping":69},{"user_id":62,"name":"C papi","steam_id":76561198027779564,"connected_time":785000000000,"state":"active","ping":50},{"user_id":46,"name":"NERDBOBS | Lavie","steam_id":76561198825997674,"connected_time":1935000000000,"state":"active","ping":46},{"user_id":33,"name":"ghenotic","steam_id":76561199310269979,"connected_time":2180000000000,"state":"active","ping":59},{"user_id":55,"name":"Andrew Tate","steam_id":76561199172527665,"connected_time":1762000000000,"state":"active","ping":116},{"user_id":35,"name":"sex","steam_id":76561198198787713,"connected_time":2164000000000,"state":"active","ping":67},{"user_id":37,"name":"Dark Horse","steam_id":76561198121786844,"connected_time":2153000000000,"state":"active","ping":84},{"user_id":48,"name":"Leds6.","steam_id":76561198117502081,"connected_time":1913000000000,"state":"active","ping":139},{"user_id":50,"name":"progamelle","steam_id":76561198026870605,"connected_time":1899000000000,"state":"active","ping":167},{"user_id":63,"name":"A_Malebolgia","steam_id":76561198097722818,"connected_time":777000000000,"state":"active","ping":89},{"user_id":57,"name":"tasty","steam_id":76561198083839061,"connected_time":1686000000000,"state":"active","ping":75},{"user_id":65,"name":"Singularity","steam_id":76561198000284742,"connected_time":721000000000,"state":"active","ping":56}]},{"server_id":400,"name":"Uncletopia | Atlanta | 3 | Stopwatch Beta","name_short":"atl-3","host":"atl-1.us.uncletopia.com","port":27035,"enabled":true,"region":"us-east","cc":"us","latitude":33.753746,"longitude":-84.38633,"reserved":0,"last_update":"0001-01-01T00:00:00Z","name_a2s":"Uncletopia | Atlanta | 3 | Stopwatch Beta","protocol":17,"map":"pl_pier","folder":"tf","game":"Team Fortress","app_id":440,"player_count":0,"max_players":24,"Bots":0,"server_type":"Dedicated","server_os":"Linux","password":true,"vac":true,"version":"7742253","steam_id":85568392924515187,"keywords":["nocrits","nodmgspread","payload","uncletopia"],"game_id":440,"stv_port":27036,"stv_name":"Uncletopia | Atlanta | 3 | Stopwatch Beta | STV","players":null},{"server_id":401,"name":"Uncletopia | Atlanta | 4 | No Payload","name_short":"atl-4","host":"atl-1.us.uncletopia.com","port":27045,"enabled":true,"region":"us-east","cc":"us","latitude":33.753746,"longitude":-84.38633,"reserved":0,"last_update":"0001-01-01T00:00:00Z","name_a2s":"Uncletopia | Atlanta | 4 | No Payload","protocol":17,"map":"pl_pier","folder":"tf","game":"Team Fortress","app_id":440,"player_count":0,"max_players":24,"Bots":0,"server_type":"Dedicated","server_os":"Linux","password":true,"vac":true,"version":"7723704","steam_id":85568392924515188,"keywords":["nocrits","nodmgspread","payload","uncletopia"],"game_id":440,"stv_port":27046,"stv_name":"Uncletopia | Atlanta | 4 | No Payload | STV","players":null},{"server_id":2,"name":"Uncletopia | Chicago | 1 | All Maps","name_short":"chi-1","host":"chi-1.us.uncletopia.com","port":27015,"enabled":true,"region":"us-central","cc":"us","latitude":41.881832,"longitude":-87.62318,"reserved":0,"last_update":"0001-01-01T00:00:00Z","name_a2s":"Uncletopia | Chicago | 1 | All Maps","protocol":17,"map":"cp_sunshine","folder":"tf","game":"Team Fortress","app_id":440,"player_count":24,"max_players":24,"Bots":0,"server_type":"Dedicated","server_os":"Linux","password":true,"vac":true,"version":"7742253","steam_id":85568392924469984,"keywords":["cp","nocrits","nodmgspread","uncletopia"],"game_id":440,"stv_port":27016,"stv_name":"Uncletopia | Chicago | 1 | All Maps | STV","players":[{"user_id":3,"name":"Tommy Pickles (Very Cool)","steam_id":76561198391261463,"connected_time":19730000000000,"state":"active","ping":63},{"user_id":206,"name":"TeeTree","steam_id":76561198862307874,"connected_time":2320000000000,"state":"active","ping":57},{"user_id":233,"name":"JR","steam_id":76561199013221822,"connected_time":3000000000,"state":"spawning","ping":124},{"user_id":185,"name":"Metna ☁","steam_id":76561198092381079,"connected_time":4496000000000,"state":"active","ping":59},{"user_id":186,"name":"skrt","steam_id":76561198233984300,"connected_time":4463000000000,"state":"active","ping":45},{"user_id":227,"name":"LocaKola","steam_id":76561198173435430,"connected_time":682000000000,"state":"active","ping":64},{"user_id":230,"name":"poorman #1 sniper","steam_id":76561198447884169,"connected_time":256000000000,"state":"active","ping":52},{"user_id":201,"name":"crow","steam_id":76561198046802071,"connected_time":2836000000000,"state":"active","ping":58},{"user_id":231,"name":"majorbobfunction","steam_id":76561198042464632,"connected_time":235000000000,"state":"active","ping":75},{"user_id":204,"name":"tod","steam_id":76561198010204565,"connected_time":2668000000000,"state":"active","ping":64},{"user_id":218,"name":"kibble","steam_id":76561198077083011,"connected_time":1475000000000,"state":"active","ping":78},{"user_id":213,"name":"Travis","steam_id":76561198121819162,"connected_time":1921000000000,"state":"active","ping":78},{"user_id":220,"name":"Quansen","steam_id":76561198151594550,"connected_time":1353000000000,"state":"active","ping":56},{"user_id":229,"name":"scrapheap","steam_id":76561198202407087,"connected_time":666000000000,"state":"active","ping":57},{"user_id":219,"name":"Sloppy Joe (Extra Sauce)","steam_id":76561198359703432,"connected_time":1369000000000,"state":"active","ping":90},{"user_id":232,"name":"The Sinister Potion","steam_id":76561198131280715,"connected_time":170000000000,"state":"active","ping":78},{"user_id":211,"name":"Bait","steam_id":76561198336489647,"connected_time":1984000000000,"state":"active","ping":51},{"user_id":172,"name":"RoseRadical","steam_id":76561197999984320,"connected_time":5250000000000,"state":"active","ping":55},{"user_id":165,"name":"sunrisebanana","steam_id":76561198038764622,"connected_time":5557000000000,"state":"active","ping":50},{"user_id":192,"name":"facecheck","steam_id":76561198115269587,"connected_time":3769000000000,"state":"active","ping":70},{"user_id":212,"name":"Tom","steam_id":76561198070630154,"connected_time":1983000000000,"state":"active","ping":88},{"user_id":223,"name":"viper","steam_id":76561198839942937,"connected_time":1280000000000,"state":"active","ping":60},{"user_id":228,"name":"beta central","steam_id":76561198301876831,"connected_time":681000000000,"state":"active","ping":61}]},{"server_id":106,"name":"Uncletopia | Chicago | 2 | All Maps","name_short":"chi-2","host":"chi-1.us.uncletopia.com","port":27025,"enabled":true,"region":"us-central","cc":"us","latitude":41.881832,"longitude":-87.62318,"reserved":0,"last_update":"0001-01-01T00:00:00Z","name_a2s":"Uncletopia | Chicago | 2 | All Maps","protocol":17,"map":"koth_harvest_final","folder":"tf","game":"Team Fortress","app_id":440,"player_count":21,"max_players":24,"Bots":0,"server_type":"Dedicated","server_os":"Linux","password":true,"vac":true,"version":"7742253","steam_id":85568392924469985,"keywords":["cp","nocrits","nodmgspread","uncletopia"],"game_id":440,"stv_port":27026,"stv_name":"Uncletopia | Chicago | 2 | All Maps | STV","players":[{"user_id":126,"name":"white ray","steam_id":76561198026664629,"connected_time":3242000000000,"state":"spawning","ping":149},{"user_id":174,"name":"I'm Cloaked","steam_id":76561198039763676,"connected_time":30000000000,"state":"spawning","ping":140},{"user_id":157,"name":"Epha","steam_id":76561198079379951,"connected_time":1226000000000,"state":"spawning","ping":149},{"user_id":142,"name":"guap master smelvin (no mic)","steam_id":76561198058209703,"connected_time":2142000000000,"state":"spawning","ping":135},{"user_id":171,"name":"TimTam Tom","steam_id":76561198045988062,"connected_time":32000000000,"state":"connecting","ping":70},{"user_id":166,"name":"Char Aznable","steam_id":76561198041630663,"connected_time":962000000000,"state":"spawning","ping":145},{"user_id":167,"name":"dP | I'm in a Wookie Suit","steam_id":76561198083307644,"connected_time":929000000000,"state":"spawning","ping":203},{"user_id":168,"name":"Mr. Nope","steam_id":76561198043851703,"connected_time":725000000000,"state":"spawning","ping":198},{"user_id":148,"name":"Catcow","steam_id":76561198025329176,"connected_time":1917000000000,"state":"spawning","ping":175},{"user_id":155,"name":"Veirū Viseris","steam_id":76561197989857176,"connected_time":1329000000000,"state":"spawning","ping":365},{"user_id":172,"name":"tanmantincan","steam_id":76561198105044427,"connected_time":31000000000,"state":"spawning","ping":161},{"user_id":160,"name":"Nich","steam_id":76561198333983754,"connected_time":1150000000000,"state":"spawning","ping":225},{"user_id":169,"name":"jae are","steam_id":76561198027906463,"connected_time":144000000000,"state":"spawning","ping":114},{"user_id":111,"name":"PJSekai Player","steam_id":76561198025668771,"connected_time":3722000000000,"state":"spawning","ping":279},{"user_id":161,"name":"Hobity","steam_id":76561198135386781,"connected_time":1138000000000,"state":"spawning","ping":168},{"user_id":170,"name":"Regi","steam_id":76561198271508598,"connected_time":76000000000,"state":"spawning","ping":154},{"user_id":144,"name":"bdkaine1","steam_id":76561198133545467,"connected_time":2107000000000,"state":"spawning","ping":195},{"user_id":176,"name":"For Jack","steam_id":76561198322674283,"connected_time":29000000000,"state":"connecting","ping":63},{"user_id":153,"name":"Dakota Sutcliffe","steam_id":76561198170660959,"connected_time":1648000000000,"state":"spawning","ping":129},{"user_id":149,"name":"Void","steam_id":76561198308290211,"connected_time":1836000000000,"state":"spawning","ping":270},{"user_id":165,"name":"human piss champion","steam_id":76561198122943559,"connected_time":997000000000,"state":"spawning","ping":134}]},{"server_id":402,"name":"Uncletopia | Chicago | 3 | All Maps","name_short":"chi-3","host":"chi-1.us.uncletopia.com","port":27035,"enabled":true,"region":"us-central","cc":"us","latitude":41.881832,"longitude":-87.62318,"reserved":0,"last_update":"0001-01-01T00:00:00Z","name_a2s":"Uncletopia | Chicago | 3 | All Maps","protocol":17,"map":"koth_viaduct","folder":"tf","game":"Team Fortress","app_id":440,"player_count":0,"max_players":24,"Bots":0,"server_type":"Dedicated","server_os":"Linux","password":true,"vac":true,"version":"7742253","steam_id":85568392924515191,"keywords":["cp","nocrits","nodmgspread","uncletopia"],"game_id":440,"stv_port":27036,"stv_name":"Uncletopia | Chicago | 3 | All Maps | STV","players":null},{"server_id":403,"name":"Uncletopia | Chicago | 4 | All Maps","name_short":"chi-4","host":"chi-1.us.uncletopia.com","port":27045,"enabled":true,"region":"us-central","cc":"us","latitude":41.881832,"longitude":-87.62318,"reserved":0,"last_update":"0001-01-01T00:00:00Z","name_a2s":"Uncletopia | Chicago | 4 | All Maps","protocol":17,"map":"koth_lakeside_final","folder":"tf","game":"Team Fortress","app_id":440,"player_count":0,"max_players":24,"Bots":0,"server_type":"Dedicated","server_os":"Linux","password":true,"vac":true,"version":"7742253","steam_id":85568392924515193,"keywords":["cp","nocrits","nodmgspread","uncletopia"],"game_id":440,"stv_port":27046,"stv_name":"Uncletopia | Chicago | 4 | All Maps | STV","players":null},{"server_id":36,"name":"Uncletopia | Chicago | 5 | All Maps","name_short":"chi-5","host":"chi-2.us.uncletopia.com","port":27015,"enabled":true,"region":"us-central","cc":"us","latitude":41.881832,"longitude":-87.62318,"reserved":0,"last_update":"0001-01-01T00:00:00Z","name_a2s":"Uncletopia | Chicago | 5 | All Maps","protocol":17,"map":"pl_frontier_final","folder":"tf","game":"Team Fortress","app_id":440,"player_count":0,"max_players":24,"Bots":0,"server_type":"Dedicated","server_os":"Linux","password":true,"vac":true,"version":"7742253","steam_id":85568392924866362,"keywords":["nocrits","nodmgspread","payload","uncletopia"],"game_id":440,"stv_port":27016,"stv_name":"Uncletopia | Chicago | 5 | All Maps | STV","players":null},{"server_id":37,"name":"Uncletopia | Chicago | 6 | All Maps","name_short":"chi-6","host":"chi-2.us.uncletopia.com","port":27025,"enabled":true,"region":"us-central","cc":"us","latitude":41.881832,"longitude":-87.62318,"reserved":0,"last_update":"0001-01-01T00:00:00Z","name_a2s":"Uncletopia | Chicago | 6 | All Maps","protocol":17,"map":"cp_sunshine","folder":"tf","game":"Team Fortress","app_id":440,"player_count":0,"max_players":24,"Bots":0,"server_type":"Dedicated","server_os":"Linux","password":true,"vac":true,"version":"7742253","steam_id":85568392924866363,"keywords":["cp","nocrits","nodmgspread","uncletopia"],"game_id":440,"stv_port":27026,"stv_name":"Uncletopia | Chicago | 6 | All Maps | STV","players":null},{"server_id":38,"name":"Uncletopia | Chicago | 7 | Stopwatch Beta","name_short":"chi-7","host":"chi-2.us.uncletopia.com","port":27035,"enabled":true,"region":"us-central","cc":"us","latitude":41.881832,"longitude":-87.62318,"reserved":0,"last_update":"0001-01-01T00:00:00Z","name_a2s":"Uncletopia | Chicago | 7 | Stopwatch Beta","protocol":17,"map":"koth_lakeside_final","folder":"tf","game":"Team Fortress","app_id":440,"player_count":0,"max_players":24,"Bots":0,"server_type":"Dedicated","server_os":"Linux","password":true,"vac":true,"version":"7742253","steam_id":85568392924866364,"keywords":["cp","nocrits","nodmgspread","uncletopia"],"game_id":440,"stv_port":27036,"stv_name":"Uncletopia | Chicago | 7 | Stopwatch Beta | STV","players":null},{"server_id":39,"name":"Uncletopia | Chicago | 8 | Community","name_short":"chi-8","host":"chi-2.us.uncletopia.com","port":27045,"enabled":true,"region":"us-central","cc":"us","latitude":41.881832,"longitude":-87.62318,"reserved":0,"last_update":"0001-01-01T00:00:00Z","name_a2s":"Uncletopia | Chicago | 8 | Community","protocol":17,"map":"koth_lakeside_final","folder":"tf","game":"Team Fortress","app_id":440,"player_count":0,"max_players":24,"Bots":0,"server_type":"Dedicated","server_os":"Linux","password":true,"vac":true,"version":"7742253","steam_id":85568392924866365,"keywords":["cp","nocrits","nodmgspread","uncletopia"],"game_id":440,"stv_port":27046,"stv_name":"Uncletopia | Chicago | 8 | Community | STV","players":null},{"server_id":8,"name":"Uncletopia | Dallas | 1 | All Maps","name_short":"dal-1","host":"dal-1.us.uncletopia.com","port":27015,"enabled":true,"region":"us-central","cc":"us","latitude":32.779167,"longitude":-96.80889,"reserved":0,"last_update":"0001-01-01T00:00:00Z","name_a2s":"Uncletopia | Dallas | 1 | All Maps","protocol":17,"map":"koth_lakeside_final","folder":"tf","game":"Team Fortress","app_id":440,"player_count":0,"max_players":24,"Bots":0,"server_type":"Dedicated","server_os":"Linux","password":true,"vac":true,"version":"7742253","steam_id":85568392924469986,"keywords":["cp","nocrits","nodmgspread","uncletopia"],"game_id":440,"stv_port":27016,"stv_name":"Uncletopia | Dallas | 1 | All Maps | STV","players":null},{"server_id":108,"name":"Uncletopia | Dallas | 2 | All Maps","name_short":"dal-2","host":"dal-1.us.uncletopia.com","port":27025,"enabled":true,"region":"us-central","cc":"us","latitude":32.779167,"longitude":-96.80889,"reserved":0,"last_update":"0001-01-01T00:00:00Z","name_a2s":"Uncletopia | Dallas | 2 | All Maps","protocol":17,"map":"koth_viaduct","folder":"tf","game":"Team Fortress","app_id":440,"player_count":0,"max_players":24,"Bots":0,"server_type":"Dedicated","server_os":"Linux","password":true,"vac":true,"version":"7742253","steam_id":85568392924469988,"keywords":["cp","nocrits","nodmgspread","uncletopia"],"game_id":440,"stv_port":27026,"stv_name":"Uncletopia | Dallas | 2 | All Maps | STV","players":null},{"server_id":5,"name":"Uncletopia | Frankfurt | 1 | All Maps","name_short":"frk-1","host":"frk-1.de.uncletopia.com","port":27015,"enabled":true,"region":"eu","cc":"de","latitude":50.110924,"longitude":8.682127,"reserved":0,"last_update":"0001-01-01T00:00:00Z","name_a2s":"Uncletopia | Frankfurt | 1 | All Maps","protocol":17,"map":"koth_viaduct","folder":"tf","game":"Team Fortress","app_id":440,"player_count":1,"max_players":24,"Bots":0,"server_type":"Dedicated","server_os":"Linux","password":true,"vac":true,"version":"7742253","steam_id":85568392924469989,"keywords":["cp","nocrits","nodmgspread","uncletopia"],"game_id":440,"stv_port":27016,"stv_name":"Uncletopia | Frankfurt | 1 | All Maps | STV","players":[{"user_id":30,"name":"IRAcide","steam_id":76561198236149504,"connected_time":175000000000,"state":"connecting","ping":0}]},{"server_id":110,"name":"Uncletopia | Frankfurt | 2 | All Maps","name_short":"frk-2","host":"frk-1.de.uncletopia.com","port":27025,"enabled":true,"region":"eu","cc":"de","latitude":50.110924,"longitude":8.682127,"reserved":0,"last_update":"0001-01-01T00:00:00Z","name_a2s":"Uncletopia | Frankfurt | 2 | All Maps","protocol":17,"map":"pl_upward","folder":"tf","game":"Team Fortress","app_id":440,"player_count":24,"max_players":24,"Bots":0,"server_type":"Dedicated","server_os":"Linux","password":true,"vac":true,"version":"7742253","steam_id":85568392924469990,"keywords":["nocrits","nodmgspread","payload","uncletopia"],"game_id":440,"stv_port":27026,"stv_name":"Uncletopia | Frankfurt | 2 | All Maps | STV","players":[{"user_id":489,"name":"Julez","steam_id":76561198045505082,"connected_time":1596000000000,"state":"active","ping":75},{"user_id":451,"name":"Iva","steam_id":76561198254963150,"connected_time":2035000000000,"state":"active","ping":52},{"user_id":428,"name":"jmp","steam_id":76561198168283286,"connected_time":3034000000000,"state":"active","ping":75},{"user_id":437,"name":"tacocat","steam_id":76561198744866797,"connected_time":2882000000000,"state":"active","ping":86},{"user_id":408,"name":"Asocial","steam_id":76561198328594578,"connected_time":4403000000000,"state":"active","ping":96},{"user_id":405,"name":"XPullaHiiri","steam_id":76561198031652375,"connected_time":4711000000000,"state":"active","ping":86},{"user_id":474,"name":"Cars","steam_id":76561198173329977,"connected_time":1705000000000,"state":"active","ping":64},{"user_id":493,"name":"Fenev","steam_id":76561198030640908,"connected_time":1231000000000,"state":"active","ping":45},{"user_id":490,"name":"ike","steam_id":76561198039573338,"connected_time":1594000000000,"state":"active","ping":92},{"user_id":505,"name":"Krabs","steam_id":76561198161679477,"connected_time":385000000000,"state":"active","ping":59},{"user_id":409,"name":"The Fellow Feller","steam_id":76561198188864306,"connected_time":4401000000000,"state":"active","ping":62},{"user_id":502,"name":"LarsInABox","steam_id":76561198028329262,"connected_time":669000000000,"state":"active","ping":75},{"user_id":504,"name":"Trollface [ᴙ-μ]","steam_id":76561198418538887,"connected_time":413000000000,"state":"active","ping":92},{"user_id":443,"name":"VIN WEASEL","steam_id":76561198014387066,"connected_time":2632000000000,"state":"active","ping":83},{"user_id":468,"name":"Jesus","steam_id":76561198119288049,"connected_time":1733000000000,"state":"active","ping":66},{"user_id":507,"name":"Retard","steam_id":76561198217874317,"connected_time":183000000000,"state":"active","ping":76},{"user_id":486,"name":"Burpman","steam_id":76561198022897937,"connected_time":1622000000000,"state":"active","ping":61},{"user_id":440,"name":"FWDTRKR","steam_id":76561198060369427,"connected_time":2816000000000,"state":"active","ping":428},{"user_id":432,"name":"AviSheepie","steam_id":76561198154361272,"connected_time":3010000000000,"state":"active","ping":90},{"user_id":472,"name":"Jedi Knight","steam_id":76561198039030709,"connected_time":1711000000000,"state":"active","ping":54},{"user_id":407,"name":"Mr.Fosty","steam_id":76561198045212783,"connected_time":4421000000000,"state":"active","ping":78},{"user_id":389,"name":"LordTrap.exe","steam_id":76561198318089716,"connected_time":6005000000000,"state":"active","ping":53},{"user_id":491,"name":"akeno best waifu","steam_id":76561198267167505,"connected_time":1528000000000,"state":"active","ping":61},{"user_id":500,"name":"Pestdoktor","steam_id":76561198058159271,"connected_time":698000000000,"state":"active","ping":52}]},{"server_id":308,"name":"Uncletopia | Frankfurt | 3 | All Maps","name_short":"frk-3","host":"frk-1.de.uncletopia.com","port":27035,"enabled":true,"region":"eu","cc":"de","latitude":50.110924,"longitude":8.682127,"reserved":0,"last_update":"0001-01-01T00:00:00Z","name_a2s":"Uncletopia | Frankfurt | 3 | All Maps","protocol":17,"map":"pl_snowycoast","folder":"tf","game":"Team Fortress","app_id":440,"player_count":24,"max_players":24,"Bots":0,"server_type":"Dedicated","server_os":"Linux","password":true,"vac":true,"version":"7742253","steam_id":85568392924504274,"keywords":["nocrits","nodmgspread","payload","uncletopia"],"game_id":440,"stv_port":27036,"stv_name":"Uncletopia | Frankfurt | 3 | All Maps | STV","players":[{"user_id":414,"name":"dick cock ballin","steam_id":76561198169823317,"connected_time":6142000000000,"state":"active","ping":99},{"user_id":378,"name":"Optimist 50","steam_id":76561198039631442,"connected_time":8791000000000,"state":"active","ping":74},{"user_id":460,"name":"Realist 40","steam_id":76561198052476979,"connected_time":3381000000000,"state":"active","ping":87},{"user_id":482,"name":"dochris.2","steam_id":76561198026478625,"connected_time":464000000000,"state":"active","ping":45},{"user_id":486,"name":"Syd","steam_id":76561198020515027,"connected_time":456000000000,"state":"active","ping":83},{"user_id":490,"name":"Alin","steam_id":76561198059679991,"connected_time":188000000000,"state":"active","ping":94},{"user_id":399,"name":"wads","steam_id":76561198175406562,"connected_time":6993000000000,"state":"active","ping":64},{"user_id":476,"name":"john fortress","steam_id":76561198202668788,"connected_time":1608000000000,"state":"active","ping":58},{"user_id":464,"name":"9999 elo","steam_id":76561198155108452,"connected_time":2281000000000,"state":"active","ping":60},{"user_id":475,"name":"Dark ^^","steam_id":76561198036241064,"connected_time":1636000000000,"state":"active","ping":65},{"user_id":477,"name":"Tedkon","steam_id":76561198034141061,"connected_time":1606000000000,"state":"active","ping":141},{"user_id":454,"name":"Coaie de porc","steam_id":76561198148154986,"connected_time":4216000000000,"state":"active","ping":71},{"user_id":463,"name":"YuraGreek","steam_id":76561198050182252,"connected_time":2682000000000,"state":"active","ping":82},{"user_id":469,"name":"sareena","steam_id":76561198810194062,"connected_time":1998000000000,"state":"active","ping":78},{"user_id":489,"name":"frosty","steam_id":76561198094560834,"connected_time":261000000000,"state":"active","ping":61},{"user_id":484,"name":"citronous","steam_id":76561198093290934,"connected_time":461000000000,"state":"active","ping":59},{"user_id":481,"name":"核nucleoneツ","steam_id":76561198099372569,"connected_time":769000000000,"state":"active","ping":60},{"user_id":479,"name":"Kahvi","steam_id":76561198723244199,"connected_time":1004000000000,"state":"active","ping":90},{"user_id":488,"name":"Teamtrevien","steam_id":76561198085513932,"connected_time":420000000000,"state":"active","ping":68},{"user_id":480,"name":"Markerplier","steam_id":76561198875409640,"connected_time":982000000000,"state":"active","ping":70},{"user_id":458,"name":"Welder","steam_id":76561198355300561,"connected_time":3927000000000,"state":"active","ping":74},{"user_id":430,"name":"Pastoss","steam_id":76561198379098260,"connected_time":5542000000000,"state":"active","ping":53},{"user_id":487,"name":"mohemmedmokhter2005","steam_id":76561199197650506,"connected_time":449000000000,"state":"active","ping":116},{"user_id":468,"name":"cinny","steam_id":76561198832112629,"connected_time":2237000000000,"state":"active","ping":75}]},{"server_id":309,"name":"Uncletopia | Frankfurt | 4 | All Maps","name_short":"frk-4","host":"frk-1.de.uncletopia.com","port":27045,"enabled":true,"region":"eu","cc":"de","latitude":50.110924,"longitude":8.682127,"reserved":0,"last_update":"0001-01-01T00:00:00Z","name_a2s":"Uncletopia | Frankfurt | 4 | All Maps","protocol":17,"map":"pl_frontier_final","folder":"tf","game":"Team Fortress","app_id":440,"player_count":24,"max_players":24,"Bots":0,"server_type":"Dedicated","server_os":"Linux","password":true,"vac":true,"version":"7742253","steam_id":85568392924504275,"keywords":["nocrits","nodmgspread","payload","uncletopia"],"game_id":440,"stv_port":27046,"stv_name":"Uncletopia | Frankfurt | 4 | All Maps | STV","players":[{"user_id":231,"name":"Big Trader","steam_id":76561197992364667,"connected_time":19000000000,"state":"spawning","ping":90},{"user_id":172,"name":"Accolith","steam_id":76561198018899852,"connected_time":3815000000000,"state":"active","ping":66},{"user_id":222,"name":"r0la","steam_id":76561198128315340,"connected_time":929000000000,"state":"active","ping":80},{"user_id":221,"name":"Cippo95","steam_id":76561198255311582,"connected_time":986000000000,"state":"active","ping":64},{"user_id":225,"name":"duster cat","steam_id":76561198832231975,"connected_time":637000000000,"state":"active","ping":84},{"user_id":151,"name":"M. Hulot","steam_id":76561197994284798,"connected_time":4786000000000,"state":"active","ping":51},{"user_id":215,"name":"Echo of Abyss","steam_id":76561198981841782,"connected_time":1334000000000,"state":"active","ping":75},{"user_id":182,"name":"EVL1","steam_id":76561198308280944,"connected_time":3042000000000,"state":"active","ping":92},{"user_id":204,"name":"AnimeGirl","steam_id":76561198976155630,"connected_time":1826000000000,"state":"active","ping":76},{"user_id":224,"name":"RoXeUr-KaMiKaZe","steam_id":76561197998204782,"connected_time":850000000000,"state":"active","ping":56},{"user_id":223,"name":"★poyo★","steam_id":76561198150078959,"connected_time":903000000000,"state":"active","ping":92},{"user_id":184,"name":"Glueffert","steam_id":76561198905846180,"connected_time":2882000000000,"state":"active","ping":103},{"user_id":187,"name":"LeP0tato","steam_id":76561198077615937,"connected_time":2819000000000,"state":"active","ping":59},{"user_id":186,"name":"T1 (ted1)","steam_id":76561199229022826,"connected_time":2844000000000,"state":"active","ping":102},{"user_id":188,"name":"Денис Базука","steam_id":76561198835849082,"connected_time":2809000000000,"state":"active","ping":106},{"user_id":216,"name":"Formaly_Dressed","steam_id":76561198364309719,"connected_time":1318000000000,"state":"active","ping":75},{"user_id":189,"name":"Meki","steam_id":76561198108279631,"connected_time":2809000000000,"state":"active","ping":58},{"user_id":230,"name":"mobile dispenser","steam_id":76561198036162718,"connected_time":92000000000,"state":"active","ping":128},{"user_id":210,"name":"TJ1212","steam_id":76561199013575313,"connected_time":1788000000000,"state":"active","ping":72},{"user_id":220,"name":"TCIFU001","steam_id":76561198264044300,"connected_time":1031000000000,"state":"active","ping":101},{"user_id":229,"name":"Hey, I´m Andy!","steam_id":76561198060337777,"connected_time":105000000000,"state":"active","ping":63},{"user_id":193,"name":"Beb","steam_id":76561198106119248,"connected_time":2461000000000,"state":"active","ping":64},{"user_id":153,"name":"somehow danced","steam_id":76561198128250460,"connected_time":4758000000000,"state":"active","ping":100},{"user_id":226,"name":"gEyfrogsE","steam_id":76561199385772902,"connected_time":530000000000,"state":"active","ping":73}]},{"server_id":310,"name":"Uncletopia | Frankfurt | 5 | All Maps","name_short":"frk-5","host":"frk-1.de.uncletopia.com","port":27055,"enabled":true,"region":"eu","cc":"de","latitude":50.110924,"longitude":8.682127,"reserved":0,"last_update":"0001-01-01T00:00:00Z","name_a2s":"Uncletopia | Frankfurt | 5 | All Maps","protocol":17,"map":"pl_goldrush","folder":"tf","game":"Team Fortress","app_id":440,"player_count":23,"max_players":24,"Bots":0,"server_type":"Dedicated","server_os":"Linux","password":true,"vac":true,"version":"7742253","steam_id":85568392924504277,"keywords":["nocrits","nodmgspread","payload","uncletopia"],"game_id":440,"stv_port":27056,"stv_name":"Uncletopia | Frankfurt | 5 | All Maps | STV","players":[{"user_id":34,"name":"Faxter","steam_id":76561198011771605,"connected_time":6470000000000,"state":"active","ping":195},{"user_id":116,"name":"Magica","steam_id":76561198965200359,"connected_time":122000000000,"state":"active","ping":60},{"user_id":96,"name":"CanineCaribou52","steam_id":76561198869623946,"connected_time":2169000000000,"state":"active","ping":60},{"user_id":105,"name":"zaleek69","steam_id":76561198058877595,"connected_time":1063000000000,"state":"active","ping":60},{"user_id":119,"name":"Agame23","steam_id":76561198181992838,"connected_time":29000000000,"state":"active","ping":84},{"user_id":106,"name":"Ivan the Terrible","steam_id":76561198139595241,"connected_time":1060000000000,"state":"active","ping":71},{"user_id":123,"name":"silenk","steam_id":76561198367689055,"connected_time":0,"state":"connecting","ping":0},{"user_id":120,"name":"E Mc73","steam_id":76561198011749653,"connected_time":27000000000,"state":"active","ping":50},{"user_id":85,"name":"Acid","steam_id":76561198102110680,"connected_time":3977000000000,"state":"active","ping":81},{"user_id":65,"name":"5tgbnmju765","steam_id":76561198070738689,"connected_time":5841000000000,"state":"active","ping":67},{"user_id":100,"name":"zak","steam_id":76561197998895428,"connected_time":1718000000000,"state":"active","ping":52},{"user_id":109,"name":"binkstug","steam_id":76561198867644865,"connected_time":931000000000,"state":"active","ping":75},{"user_id":121,"name":"fluor","steam_id":76561199024012801,"connected_time":26000000000,"state":"active","ping":54},{"user_id":101,"name":"Kanye","steam_id":76561198350826913,"connected_time":1599000000000,"state":"active","ping":67},{"user_id":103,"name":"SpeddyMeddy","steam_id":76561197999693825,"connected_time":1092000000000,"state":"active","ping":57},{"user_id":122,"name":"wickEd_","steam_id":76561198048068999,"connected_time":8000000000,"state":"spawning","ping":180},{"user_id":117,"name":"Aleks","steam_id":76561198815609623,"connected_time":116000000000,"state":"active","ping":48},{"user_id":81,"name":"Gordon Birdman","steam_id":76561198013382324,"connected_time":4397000000000,"state":"active","ping":75},{"user_id":108,"name":"j100j","steam_id":76561198338726444,"connected_time":1021000000000,"state":"active","ping":99},{"user_id":102,"name":"dotdotdot","steam_id":76561198057628751,"connected_time":1420000000000,"state":"active","ping":70},{"user_id":73,"name":"Rambi","steam_id":76561199058078505,"connected_time":5439000000000,"state":"active","ping":152},{"user_id":69,"name":"Asperix","steam_id":76561198052537015,"connected_time":5784000000000,"state":"active","ping":95},{"user_id":97,"name":"JohnTraveltime","steam_id":76561199244281754,"connected_time":2071000000000,"state":"active","ping":79}]},{"server_id":311,"name":"Uncletopia | Frankfurt | 6 | All Maps","name_short":"frk-6","host":"frk-1.de.uncletopia.com","port":27065,"enabled":true,"region":"eu","cc":"de","latitude":50.110924,"longitude":8.682127,"reserved":0,"last_update":"0001-01-01T00:00:00Z","name_a2s":"Uncletopia | Frankfurt | 6 | All Maps","protocol":17,"map":"cp_mercenarypark","folder":"tf","game":"Team Fortress","app_id":440,"player_count":24,"max_players":24,"Bots":0,"server_type":"Dedicated","server_os":"Linux","password":true,"vac":true,"version":"7742253","steam_id":85568392924504278,"keywords":["cp","nocrits","nodmgspread","uncletopia"],"game_id":440,"stv_port":27066,"stv_name":"Uncletopia | Frankfurt | 6 | All Maps | STV","players":[{"user_id":380,"name":"Comandante","steam_id":76561198042272142,"connected_time":4115000000000,"state":"active","ping":108},{"user_id":441,"name":"Dolcelatte","steam_id":76561198038501770,"connected_time":416000000000,"state":"active","ping":51},{"user_id":358,"name":"Gwishin","steam_id":76561198257158275,"connected_time":5320000000000,"state":"active","ping":145},{"user_id":442,"name":"ᴍɪʟᴋ Cryspoeth47","steam_id":76561198892776023,"connected_time":414000000000,"state":"active","ping":154},{"user_id":378,"name":"goosi hoousi","steam_id":76561198024633116,"connected_time":4424000000000,"state":"active","ping":97},{"user_id":422,"name":"S1B0RG","steam_id":76561199025064312,"connected_time":1516000000000,"state":"active","ping":65},{"user_id":443,"name":"icebro","steam_id":76561199123450840,"connected_time":409000000000,"state":"active","ping":71},{"user_id":450,"name":"Andreus","steam_id":76561199403926001,"connected_time":303000000000,"state":"active","ping":66},{"user_id":444,"name":"WolfmanCZ","steam_id":76561199157141414,"connected_time":374000000000,"state":"active","ping":71},{"user_id":427,"name":"Gabys","steam_id":76561198282892553,"connected_time":1189000000000,"state":"active","ping":71},{"user_id":452,"name":"What's for dinner ?","steam_id":76561198199110998,"connected_time":260000000000,"state":"active","ping":70},{"user_id":386,"name":"can you smell","steam_id":76561198133532980,"connected_time":4102000000000,"state":"active","ping":61},{"user_id":419,"name":"Gandalf","steam_id":76561199072668363,"connected_time":1879000000000,"state":"active","ping":73},{"user_id":438,"name":"XtremeXposed","steam_id":76561198011231099,"connected_time":584000000000,"state":"active","ping":70},{"user_id":445,"name":"Rodia","steam_id":76561197968293161,"connected_time":346000000000,"state":"active","ping":60},{"user_id":387,"name":"Carry Krypl","steam_id":76561198136938121,"connected_time":4101000000000,"state":"active","ping":50},{"user_id":432,"name":"Zero (Orbital Gear Mastermind)","steam_id":76561198017416816,"connected_time":859000000000,"state":"active","ping":59},{"user_id":446,"name":"RiX","steam_id":76561197969053733,"connected_time":324000000000,"state":"active","ping":69},{"user_id":436,"name":"Coac","steam_id":76561198085265740,"connected_time":631000000000,"state":"active","ping":60},{"user_id":447,"name":"jumpyjake","steam_id":76561199092333537,"connected_time":321000000000,"state":"active","ping":57},{"user_id":451,"name":"TURBOCHIASSE","steam_id":76561198087713683,"connected_time":268000000000,"state":"active","ping":65},{"user_id":453,"name":"Magiccomplex","steam_id":76561199203555188,"connected_time":173000000000,"state":"active","ping":39},{"user_id":454,"name":"Nakano","steam_id":76561198866569125,"connected_time":16000000000,"state":"spawning","ping":87},{"user_id":431,"name":"blindcinema_","steam_id":76561198026908105,"connected_time":1007000000000,"state":"active","ping":72}]},{"server_id":23,"name":"Uncletopia | Frankfurt | 7 | Stopwatch Beta","name_short":"frk-7","host":"frk-1.de.uncletopia.com","port":27075,"enabled":true,"region":"eu","cc":"de","latitude":50.110924,"longitude":8.682127,"reserved":0,"last_update":"0001-01-01T00:00:00Z","name_a2s":"Uncletopia | Frankfurt | 7 | Stopwatch Beta","protocol":17,"map":"workshop/cp_reckoner_rc6.ugc674719999","folder":"tf","game":"Team Fortress","app_id":440,"player_count":2,"max_players":24,"Bots":0,"server_type":"Dedicated","server_os":"Linux","password":true,"vac":true,"version":"7742253","steam_id":85568392924742827,"keywords":["cp","nocrits","nodmgspread","uncletopia"],"game_id":440,"stv_port":27076,"stv_name":"Uncletopia | Frankfurt | 7 | Stopwatch Beta | STV","players":[{"user_id":415,"name":"Mr.O #deletesniper","steam_id":76561198039567498,"connected_time":177000000000,"state":"active","ping":59},{"user_id":416,"name":"Nick","steam_id":76561198036109469,"connected_time":165000000000,"state":"active","ping":90}]},{"server_id":24,"name":"Uncletopia | Frankfurt | 8 | Community","name_short":"frk-8","host":"frk-1.de.uncletopia.com","port":27085,"enabled":true,"region":"eu","cc":"de","latitude":50.110924,"longitude":8.682127,"reserved":0,"last_update":"0001-01-01T00:00:00Z","name_a2s":"Uncletopia | Frankfurt | 8 | Community","protocol":17,"map":"workshop/cp_caldera_rc2.ugc2834196889","folder":"tf","game":"Team Fortress","app_id":440,"player_count":20,"max_players":24,"Bots":0,"server_type":"Dedicated","server_os":"Linux","password":true,"vac":true,"version":"7742253","steam_id":85568392924742828,"keywords":["cp","nocrits","nodmgspread","uncletopia"],"game_id":440,"stv_port":27086,"stv_name":"Uncletopia | Frankfurt | 8 | Community | STV","players":[{"user_id":70,"name":"daanvanliempt05","steam_id":76561198355398948,"connected_time":1340000000000,"state":"active","ping":49},{"user_id":87,"name":"LeninPro1870","steam_id":76561199175688390,"connected_time":975000000000,"state":"active","ping":75},{"user_id":72,"name":"Astroterix","steam_id":76561198799135775,"connected_time":1317000000000,"state":"active","ping":62},{"user_id":73,"name":"ShreeX s³","steam_id":76561198037425009,"connected_time":1315000000000,"state":"active","ping":50},{"user_id":97,"name":"Chillrend","steam_id":76561198452963141,"connected_time":150000000000,"state":"active","ping":94},{"user_id":88,"name":"Tec Nick","steam_id":76561198206276992,"connected_time":942000000000,"state":"active","ping":73},{"user_id":98,"name":"Bash","steam_id":76561198013235573,"connected_time":50000000000,"state":"active","ping":74},{"user_id":99,"name":"ptsd","steam_id":76561199382587543,"connected_time":20000000000,"state":"spawning","ping":126},{"user_id":74,"name":"awesome rat","steam_id":76561198252656316,"connected_time":1302000000000,"state":"active","ping":134},{"user_id":76,"name":"Lord Maldimort","steam_id":76561198063150039,"connected_time":1246000000000,"state":"active","ping":65},{"user_id":96,"name":"bugpov","steam_id":76561198104896547,"connected_time":187000000000,"state":"active","ping":68},{"user_id":77,"name":"terrine de poisson","steam_id":76561198182874945,"connected_time":1242000000000,"state":"active","ping":50},{"user_id":82,"name":"Vitun Jonne","steam_id":76561198401737380,"connected_time":1226000000000,"state":"active","ping":60},{"user_id":65,"name":"am baby","steam_id":76561198037550223,"connected_time":1482000000000,"state":"active","ping":105},{"user_id":89,"name":"asetils","steam_id":76561198897732673,"connected_time":940000000000,"state":"active","ping":83},{"user_id":78,"name":"Malsi","steam_id":76561199061284165,"connected_time":1241000000000,"state":"active","ping":79},{"user_id":79,"name":"Agnichor","steam_id":76561198856476667,"connected_time":1233000000000,"state":"active","ping":92},{"user_id":80,"name":"zek","steam_id":76561198862763731,"connected_time":1233000000000,"state":"active","ping":60},{"user_id":83,"name":"Zilouw","steam_id":76561198026596988,"connected_time":1225000000000,"state":"active","ping":67},{"user_id":94,"name":"KeanuCheems","steam_id":76561198145580689,"connected_time":398000000000,"state":"active","ping":69}]},{"server_id":202,"name":"Uncletopia | Hong Kong | 1 | All Maps","name_short":"hgk-1","host":"hgk-1.hk.uncletopia.com","port":27015,"enabled":true,"region":"asia","cc":"hk","latitude":22.302711,"longitude":114.177216,"reserved":0,"last_update":"0001-01-01T00:00:00Z","name_a2s":"Uncletopia | Hong Kong | 1 | All Maps","protocol":17,"map":"cp_snakewater_final1","folder":"tf","game":"Team Fortress","app_id":440,"player_count":1,"max_players":24,"Bots":0,"server_type":"Dedicated","server_os":"Linux","password":true,"vac":true,"version":"7742253","steam_id":85568392924494504,"keywords":["cp","nocrits","nodmgspread","uncletopia"],"game_id":440,"stv_port":27016,"stv_name":"Uncletopia | Hong Kong | 1 | All Maps | STV","players":[{"user_id":914,"name":"juan233","steam_id":76561198867566247,"connected_time":1599000000000,"state":"active","ping":106}]},{"server_id":1,"name":"Uncletopia | Los Angeles | 1 | All Maps","name_short":"lax-1","host":"lax-1.us.uncletopia.com","port":27015,"enabled":true,"region":"us-west","cc":"us","latitude":33.94279,"longitude":-118.41004,"reserved":0,"last_update":"0001-01-01T00:00:00Z","name_a2s":"Uncletopia | Los Angeles | 1 | All Maps","protocol":17,"map":"cp_dustbowl","folder":"tf","game":"Team Fortress","app_id":440,"player_count":0,"max_players":24,"Bots":0,"server_type":"Dedicated","server_os":"Linux","password":true,"vac":true,"version":"7742253","steam_id":85568392924469991,"keywords":["cp","nocrits","nodmgspread","uncletopia"],"game_id":440,"stv_port":27016,"stv_name":"Uncletopia | Los Angeles | 1 | All Maps | STV","players":null},{"server_id":112,"name":"Uncletopia | Los Angeles | 2 | All Maps","name_short":"lax-2","host":"lax-1.us.uncletopia.com","port":27025,"enabled":true,"region":"us-west","cc":"us","latitude":33.94279,"longitude":-118.41004,"reserved":0,"last_update":"0001-01-01T00:00:00Z","name_a2s":"Uncletopia | Los Angeles | 2 | All Maps","protocol":17,"map":"pl_frontier_final","folder":"tf","game":"Team Fortress","app_id":440,"player_count":0,"max_players":24,"Bots":0,"server_type":"Dedicated","server_os":"Linux","password":true,"vac":true,"version":"7742253","steam_id":85568392924469992,"keywords":["nocrits","nodmgspread","payload","uncletopia"],"game_id":440,"stv_port":27026,"stv_name":"Uncletopia | Los Angeles | 2 | All Maps | STV","players":null},{"server_id":324,"name":"Uncletopia | Los Angeles | 3 | All Maps","name_short":"lax-3","host":"lax-1.us.uncletopia.com","port":27035,"enabled":true,"region":"us-west","cc":"us","latitude":33.94279,"longitude":-118.41004,"reserved":0,"last_update":"0001-01-01T00:00:00Z","name_a2s":"Uncletopia | Los Angeles | 3 | All Maps","protocol":17,"map":"cp_snakewater_final1","folder":"tf","game":"Team Fortress","app_id":440,"player_count":0,"max_players":24,"Bots":0,"server_type":"Dedicated","server_os":"Linux","password":true,"vac":true,"version":"7742253","steam_id":85568392924510198,"keywords":["cp","nocrits","nodmgspread","uncletopia"],"game_id":440,"stv_port":27036,"stv_name":"Uncletopia | Los Angeles | 3 | All Maps | STV","players":null},{"server_id":25,"name":"Uncletopia | Los Angeles | 4 | Stopwatch Beta","name_short":"lax-4","host":"lax-1.us.uncletopia.com","port":27045,"enabled":true,"region":"us-west","cc":"us","latitude":33.94279,"longitude":-118.41004,"reserved":0,"last_update":"0001-01-01T00:00:00Z","name_a2s":"Uncletopia | Los Angeles | 4 | Stopwatch Beta","protocol":17,"map":"pl_swiftwater_final1","folder":"tf","game":"Team Fortress","app_id":440,"player_count":0,"max_players":24,"Bots":0,"server_type":"Dedicated","server_os":"Linux","password":true,"vac":true,"version":"7742253","steam_id":85568392924510199,"keywords":["nocrits","nodmgspread","payload","uncletopia"],"game_id":440,"stv_port":27046,"stv_name":"Uncletopia | Los Angeles | 4 | Stopwatch Beta | STV","players":null},{"server_id":11,"name":"Uncletopia | London | 1 | All Maps","name_short":"lon-1","host":"lon-1.uk.uncletopia.com","port":27015,"enabled":true,"region":"eu","cc":"gb","latitude":51.509865,"longitude":-0.118092,"reserved":0,"last_update":"0001-01-01T00:00:00Z","name_a2s":"Uncletopia | London | 1 | All Maps","protocol":17,"map":"cp_steel","folder":"tf","game":"Team Fortress","app_id":440,"player_count":24,"max_players":24,"Bots":0,"server_type":"Dedicated","server_os":"Linux","password":true,"vac":true,"version":"7742253","steam_id":85568392924367362,"keywords":["cp","nocrits","nodmgspread","uncletopia"],"game_id":440,"stv_port":27016,"stv_name":"Uncletopia | London | 1 | All Maps | STV","players":[{"user_id":566,"name":"gamerweed5","steam_id":76561198087651151,"connected_time":2707000000000,"state":"active","ping":43},{"user_id":593,"name":"Firearms","steam_id":76561197989867612,"connected_time":67000000000,"state":"active","ping":42},{"user_id":579,"name":"Ëmprëss★Cåkyヅ","steam_id":76561198174621178,"connected_time":1071000000000,"state":"active","ping":69},{"user_id":580,"name":"punchmypotatoes","steam_id":76561198091255731,"connected_time":893000000000,"state":"active","ping":54},{"user_id":583,"name":"nudjura","steam_id":76561198281986139,"connected_time":295000000000,"state":"active","ping":42},{"user_id":441,"name":"tactical783","steam_id":76561199051688560,"connected_time":10598000000000,"state":"active","ping":60},{"user_id":581,"name":"Bogun$$","steam_id":76561198412353819,"connected_time":642000000000,"state":"active","ping":90},{"user_id":591,"name":"Zoran Snajper","steam_id":76561198312564061,"connected_time":145000000000,"state":"spawning","ping":91},{"user_id":584,"name":"Engi-Nearing","steam_id":76561199221172552,"connected_time":260000000000,"state":"active","ping":55},{"user_id":578,"name":"DropShot","steam_id":76561198042476724,"connected_time":1090000000000,"state":"active","ping":92},{"user_id":585,"name":"Director","steam_id":76561198343273231,"connected_time":245000000000,"state":"active","ping":67},{"user_id":527,"name":"Scrap","steam_id":76561199159785850,"connected_time":5228000000000,"state":"active","ping":45},{"user_id":586,"name":"alf","steam_id":76561198060249715,"connected_time":237000000000,"state":"active","ping":48},{"user_id":573,"name":"Munibe","steam_id":76561198107967904,"connected_time":1921000000000,"state":"active","ping":58},{"user_id":587,"name":"*dies from cringe*","steam_id":76561198357871760,"connected_time":225000000000,"state":"active","ping":87},{"user_id":570,"name":"Major","steam_id":76561198086483282,"connected_time":2289000000000,"state":"active","ping":52},{"user_id":557,"name":"Een schaap zonder slaap","steam_id":76561198084808410,"connected_time":3362000000000,"state":"active","ping":54},{"user_id":532,"name":"Dexity","steam_id":76561198056130461,"connected_time":4999000000000,"state":"active","ping":57},{"user_id":588,"name":"⭐SomeRandomGuy⭐","steam_id":76561198325459799,"connected_time":217000000000,"state":"active","ping":118},{"user_id":561,"name":"Five Eyes","steam_id":76561198167708383,"connected_time":3213000000000,"state":"active","ping":69},{"user_id":589,"name":"sacha","steam_id":76561198098065932,"connected_time":208000000000,"state":"active","ping":47},{"user_id":590,"name":"Za_Warudo_69_420","steam_id":76561199172415952,"connected_time":199000000000,"state":"active","ping":53},{"user_id":562,"name":"klaus","steam_id":76561198150394201,"connected_time":3197000000000,"state":"active","ping":89},{"user_id":546,"name":"FluiDCobRa™","steam_id":76561198142461723,"connected_time":3921000000000,"state":"active","ping":103}]},{"server_id":114,"name":"Uncletopia | London | 2 | All Maps","name_short":"lon-2","host":"lon-1.uk.uncletopia.com","port":27025,"enabled":true,"region":"eu","cc":"gb","latitude":51.509865,"longitude":-0.118092,"reserved":0,"last_update":"0001-01-01T00:00:00Z","name_a2s":"Uncletopia | London | 2 | All Maps","protocol":17,"map":"pl_badwater","folder":"tf","game":"Team Fortress","app_id":440,"player_count":24,"max_players":24,"Bots":0,"server_type":"Dedicated","server_os":"Linux","password":true,"vac":true,"version":"7742253","steam_id":85568392924470941,"keywords":["nocrits","nodmgspread","payload","uncletopia"],"game_id":440,"stv_port":27026,"stv_name":"Uncletopia | London | 2 | All Maps | STV","players":[{"user_id":242,"name":"D4nny","steam_id":76561198105028151,"connected_time":1861000000000,"state":"active","ping":55},{"user_id":191,"name":"Zerfesh","steam_id":76561198117534358,"connected_time":5934000000000,"state":"active","ping":93},{"user_id":261,"name":"fuego","steam_id":76561198054162681,"connected_time":761000000000,"state":"active","ping":72},{"user_id":206,"name":"Memesus","steam_id":76561199362236174,"connected_time":4564000000000,"state":"active","ping":68},{"user_id":200,"name":"Noob_with_source","steam_id":76561198870362103,"connected_time":5434000000000,"state":"active","ping":57},{"user_id":235,"name":"rummy","steam_id":76561197997573379,"connected_time":2337000000000,"state":"active","ping":34},{"user_id":254,"name":"Clitorina","steam_id":76561198077570815,"connected_time":1342000000000,"state":"active","ping":45},{"user_id":264,"name":"Bluecat11","steam_id":76561198062566771,"connected_time":616000000000,"state":"active","ping":96},{"user_id":262,"name":"lewd femboy (new mouse)","steam_id":76561198413545609,"connected_time":756000000000,"state":"active","ping":55},{"user_id":236,"name":"Bob","steam_id":76561198218200489,"connected_time":2331000000000,"state":"active","ping":49},{"user_id":272,"name":"fénix","steam_id":76561198083199151,"connected_time":58000000000,"state":"active","ping":58},{"user_id":244,"name":"Leituga","steam_id":76561198051127598,"connected_time":1816000000000,"state":"active","ping":80},{"user_id":258,"name":"Windows Vista Cruiser","steam_id":76561198064102233,"connected_time":884000000000,"state":"active","ping":65},{"user_id":252,"name":"Mike","steam_id":76561198228455736,"connected_time":1565000000000,"state":"active","ping":47},{"user_id":270,"name":"aura","steam_id":76561197991687793,"connected_time":419000000000,"state":"active","ping":73},{"user_id":267,"name":"Cig","steam_id":76561199348845694,"connected_time":578000000000,"state":"active","ping":68},{"user_id":155,"name":"poshto;))","steam_id":76561198106182078,"connected_time":8520000000000,"state":"active","ping":113},{"user_id":271,"name":"jaime8D","steam_id":76561197980590671,"connected_time":413000000000,"state":"active","ping":90},{"user_id":257,"name":"Kaishakunin","steam_id":76561198028123874,"connected_time":1160000000000,"state":"active","ping":96},{"user_id":208,"name":"SaltBoy","steam_id":76561198112561381,"connected_time":4540000000000,"state":"active","ping":56},{"user_id":194,"name":"Never Über Me","steam_id":76561198140522687,"connected_time":5825000000000,"state":"active","ping":79},{"user_id":246,"name":"zheel","steam_id":76561198354135485,"connected_time":1799000000000,"state":"active","ping":75},{"user_id":268,"name":"gulch","steam_id":76561199227946025,"connected_time":578000000000,"state":"active","ping":160},{"user_id":233,"name":"Sim","steam_id":76561198086641180,"connected_time":2407000000000,"state":"active","ping":91}]},{"server_id":320,"name":"Uncletopia | London | 3 | All Maps","name_short":"lon-3","host":"lon-1.uk.uncletopia.com","port":27035,"enabled":true,"region":"eu","cc":"gb","latitude":51.509865,"longitude":-0.118092,"reserved":0,"last_update":"0001-01-01T00:00:00Z","name_a2s":"Uncletopia | London | 3 | All Maps","protocol":17,"map":"cp_powerhouse","folder":"tf","game":"Team Fortress","app_id":440,"player_count":23,"max_players":24,"Bots":0,"server_type":"Dedicated","server_os":"Linux","password":true,"vac":true,"version":"7742253","steam_id":85568392924510192,"keywords":["cp","nocrits","nodmgspread","uncletopia"],"game_id":440,"stv_port":27036,"stv_name":"Uncletopia | London | 3 | All Maps | STV","players":[{"user_id":358,"name":"Penis Contortionist","steam_id":76561198073663784,"connected_time":694000000000,"state":"active","ping":51},{"user_id":369,"name":"Dis Guy","steam_id":76561198363737206,"connected_time":223000000000,"state":"active","ping":48},{"user_id":352,"name":"VibeCheck","steam_id":76561198425961218,"connected_time":944000000000,"state":"active","ping":92},{"user_id":364,"name":"Jughead","steam_id":76561198000355410,"connected_time":408000000000,"state":"active","ping":37},{"user_id":360,"name":"Hamzurger","steam_id":76561199436202176,"connected_time":600000000000,"state":"active","ping":142},{"user_id":345,"name":"jason","steam_id":76561198060780111,"connected_time":1342000000000,"state":"active","ping":74},{"user_id":355,"name":"porridge","steam_id":76561198044585737,"connected_time":779000000000,"state":"active","ping":45},{"user_id":346,"name":"AWG","steam_id":76561198178218778,"connected_time":1298000000000,"state":"active","ping":52},{"user_id":267,"name":"TryTane","steam_id":76561198133293111,"connected_time":6859000000000,"state":"active","ping":55},{"user_id":350,"name":"JeanCorben","steam_id":76561197965133561,"connected_time":958000000000,"state":"active","ping":41},{"user_id":361,"name":"VORTEX(COMMS OPEN)","steam_id":76561199074746528,"connected_time":439000000000,"state":"active","ping":85},{"user_id":373,"name":"G.R.E","steam_id":76561197979806514,"connected_time":18000000000,"state":"active","ping":44},{"user_id":365,"name":"decriminalise goblins","steam_id":76561198048257605,"connected_time":397000000000,"state":"active","ping":59},{"user_id":366,"name":"Cloudberry","steam_id":76561198035612538,"connected_time":393000000000,"state":"active","ping":63},{"user_id":367,"name":"Calmedy","steam_id":76561198295310457,"connected_time":363000000000,"state":"active","ping":50},{"user_id":372,"name":"sHIFTINGvORTEX","steam_id":76561198231648332,"connected_time":118000000000,"state":"active","ping":58},{"user_id":371,"name":"Pyrolander","steam_id":76561198050785450,"connected_time":204000000000,"state":"active","ping":50},{"user_id":347,"name":"CruelGospel","steam_id":76561197990884259,"connected_time":1292000000000,"state":"active","ping":87},{"user_id":311,"name":"CampMaster49","steam_id":76561198353096926,"connected_time":2859000000000,"state":"active","ping":94},{"user_id":344,"name":"___","steam_id":76561198189529773,"connected_time":1385000000000,"state":"active","ping":48},{"user_id":341,"name":"airdog","steam_id":76561198987650016,"connected_time":1446000000000,"state":"active","ping":59},{"user_id":286,"name":"V","steam_id":76561198200704209,"connected_time":5180000000000,"state":"active","ping":105},{"user_id":331,"name":"goofy goober","steam_id":76561198013237629,"connected_time":1989000000000,"state":"active","ping":85}]},{"server_id":321,"name":"Uncletopia | London | 4 | All Maps","name_short":"lon-4","host":"lon-1.uk.uncletopia.com","port":27045,"enabled":true,"region":"eu","cc":"gb","latitude":51.509865,"longitude":-0.118092,"reserved":0,"last_update":"0001-01-01T00:00:00Z","name_a2s":"Uncletopia | London | 4 | All Maps","protocol":17,"map":"pl_barnblitz","folder":"tf","game":"Team Fortress","app_id":440,"player_count":24,"max_players":24,"Bots":0,"server_type":"Dedicated","server_os":"Linux","password":true,"vac":true,"version":"7742253","steam_id":85568392924510193,"keywords":["nocrits","nodmgspread","payload","uncletopia"],"game_id":440,"stv_port":27046,"stv_name":"Uncletopia | London | 4 | All Maps | STV","players":[{"user_id":160,"name":"Zhong Xina","steam_id":76561198228064312,"connected_time":1532000000000,"state":"active","ping":75},{"user_id":156,"name":":)","steam_id":76561198039964082,"connected_time":1799000000000,"state":"active","ping":60},{"user_id":166,"name":"Benzo Fury","steam_id":76561198025259336,"connected_time":1371000000000,"state":"active","ping":41},{"user_id":157,"name":"You should killbind NOW","steam_id":76561198064795519,"connected_time":1658000000000,"state":"active","ping":55},{"user_id":150,"name":"GRcrafter","steam_id":76561198372186715,"connected_time":2159000000000,"state":"active","ping":100},{"user_id":136,"name":"Otminas","steam_id":76561198333681520,"connected_time":2664000000000,"state":"active","ping":78},{"user_id":175,"name":"Kestrel","steam_id":76561198144033005,"connected_time":180000000000,"state":"active","ping":48},{"user_id":48,"name":"TylowStar","steam_id":76561198357107806,"connected_time":8754000000000,"state":"active","ping":78},{"user_id":167,"name":"NFTs are the future!","steam_id":76561198128506921,"connected_time":1139000000000,"state":"active","ping":78},{"user_id":109,"name":"Pabs :D","steam_id":76561198000016962,"connected_time":4382000000000,"state":"active","ping":71},{"user_id":164,"name":"LasagnaLarry22","steam_id":76561198089478290,"connected_time":1394000000000,"state":"active","ping":38},{"user_id":119,"name":"Ｒ Ｏ Ｂ Ｂ Ｅ Ｒ Ｔ","steam_id":76561198134404830,"connected_time":3591000000000,"state":"active","ping":123},{"user_id":108,"name":"тукку ирма","steam_id":76561197998715016,"connected_time":4528000000000,"state":"active","ping":62},{"user_id":122,"name":"FUKAYU","steam_id":76561198380484033,"connected_time":3539000000000,"state":"active","ping":51},{"user_id":138,"name":"G/3","steam_id":76561198234844188,"connected_time":2547000000000,"state":"active","ping":59},{"user_id":174,"name":"Mata_FM11","steam_id":76561198044824504,"connected_time":695000000000,"state":"active","ping":73},{"user_id":151,"name":"MilkEnjoyer","steam_id":76561198323781374,"connected_time":2157000000000,"state":"active","ping":85},{"user_id":170,"name":".quickfast.","steam_id":76561199438900919,"connected_time":1058000000000,"state":"active","ping":56},{"user_id":172,"name":"joe","steam_id":76561198968576397,"connected_time":790000000000,"state":"active","ping":61},{"user_id":123,"name":"the","steam_id":76561198293567489,"connected_time":3521000000000,"state":"active","ping":66},{"user_id":124,"name":"Sir Häberli Bänz","steam_id":76561198138294650,"connected_time":3466000000000,"state":"active","ping":58},{"user_id":145,"name":"kornetov.vitalya","steam_id":76561199286034833,"connected_time":2357000000000,"state":"active","ping":166},{"user_id":169,"name":"0xDEADBEEF","steam_id":76561199075416111,"connected_time":1138000000000,"state":"active","ping":79},{"user_id":173,"name":"BingusDingus","steam_id":76561198310983903,"connected_time":763000000000,"state":"active","ping":48}]},{"server_id":21,"name":"Uncletopia | London | 5 | All Maps","name_short":"lon-5","host":"lon-1.uk.uncletopia.com","port":27055,"enabled":true,"region":"eu","cc":"gb","latitude":51.509865,"longitude":-0.118092,"reserved":0,"last_update":"0001-01-01T00:00:00Z","name_a2s":"Uncletopia | London | 5 | All Maps","protocol":17,"map":"koth_highpass","folder":"tf","game":"Team Fortress","app_id":440,"player_count":7,"max_players":24,"Bots":0,"server_type":"Dedicated","server_os":"Linux","password":true,"vac":true,"version":"7742253","steam_id":85568392924742829,"keywords":["cp","nocrits","nodmgspread","uncletopia"],"game_id":440,"stv_port":27056,"stv_name":"Uncletopia | London | 5 | All Maps | STV","players":[{"user_id":34,"name":"TheFox.tf","steam_id":76561197996851702,"connected_time":668000000000,"state":"active","ping":60},{"user_id":31,"name":"beli-ben","steam_id":76561199230045254,"connected_time":962000000000,"state":"active","ping":60},{"user_id":42,"name":"skilltissues","steam_id":76561198025828664,"connected_time":84000000000,"state":"active","ping":50},{"user_id":28,"name":"Parapluie","steam_id":76561197971640301,"connected_time":1032000000000,"state":"active","ping":32},{"user_id":43,"name":"frEnCH dRuNK gUy","steam_id":76561198893686453,"connected_time":61000000000,"state":"active","ping":60},{"user_id":33,"name":"Garden Freeman","steam_id":76561199073314677,"connected_time":713000000000,"state":"active","ping":69},{"user_id":37,"name":"EchoBN","steam_id":76561198287127380,"connected_time":545000000000,"state":"active","ping":52}]},{"server_id":22,"name":"Uncletopia | London | 6 | All Maps","name_short":"lon-6","host":"lon-1.uk.uncletopia.com","port":27065,"enabled":true,"region":"eu","cc":"gb","latitude":51.509865,"longitude":-0.118092,"reserved":0,"last_update":"0001-01-01T00:00:00Z","name_a2s":"Uncletopia | London | 6 | All Maps","protocol":17,"map":"cp_dustbowl","folder":"tf","game":"Team Fortress","app_id":440,"player_count":24,"max_players":24,"Bots":0,"server_type":"Dedicated","server_os":"Linux","password":true,"vac":true,"version":"7742253","steam_id":85568392924742830,"keywords":["cp","nocrits","nodmgspread","uncletopia"],"game_id":440,"stv_port":27066,"stv_name":"Uncletopia | London | 6 | All Maps | STV","players":[{"user_id":296,"name":"You slumber","steam_id":76561198344639692,"connected_time":520000000000,"state":"active","ping":85},{"user_id":290,"name":"baro.ricky","steam_id":76561198172204039,"connected_time":900000000000,"state":"active","ping":77},{"user_id":267,"name":"LNRPdeadshot","steam_id":76561199160013540,"connected_time":2298000000000,"state":"active","ping":153},{"user_id":276,"name":"Woj","steam_id":76561199003258257,"connected_time":1773000000000,"state":"active","ping":66},{"user_id":266,"name":"Joel!","steam_id":76561198155422742,"connected_time":2578000000000,"state":"active","ping":39},{"user_id":295,"name":"Butt Hurling","steam_id":76561198093229786,"connected_time":660000000000,"state":"active","ping":82},{"user_id":293,"name":"sin","steam_id":76561198193416785,"connected_time":739000000000,"state":"active","ping":50},{"user_id":250,"name":"Nassu","steam_id":76561198147367577,"connected_time":3595000000000,"state":"active","ping":154},{"user_id":304,"name":"Yassine","steam_id":76561198140565712,"connected_time":153000000000,"state":"active","ping":49},{"user_id":291,"name":"el_ronia","steam_id":76561199203435546,"connected_time":864000000000,"state":"active","ping":73},{"user_id":305,"name":"Horiizunn","steam_id":76561198105572423,"connected_time":15000000000,"state":"spawning","ping":42},{"user_id":274,"name":"Orso","steam_id":76561198125670312,"connected_time":1784000000000,"state":"active","ping":46},{"user_id":287,"name":"Saul Goodman gaming","steam_id":76561198216750785,"connected_time":1170000000000,"state":"active","ping":94},{"user_id":253,"name":"Symberzite #SaveTF2","steam_id":76561198028581774,"connected_time":3546000000000,"state":"active","ping":96},{"user_id":286,"name":"lofi hip hop beats","steam_id":76561198348048790,"connected_time":1194000000000,"state":"active","ping":51},{"user_id":283,"name":"Talent","steam_id":76561198153880354,"connected_time":1751000000000,"state":"active","ping":45},{"user_id":288,"name":"willy","steam_id":76561198002519060,"connected_time":958000000000,"state":"active","ping":89},{"user_id":279,"name":"cockwater","steam_id":76561198209101861,"connected_time":1766000000000,"state":"active","ping":83},{"user_id":299,"name":"Zogg","steam_id":76561198352683491,"connected_time":475000000000,"state":"active","ping":42},{"user_id":281,"name":"Čamuga⚜","steam_id":76561198324252599,"connected_time":1758000000000,"state":"active","ping":78},{"user_id":292,"name":"Goldy","steam_id":76561199008439215,"connected_time":783000000000,"state":"active","ping":60},{"user_id":300,"name":"romaingallo","steam_id":76561198268112907,"connected_time":468000000000,"state":"active","ping":54},{"user_id":282,"name":"PIPANA69","steam_id":76561198958624545,"connected_time":1758000000000,"state":"active","ping":91},{"user_id":302,"name":"Hypno_Flower","steam_id":76561199225893185,"connected_time":464000000000,"state":"active","ping":47}]},{"server_id":40,"name":"Uncletopia | London | 7 | No Payload","name_short":"lon-7","host":"lon-1.uk.uncletopia.com","port":27075,"enabled":true,"region":"eu","cc":"gb","latitude":51.509865,"longitude":-0.118092,"reserved":0,"last_update":"0001-01-01T00:00:00Z","name_a2s":"Uncletopia | London | 7 | No Payload","protocol":17,"map":"koth_nucleus","folder":"tf","game":"Team Fortress","app_id":440,"player_count":18,"max_players":24,"Bots":0,"server_type":"Dedicated","server_os":"Linux","password":true,"vac":true,"version":"7742253","steam_id":85568392924964314,"keywords":["cp","nocrits","nodmgspread","uncletopia"],"game_id":440,"stv_port":27076,"stv_name":"Uncletopia | London | 7 | No Payload | STV","players":[{"user_id":32,"name":"ran is running","steam_id":76561199443185667,"connected_time":2397000000000,"state":"active","ping":133},{"user_id":18,"name":"justin_ (f2p and real)","steam_id":76561198839843428,"connected_time":5875000000000,"state":"active","ping":120},{"user_id":48,"name":"CouchPotato","steam_id":76561198849369915,"connected_time":821000000000,"state":"active","ping":59},{"user_id":42,"name":"Medic","steam_id":76561199389155647,"connected_time":1363000000000,"state":"active","ping":289},{"user_id":49,"name":"God's Goofiest Goober","steam_id":76561198103175187,"connected_time":622000000000,"state":"active","ping":68},{"user_id":50,"name":"SneKeTo","steam_id":76561198199302578,"connected_time":595000000000,"state":"active","ping":64},{"user_id":59,"name":"Lag","steam_id":76561198159360376,"connected_time":251000000000,"state":"active","ping":38},{"user_id":46,"name":"the ebic gamner","steam_id":76561199220801849,"connected_time":1124000000000,"state":"active","ping":63},{"user_id":60,"name":"average f2p","steam_id":76561199136308055,"connected_time":197000000000,"state":"active","ping":51},{"user_id":61,"name":"i am bread","steam_id":76561199180277321,"connected_time":195000000000,"state":"active","ping":50},{"user_id":62,"name":"toust","steam_id":76561199103417422,"connected_time":156000000000,"state":"active","ping":58},{"user_id":55,"name":"just a cat","steam_id":76561198328023740,"connected_time":419000000000,"state":"active","ping":51},{"user_id":56,"name":"Bilaterial Newt","steam_id":76561198074655679,"connected_time":380000000000,"state":"active","ping":85},{"user_id":63,"name":"Hmm","steam_id":76561198044277314,"connected_time":147000000000,"state":"active","ping":73},{"user_id":64,"name":"Motley_","steam_id":76561198116057976,"connected_time":144000000000,"state":"active","ping":33},{"user_id":65,"name":"BeefHammer","steam_id":76561198078426223,"connected_time":80000000000,"state":"spawning","ping":91},{"user_id":66,"name":"Ready Rice™","steam_id":76561198091969871,"connected_time":73000000000,"state":"active","ping":76},{"user_id":67,"name":"B1urred","steam_id":76561198263657694,"connected_time":64000000000,"state":"active","ping":53}]},{"server_id":41,"name":"Uncletopia | London | 8 | Community","name_short":"lon-8","host":"lon-1.uk.uncletopia.com","port":27085,"enabled":true,"region":"eu","cc":"gb","latitude":51.509865,"longitude":-0.118092,"reserved":0,"last_update":"0001-01-01T00:00:00Z","name_a2s":"Uncletopia | London | 8 | Community","protocol":17,"map":"workshop/koth_ramjam_rc1.ugc459778887","folder":"tf","game":"Team Fortress","app_id":440,"player_count":0,"max_players":24,"Bots":0,"server_type":"Dedicated","server_os":"Linux","password":true,"vac":true,"version":"7742253","steam_id":85568392924964315,"keywords":["cp","nocrits","nodmgspread","uncletopia"],"game_id":440,"stv_port":27086,"stv_name":"Uncletopia | London | 8 | Community | STV","players":null},{"server_id":300,"name":"Uncletopia | Montréal | 1 | All Maps","name_short":"mtl-1","host":"mtl-1.ca.uncletopia.com","port":27015,"enabled":true,"region":"us-east","cc":"ca","latitude":45.50889,"longitude":-73.56167,"reserved":0,"last_update":"0001-01-01T00:00:00Z","name_a2s":"Uncletopia | Montréal | 1 | All Maps","protocol":17,"map":"cp_snakewater_final1","folder":"tf","game":"Team Fortress","app_id":440,"player_count":0,"max_players":24,"Bots":0,"server_type":"Dedicated","server_os":"Linux","password":true,"vac":true,"version":"7742253","steam_id":85568392924500087,"keywords":["cp","nocrits","nodmgspread","uncletopia"],"game_id":440,"stv_port":27016,"stv_name":"Uncletopia | Montréal | 1 | All Maps | STV","players":null},{"server_id":301,"name":"Uncletopia | Montréal | 2 | All Maps","name_short":"mtl-2","host":"mtl-1.ca.uncletopia.com","port":27025,"enabled":true,"region":"us-east","cc":"ca","latitude":45.50889,"longitude":-73.56167,"reserved":0,"last_update":"0001-01-01T00:00:00Z","name_a2s":"Uncletopia | Montréal | 2 | All Maps","protocol":17,"map":"koth_highpass","folder":"tf","game":"Team Fortress","app_id":440,"player_count":1,"max_players":24,"Bots":0,"server_type":"Dedicated","server_os":"Linux","password":true,"vac":true,"version":"7742253","steam_id":85568392924500088,"keywords":["cp","nocrits","nodmgspread","uncletopia"],"game_id":440,"stv_port":27026,"stv_name":"Uncletopia | Montréal | 2 | All Maps | STV","players":[{"user_id":4,"name":"Samus","steam_id":76561198121933439,"connected_time":21000000000,"state":"spawning","ping":73}]},{"server_id":302,"name":"Uncletopia | Montréal | 3 | All Maps","name_short":"mtl-3","host":"mtl-1.ca.uncletopia.com","port":27035,"enabled":true,"region":"us-east","cc":"ca","latitude":45.50889,"longitude":-73.56167,"reserved":0,"last_update":"0001-01-01T00:00:00Z","name_a2s":"Uncletopia | Montréal | 3 | All Maps","protocol":17,"map":"cp_mountainlab","folder":"tf","game":"Team Fortress","app_id":440,"player_count":0,"max_players":24,"Bots":0,"server_type":"Dedicated","server_os":"Linux","password":true,"vac":true,"version":"7742253","steam_id":85568392924500089,"keywords":["cp","nocrits","nodmgspread","uncletopia"],"game_id":440,"stv_port":27036,"stv_name":"Uncletopia | Montréal | 3 | All Maps | STV","players":null},{"server_id":303,"name":"Uncletopia | Montréal | 4 | No Payload","name_short":"mtl-4","host":"mtl-1.ca.uncletopia.com","port":27045,"enabled":true,"region":"us-east","cc":"ca","latitude":45.50889,"longitude":-73.56167,"reserved":0,"last_update":"0001-01-01T00:00:00Z","name_a2s":"Uncletopia | Montréal | 4 | No Payload","protocol":17,"map":"cp_snakewater_final1","folder":"tf","game":"Team Fortress","app_id":440,"player_count":0,"max_players":24,"Bots":0,"server_type":"Dedicated","server_os":"Linux","password":true,"vac":true,"version":"7742253","steam_id":85568392924500090,"keywords":["cp","nocrits","nodmgspread","uncletopia"],"game_id":440,"stv_port":27046,"stv_name":"Uncletopia | Montréal | 4 | No Payload | STV","players":null},{"server_id":13,"name":"Uncletopia | New York City | 1 | All Maps","name_short":"nyc-1","host":"nyc-1.us.uncletopia.com","port":27015,"enabled":true,"region":"us-east","cc":"us","latitude":40.73061,"longitude":-73.93524,"reserved":0,"last_update":"0001-01-01T00:00:00Z","name_a2s":"Uncletopia | New York City | 1 | All Maps","protocol":17,"map":"cp_mountainlab","folder":"tf","game":"Team Fortress","app_id":440,"player_count":0,"max_players":24,"Bots":0,"server_type":"Dedicated","server_os":"Linux","password":true,"vac":true,"version":"7742253","steam_id":85568392924469993,"keywords":["cp","nocrits","nodmgspread","uncletopia"],"game_id":440,"stv_port":27016,"stv_name":"Uncletopia | New York City | 1 | All Maps | STV","players":null},{"server_id":14,"name":"Uncletopia | New York City | 2 | All Maps","name_short":"nyc-2","host":"nyc-1.us.uncletopia.com","port":27025,"enabled":true,"region":"us-east","cc":"us","latitude":40.73061,"longitude":-73.93524,"reserved":0,"last_update":"0001-01-01T00:00:00Z","name_a2s":"Uncletopia | New York City | 2 | All Maps","protocol":17,"map":"cp_altitude","folder":"tf","game":"Team Fortress","app_id":440,"player_count":0,"max_players":24,"Bots":0,"server_type":"Dedicated","server_os":"Linux","password":true,"vac":true,"version":"7742253","steam_id":85568392924469994,"keywords":["cp","nocrits","nodmgspread","uncletopia"],"game_id":440,"stv_port":27026,"stv_name":"Uncletopia | New York City | 2 | All Maps | STV","players":null},{"server_id":15,"name":"Uncletopia | New York City | 3 | Stopwatch Beta","name_short":"nyc-3","host":"nyc-1.us.uncletopia.com","port":27035,"enabled":true,"region":"us-east","cc":"us","latitude":40.73061,"longitude":-73.93524,"reserved":0,"last_update":"0001-01-01T00:00:00Z","name_a2s":"Uncletopia | New York City | 3 | Stopwatch Beta","protocol":17,"map":"pl_pier","folder":"tf","game":"Team Fortress","app_id":440,"player_count":0,"max_players":24,"Bots":0,"server_type":"Dedicated","server_os":"Linux","password":true,"vac":true,"version":"7742253","steam_id":85568392924742820,"keywords":["nocrits","nodmgspread","payload","uncletopia"],"game_id":440,"stv_port":27036,"stv_name":"Uncletopia | New York City | 3 | Stopwatch Beta | STV","players":null},{"server_id":16,"name":"Uncletopia | New York City | 4 | Community","name_short":"nyc-4","host":"nyc-1.us.uncletopia.com","port":27045,"enabled":true,"region":"us-east","cc":"us","latitude":40.73061,"longitude":-73.93524,"reserved":0,"last_update":"0001-01-01T00:00:00Z","name_a2s":"Uncletopia | New York City | 4 | Community","protocol":17,"map":"koth_viaduct","folder":"tf","game":"Team Fortress","app_id":440,"player_count":0,"max_players":24,"Bots":0,"server_type":"Dedicated","server_os":"Linux","password":true,"vac":true,"version":"7742253","steam_id":85568392924742821,"keywords":["cp","nocrits","nodmgspread","uncletopia"],"game_id":440,"stv_port":27046,"stv_name":"Uncletopia | New York City | 4 | Community | STV","players":null},{"server_id":142,"name":"Uncletopia | São Paulo | 1 | All Maps","name_short":"sao-1","host":"sao-1.br.uncletopia.com","port":27015,"enabled":true,"region":"sa","cc":"br","latitude":-23.533773,"longitude":-46.62529,"reserved":0,"last_update":"0001-01-01T00:00:00Z","name_a2s":"Uncletopia | São Paulo | 1 | All Maps","protocol":17,"map":"koth_viaduct","folder":"tf","game":"Team Fortress","app_id":440,"player_count":0,"max_players":24,"Bots":0,"server_type":"Dedicated","server_os":"Linux","password":true,"vac":true,"version":"7742253","steam_id":85568392924469996,"keywords":["cp","nocrits","nodmgspread","uncletopia"],"game_id":440,"stv_port":27016,"stv_name":"Uncletopia | São Paulo | 1 | All Maps | STV","players":null},{"server_id":143,"name":"Uncletopia | São Paulo | 2 | All Maps","name_short":"sao-2","host":"sao-2.br.uncletopia.com","port":27015,"enabled":true,"region":"sa","cc":"br","latitude":-23.533773,"longitude":-46.62529,"reserved":0,"last_update":"0001-01-01T00:00:00Z","name_a2s":"Uncletopia | São Paulo | 2 | All Maps","protocol":17,"map":"koth_viaduct","folder":"tf","game":"Team Fortress","app_id":440,"player_count":0,"max_players":24,"Bots":0,"server_type":"Dedicated","server_os":"Linux","password":true,"vac":true,"version":"7742253","steam_id":85568392924485349,"keywords":["cp","nocrits","nodmgspread","uncletopia"],"game_id":440,"stv_port":27016,"stv_name":"Uncletopia | São Paulo | 2 | All Maps | STV","players":null},{"server_id":7,"name":"Uncletopia | Seattle | 1 | All Maps","name_short":"sea-1","host":"sea-1.us.uncletopia.com","port":27015,"enabled":true,"region":"us-west","cc":"us","latitude":47.608013,"longitude":-122.33517,"reserved":0,"last_update":"0001-01-01T00:00:00Z","name_a2s":"Uncletopia | Seattle | 1 | All Maps","protocol":17,"map":"pl_frontier_final","folder":"tf","game":"Team Fortress","app_id":440,"player_count":1,"max_players":24,"Bots":0,"server_type":"Dedicated","server_os":"Linux","password":true,"vac":true,"version":"7742253","steam_id":85568392924469997,"keywords":["nocrits","nodmgspread","payload","uncletopia"],"game_id":440,"stv_port":27016,"stv_name":"Uncletopia | Seattle | 1 | All Maps | STV","players":[{"user_id":8,"name":"plastiquemonk","steam_id":76561198126035719,"connected_time":213000000000,"state":"active","ping":77}]},{"server_id":119,"name":"Uncletopia | Seattle | 2 | All Maps","name_short":"sea-2","host":"sea-1.us.uncletopia.com","port":27025,"enabled":true,"region":"us-west","cc":"us","latitude":47.608013,"longitude":-122.33517,"reserved":0,"last_update":"0001-01-01T00:00:00Z","name_a2s":"Uncletopia | Seattle | 2 | All Maps","protocol":17,"map":"pl_frontier_final","folder":"tf","game":"Team Fortress","app_id":440,"player_count":24,"max_players":24,"Bots":0,"server_type":"Dedicated","server_os":"Linux","password":true,"vac":true,"version":"7742253","steam_id":85568392924469998,"keywords":["nocrits","nodmgspread","payload","uncletopia"],"game_id":440,"stv_port":27026,"stv_name":"Uncletopia | Seattle | 2 | All Maps | STV","players":[{"user_id":147,"name":"ChickenLittle2005","steam_id":76561199455029597,"connected_time":1163000000000,"state":"active","ping":97},{"user_id":167,"name":"Ulrich Stern","steam_id":76561198101739682,"connected_time":67000000000,"state":"spawning","ping":126},{"user_id":138,"name":"KingTinkerer","steam_id":76561198226856548,"connected_time":1350000000000,"state":"active","ping":71},{"user_id":160,"name":"chanoc","steam_id":76561198026734746,"connected_time":740000000000,"state":"active","ping":63},{"user_id":162,"name":"7/11 Gaming","steam_id":76561199091007559,"connected_time":698000000000,"state":"active","ping":71},{"user_id":117,"name":"NiukFX","steam_id":76561198835963075,"connected_time":1682000000000,"state":"active","ping":121},{"user_id":161,"name":"Dimple","steam_id":76561198980324190,"connected_time":715000000000,"state":"active","ping":48},{"user_id":152,"name":"macironi and chesse","steam_id":76561199098060805,"connected_time":1066000000000,"state":"active","ping":102},{"user_id":128,"name":"Lightatex","steam_id":76561199068097196,"connected_time":1470000000000,"state":"active","ping":95},{"user_id":168,"name":"IRAcide","steam_id":76561198236149504,"connected_time":65000000000,"state":"active","ping":122},{"user_id":93,"name":"Classic Muzz","steam_id":76561198835514043,"connected_time":3121000000000,"state":"active","ping":78},{"user_id":169,"name":"DefectiveWarhead","steam_id":76561198067746049,"connected_time":42000000000,"state":"active","ping":50},{"user_id":115,"name":"huh","steam_id":76561198272057200,"connected_time":1766000000000,"state":"active","ping":62},{"user_id":131,"name":"volta","steam_id":76561199214283884,"connected_time":1441000000000,"state":"active","ping":136},{"user_id":132,"name":"fishfin","steam_id":76561198255819115,"connected_time":1431000000000,"state":"active","ping":94},{"user_id":165,"name":"K.A.R.M.A.","steam_id":76561198240750142,"connected_time":647000000000,"state":"active","ping":76},{"user_id":94,"name":"Winter the Witchie","steam_id":76561198151971178,"connected_time":3115000000000,"state":"active","ping":97},{"user_id":134,"name":"punt kick kids","steam_id":76561198094749400,"connected_time":1415000000000,"state":"active","ping":56},{"user_id":137,"name":"DiscoTraveler","steam_id":76561199240168088,"connected_time":1375000000000,"state":"active","ping":108},{"user_id":140,"name":"barbara","steam_id":76561198072417792,"connected_time":1298000000000,"state":"active","ping":139},{"user_id":166,"name":"General Archiver","steam_id":76561199247095754,"connected_time":122000000000,"state":"active","ping":51},{"user_id":163,"name":"Lolxdloldx","steam_id":76561198136887125,"connected_time":691000000000,"state":"active","ping":95},{"user_id":164,"name":"beefsquatchthenub","steam_id":76561197990059948,"connected_time":650000000000,"state":"active","ping":110},{"user_id":151,"name":"Jesus Christ","steam_id":76561198799743262,"connected_time":1100000000000,"state":"active","ping":112}]},{"server_id":406,"name":"Uncletopia | Seattle | 3 | Stopwatch Beta","name_short":"sea-3","host":"sea-1.us.uncletopia.com","port":27035,"enabled":true,"region":"us-west","cc":"us","latitude":47.608013,"longitude":-122.33517,"reserved":0,"last_update":"0001-01-01T00:00:00Z","name_a2s":"Uncletopia | Seattle | 3 | Stopwatch Beta","protocol":17,"map":"cp_altitude","folder":"tf","game":"Team Fortress","app_id":440,"player_count":0,"max_players":24,"Bots":0,"server_type":"Dedicated","server_os":"Linux","password":true,"vac":true,"version":"7742253","steam_id":85568392924515217,"keywords":["cp","nocrits","nodmgspread","uncletopia"],"game_id":440,"stv_port":27036,"stv_name":"Uncletopia | Seattle | 3 | Stopwatch Beta | STV","players":null},{"server_id":17,"name":"Uncletopia | San Francisco | 1 | All Maps","name_short":"sfo-1","host":"sfo-1.us.uncletopia.com","port":27015,"enabled":true,"region":"us-west","cc":"us","latitude":37.77397,"longitude":-122.4313,"reserved":0,"last_update":"0001-01-01T00:00:00Z","name_a2s":"Uncletopia | San Francisco | 1 | All Maps","protocol":17,"map":"pl_snowycoast","folder":"tf","game":"Team Fortress","app_id":440,"player_count":0,"max_players":24,"Bots":0,"server_type":"Dedicated","server_os":"Linux","password":true,"vac":true,"version":"7742253","steam_id":85568392924469999,"keywords":["nocrits","nodmgspread","payload","uncletopia"],"game_id":440,"stv_port":27016,"stv_name":"Uncletopia | San Francisco | 1 | All Maps | STV","players":null},{"server_id":18,"name":"Uncletopia | San Francisco | 2 | All Maps","name_short":"sfo-2","host":"sfo-1.us.uncletopia.com","port":27025,"enabled":true,"region":"us-west","cc":"us","latitude":37.77397,"longitude":-122.4313,"reserved":0,"last_update":"0001-01-01T00:00:00Z","name_a2s":"Uncletopia | San Francisco | 2 | All Maps","protocol":17,"map":"cp_altitude","folder":"tf","game":"Team Fortress","app_id":440,"player_count":0,"max_players":24,"Bots":0,"server_type":"Dedicated","server_os":"Linux","password":true,"vac":true,"version":"7742253","steam_id":85568392924470000,"keywords":["cp","nocrits","nodmgspread","uncletopia"],"game_id":440,"stv_port":27026,"stv_name":"Uncletopia | San Francisco | 2 | All Maps | STV","players":null},{"server_id":19,"name":"Uncletopia | San Francisco | 3 | Stopwatch Beta","name_short":"sfo-3","host":"sfo-1.us.uncletopia.com","port":27035,"enabled":true,"region":"us-west","cc":"us","latitude":37.77397,"longitude":-122.4313,"reserved":0,"last_update":"0001-01-01T00:00:00Z","name_a2s":"Uncletopia | San Francisco | 3 | Stopwatch Beta","protocol":17,"map":"cp_snakewater_final1","folder":"tf","game":"Team Fortress","app_id":440,"player_count":0,"max_players":24,"Bots":0,"server_type":"Dedicated","server_os":"Linux","password":true,"vac":true,"version":"7742253","steam_id":85568392924742824,"keywords":["cp","nocrits","nodmgspread","uncletopia"],"game_id":440,"stv_port":27036,"stv_name":"Uncletopia | San Francisco | 3 | Stopwatch Beta | STV","players":null},{"server_id":20,"name":"Uncletopia | San Francisco | 4 | Community","name_short":"sfo-4","host":"sfo-1.us.uncletopia.com","port":27045,"enabled":true,"region":"us-west","cc":"us","latitude":37.77397,"longitude":-122.4313,"reserved":0,"last_update":"0001-01-01T00:00:00Z","name_a2s":"Uncletopia | San Francisco | 4 | Community","protocol":17,"map":"cp_dustbowl","folder":"tf","game":"Team Fortress","app_id":440,"player_count":0,"max_players":24,"Bots":0,"server_type":"Dedicated","server_os":"Linux","password":true,"vac":true,"version":"7742253","steam_id":85568392924742826,"keywords":["cp","nocrits","nodmgspread","uncletopia"],"game_id":440,"stv_port":27046,"stv_name":"Uncletopia | San Francisco | 4 | Community | STV","players":null},{"server_id":141,"name":"Uncletopia | Sydney | 1 | All Maps","name_short":"syd-1","host":"syd-1.au.uncletopia.com","port":27015,"enabled":true,"region":"au","cc":"au","latitude":-33.865143,"longitude":151.2099,"reserved":0,"last_update":"0001-01-01T00:00:00Z","name_a2s":"Uncletopia | Sydney | 1 | All Maps","protocol":17,"map":"pl_upward","folder":"tf","game":"Team Fortress","app_id":440,"player_count":0,"max_players":24,"Bots":0,"server_type":"Dedicated","server_os":"Linux","password":true,"vac":true,"version":"7742253","steam_id":85568392924470001,"keywords":["nocrits","nodmgspread","payload","uncletopia"],"game_id":440,"stv_port":27016,"stv_name":"Uncletopia | Sydney | 1 | All Maps | STV","players":null},{"server_id":123,"name":"Uncletopia | Sydney | 2 | All Maps","name_short":"syd-2","host":"syd-1.au.uncletopia.com","port":27025,"enabled":true,"region":"au","cc":"au","latitude":-33.865143,"longitude":151.2099,"reserved":0,"last_update":"0001-01-01T00:00:00Z","name_a2s":"Uncletopia | Sydney | 2 | All Maps","protocol":17,"map":"pl_borneo","folder":"tf","game":"Team Fortress","app_id":440,"player_count":0,"max_players":24,"Bots":0,"server_type":"Dedicated","server_os":"Linux","password":true,"vac":true,"version":"7742253","steam_id":85568392924470002,"keywords":["nocrits","nodmgspread","payload","uncletopia"],"game_id":440,"stv_port":27026,"stv_name":"Uncletopia | Sydney | 2 | All Maps | STV","players":null},{"server_id":395,"name":"Uncletopia | Sydney | 3 | All Maps","name_short":"syd-3","host":"syd-1.au.uncletopia.com","port":27035,"enabled":true,"region":"au","cc":"au","latitude":-33.865143,"longitude":151.2099,"reserved":0,"last_update":"0001-01-01T00:00:00Z","name_a2s":"Uncletopia | Sydney | 3 | All Maps","protocol":17,"map":"koth_sawmill","folder":"tf","game":"Team Fortress","app_id":440,"player_count":0,"max_players":24,"Bots":0,"server_type":"Dedicated","server_os":"Linux","password":true,"vac":true,"version":"7742253","steam_id":85568392925194467,"keywords":["cp","nocrits","nodmgspread","uncletopia"],"game_id":440,"stv_port":27036,"stv_name":"Uncletopia | Sydney | 3 | All Maps | STV","players":null},{"server_id":396,"name":"Uncletopia | Sydney | 4 | All Maps","name_short":"syd-4","host":"syd-1.au.uncletopia.com","port":27045,"enabled":true,"region":"au","cc":"au","latitude":-33.865143,"longitude":151.2099,"reserved":0,"last_update":"0001-01-01T00:00:00Z","name_a2s":"Uncletopia | Sydney | 4 | All Maps","protocol":17,"map":"koth_lakeside_final","folder":"tf","game":"Team Fortress","app_id":440,"player_count":0,"max_players":24,"Bots":0,"server_type":"Dedicated","server_os":"Linux","password":true,"vac":true,"version":"7742253","steam_id":85568392925397958,"keywords":["cp","nocrits","nodmgspread","uncletopia"],"game_id":440,"stv_port":27046,"stv_name":"Uncletopia | Sydney | 4 | All Maps | STV","players":null},{"server_id":58,"name":"Uncletopia | Sydney | 5 | Stopwatch Beta","name_short":"syd-5","host":"syd-1.au.uncletopia.com","port":27055,"enabled":true,"region":"au","cc":"au","latitude":-33.865143,"longitude":151.2099,"reserved":0,"last_update":"0001-01-01T00:00:00Z","name_a2s":"Uncletopia | Sydney | 5 | Stopwatch Beta","protocol":17,"map":"workshop/koth_bagel_rc5.ugc2514036946","folder":"tf","game":"Team Fortress","app_id":440,"player_count":0,"max_players":24,"Bots":0,"server_type":"Dedicated","server_os":"Linux","password":true,"vac":true,"version":"7742253","steam_id":85568392925397959,"keywords":["cp","nocrits","nodmgspread","uncletopia"],"game_id":440,"stv_port":27056,"stv_name":"Uncletopia | Sydney | 5 | Stopwatch Beta | STV","players":null},{"server_id":59,"name":"Uncletopia | Sydney | 6 | Community","name_short":"syd-6","host":"syd-1.au.uncletopia.com","port":27065,"enabled":true,"region":"au","cc":"au","latitude":-33.865143,"longitude":151.2099,"reserved":0,"last_update":"0001-01-01T00:00:00Z","name_a2s":"Uncletopia | Sydney | 6 | Community","protocol":17,"map":"workshop/koth_ramjam_rc1.ugc459778887","folder":"tf","game":"Team Fortress","app_id":440,"player_count":0,"max_players":24,"Bots":0,"server_type":"Dedicated","server_os":"Linux","password":true,"vac":true,"version":"7742253","steam_id":85568392925397960,"keywords":["cp","nocrits","nodmgspread","uncletopia"],"game_id":440,"stv_port":27066,"stv_name":"Uncletopia | Sydney | 6 | Community | STV","players":null},{"server_id":49,"name":"Uncletopia | Warsaw | 1 | All Maps","name_short":"waw-1","host":"waw-1.pl.uncletopia.com","port":27015,"enabled":true,"region":"eu","cc":"pl","latitude":52.2297,"longitude":21.017532,"reserved":0,"last_update":"0001-01-01T00:00:00Z","name_a2s":"","protocol":0,"map":"","folder":"","game":"","app_id":0,"player_count":0,"max_players":0,"Bots":0,"server_type":"","server_os":"","password":false,"vac":false,"version":"","steam_id":0,"keywords":null,"game_id":0,"stv_port":0,"stv_name":"","players":null},{"server_id":50,"name":"Uncletopia | Warsaw | 2 | All Maps","name_short":"waw-2","host":"waw-1.pl.uncletopia.com","port":27025,"enabled":true,"region":"eu","cc":"pl","latitude":52.2297,"longitude":21.017532,"reserved":0,"last_update":"0001-01-01T00:00:00Z","name_a2s":"Uncletopia | Warsaw | 2 | All Maps","protocol":17,"map":"pl_barnblitz","folder":"tf","game":"Team Fortress","app_id":440,"player_count":0,"max_players":24,"Bots":0,"server_type":"Dedicated","server_os":"Linux","password":true,"vac":true,"version":"7742253","steam_id":85568392925397851,"keywords":["nocrits","nodmgspread","payload","uncletopia"],"game_id":440,"stv_port":27026,"stv_name":"Uncletopia | Warsaw | 2 | All Maps | STV","players":null},{"server_id":51,"name":"Uncletopia | Warsaw | 3 | All Maps","name_short":"waw-3","host":"waw-1.pl.uncletopia.com","port":27035,"enabled":true,"region":"eu","cc":"pl","latitude":52.2297,"longitude":21.017532,"reserved":0,"last_update":"0001-01-01T00:00:00Z","name_a2s":"Uncletopia | Warsaw | 3 | All Maps","protocol":17,"map":"koth_lakeside_final","folder":"tf","game":"Team Fortress","app_id":440,"player_count":0,"max_players":24,"Bots":0,"server_type":"Dedicated","server_os":"Linux","password":true,"vac":true,"version":"7742253","steam_id":85568392925397852,"keywords":["cp","nocrits","nodmgspread","uncletopia"],"game_id":440,"stv_port":27036,"stv_name":"Uncletopia | Warsaw | 3 | All Maps | STV","players":null},{"server_id":52,"name":"Uncletopia | Warsaw | 4 | All Maps","name_short":"waw-4","host":"waw-1.pl.uncletopia.com","port":27045,"enabled":true,"region":"eu","cc":"pl","latitude":52.2297,"longitude":21.017532,"reserved":0,"last_update":"0001-01-01T00:00:00Z","name_a2s":"Uncletopia | Warsaw | 4 | All Maps","protocol":17,"map":"pl_frontier_final","folder":"tf","game":"Team Fortress","app_id":440,"player_count":0,"max_players":24,"Bots":0,"server_type":"Dedicated","server_os":"Linux","password":true,"vac":true,"version":"7742253","steam_id":85568392925397853,"keywords":["nocrits","nodmgspread","payload","uncletopia"],"game_id":440,"stv_port":27046,"stv_name":"Uncletopia | Warsaw | 4 | All Maps | STV","players":null},{"server_id":53,"name":"Uncletopia | Warsaw | 5 | Stopwatch Beta","name_short":"waw-5","host":"waw-1.pl.uncletopia.com","port":27055,"enabled":true,"region":"eu","cc":"pl","latitude":52.2297,"longitude":21.017532,"reserved":0,"last_update":"0001-01-01T00:00:00Z","name_a2s":"Uncletopia | Warsaw | 5 | Stopwatch Beta","protocol":17,"map":"pl_swiftwater_final1","folder":"tf","game":"Team Fortress","app_id":440,"player_count":0,"max_players":24,"Bots":0,"server_type":"Dedicated","server_os":"Linux","password":true,"vac":true,"version":"7742253","steam_id":85568392925397854,"keywords":["nocrits","nodmgspread","payload","uncletopia"],"game_id":440,"stv_port":27056,"stv_name":"Uncletopia | Warsaw | 5 | Stopwatch Beta | STV","players":null},{"server_id":54,"name":"Uncletopia | Warsaw | 6 | Community","name_short":"waw-6","host":"waw-1.pl.uncletopia.com","port":27065,"enabled":true,"region":"eu","cc":"pl","latitude":52.2297,"longitude":21.017532,"reserved":0,"last_update":"0001-01-01T00:00:00Z","name_a2s":"Uncletopia | Warsaw | 6 | Community","protocol":17,"map":"koth_highpass","folder":"tf","game":"Team Fortress","app_id":440,"player_count":0,"max_players":24,"Bots":0,"server_type":"Dedicated","server_os":"Linux","password":true,"vac":true,"version":"7742253","steam_id":85568392925397856,"keywords":["cp","nocrits","nodmgspread","uncletopia"],"game_id":440,"stv_port":27066,"stv_name":"Uncletopia | Warsaw | 6 | Community | STV","players":null}]}