{"status":true,"message":"","result":[{"server_id":9,"name":"Uncletopia | Atlanta | 1 | All Maps","name_short":"atl-1","host":"atl-1.us.uncletopia.com","port":27015,"enabled":true,"region":"us-east","cc":"us","latitude":33.753746,"longitude":-84.38633,"reserved":0,"last_update":"0001-01-01T00:00:00Z","name_a2s":"Uncletopia | Atlanta | 1 | All Maps","protocol":17,"map":"cp_mountainlab","folder":"tf","game":"Team Fortress","app_id":440,"player_count":24,"max_players":24,"Bots":0,"server_type":"Dedicated","server_os":"Linux","password":true,"vac":true,"version":"7882260","steam_id":85568392924469982,"keywords":["cp","nocrits","nodmgspread","uncletopia"],"game_id":440,"stv_port":27016,"stv_name":"Uncletopia | Atlanta | 1 | All Maps | STV","players":[{"user_id":731,"name":"√êalia","steam_id":76561198135518210,"connected_time":210000000000,"state":"active","ping":86},{"user_id":719,"name":"27lb Costco Mack N Cheese Bucke","steam_id":76561198070591328,"connected_time":929000000000,"state":"active","ping":70},{"user_id":715,"name":"Barlon","steam_id":76561198023717515,"connected_time":1227000000000,"state":"active","ping":75},{"user_id":718,"name":"Grand","steam_id":76561198290143399,"connected_time":973000000000,"state":"active","ping":86},{"user_id":701,"name":"scrotal recall","steam_id":76561198135945598,"connected_time":1770000000000,"state":"active","ping":68},{"user_id":693,"name":"ipod touch","steam_id":76561198098763618,"connected_time":2095000000000,"state":"active","ping":73},{"user_id":732,"name":"pizza tower reference","steam_id":76561198272694642,"connected_time":178000000000,"state":"active","ping":65},{"user_id":733,"name":"ckiller","steam_id":76561198029265697,"connected_time":143000000000,"state":"active","ping":60},{"user_id":698,"name":"Mr. Dick‚Ñ¢","steam_id":76561198047309044,"connected_time":1946000000000,"state":"active","ping":44},{"user_id":730,"name":"[chef] iron","steam_id":76561197970888616,"connected_time":319000000000,"state":"active","ping":72},{"user_id":734,"name":"ScoobyBlue","steam_id":76561198054656885,"connected_time":73000000000,"state":"active","ping":59},{"user_id":655,"name":"StuartBell511","steam_id":76561198060931721,"connected_time":3852000000000,"state":"active","ping":60},{"user_id":532,"name":"Hope","steam_id":76561199182558088,"connected_time":13448000000000,"state":"active","ping":87},{"user_id":652,"name":"Ghetto Smosh Fan","steam_id":76561198097272509,"connected_time":3879000000000,"state":"active","ping":35},{"user_id":644,"name":"cola","steam_id":76561198374390458,"connected_time":4945000000000,"state":"active","ping":51},{"user_id":602,"name":"Monkey Mode","steam_id":76561197961267543,"connected_time":7171000000000,"state":"active","ping":59},{"user_id":717,"name":"StrongK","steam_id":76561198183002958,"connected_time":976000000000,"state":"active","ping":65},{"user_id":676,"name":"David De Bergerac","steam_id":76561198010306294,"connected_time":2900000000000,"state":"active","ping":86},{"user_id":711,"name":"Jabawakai","steam_id":76561198088881254,"connected_time":1387000000000,"state":"active","ping":76},{"user_id":660,"name":"Truffles","steam_id":76561198095868800,"connected_time":3610000000000,"state":"active","ping":81},{"user_id":716,"name":"‚áå StrœüKer ‚áã","steam_id":76561199389089862,"connected_time":1007000000000,"state":"active","ping":151},{"user_id":704,"name":"Likely Scripting","steam_id":76561199173343569,"connected_time":1744000000000,"state":"active","ping":76},{"user_id":712,"name":"DiGiorno's Pizza","steam_id":76561198142244035,"connected_time":1386000000000,"state":"active","ping":74},{"user_id":726,"name":"DuckMann","steam_id":76561198197058638,"connected_time":584000000000,"state":"active","ping":51}]},{"server_id":104,"name":"Uncletopia | Atlanta | 2 | All Maps","name_short":"atl-2","host":"atl-1.us.uncletopia.com","port":27025,"enabled":true,"region":"us-east","cc":"us","latitude":33.753746,"longitude":-84.38633,"reserved":0,"last_update":"0001-01-01T00:00:00Z","name_a2s":"Uncletopia | Atlanta | 2 | All Maps","protocol":17,"map":"cp_dustbowl","folder":"tf","game":"Team Fortress","app_id":440,"player_count":24,"max_players":24,"Bots":0,"server_type":"Dedicated","server_os":"Linux","password":true,"vac":true,"version":"7882260","steam_id":85568392924469983,"keywords":["cp","nocrits","nodmgspread","uncletopia"],"game_id":440,"stv_port":27026,"stv_name":"Uncletopia | Atlanta | 2 | All Maps | STV","players":[{"user_id":602,"name":"Ket","steam_id":76561198241951244,"connected_time":4086000000000,"state":"active","ping":76},{"user_id":633,"name":"only a spoonful","steam_id":76561198113180616,"connected_time":1060000000000,"state":"active","ping":90},{"user_id":635,"name":"oOoOoOh sPo0Ky GhOst!!","steam_id":76561198397009880,"connected_time":981000000000,"state":"active","ping":47},{"user_id":605,"name":"Observer","steam_id":76561198326814067,"connected_time":3688000000000,"state":"active","ping":120},{"user_id":625,"name":"SecondCarpet","steam_id":76561199008323078,"connected_time":2813000000000,"state":"active","ping":99},{"user_id":614,"name":"Ham","steam_id":76561198143371318,"connected_time":3156000000000,"state":"active","ping":105},{"user_id":639,"name":"basmati jarate","steam_id":76561198319442494,"connected_time":766000000000,"state":"active","ping":100},{"user_id":617,"name":"Chemist","steam_id":76561198175623743,"connected_time":3042000000000,"state":"active","ping":78},{"user_id":611,"name":"Matchstick","steam_id":76561198399856863,"connected_time":3505000000000,"state":"active","ping":89},{"user_id":634,"name":"ash","steam_id":76561198127890645,"connected_time":1042000000000,"state":"active","ping":61},{"user_id":636,"name":"l3fty","steam_id":76561198057788958,"connected_time":979000000000,"state":"active","ping":82},{"user_id":637,"name":"HeavenHearst","steam_id":76561198066083947,"connected_time":927000000000,"state":"active","ping":60},{"user_id":609,"name":"Robo Boss","steam_id":76561199067098696,"connected_time":3580000000000,"state":"active","ping":70},{"user_id":619,"name":"Skipz","steam_id":76561198425244550,"connected_time":2971000000000,"state":"active","ping":59},{"user_id":621,"name":"Hertz","steam_id":76561198310927351,"connected_time":2941000000000,"state":"active","ping":137},{"user_id":632,"name":"ALBINO LESBIAN MIDGET","steam_id":76561198122691714,"connected_time":1426000000000,"state":"active","ping":71},{"user_id":640,"name":"Warlock","steam_id":76561198801747883,"connected_time":165000000000,"state":"active","ping":93},{"user_id":641,"name":"Dr.Bobert","steam_id":76561198072186001,"connected_time":141000000000,"state":"active","ping":90},{"user_id":613,"name":"Musica Universalis","steam_id":76561198184794174,"connected_time":3247000000000,"state":"active","ping":76},{"user_id":577,"name":"KlulessKitsune","steam_id":76561198136903610,"connected_time":7476000000000,"state":"active","ping":58},{"user_id":631,"name":"Rainy","steam_id":76561198025609304,"connected_time":1428000000000,"state":"active","ping":63},{"user_id":610,"name":"intek","steam_id":76561198052705291,"connected_time":3538000000000,"state":"active","ping":91},{"user_id":638,"name":"Pie","steam_id":76561198996610188,"connected_time":887000000000,"state":"active","ping":78},{"user_id":564,"name":"ACOLYTE","steam_id":76561198058793778,"connected_time":8602000000000,"state":"active","ping":77}]},{"server_id":400,"name":"Uncletopia | Atlanta | 3 | Community","name_short":"atl-3","host":"atl-1.us.uncletopia.com","port":27035,"enabled":true,"region":"us-east","cc":"us","latitude":33.753746,"longitude":-84.38633,"reserved":0,"last_update":"0001-01-01T00:00:00Z","name_a2s":"Uncletopia | Atlanta | 3 | Community","protocol":17,"map":"workshop/pl_highwood_b13.ugc1769496557","folder":"tf","game":"Team Fortress","app_id":440,"player_count":24,"max_players":24,"Bots":0,"server_type":"Dedicated","server_os":"Linux","password":true,"vac":true,"version":"7882260","steam_id":85568392924515187,"keywords":["nocrits","nodmgspread","payload","uncletopia"],"game_id":440,"stv_port":27036,"stv_name":"Uncletopia | Atlanta | 3 | Community | STV","players":[{"user_id":543,"name":"dave","steam_id":76561198135961731,"connected_time":2624000000000,"state":"active","ping":79},{"user_id":508,"name":"AzuriousAlex","steam_id":76561198158026405,"connected_time":5237000000000,"state":"active","ping":87},{"user_id":578,"name":"Antifa Supersoldier","steam_id":76561198141816516,"connected_time":794000000000,"state":"active","ping":61},{"user_id":550,"name":"Cooldog","steam_id":76561198080548713,"connected_time":2209000000000,"state":"active","ping":68},{"user_id":549,"name":"‚ô•Katia‚ô•","steam_id":76561198977212642,"connected_time":2347000000000,"state":"active","ping":76},{"user_id":570,"name":"artichoke","steam_id":76561198980994364,"connected_time":1181000000000,"state":"active","ping":93},{"user_id":511,"name":"Aldinach","steam_id":76561198079912615,"connected_time":5204000000000,"state":"active","ping":72},{"user_id":576,"name":"Juggs Judy","steam_id":76561198841559088,"connected_time":922000000000,"state":"active","ping":62},{"user_id":551,"name":"Mr.HumanSoup","steam_id":76561198799202879,"connected_time":2204000000000,"state":"active","ping":87},{"user_id":585,"name":"chrischrischris3018@yahoo.com","steam_id":76561198137316053,"connected_time":223000000000,"state":"active","ping":54},{"user_id":563,"name":"Sandwich Sam","steam_id":76561198170089546,"connected_time":1339000000000,"state":"active","ping":90},{"user_id":548,"name":"H‚ÇÇSeGamez","steam_id":76561198250471340,"connected_time":2392000000000,"state":"active","ping":74},{"user_id":577,"name":"mechiimi ‚òÖ","steam_id":76561198321627268,"connected_time":904000000000,"state":"active","ping":116},{"user_id":555,"name":"PZM-7 Smialy","steam_id":76561198352550400,"connected_time":1969000000000,"state":"active","ping":100},{"user_id":579,"name":"pudl","steam_id":76561198043726592,"connected_time":735000000000,"state":"active","ping":66},{"user_id":583,"name":"Watt Dafuq","steam_id":76561198194402925,"connected_time":586000000000,"state":"active","ping":65},{"user_id":584,"name":"Oni","steam_id":76561198112066584,"connected_time":465000000000,"state":"active","ping":60},{"user_id":560,"name":"Jon Arbuckle","steam_id":76561198356046433,"connected_time":1502000000000,"state":"active","ping":98},{"user_id":561,"name":"blitz","steam_id":76561198331013928,"connected_time":1496000000000,"state":"active","ping":69},{"user_id":565,"name":"Liver stealer","steam_id":76561199029954287,"connected_time":1290000000000,"state":"active","ping":125},{"user_id":568,"name":"The_King_Cj","steam_id":76561198976573131,"connected_time":1258000000000,"state":"active","ping":86},{"user_id":581,"name":"Captain Zyrin","steam_id":76561197983121824,"connected_time":679000000000,"state":"active","ping":94},{"user_id":571,"name":"evilstuntman","steam_id":76561198056911537,"connected_time":1155000000000,"state":"active","ping":67},{"user_id":582,"name":"I am a mooshroom","steam_id":76561198104198295,"connected_time":647000000000,"state":"active","ping":75}]},{"server_id":401,"name":"Uncletopia | Atlanta | 4 | No Payload","name_short":"atl-4","host":"atl-1.us.uncletopia.com","port":27045,"enabled":true,"region":"us-east","cc":"us","latitude":33.753746,"longitude":-84.38633,"reserved":0,"last_update":"0001-01-01T00:00:00Z","name_a2s":"","protocol":0,"map":"","folder":"","game":"","app_id":0,"player_count":0,"max_players":0,"Bots":0,"server_type":"","server_os":"","password":false,"vac":false,"version":"","steam_id":0,"keywords":null,"game_id":0,"stv_port":0,"stv_name":"","players":null},{"server_id":2,"name":"Uncletopia | Chicago | 1 | All Maps","name_short":"chi-1","host":"chi-1.us.uncletopia.com","port":27015,"enabled":true,"region":"us-central","cc":"us","latitude":41.881832,"longitude":-87.62318,"reserved":0,"last_update":"0001-01-01T00:00:00Z","name_a2s":"Uncletopia | Chicago | 1 | All Maps","protocol":17,"map":"pl_frontier_final","folder":"tf","game":"Team Fortress","app_id":440,"player_count":24,"max_players":24,"Bots":0,"server_type":"Dedicated","server_os":"Linux","password":true,"vac":true,"version":"7882260","steam_id":85568392924469984,"keywords":["nocrits","nodmgspread","payload","uncletopia"],"game_id":440,"stv_port":27016,"stv_name":"Uncletopia | Chicago | 1 | All Maps | STV","players":[{"user_id":635,"name":"SCATTER","steam_id":76561198405168492,"connected_time":2221000000000,"state":"active","ping":78},{"user_id":642,"name":"Habba","steam_id":76561197986096340,"connected_time":899000000000,"state":"active","ping":73},{"user_id":636,"name":"Big Tonka","steam_id":76561198891584971,"connected_time":1158000000000,"state":"active","ping":70},{"user_id":643,"name":"Technic","steam_id":76561198200302281,"connected_time":854000000000,"state":"active","ping":70},{"user_id":637,"name":"Valem","steam_id":76561198808224331,"connected_time":1135000000000,"state":"active","ping":123},{"user_id":656,"name":"Filthy Acts at Reasonable Price","steam_id":76561198354615890,"connected_time":161000000000,"state":"active","ping":96},{"user_id":645,"name":"Tito San Pablo","steam_id":76561198229540280,"connected_time":795000000000,"state":"active","ping":105},{"user_id":630,"name":"lester375jimenez","steam_id":76561199301390498,"connected_time":2445000000000,"state":"active","ping":107},{"user_id":604,"name":"Thundermonkey (SMOKE)","steam_id":76561198017631728,"connected_time":6735000000000,"state":"active","ping":66},{"user_id":646,"name":"Tyco","steam_id":76561197978414167,"connected_time":762000000000,"state":"active","ping":74},{"user_id":647,"name":"mdharsy","steam_id":76561198065831053,"connected_time":759000000000,"state":"active","ping":74},{"user_id":648,"name":"HOTA","steam_id":76561199002778841,"connected_time":713000000000,"state":"active","ping":77},{"user_id":655,"name":"üíõMercyüíõ","steam_id":76561198147095572,"connected_time":328000000000,"state":"active","ping":56},{"user_id":629,"name":"Zoot","steam_id":76561198121944243,"connected_time":2707000000000,"state":"active","ping":85},{"user_id":651,"name":"-=|FYG|=- Mr. Generous","steam_id":76561198047350765,"connected_time":622000000000,"state":"active","ping":52},{"user_id":606,"name":"Wizard Raccoon","steam_id":76561198072562591,"connected_time":6684000000000,"state":"active","ping":87},{"user_id":613,"name":"DinkleBerg","steam_id":76561198891626233,"connected_time":4975000000000,"state":"active","ping":72},{"user_id":586,"name":"Captain S. Forrest","steam_id":76561198062463029,"connected_time":8175000000000,"state":"active","ping":71},{"user_id":650,"name":"Cdesmondd","steam_id":76561198072774462,"connected_time":665000000000,"state":"active","ping":59},{"user_id":653,"name":"Queen Frau the Round","steam_id":76561197999942134,"connected_time":581000000000,"state":"active","ping":45},{"user_id":623,"name":"._.","steam_id":76561198820617005,"connected_time":4079000000000,"state":"active","ping":110},{"user_id":634,"name":"bruiseraaron","steam_id":76561198020092380,"connected_time":2387000000000,"state":"active","ping":60},{"user_id":626,"name":"StonedGiant","steam_id":76561197984386932,"connected_time":3420000000000,"state":"active","ping":61},{"user_id":641,"name":"Keth","steam_id":76561198043625972,"connected_time":1041000000000,"state":"active","ping":100}]},{"server_id":106,"name":"Uncletopia | Chicago | 2 | All Maps","name_short":"chi-2","host":"chi-1.us.uncletopia.com","port":27025,"enabled":true,"region":"us-central","cc":"us","latitude":41.881832,"longitude":-87.62318,"reserved":0,"last_update":"0001-01-01T00:00:00Z","name_a2s":"Uncletopia | Chicago | 2 | All Maps","protocol":17,"map":"pl_borneo","folder":"tf","game":"Team Fortress","app_id":440,"player_count":24,"max_players":24,"Bots":0,"server_type":"Dedicated","server_os":"Linux","password":true,"vac":true,"version":"7882260","steam_id":85568392924469985,"keywords":["nocrits","nodmgspread","payload","uncletopia"],"game_id":440,"stv_port":27026,"stv_name":"Uncletopia | Chicago | 2 | All Maps | STV","players":[{"user_id":622,"name":"BigShwarma","steam_id":76561198259380127,"connected_time":676000000000,"state":"active","ping":61},{"user_id":596,"name":"darps","steam_id":76561198105227318,"connected_time":2901000000000,"state":"active","ping":50},{"user_id":606,"name":"Acolyte of Goatse","steam_id":76561198046526036,"connected_time":1480000000000,"state":"active","ping":102},{"user_id":583,"name":"Peppino","steam_id":76561198189176634,"connected_time":3946000000000,"state":"active","ping":85},{"user_id":607,"name":"never existed","steam_id":76561198054390505,"connected_time":1480000000000,"state":"active","ping":46},{"user_id":599,"name":"Ringo x Seiran","steam_id":76561198357437908,"connected_time":2539000000000,"state":"active","ping":57},{"user_id":621,"name":"StupidMemes","steam_id":76561198253547727,"connected_time":876000000000,"state":"active","ping":55},{"user_id":620,"name":"Dr. FlimFlam","steam_id":76561198049212986,"connected_time":915000000000,"state":"active","ping":86},{"user_id":522,"name":"I AM Malik","steam_id":76561198322021485,"connected_time":9433000000000,"state":"active","ping":62},{"user_id":585,"name":"not actually a farmer","steam_id":76561198075216115,"connected_time":3706000000000,"state":"active","ping":142},{"user_id":604,"name":"Iron","steam_id":76561198247918478,"connected_time":1607000000000,"state":"active","ping":91},{"user_id":610,"name":"Cyclops_672","steam_id":76561198080169497,"connected_time":1451000000000,"state":"active","ping":54},{"user_id":567,"name":"seldom","steam_id":76561198166193756,"connected_time":5326000000000,"state":"active","ping":74},{"user_id":553,"name":"PigPig","steam_id":76561198068190834,"connected_time":7169000000000,"state":"active","ping":110},{"user_id":611,"name":"OHGODBEES!","steam_id":76561198000653374,"connected_time":1421000000000,"state":"active","ping":117},{"user_id":617,"name":"blockchain culture","steam_id":76561198040996386,"connected_time":1221000000000,"state":"active","ping":89},{"user_id":625,"name":"pink","steam_id":76561198143290835,"connected_time":104000000000,"state":"active","ping":58},{"user_id":623,"name":"Alteraxia","steam_id":76561198213333961,"connected_time":589000000000,"state":"active","ping":89},{"user_id":591,"name":"peakmeta","steam_id":76561199053600691,"connected_time":3295000000000,"state":"active","ping":65},{"user_id":624,"name":"Jousty","steam_id":76561199162677853,"connected_time":382000000000,"state":"active","ping":88},{"user_id":615,"name":"Remmy","steam_id":76561198268857418,"connected_time":1329000000000,"state":"active","ping":67},{"user_id":616,"name":"Tophu","steam_id":76561198380229671,"connected_time":1317000000000,"state":"active","ping":67},{"user_id":575,"name":"Thy Stupid Rat","steam_id":76561198272075712,"connected_time":5016000000000,"state":"active","ping":64},{"user_id":582,"name":"Gustavo","steam_id":76561198190288063,"connected_time":3980000000000,"state":"active","ping":88}]},{"server_id":402,"name":"Uncletopia | Chicago | 3 | All Maps","name_short":"chi-3","host":"chi-1.us.uncletopia.com","port":27035,"enabled":true,"region":"us-central","cc":"us","latitude":41.881832,"longitude":-87.62318,"reserved":0,"last_update":"0001-01-01T00:00:00Z","name_a2s":"Uncletopia | Chicago | 3 | All Maps","protocol":17,"map":"pl_borneo","folder":"tf","game":"Team Fortress","app_id":440,"player_count":21,"max_players":24,"Bots":0,"server_type":"Dedicated","server_os":"Linux","password":true,"vac":true,"version":"7882260","steam_id":85568392924515191,"keywords":["nocrits","nodmgspread","payload","uncletopia"],"game_id":440,"stv_port":27036,"stv_name":"Uncletopia | Chicago | 3 | All Maps | STV","players":[{"user_id":778,"name":"juha","steam_id":76561198133102865,"connected_time":1450000000000,"state":"active","ping":68},{"user_id":799,"name":"MancalaMadMan","steam_id":76561198347324053,"connected_time":13000000000,"state":"active","ping":143},{"user_id":791,"name":"Charlie","steam_id":76561198798127908,"connected_time":830000000000,"state":"active","ping":63},{"user_id":798,"name":"DeckofDragons","steam_id":76561198057398213,"connected_time":84000000000,"state":"active","ping":76},{"user_id":726,"name":"eat Pant","steam_id":76561197974965536,"connected_time":4133000000000,"state":"active","ping":50},{"user_id":794,"name":"ÈáåËäã - Tarooo","steam_id":76561198392986348,"connected_time":397000000000,"state":"active","ping":75},{"user_id":717,"name":"Neco-Arc","steam_id":76561198196211121,"connected_time":5405000000000,"state":"active","ping":82},{"user_id":800,"name":"DeltaForce4Life","steam_id":76561198355534614,"connected_time":3000000000,"state":"spawning","ping":62},{"user_id":743,"name":"dulg","steam_id":76561198127640309,"connected_time":3222000000000,"state":"active","ping":88},{"user_id":697,"name":"kitarooni","steam_id":76561197995012442,"connected_time":6838000000000,"state":"active","ping":44},{"user_id":773,"name":"kira","steam_id":76561198277979851,"connected_time":1551000000000,"state":"active","ping":243},{"user_id":792,"name":"Pim","steam_id":76561198046050375,"connected_time":824000000000,"state":"active","ping":203},{"user_id":677,"name":"El_Jackso","steam_id":76561198126121555,"connected_time":8950000000000,"state":"active","ping":51},{"user_id":748,"name":"underworld","steam_id":76561198173047169,"connected_time":2447000000000,"state":"active","ping":59},{"user_id":699,"name":"jorts","steam_id":76561199041179985,"connected_time":6794000000000,"state":"active","ping":115},{"user_id":788,"name":"Peter Hook","steam_id":76561197999105979,"connected_time":1027000000000,"state":"active","ping":55},{"user_id":740,"name":"pyrotechnic","steam_id":76561198043558709,"connected_time":3358000000000,"state":"active","ping":93},{"user_id":797,"name":"M249 | Spectre","steam_id":76561198118334485,"connected_time":109000000000,"state":"active","ping":69},{"user_id":683,"name":"trash","steam_id":76561199069759034,"connected_time":8497000000000,"state":"active","ping":48},{"user_id":771,"name":"tsun.","steam_id":76561198079488962,"connected_time":1555000000000,"state":"active","ping":90},{"user_id":762,"name":"roryisreallyoutofit","steam_id":76561198065825165,"connected_time":1797000000000,"state":"active","ping":110}]},{"server_id":403,"name":"Uncletopia | Chicago | 4 | All Maps","name_short":"chi-4","host":"chi-1.us.uncletopia.com","port":27045,"enabled":true,"region":"us-central","cc":"us","latitude":41.881832,"longitude":-87.62318,"reserved":0,"last_update":"0001-01-01T00:00:00Z","name_a2s":"Uncletopia | Chicago | 4 | All Maps","protocol":17,"map":"pl_badwater","folder":"tf","game":"Team Fortress","app_id":440,"player_count":23,"max_players":24,"Bots":0,"server_type":"Dedicated","server_os":"Linux","password":true,"vac":true,"version":"7882260","steam_id":85568392924515193,"keywords":["nocrits","nodmgspread","payload","uncletopia"],"game_id":440,"stv_port":27046,"stv_name":"Uncletopia | Chicago | 4 | All Maps | STV","players":[{"user_id":416,"name":"shadow wizard money gang","steam_id":76561198418414338,"connected_time":520000000000,"state":"active","ping":88},{"user_id":411,"name":"blindmin","steam_id":76561198062345131,"connected_time":603000000000,"state":"active","ping":57},{"user_id":419,"name":"bathala97","steam_id":76561198834575538,"connected_time":337000000000,"state":"active","ping":103},{"user_id":420,"name":"DeletedTaters","steam_id":76561198040773153,"connected_time":315000000000,"state":"active","ping":63},{"user_id":338,"name":"sweaver","steam_id":76561199156551835,"connected_time":4898000000000,"state":"active","ping":51},{"user_id":421,"name":"rad killl raccoon","steam_id":76561198980975595,"connected_time":315000000000,"state":"active","ping":114},{"user_id":422,"name":"knathaleigh","steam_id":76561198451759348,"connected_time":274000000000,"state":"active","ping":53},{"user_id":389,"name":"LalitoTV","steam_id":76561198334302951,"connected_time":2229000000000,"state":"active","ping":123},{"user_id":423,"name":"Rainy Day Women #12 \u0026 35","steam_id":76561198162224842,"connected_time":161000000000,"state":"active","ping":68},{"user_id":412,"name":"Benson","steam_id":76561199199487284,"connected_time":597000000000,"state":"active","ping":73},{"user_id":413,"name":"sellit","steam_id":76561199250825166,"connected_time":592000000000,"state":"active","ping":72},{"user_id":424,"name":"meow","steam_id":76561198055626638,"connected_time":144000000000,"state":"active","ping":99},{"user_id":425,"name":"speed","steam_id":76561198074489549,"connected_time":130000000000,"state":"active","ping":113},{"user_id":407,"name":"2","steam_id":76561198116821551,"connected_time":1033000000000,"state":"active","ping":58},{"user_id":408,"name":"Aegis XIII","steam_id":76561198295006002,"connected_time":956000000000,"state":"active","ping":59},{"user_id":417,"name":"brae","steam_id":76561198047126327,"connected_time":393000000000,"state":"active","ping":63},{"user_id":398,"name":"Takeover","steam_id":76561197996081461,"connected_time":1724000000000,"state":"active","ping":59},{"user_id":405,"name":"sweaterfan","steam_id":76561199389567214,"connected_time":1436000000000,"state":"active","ping":62},{"user_id":393,"name":"The flaming soup","steam_id":76561198202815522,"connected_time":2137000000000,"state":"active","ping":101},{"user_id":426,"name":"hatsune miku‚ô°","steam_id":76561199445009981,"connected_time":126000000000,"state":"active","ping":103},{"user_id":427,"name":"The Cool Man","steam_id":76561198096420556,"connected_time":115000000000,"state":"active","ping":95},{"user_id":281,"name":"Wolf Hat","steam_id":76561198099996051,"connected_time":10273000000000,"state":"active","ping":72},{"user_id":418,"name":"OrionKid","steam_id":76561198359094901,"connected_time":391000000000,"state":"active","ping":69}]},{"server_id":36,"name":"Uncletopia | Chicago | 5 | All Maps","name_short":"chi-5","host":"chi-2.us.uncletopia.com","port":27015,"enabled":true,"region":"us-central","cc":"us","latitude":41.881832,"longitude":-87.62318,"reserved":0,"last_update":"0001-01-01T00:00:00Z","name_a2s":"Uncletopia | Chicago | 5 | All Maps","protocol":17,"map":"pl_snowycoast","folder":"tf","game":"Team Fortress","app_id":440,"player_count":23,"max_players":24,"Bots":0,"server_type":"Dedicated","server_os":"Linux","password":true,"vac":true,"version":"7882260","steam_id":85568392924866362,"keywords":["nocrits","nodmgspread","payload","uncletopia"],"game_id":440,"stv_port":27016,"stv_name":"Uncletopia | Chicago | 5 | All Maps | STV","players":[{"user_id":586,"name":"Gad","steam_id":76561198020792373,"connected_time":2740000000000,"state":"active","ping":45},{"user_id":620,"name":"Lex","steam_id":76561198069948353,"connected_time":680000000000,"state":"active","ping":87},{"user_id":547,"name":"souljaboytellem.com","steam_id":76561198111975583,"connected_time":4823000000000,"state":"active","ping":81},{"user_id":606,"name":"A. Phex Surin","steam_id":76561198008953177,"connected_time":1570000000000,"state":"active","ping":74},{"user_id":627,"name":"doughboy","steam_id":76561198219012928,"connected_time":2000000000,"state":"spawning","ping":100},{"user_id":618,"name":"just some average joe","steam_id":76561198994349483,"connected_time":775000000000,"state":"active","ping":100},{"user_id":621,"name":"hot burger","steam_id":76561198275554722,"connected_time":622000000000,"state":"active","ping":107},{"user_id":626,"name":"Synthetic Meathouse","steam_id":76561198169966346,"connected_time":254000000000,"state":"active","ping":84},{"user_id":591,"name":"b","steam_id":76561198118211523,"connected_time":2506000000000,"state":"active","ping":60},{"user_id":569,"name":"katryna","steam_id":76561198023440304,"connected_time":4075000000000,"state":"active","ping":60},{"user_id":572,"name":"richarven","steam_id":76561198189429665,"connected_time":3993000000000,"state":"active","ping":73},{"user_id":592,"name":"idarmed","steam_id":76561198420064361,"connected_time":2483000000000,"state":"active","ping":75},{"user_id":612,"name":"Super Ghostbusters (Full Album)","steam_id":76561198057415490,"connected_time":1152000000000,"state":"active","ping":57},{"user_id":614,"name":"gromit","steam_id":76561198037746805,"connected_time":1126000000000,"state":"active","ping":71},{"user_id":624,"name":"Do Moose go Moo?","steam_id":76561198073550620,"connected_time":335000000000,"state":"active","ping":59},{"user_id":595,"name":"IMM0RTAL","steam_id":76561198013747901,"connected_time":2414000000000,"state":"active","ping":76},{"user_id":605,"name":"avant","steam_id":76561198104921055,"connected_time":1589000000000,"state":"active","ping":97},{"user_id":617,"name":"Thomas Sowell","steam_id":76561198047168548,"connected_time":906000000000,"state":"active","ping":104},{"user_id":609,"name":"shampoo","steam_id":76561198069600113,"connected_time":1326000000000,"state":"active","ping":57},{"user_id":619,"name":"King Louis IX","steam_id":76561198080283962,"connected_time":765000000000,"state":"active","ping":114},{"user_id":622,"name":"Flubby","steam_id":76561198069171252,"connected_time":616000000000,"state":"active","ping":66},{"user_id":604,"name":"Katy","steam_id":76561198079395814,"connected_time":1861000000000,"state":"active","ping":62},{"user_id":625,"name":"Antifa Alligator","steam_id":76561197988170816,"connected_time":334000000000,"state":"active","ping":62}]},{"server_id":37,"name":"Uncletopia | Chicago | 6 | All Maps","name_short":"chi-6","host":"chi-2.us.uncletopia.com","port":27025,"enabled":true,"region":"us-central","cc":"us","latitude":41.881832,"longitude":-87.62318,"reserved":0,"last_update":"0001-01-01T00:00:00Z","name_a2s":"Uncletopia | Chicago | 6 | All Maps","protocol":17,"map":"pl_swiftwater_final1","folder":"tf","game":"Team Fortress","app_id":440,"player_count":22,"max_players":24,"Bots":0,"server_type":"Dedicated","server_os":"Linux","password":true,"vac":true,"version":"7882260","steam_id":85568392924866363,"keywords":["nocrits","nodmgspread","payload","uncletopia"],"game_id":440,"stv_port":27026,"stv_name":"Uncletopia | Chicago | 6 | All Maps | STV","players":[{"user_id":278,"name":"PBxJAY","steam_id":76561198402471788,"connected_time":345000000000,"state":"active","ping":123},{"user_id":280,"name":"Corvus","steam_id":76561198209031376,"connected_time":249000000000,"state":"active","ping":89},{"user_id":212,"name":"Vacket","steam_id":76561198161868015,"connected_time":4272000000000,"state":"active","ping":69},{"user_id":263,"name":"Mighty","steam_id":76561198096569755,"connected_time":945000000000,"state":"active","ping":93},{"user_id":276,"name":"UNIT 220","steam_id":76561198042243497,"connected_time":473000000000,"state":"active","ping":76},{"user_id":264,"name":"Mr.Silver","steam_id":76561198156382508,"connected_time":926000000000,"state":"active","ping":50},{"user_id":272,"name":"-|Kappin'|- ExplosiveDiahrea","steam_id":76561198017045020,"connected_time":661000000000,"state":"active","ping":62},{"user_id":277,"name":"New Reno","steam_id":76561198156522866,"connected_time":435000000000,"state":"active","ping":91},{"user_id":284,"name":"Giggles‚Ñ¢","steam_id":76561198058708019,"connected_time":150000000000,"state":"active","ping":59},{"user_id":281,"name":"l√ºh me da granky","steam_id":76561198056186750,"connected_time":221000000000,"state":"active","ping":55},{"user_id":282,"name":"Tony hawks pro skater 2 dlc","steam_id":76561198243387974,"connected_time":180000000000,"state":"active","ping":65},{"user_id":273,"name":"-|Kappin'|- Kilbo Fraggins‚Ñ¢","steam_id":76561197994725498,"connected_time":653000000000,"state":"active","ping":72},{"user_id":283,"name":"Cyb0 Tap Water Shadow 27","steam_id":76561198100391735,"connected_time":161000000000,"state":"active","ping":77},{"user_id":215,"name":"gawab3","steam_id":76561198370459596,"connected_time":4243000000000,"state":"active","ping":66},{"user_id":285,"name":"Black Chan","steam_id":76561198053355299,"connected_time":148000000000,"state":"active","ping":88},{"user_id":252,"name":"CC","steam_id":76561198071226149,"connected_time":2468000000000,"state":"active","ping":83},{"user_id":83,"name":"jooby","steam_id":76561198131065492,"connected_time":15085000000000,"state":"active","ping":68},{"user_id":256,"name":"derdds","steam_id":76561198034339940,"connected_time":2143000000000,"state":"active","ping":59},{"user_id":286,"name":"honk","steam_id":76561198050398028,"connected_time":119000000000,"state":"active","ping":59},{"user_id":287,"name":"A Rope, for big pits","steam_id":76561198068044782,"connected_time":92000000000,"state":"active","ping":68},{"user_id":288,"name":"Colin102004","steam_id":76561198202384334,"connected_time":46000000000,"state":"active","ping":62},{"user_id":289,"name":"PieOfGods","steam_id":76561199442257389,"connected_time":11000000000,"state":"spawning","ping":103}]},{"server_id":38,"name":"Uncletopia | Chicago | 7 | Stopwatch Beta","name_short":"chi-7","host":"chi-2.us.uncletopia.com","port":27035,"enabled":true,"region":"us-central","cc":"us","latitude":41.881832,"longitude":-87.62318,"reserved":0,"last_update":"0001-01-01T00:00:00Z","name_a2s":"Uncletopia | Chicago | 7 | Stopwatch Beta","protocol":17,"map":"workshop/koth_ashville_final.ugc2130459942","folder":"tf","game":"Team Fortress","app_id":440,"player_count":24,"max_players":24,"Bots":0,"server_type":"Dedicated","server_os":"Linux","password":true,"vac":true,"version":"7882260","steam_id":85568392924866364,"keywords":["cp","nocrits","nodmgspread","uncletopia"],"game_id":440,"stv_port":27036,"stv_name":"Uncletopia | Chicago | 7 | Stopwatch Beta | STV","players":[{"user_id":121,"name":"The Rat King","steam_id":76561198852498127,"connected_time":588000000000,"state":"active","ping":60},{"user_id":69,"name":"Snoopy","steam_id":76561198273735974,"connected_time":5433000000000,"state":"active","ping":89},{"user_id":118,"name":"sonikro","steam_id":76561197989428692,"connected_time":1029000000000,"state":"active","ping":60},{"user_id":119,"name":"MissingTextures","steam_id":76561198287491369,"connected_time":1008000000000,"state":"active","ping":98},{"user_id":115,"name":"tim-","steam_id":76561199119101315,"connected_time":1359000000000,"state":"active","ping":72},{"user_id":113,"name":"Cite","steam_id":76561198040400876,"connected_time":1828000000000,"state":"active","ping":69},{"user_id":111,"name":"super-oofio64","steam_id":76561198954052123,"connected_time":2324000000000,"state":"active","ping":112},{"user_id":84,"name":"bring back the goddamn mcrib","steam_id":76561198326083509,"connected_time":4712000000000,"state":"active","ping":81},{"user_id":120,"name":"Bongwater Basin","steam_id":76561198059868632,"connected_time":822000000000,"state":"active","ping":82},{"user_id":63,"name":"fishy butters ‚ô†","steam_id":76561198147453405,"connected_time":5792000000000,"state":"active","ping":81},{"user_id":122,"name":"Amauri","steam_id":76561198130809137,"connected_time":526000000000,"state":"active","ping":89},{"user_id":124,"name":"Post nut clarity","steam_id":76561198060246831,"connected_time":509000000000,"state":"active","ping":86},{"user_id":97,"name":"he munch","steam_id":76561198339644583,"connected_time":3399000000000,"state":"active","ping":60},{"user_id":125,"name":"Ddonut gamer","steam_id":76561198858852245,"connected_time":502000000000,"state":"active","ping":113},{"user_id":108,"name":"trobin120","steam_id":76561199122420273,"connected_time":2480000000000,"state":"active","ping":61},{"user_id":103,"name":"J.G. Klaus","steam_id":76561198001111196,"connected_time":2730000000000,"state":"active","ping":64},{"user_id":114,"name":"Dumbass Furry","steam_id":76561199087959702,"connected_time":1793000000000,"state":"active","ping":97},{"user_id":132,"name":"Koogi_oogi","steam_id":76561199099914725,"connected_time":197000000000,"state":"active","ping":118},{"user_id":105,"name":"FRANKY!!!","steam_id":76561199211305343,"connected_time":2645000000000,"state":"active","ping":100},{"user_id":130,"name":"Farseer Ulwithy","steam_id":76561197965179245,"connected_time":292000000000,"state":"active","ping":84},{"user_id":128,"name":"Monsrox","steam_id":76561198253732619,"connected_time":343000000000,"state":"active","ping":82},{"user_id":131,"name":"frank","steam_id":76561198137777483,"connected_time":231000000000,"state":"active","ping":65},{"user_id":112,"name":"Grandma Goku","steam_id":76561198129597384,"connected_time":2313000000000,"state":"active","ping":117},{"user_id":67,"name":"JSlayz","steam_id":76561198853768655,"connected_time":5726000000000,"state":"active","ping":46}]},{"server_id":39,"name":"Uncletopia | Chicago | 8 | Community","name_short":"chi-8","host":"chi-2.us.uncletopia.com","port":27045,"enabled":true,"region":"us-central","cc":"us","latitude":41.881832,"longitude":-87.62318,"reserved":0,"last_update":"0001-01-01T00:00:00Z","name_a2s":"Uncletopia | Chicago | 8 | Community","protocol":17,"map":"workshop/koth_ramjam_rc1.ugc459778887","folder":"tf","game":"Team Fortress","app_id":440,"player_count":15,"max_players":24,"Bots":0,"server_type":"Dedicated","server_os":"Linux","password":true,"vac":true,"version":"7882260","steam_id":85568392924866365,"keywords":["cp","nocrits","nodmgspread","uncletopia"],"game_id":440,"stv_port":27046,"stv_name":"Uncletopia | Chicago | 8 | Community | STV","players":[{"user_id":221,"name":"E4Estrogen","steam_id":76561198085813708,"connected_time":3709000000000,"state":"active","ping":71},{"user_id":267,"name":"TTV Hunter","steam_id":76561198115812405,"connected_time":43000000000,"state":"active","ping":73},{"user_id":204,"name":"PinguEnjoyer6","steam_id":76561199186723516,"connected_time":5408000000000,"state":"active","ping":97},{"user_id":222,"name":"Golurk with some bitches","steam_id":76561198085888959,"connected_time":3699000000000,"state":"active","ping":56},{"user_id":247,"name":"{‚ô†}_MR. JESTER _{‚ô†}","steam_id":76561198152371294,"connected_time":2328000000000,"state":"active","ping":136},{"user_id":264,"name":"ashsillygoober","steam_id":76561199454622997,"connected_time":552000000000,"state":"active","ping":86},{"user_id":265,"name":"Forty-Bot","steam_id":76561198076693960,"connected_time":479000000000,"state":"active","ping":54},{"user_id":266,"name":"Infinitytacos","steam_id":76561198884260211,"connected_time":253000000000,"state":"active","ping":42},{"user_id":268,"name":"lavalampy2020","steam_id":76561199447581139,"connected_time":20000000000,"state":"spawning","ping":106},{"user_id":258,"name":"Pistol Person","steam_id":76561199090298292,"connected_time":1248000000000,"state":"active","ping":100},{"user_id":269,"name":"eryn üó∫","steam_id":76561198004433070,"connected_time":5000000000,"state":"spawning","ping":71},{"user_id":243,"name":"rafa307","steam_id":76561199089770475,"connected_time":2660000000000,"state":"active","ping":166},{"user_id":254,"name":"Protato","steam_id":76561198061182563,"connected_time":1995000000000,"state":"active","ping":76},{"user_id":216,"name":"Ocvember","steam_id":76561198206308152,"connected_time":4544000000000,"state":"active","ping":147},{"user_id":202,"name":"Chagalicious","steam_id":76561198044128240,"connected_time":5700000000000,"state":"active","ping":79}]},{"server_id":8,"name":"Uncletopia | Dallas | 1 | All Maps","name_short":"dal-1","host":"dal-1.us.uncletopia.com","port":27015,"enabled":true,"region":"us-central","cc":"us","latitude":32.779167,"longitude":-96.80889,"reserved":0,"last_update":"0001-01-01T00:00:00Z","name_a2s":"Uncletopia | Dallas | 1 | All Maps","protocol":17,"map":"pl_borneo","folder":"tf","game":"Team Fortress","app_id":440,"player_count":23,"max_players":24,"Bots":0,"server_type":"Dedicated","server_os":"Linux","password":true,"vac":true,"version":"7882260","steam_id":85568392924469986,"keywords":["nocrits","nodmgspread","payload","uncletopia"],"game_id":440,"stv_port":27016,"stv_name":"Uncletopia | Dallas | 1 | All Maps | STV","players":[{"user_id":642,"name":"Nephi","steam_id":76561198031525122,"connected_time":306000000000,"state":"active","ping":101},{"user_id":598,"name":"Rusted Cake","steam_id":76561198209755931,"connected_time":4693000000000,"state":"active","ping":94},{"user_id":640,"name":"plink","steam_id":76561198057829889,"connected_time":342000000000,"state":"active","ping":47},{"user_id":643,"name":"bendera","steam_id":76561197965486503,"connected_time":289000000000,"state":"active","ping":83},{"user_id":639,"name":"Sagertooth","steam_id":76561198060863894,"connected_time":527000000000,"state":"active","ping":45},{"user_id":601,"name":"13¬£","steam_id":76561198425726464,"connected_time":4573000000000,"state":"active","ping":53},{"user_id":624,"name":"BADWOLF42","steam_id":76561198055447523,"connected_time":2033000000000,"state":"active","ping":55},{"user_id":630,"name":"BrowniesCake","steam_id":76561198164081149,"connected_time":1558000000000,"state":"active","ping":102},{"user_id":632,"name":"Balerion the Black Dread","steam_id":76561198003728369,"connected_time":1553000000000,"state":"active","ping":84},{"user_id":647,"name":"Thewaffleman141","steam_id":76561198083068694,"connected_time":193000000000,"state":"active","ping":42},{"user_id":629,"name":"yeyoi","steam_id":76561198069821885,"connected_time":1568000000000,"state":"active","ping":35},{"user_id":597,"name":"barker bill","steam_id":76561198018451994,"connected_time":4863000000000,"state":"active","ping":58},{"user_id":625,"name":"LampMan","steam_id":76561198079857527,"connected_time":1924000000000,"state":"active","ping":59},{"user_id":644,"name":"Bucket Joe","steam_id":76561198995973865,"connected_time":274000000000,"state":"active","ping":84},{"user_id":645,"name":"License","steam_id":76561197967501494,"connected_time":235000000000,"state":"active","ping":74},{"user_id":634,"name":"momb","steam_id":76561198142234038,"connected_time":1501000000000,"state":"active","ping":85},{"user_id":623,"name":"chrislindsay2011","steam_id":76561199389275505,"connected_time":2041000000000,"state":"active","ping":99},{"user_id":616,"name":"Baby gaming","steam_id":76561198867319323,"connected_time":2323000000000,"state":"active","ping":87},{"user_id":637,"name":"rachael rabies","steam_id":76561198000851637,"connected_time":1280000000000,"state":"active","ping":110},{"user_id":646,"name":"Harley [Ramiel]","steam_id":76561198079510840,"connected_time":210000000000,"state":"active","ping":93},{"user_id":619,"name":"Bird","steam_id":76561198231624620,"connected_time":2141000000000,"state":"active","ping":65},{"user_id":638,"name":"bubbles","steam_id":76561198040940902,"connected_time":1198000000000,"state":"active","ping":75},{"user_id":614,"name":"SmokeyGalaxy","steam_id":76561198118780516,"connected_time":2779000000000,"state":"active","ping":61}]},{"server_id":108,"name":"Uncletopia | Dallas | 2 | All Maps","name_short":"dal-2","host":"dal-1.us.uncletopia.com","port":27025,"enabled":true,"region":"us-central","cc":"us","latitude":32.779167,"longitude":-96.80889,"reserved":0,"last_update":"0001-01-01T00:00:00Z","name_a2s":"Uncletopia | Dallas | 2 | All Maps","protocol":17,"map":"pl_pier","folder":"tf","game":"Team Fortress","app_id":440,"player_count":24,"max_players":24,"Bots":0,"server_type":"Dedicated","server_os":"Linux","password":true,"vac":true,"version":"7882260","steam_id":85568392924469988,"keywords":["nocrits","nodmgspread","payload","uncletopia"],"game_id":440,"stv_port":27026,"stv_name":"Uncletopia | Dallas | 2 | All Maps | STV","players":[{"user_id":804,"name":"Dr. Dingus PhD","steam_id":76561199209834538,"connected_time":760000000000,"state":"active","ping":74},{"user_id":802,"name":"kingtonyfunnyface","steam_id":76561199181860517,"connected_time":808000000000,"state":"active","ping":73},{"user_id":668,"name":"-The_Under_Miner-","steam_id":76561199195735972,"connected_time":3260000000000,"state":"active","ping":115},{"user_id":746,"name":"iaPK","steam_id":76561198056618642,"connected_time":2419000000000,"state":"active","ping":43},{"user_id":796,"name":"Gamebun üêá","steam_id":76561197998855425,"connected_time":1033000000000,"state":"active","ping":46},{"user_id":792,"name":"Arrluk","steam_id":76561198396679452,"connected_time":1182000000000,"state":"active","ping":77},{"user_id":655,"name":"DLATON","steam_id":76561198236650672,"connected_time":3599000000000,"state":"active","ping":45},{"user_id":754,"name":"DragonHeart","steam_id":76561198013245625,"connected_time":2319000000000,"state":"active","ping":70},{"user_id":748,"name":"DrHaphazard","steam_id":76561197993237366,"connected_time":2399000000000,"state":"active","ping":47},{"user_id":756,"name":"Breezy","steam_id":76561199102955768,"connected_time":2266000000000,"state":"active","ping":58},{"user_id":807,"name":"Glaceon","steam_id":76561198177715869,"connected_time":384000000000,"state":"active","ping":70},{"user_id":749,"name":"Apollo","steam_id":76561198162364702,"connected_time":2383000000000,"state":"active","ping":90},{"user_id":808,"name":"UnkownGamerLOL","steam_id":76561198225902368,"connected_time":334000000000,"state":"active","ping":80},{"user_id":795,"name":"ErikG65USA","steam_id":76561199381735619,"connected_time":1053000000000,"state":"active","ping":70},{"user_id":782,"name":"MellowBoy-2354","steam_id":76561199080630632,"connected_time":1701000000000,"state":"active","ping":89},{"user_id":805,"name":"dweaver","steam_id":76561198119610135,"connected_time":697000000000,"state":"active","ping":72},{"user_id":794,"name":"TGD","steam_id":76561198197582594,"connected_time":1069000000000,"state":"active","ping":46},{"user_id":639,"name":"chad farthouse","steam_id":76561198086794229,"connected_time":4222000000000,"state":"active","ping":79},{"user_id":758,"name":"[R–Ø] ShibesGoneWow","steam_id":76561198036090516,"connected_time":2167000000000,"state":"active","ping":64},{"user_id":806,"name":"kyng_wzrd","steam_id":76561198088339492,"connected_time":687000000000,"state":"active","ping":80},{"user_id":799,"name":"white woman","steam_id":76561199116679777,"connected_time":951000000000,"state":"active","ping":70},{"user_id":800,"name":"Edendelt","steam_id":76561199382750867,"connected_time":927000000000,"state":"active","ping":84},{"user_id":801,"name":"HanakoToast","steam_id":76561198045233131,"connected_time":896000000000,"state":"active","ping":101},{"user_id":676,"name":"Beaver88","steam_id":76561198138448252,"connected_time":3194000000000,"state":"active","ping":102}]},{"server_id":5,"name":"Uncletopia | Frankfurt | 1 | All Maps","name_short":"frk-1","host":"frk-1.de.uncletopia.com","port":27015,"enabled":true,"region":"eu","cc":"de","latitude":50.110924,"longitude":8.682127,"reserved":0,"last_update":"0001-01-01T00:00:00Z","name_a2s":"Uncletopia | Frankfurt | 1 | All Maps","protocol":17,"map":"pl_barnblitz","folder":"tf","game":"Team Fortress","app_id":440,"player_count":0,"max_players":24,"Bots":0,"server_type":"Dedicated","server_os":"Linux","password":true,"vac":true,"version":"7882260","steam_id":85568392924469989,"keywords":["nocrits","nodmgspread","payload","uncletopia"],"game_id":440,"stv_port":27016,"stv_name":"Uncletopia | Frankfurt | 1 | All Maps | STV","players":null},{"server_id":110,"name":"Uncletopia | Frankfurt | 2 | All Maps","name_short":"frk-2","host":"frk-1.de.uncletopia.com","port":27025,"enabled":true,"region":"eu","cc":"de","latitude":50.110924,"longitude":8.682127,"reserved":0,"last_update":"0001-01-01T00:00:00Z","name_a2s":"Uncletopia | Frankfurt | 2 | All Maps","protocol":17,"map":"cp_dustbowl","folder":"tf","game":"Team Fortress","app_id":440,"player_count":0,"max_players":24,"Bots":0,"server_type":"Dedicated","server_os":"Linux","password":true,"vac":true,"version":"7882260","steam_id":85568392924469990,"keywords":["cp","nocrits","nodmgspread","uncletopia"],"game_id":440,"stv_port":27026,"stv_name":"Uncletopia | Frankfurt | 2 | All Maps | STV","players":null},{"server_id":308,"name":"Uncletopia | Frankfurt | 3 | All Maps","name_short":"frk-3","host":"frk-1.de.uncletopia.com","port":27035,"enabled":true,"region":"eu","cc":"de","latitude":50.110924,"longitude":8.682127,"reserved":0,"last_update":"0001-01-01T00:00:00Z","name_a2s":"Uncletopia | Frankfurt | 3 | All Maps","protocol":17,"map":"koth_cascade","folder":"tf","game":"Team Fortress","app_id":440,"player_count":0,"max_players":24,"Bots":0,"server_type":"Dedicated","server_os":"Linux","password":true,"vac":true,"version":"7882260","steam_id":85568392924504274,"keywords":["cp","nocrits","nodmgspread","uncletopia"],"game_id":440,"stv_port":27036,"stv_name":"Uncletopia | Frankfurt | 3 | All Maps | STV","players":null},{"server_id":309,"name":"Uncletopia | Frankfurt | 4 | All Maps","name_short":"frk-4","host":"frk-1.de.uncletopia.com","port":27045,"enabled":true,"region":"eu","cc":"de","latitude":50.110924,"longitude":8.682127,"reserved":0,"last_update":"0001-01-01T00:00:00Z","name_a2s":"Uncletopia | Frankfurt | 4 | All Maps","protocol":17,"map":"koth_lakeside_final","folder":"tf","game":"Team Fortress","app_id":440,"player_count":0,"max_players":24,"Bots":0,"server_type":"Dedicated","server_os":"Linux","password":true,"vac":true,"version":"7882260","steam_id":85568392924504275,"keywords":["cp","nocrits","nodmgspread","uncletopia"],"game_id":440,"stv_port":27046,"stv_name":"Uncletopia | Frankfurt | 4 | All Maps | STV","players":null},{"server_id":310,"name":"Uncletopia | Frankfurt | 5 | All Maps","name_short":"frk-5","host":"frk-1.de.uncletopia.com","port":27055,"enabled":true,"region":"eu","cc":"de","latitude":50.110924,"longitude":8.682127,"reserved":0,"last_update":"0001-01-01T00:00:00Z","name_a2s":"Uncletopia | Frankfurt | 5 | All Maps","protocol":17,"map":"koth_cascade","folder":"tf","game":"Team Fortress","app_id":440,"player_count":0,"max_players":24,"Bots":0,"server_type":"Dedicated","server_os":"Linux","password":true,"vac":true,"version":"7882260","steam_id":85568392924504277,"keywords":["cp","nocrits","nodmgspread","uncletopia"],"game_id":440,"stv_port":27056,"stv_name":"Uncletopia | Frankfurt | 5 | All Maps | STV","players":null},{"server_id":311,"name":"Uncletopia | Frankfurt | 6 | All Maps","name_short":"frk-6","host":"frk-1.de.uncletopia.com","port":27065,"enabled":true,"region":"eu","cc":"de","latitude":50.110924,"longitude":8.682127,"reserved":0,"last_update":"0001-01-01T00:00:00Z","name_a2s":"Uncletopia | Frankfurt | 6 | All Maps","protocol":17,"map":"koth_lakeside_final","folder":"tf","game":"Team Fortress","app_id":440,"player_count":0,"max_players":24,"Bots":0,"server_type":"Dedicated","server_os":"Linux","password":true,"vac":true,"version":"7882260","steam_id":85568392924504278,"keywords":["cp","nocrits","nodmgspread","uncletopia"],"game_id":440,"stv_port":27066,"stv_name":"Uncletopia | Frankfurt | 6 | All Maps | STV","players":null},{"server_id":23,"name":"Uncletopia | Frankfurt | 7 | Stopwatch Beta","name_short":"frk-7","host":"frk-1.de.uncletopia.com","port":27075,"enabled":true,"region":"eu","cc":"de","latitude":50.110924,"longitude":8.682127,"reserved":0,"last_update":"0001-01-01T00:00:00Z","name_a2s":"Uncletopia | Frankfurt | 7 | Stopwatch Beta","protocol":17,"map":"pl_borneo","folder":"tf","game":"Team Fortress","app_id":440,"player_count":0,"max_players":24,"Bots":0,"server_type":"Dedicated","server_os":"Linux","password":true,"vac":true,"version":"7882260","steam_id":85568392924742827,"keywords":["nocrits","nodmgspread","payload","uncletopia"],"game_id":440,"stv_port":27076,"stv_name":"Uncletopia | Frankfurt | 7 | Stopwatch Beta | STV","players":null},{"server_id":24,"name":"Uncletopia | Frankfurt | 8 | Community","name_short":"frk-8","host":"frk-1.de.uncletopia.com","port":27085,"enabled":true,"region":"eu","cc":"de","latitude":50.110924,"longitude":8.682127,"reserved":0,"last_update":"0001-01-01T00:00:00Z","name_a2s":"Uncletopia | Frankfurt | 8 | Community","protocol":17,"map":"workshop/koth_product_final.ugc454272353","folder":"tf","game":"Team Fortress","app_id":440,"player_count":0,"max_players":24,"Bots":0,"server_type":"Dedicated","server_os":"Linux","password":true,"vac":true,"version":"7882260","steam_id":85568392924742828,"keywords":["cp","nocrits","nodmgspread","uncletopia"],"game_id":440,"stv_port":27086,"stv_name":"Uncletopia | Frankfurt | 8 | Community | STV","players":null},{"server_id":202,"name":"Uncletopia | Hong Kong | 1 | All Maps","name_short":"hgk-1","host":"hgk-1.hk.uncletopia.com","port":27015,"enabled":true,"region":"asia","cc":"hk","latitude":22.302711,"longitude":114.177216,"reserved":0,"last_update":"0001-01-01T00:00:00Z","name_a2s":"Uncletopia | Hong Kong | 1 | All Maps","protocol":17,"map":"pl_upward","folder":"tf","game":"Team Fortress","app_id":440,"player_count":3,"max_players":24,"Bots":0,"server_type":"Dedicated","server_os":"Linux","password":true,"vac":true,"version":"7882260","steam_id":85568392924494504,"keywords":["nocrits","nodmgspread","payload","uncletopia"],"game_id":440,"stv_port":27016,"stv_name":"Uncletopia | Hong Kong | 1 | All Maps | STV","players":[{"user_id":58,"name":"p1st0n","steam_id":76561198992723983,"connected_time":1559000000000,"state":"active","ping":99},{"user_id":59,"name":"MongGoyo63","steam_id":76561198349540834,"connected_time":1537000000000,"state":"active","ping":73},{"user_id":63,"name":"Vortex Swagger","steam_id":76561198833527091,"connected_time":1360000000000,"state":"active","ping":85}]},{"server_id":1,"name":"Uncletopia | Los Angeles | 1 | All Maps","name_short":"lax-1","host":"lax-1.us.uncletopia.com","port":27015,"enabled":true,"region":"us-west","cc":"us","latitude":33.94279,"longitude":-118.41004,"reserved":0,"last_update":"0001-01-01T00:00:00Z","name_a2s":"Uncletopia | Los Angeles | 1 | All Maps","protocol":17,"map":"cp_sunshine","folder":"tf","game":"Team Fortress","app_id":440,"player_count":23,"max_players":24,"Bots":0,"server_type":"Dedicated","server_os":"Linux","password":true,"vac":true,"version":"7882260","steam_id":85568392924469991,"keywords":["cp","nocrits","nodmgspread","uncletopia"],"game_id":440,"stv_port":27016,"stv_name":"Uncletopia | Los Angeles | 1 | All Maps | STV","players":[{"user_id":248,"name":"Noxus","steam_id":76561199009820852,"connected_time":2094000000000,"state":"active","ping":69},{"user_id":208,"name":"Tech Deck","steam_id":76561199070437675,"connected_time":4437000000000,"state":"active","ping":54},{"user_id":252,"name":"Zizen","steam_id":76561199011832069,"connected_time":1684000000000,"state":"active","ping":58},{"user_id":243,"name":"MonkeyNobody","steam_id":76561199451266605,"connected_time":2464000000000,"state":"active","ping":51},{"user_id":254,"name":"Luna_Blossom","steam_id":76561198816384987,"connected_time":1552000000000,"state":"active","ping":89},{"user_id":255,"name":"ArnoldGamingÔæ†Ÿ¥","steam_id":76561198040140247,"connected_time":1538000000000,"state":"active","ping":143},{"user_id":170,"name":"Taffy","steam_id":76561198276612538,"connected_time":7327000000000,"state":"active","ping":57},{"user_id":256,"name":"miguelrodriguez2013","steam_id":76561198269253587,"connected_time":1519000000000,"state":"active","ping":51},{"user_id":230,"name":"Kdash","steam_id":76561198043829155,"connected_time":3318000000000,"state":"active","ping":90},{"user_id":181,"name":"Ice cream sandwich","steam_id":76561198172748357,"connected_time":6031000000000,"state":"active","ping":56},{"user_id":266,"name":"Schnitz","steam_id":76561198265484253,"connected_time":36000000000,"state":"active","ping":54},{"user_id":184,"name":"rat obliterater","steam_id":76561199147385953,"connected_time":5969000000000,"state":"active","ping":78},{"user_id":258,"name":"pup","steam_id":76561198145921847,"connected_time":1456000000000,"state":"active","ping":73},{"user_id":186,"name":"Tmiracle","steam_id":76561198052375275,"connected_time":5892000000000,"state":"active","ping":46},{"user_id":264,"name":"great1photo","steam_id":76561198085481933,"connected_time":1050000000000,"state":"active","ping":129},{"user_id":251,"name":"samvaluez","steam_id":76561199213743808,"connected_time":1688000000000,"state":"active","ping":49},{"user_id":249,"name":"Thunder","steam_id":76561198097721532,"connected_time":1858000000000,"state":"active","ping":47},{"user_id":191,"name":"riSygneD","steam_id":76561198331618687,"connected_time":5748000000000,"state":"active","ping":41},{"user_id":261,"name":"World Renowned Penis Salesman","steam_id":76561198061335030,"connected_time":1380000000000,"state":"active","ping":76},{"user_id":262,"name":"sobadorci","steam_id":76561198208627555,"connected_time":1377000000000,"state":"active","ping":49},{"user_id":265,"name":"MrWaffs","steam_id":76561198968747292,"connected_time":978000000000,"state":"active","ping":54},{"user_id":220,"name":"Nibotshooter","steam_id":76561199284825579,"connected_time":4154000000000,"state":"active","ping":70},{"user_id":263,"name":"nori_420","steam_id":76561199117134203,"connected_time":1368000000000,"state":"active","ping":52}]},{"server_id":112,"name":"Uncletopia | Los Angeles | 2 | All Maps","name_short":"lax-2","host":"lax-1.us.uncletopia.com","port":27025,"enabled":true,"region":"us-west","cc":"us","latitude":33.94279,"longitude":-118.41004,"reserved":0,"last_update":"0001-01-01T00:00:00Z","name_a2s":"Uncletopia | Los Angeles | 2 | All Maps","protocol":17,"map":"cp_steel","folder":"tf","game":"Team Fortress","app_id":440,"player_count":24,"max_players":24,"Bots":0,"server_type":"Dedicated","server_os":"Linux","password":true,"vac":true,"version":"7882260","steam_id":85568392924469992,"keywords":["cp","nocrits","nodmgspread","uncletopia"],"game_id":440,"stv_port":27026,"stv_name":"Uncletopia | Los Angeles | 2 | All Maps | STV","players":[{"user_id":483,"name":"BJ","steam_id":76561198004307563,"connected_time":3818000000000,"state":"active","ping":168},{"user_id":521,"name":"Jason.exe","steam_id":76561198010585276,"connected_time":1131000000000,"state":"active","ping":52},{"user_id":446,"name":"a firm hand","steam_id":76561198042913843,"connected_time":6598000000000,"state":"active","ping":87},{"user_id":523,"name":"BigGoose","steam_id":76561198833281392,"connected_time":950000000000,"state":"active","ping":67},{"user_id":369,"name":"Jimmy","steam_id":76561198857959855,"connected_time":11080000000000,"state":"active","ping":45},{"user_id":524,"name":"SCUD missile up your ass","steam_id":76561198066452726,"connected_time":250000000000,"state":"active","ping":56},{"user_id":509,"name":"tim","steam_id":76561198003187590,"connected_time":2312000000000,"state":"active","ping":110},{"user_id":470,"name":"a cat plushie","steam_id":76561198080046542,"connected_time":4298000000000,"state":"active","ping":72},{"user_id":525,"name":"Kilroy Was Here","steam_id":76561198205702933,"connected_time":227000000000,"state":"active","ping":59},{"user_id":529,"name":"kill 5 people in 1 life 3x","steam_id":76561199131359874,"connected_time":129000000000,"state":"active","ping":66},{"user_id":527,"name":"Tideflat","steam_id":76561198179850851,"connected_time":180000000000,"state":"active","ping":55},{"user_id":528,"name":"Thequirka #ForFountainMann","steam_id":76561198968058652,"connected_time":149000000000,"state":"active","ping":74},{"user_id":522,"name":"fudgemcgutchins","steam_id":76561199051377997,"connected_time":1118000000000,"state":"active","ping":60},{"user_id":530,"name":"kittyzombie2023 :D","steam_id":76561198094512992,"connected_time":111000000000,"state":"active","ping":103},{"user_id":512,"name":"JOHN WICK","steam_id":76561198091877422,"connected_time":1577000000000,"state":"active","ping":99},{"user_id":396,"name":"Nobody","steam_id":76561199352089107,"connected_time":9928000000000,"state":"active","ping":84},{"user_id":496,"name":"azureglxy","steam_id":76561198861388315,"connected_time":3293000000000,"state":"active","ping":34},{"user_id":479,"name":"autumnal.messenger","steam_id":76561199345816635,"connected_time":3946000000000,"state":"active","ping":86},{"user_id":520,"name":"[S]Mr. X [No Monitor]","steam_id":76561197963746035,"connected_time":1390000000000,"state":"active","ping":95},{"user_id":416,"name":"[√òWQJ√ò]chubacaalatake","steam_id":76561198136201697,"connected_time":8484000000000,"state":"active","ping":92},{"user_id":531,"name":"samantha","steam_id":76561198049258493,"connected_time":106000000000,"state":"active","ping":96},{"user_id":519,"name":"Tuchus","steam_id":76561198006770064,"connected_time":1468000000000,"state":"active","ping":90},{"user_id":480,"name":"vioxynteris","steam_id":76561198161428666,"connected_time":3945000000000,"state":"active","ping":34},{"user_id":533,"name":"Zobozo","steam_id":76561198028954297,"connected_time":22000000000,"state":"spawning","ping":234}]},{"server_id":324,"name":"Uncletopia | Los Angeles | 3 | All Maps","name_short":"lax-3","host":"lax-1.us.uncletopia.com","port":27035,"enabled":true,"region":"us-west","cc":"us","latitude":33.94279,"longitude":-118.41004,"reserved":0,"last_update":"0001-01-01T00:00:00Z","name_a2s":"Uncletopia | Los Angeles | 3 | All Maps","protocol":17,"map":"pl_upward","folder":"tf","game":"Team Fortress","app_id":440,"player_count":24,"max_players":24,"Bots":0,"server_type":"Dedicated","server_os":"Linux","password":true,"vac":true,"version":"7882260","steam_id":85568392924510198,"keywords":["nocrits","nodmgspread","payload","uncletopia"],"game_id":440,"stv_port":27036,"stv_name":"Uncletopia | Los Angeles | 3 | All Maps | STV","players":[{"user_id":613,"name":"poetato pat","steam_id":76561198025489194,"connected_time":751000000000,"state":"active","ping":89},{"user_id":627,"name":" Ä. ö…û.","steam_id":76561198029580420,"connected_time":349000000000,"state":"active","ping":147},{"user_id":593,"name":"Chongo","steam_id":76561198017604393,"connected_time":1481000000000,"state":"active","ping":45},{"user_id":621,"name":"Medic Boyfriend","steam_id":76561198104086771,"connected_time":480000000000,"state":"active","ping":47},{"user_id":591,"name":"self sufficient kitten","steam_id":76561197960592612,"connected_time":1558000000000,"state":"active","ping":67},{"user_id":531,"name":"insufficient kitten","steam_id":76561197979056451,"connected_time":5353000000000,"state":"active","ping":74},{"user_id":611,"name":"CadenLCheese","steam_id":76561199105517435,"connected_time":859000000000,"state":"active","ping":90},{"user_id":623,"name":"culture shock","steam_id":76561198212421513,"connected_time":450000000000,"state":"active","ping":46},{"user_id":600,"name":"jay","steam_id":76561199474493516,"connected_time":1213000000000,"state":"active","ping":56},{"user_id":630,"name":"CPTforever","steam_id":76561198237767198,"connected_time":291000000000,"state":"active","ping":54},{"user_id":599,"name":"kelvin","steam_id":76561198121215313,"connected_time":1298000000000,"state":"active","ping":45},{"user_id":629,"name":"Sneetch [sRb]","steam_id":76561197996693506,"connected_time":305000000000,"state":"active","ping":96},{"user_id":635,"name":"Petrichor","steam_id":76561198080941416,"connected_time":94000000000,"state":"active","ping":50},{"user_id":625,"name":"skellymabob with a knife","steam_id":76561198015526166,"connected_time":408000000000,"state":"active","ping":78},{"user_id":563,"name":"bob from vegetable","steam_id":76561199089515791,"connected_time":3407000000000,"state":"active","ping":53},{"user_id":626,"name":"Ratchet55","steam_id":76561198208655521,"connected_time":393000000000,"state":"active","ping":90},{"user_id":592,"name":"‚ù§ Ashley ‚ù§","steam_id":76561198056428303,"connected_time":1530000000000,"state":"active","ping":45},{"user_id":562,"name":"Moomin","steam_id":76561198072726213,"connected_time":3434000000000,"state":"active","ping":42},{"user_id":631,"name":"Meet The Kazoo","steam_id":76561199229748300,"connected_time":269000000000,"state":"active","ping":55},{"user_id":632,"name":"Tetra","steam_id":76561198012329955,"connected_time":266000000000,"state":"active","ping":86},{"user_id":616,"name":"golia","steam_id":76561198000264266,"connected_time":681000000000,"state":"active","ping":67},{"user_id":633,"name":"josie","steam_id":76561198170848553,"connected_time":243000000000,"state":"active","ping":75},{"user_id":597,"name":"basil","steam_id":76561198075758026,"connected_time":1385000000000,"state":"active","ping":220},{"user_id":535,"name":"Gerbias","steam_id":76561198001002427,"connected_time":5220000000000,"state":"active","ping":62}]},{"server_id":25,"name":"Uncletopia | Los Angeles | 4 | Stopwatch Beta","name_short":"lax-4","host":"lax-1.us.uncletopia.com","port":27045,"enabled":true,"region":"us-west","cc":"us","latitude":33.94279,"longitude":-118.41004,"reserved":0,"last_update":"0001-01-01T00:00:00Z","name_a2s":"Uncletopia | Los Angeles | 4 | Stopwatch Beta","protocol":17,"map":"koth_lakeside_final","folder":"tf","game":"Team Fortress","app_id":440,"player_count":0,"max_players":24,"Bots":0,"server_type":"Dedicated","server_os":"Linux","password":true,"vac":true,"version":"7882260","steam_id":85568392924510199,"keywords":["cp","nocrits","nodmgspread","uncletopia"],"game_id":440,"stv_port":27046,"stv_name":"Uncletopia | Los Angeles | 4 | Stopwatch Beta | STV","players":null},{"server_id":11,"name":"Uncletopia | London | 1 | All Maps","name_short":"lon-1","host":"lon-1.uk.uncletopia.com","port":27015,"enabled":true,"region":"eu","cc":"gb","latitude":51.509865,"longitude":-0.118092,"reserved":0,"last_update":"0001-01-01T00:00:00Z","name_a2s":"Uncletopia | London | 1 | All Maps","protocol":17,"map":"koth_viaduct","folder":"tf","game":"Team Fortress","app_id":440,"player_count":0,"max_players":24,"Bots":0,"server_type":"Dedicated","server_os":"Linux","password":true,"vac":true,"version":"7882260","steam_id":85568392924367362,"keywords":["cp","nocrits","nodmgspread","uncletopia"],"game_id":440,"stv_port":27016,"stv_name":"Uncletopia | London | 1 | All Maps | STV","players":null},{"server_id":114,"name":"Uncletopia | London | 2 | All Maps","name_short":"lon-2","host":"lon-1.uk.uncletopia.com","port":27025,"enabled":true,"region":"eu","cc":"gb","latitude":51.509865,"longitude":-0.118092,"reserved":0,"last_update":"0001-01-01T00:00:00Z","name_a2s":"Uncletopia | London | 2 | All Maps","protocol":17,"map":"koth_highpass","folder":"tf","game":"Team Fortress","app_id":440,"player_count":0,"max_players":24,"Bots":0,"server_type":"Dedicated","server_os":"Linux","password":true,"vac":true,"version":"7882260","steam_id":85568392924470941,"keywords":["cp","nocrits","nodmgspread","uncletopia"],"game_id":440,"stv_port":27026,"stv_name":"Uncletopia | London | 2 | All Maps | STV","players":null},{"server_id":320,"name":"Uncletopia | London | 3 | All Maps","name_short":"lon-3","host":"lon-1.uk.uncletopia.com","port":27035,"enabled":true,"region":"eu","cc":"gb","latitude":51.509865,"longitude":-0.118092,"reserved":0,"last_update":"0001-01-01T00:00:00Z","name_a2s":"Uncletopia | London | 3 | All Maps","protocol":17,"map":"koth_lakeside_final","folder":"tf","game":"Team Fortress","app_id":440,"player_count":0,"max_players":24,"Bots":0,"server_type":"Dedicated","server_os":"Linux","password":true,"vac":true,"version":"7882260","steam_id":85568392924510192,"keywords":["cp","nocrits","nodmgspread","uncletopia"],"game_id":440,"stv_port":27036,"stv_name":"Uncletopia | London | 3 | All Maps | STV","players":null},{"server_id":321,"name":"Uncletopia | London | 4 | All Maps","name_short":"lon-4","host":"lon-1.uk.uncletopia.com","port":27045,"enabled":true,"region":"eu","cc":"gb","latitude":51.509865,"longitude":-0.118092,"reserved":0,"last_update":"0001-01-01T00:00:00Z","name_a2s":"Uncletopia | London | 4 | All Maps","protocol":17,"map":"cp_dustbowl","folder":"tf","game":"Team Fortress","app_id":440,"player_count":0,"max_players":24,"Bots":0,"server_type":"Dedicated","server_os":"Linux","password":true,"vac":true,"version":"7882260","steam_id":85568392924510193,"keywords":["cp","nocrits","nodmgspread","uncletopia"],"game_id":440,"stv_port":27046,"stv_name":"Uncletopia | London | 4 | All Maps | STV","players":null},{"server_id":21,"name":"Uncletopia | London | 5 | All Maps","name_short":"lon-5","host":"lon-1.uk.uncletopia.com","port":27055,"enabled":true,"region":"eu","cc":"gb","latitude":51.509865,"longitude":-0.118092,"reserved":0,"last_update":"0001-01-01T00:00:00Z","name_a2s":"Uncletopia | London | 5 | All Maps","protocol":17,"map":"pl_frontier_final","folder":"tf","game":"Team Fortress","app_id":440,"player_count":24,"max_players":24,"Bots":0,"server_type":"Dedicated","server_os":"Linux","password":true,"vac":true,"version":"7882260","steam_id":85568392924742829,"keywords":["nocrits","nodmgspread","payload","uncletopia"],"game_id":440,"stv_port":27056,"stv_name":"Uncletopia | London | 5 | All Maps | STV","players":[{"user_id":342,"name":"Taste","steam_id":76561197994506978,"connected_time":2360000000000,"state":"active","ping":47},{"user_id":339,"name":"Habimbi","steam_id":76561198047271252,"connected_time":2635000000000,"state":"active","ping":70},{"user_id":320,"name":"zerg","steam_id":76561198305854178,"connected_time":4385000000000,"state":"active","ping":79},{"user_id":363,"name":"Jack Stauber","steam_id":76561199252776344,"connected_time":287000000000,"state":"active","ping":138},{"user_id":356,"name":"Dan the man","steam_id":76561197993573576,"connected_time":1234000000000,"state":"active","ping":95},{"user_id":359,"name":"Crack Academy","steam_id":76561198134512576,"connected_time":1006000000000,"state":"active","ping":100},{"user_id":338,"name":"Lorenzo Lovers","steam_id":76561198073973581,"connected_time":2793000000000,"state":"active","ping":88},{"user_id":361,"name":"tiia","steam_id":76561198046196005,"connected_time":654000000000,"state":"active","ping":57},{"user_id":354,"name":"deloreg","steam_id":76561199487318962,"connected_time":1414000000000,"state":"active","ping":74},{"user_id":344,"name":"‚òÅ‚≠ç qBowN‚àº","steam_id":76561198000980532,"connected_time":2168000000000,"state":"active","ping":60},{"user_id":238,"name":"Thunder","steam_id":76561198042433374,"connected_time":10055000000000,"state":"active","ping":39},{"user_id":362,"name":"Naomi ‚òÖ","steam_id":76561198060307235,"connected_time":508000000000,"state":"active","ping":61},{"user_id":150,"name":"Grey","steam_id":76561198187190267,"connected_time":16250000000000,"state":"active","ping":45},{"user_id":284,"name":"Geese Goose","steam_id":76561198070903248,"connected_time":7308000000000,"state":"active","ping":47},{"user_id":318,"name":"Rob","steam_id":76561198346638308,"connected_time":4789000000000,"state":"active","ping":55},{"user_id":349,"name":"roreik","steam_id":76561198013801581,"connected_time":1837000000000,"state":"active","ping":78},{"user_id":350,"name":"THE CHAMP","steam_id":76561198024866611,"connected_time":1828000000000,"state":"active","ping":85},{"user_id":364,"name":"matthe","steam_id":76561198145465595,"connected_time":235000000000,"state":"active","ping":38},{"user_id":365,"name":"Qdarks","steam_id":76561198013391340,"connected_time":166000000000,"state":"active","ping":146},{"user_id":353,"name":"AWP Bodyshot :) ‚ù§","steam_id":76561198029928533,"connected_time":1448000000000,"state":"active","ping":59},{"user_id":352,"name":"exRage","steam_id":76561198449953655,"connected_time":1755000000000,"state":"active","ping":68},{"user_id":332,"name":"Droy","steam_id":76561198065854668,"connected_time":3685000000000,"state":"active","ping":43},{"user_id":288,"name":"Moonkey","steam_id":76561199013741389,"connected_time":7166000000000,"state":"active","ping":108},{"user_id":326,"name":"REN","steam_id":76561198000596385,"connected_time":4126000000000,"state":"active","ping":83}]},{"server_id":22,"name":"Uncletopia | London | 6 | All Maps","name_short":"lon-6","host":"lon-1.uk.uncletopia.com","port":27065,"enabled":true,"region":"eu","cc":"gb","latitude":51.509865,"longitude":-0.118092,"reserved":0,"last_update":"0001-01-01T00:00:00Z","name_a2s":"Uncletopia | London | 6 | All Maps","protocol":17,"map":"pl_upward","folder":"tf","game":"Team Fortress","app_id":440,"player_count":0,"max_players":24,"Bots":0,"server_type":"Dedicated","server_os":"Linux","password":true,"vac":true,"version":"7882260","steam_id":85568392924742830,"keywords":["nocrits","nodmgspread","payload","uncletopia"],"game_id":440,"stv_port":27066,"stv_name":"Uncletopia | London | 6 | All Maps | STV","players":null},{"server_id":40,"name":"Uncletopia | London | 7 | No Payload","name_short":"lon-7","host":"lon-1.uk.uncletopia.com","port":27075,"enabled":true,"region":"eu","cc":"gb","latitude":51.509865,"longitude":-0.118092,"reserved":0,"last_update":"0001-01-01T00:00:00Z","name_a2s":"Uncletopia | London | 7 | No Payload","protocol":17,"map":"koth_nucleus","folder":"tf","game":"Team Fortress","app_id":440,"player_count":0,"max_players":24,"Bots":0,"server_type":"Dedicated","server_os":"Linux","password":true,"vac":true,"version":"7882260","steam_id":85568392924964314,"keywords":["cp","nocrits","nodmgspread","uncletopia"],"game_id":440,"stv_port":27076,"stv_name":"Uncletopia | London | 7 | No Payload | STV","players":null},{"server_id":41,"name":"Uncletopia | London | 8 | Community","name_short":"lon-8","host":"lon-1.uk.uncletopia.com","port":27085,"enabled":true,"region":"eu","cc":"gb","latitude":51.509865,"longitude":-0.118092,"reserved":0,"last_update":"0001-01-01T00:00:00Z","name_a2s":"Uncletopia | London | 8 | Community","protocol":17,"map":"workshop/pl_emerge_rc2.ugc888027758","folder":"tf","game":"Team Fortress","app_id":440,"player_count":0,"max_players":24,"Bots":0,"server_type":"Dedicated","server_os":"Linux","password":true,"vac":true,"version":"7882260","steam_id":85568392924964315,"keywords":["nocrits","nodmgspread","payload","uncletopia"],"game_id":440,"stv_port":27086,"stv_name":"Uncletopia | London | 8 | Community | STV","players":null},{"server_id":300,"name":"Uncletopia | Montr√©al | 1 | All Maps","name_short":"mtl-1","host":"mtl-1.ca.uncletopia.com","port":27015,"enabled":true,"region":"us-east","cc":"ca","latitude":45.50889,"longitude":-73.56167,"reserved":0,"last_update":"0001-01-01T00:00:00Z","name_a2s":"Uncletopia | Montr√©al | 1 | All Maps","protocol":17,"map":"pl_barnblitz","folder":"tf","game":"Team Fortress","app_id":440,"player_count":0,"max_players":24,"Bots":0,"server_type":"Dedicated","server_os":"Linux","password":true,"vac":true,"version":"7882260","steam_id":85568392924500087,"keywords":["nocrits","nodmgspread","payload","uncletopia"],"game_id":440,"stv_port":27016,"stv_name":"Uncletopia | Montr√©al | 1 | All Maps | STV","players":null},{"server_id":301,"name":"Uncletopia | Montr√©al | 2 | All Maps","name_short":"mtl-2","host":"mtl-1.ca.uncletopia.com","port":27025,"enabled":true,"region":"us-east","cc":"ca","latitude":45.50889,"longitude":-73.56167,"reserved":0,"last_update":"0001-01-01T00:00:00Z","name_a2s":"Uncletopia | Montr√©al | 2 | All Maps","protocol":17,"map":"koth_cascade","folder":"tf","game":"Team Fortress","app_id":440,"player_count":0,"max_players":24,"Bots":0,"server_type":"Dedicated","server_os":"Linux","password":true,"vac":true,"version":"7882260","steam_id":85568392924500088,"keywords":["cp","nocrits","nodmgspread","uncletopia"],"game_id":440,"stv_port":27026,"stv_name":"Uncletopia | Montr√©al | 2 | All Maps | STV","players":null},{"server_id":302,"name":"Uncletopia | Montr√©al | 3 | All Maps","name_short":"mtl-3","host":"mtl-1.ca.uncletopia.com","port":27035,"enabled":true,"region":"us-east","cc":"ca","latitude":45.50889,"longitude":-73.56167,"reserved":0,"last_update":"0001-01-01T00:00:00Z","name_a2s":"Uncletopia | Montr√©al | 3 | All Maps","protocol":17,"map":"koth_viaduct","folder":"tf","game":"Team Fortress","app_id":440,"player_count":0,"max_players":24,"Bots":0,"server_type":"Dedicated","server_os":"Linux","password":true,"vac":true,"version":"7882260","steam_id":85568392924500089,"keywords":["cp","nocrits","nodmgspread","uncletopia"],"game_id":440,"stv_port":27036,"stv_name":"Uncletopia | Montr√©al | 3 | All Maps | STV","players":null},{"server_id":303,"name":"Uncletopia | Montr√©al | 4 | No Payload","name_short":"mtl-4","host":"mtl-1.ca.uncletopia.com","port":27045,"enabled":true,"region":"us-east","cc":"ca","latitude":45.50889,"longitude":-73.56167,"reserved":0,"last_update":"0001-01-01T00:00:00Z","name_a2s":"Uncletopia | Montr√©al | 4 | No Payload","protocol":17,"map":"plr_bananabay","folder":"tf","game":"Team Fortress","app_id":440,"player_count":0,"max_players":24,"Bots":0,"server_type":"Dedicated","server_os":"Linux","password":true,"vac":true,"version":"7882260","steam_id":85568392924500090,"keywords":["nocrits","nodmgspread","payload","uncletopia"],"game_id":440,"stv_port":27046,"stv_name":"Uncletopia | Montr√©al | 4 | No Payload | STV","players":null},{"server_id":13,"name":"Uncletopia | New York City | 1 | All Maps","name_short":"nyc-1","host":"nyc-1.us.uncletopia.com","port":27015,"enabled":true,"region":"us-east","cc":"us","latitude":40.73061,"longitude":-73.93524,"reserved":0,"last_update":"0001-01-01T00:00:00Z","name_a2s":"Uncletopia | New York City | 1 | All Maps","protocol":17,"map":"pl_barnblitz","folder":"tf","game":"Team Fortress","app_id":440,"player_count":24,"max_players":24,"Bots":0,"server_type":"Dedicated","server_os":"Linux","password":true,"vac":true,"version":"7882260","steam_id":85568392924469993,"keywords":["nocrits","nodmgspread","payload","uncletopia"],"game_id":440,"stv_port":27016,"stv_name":"Uncletopia | New York City | 1 | All Maps | STV","players":[{"user_id":728,"name":"Gallowglass07","steam_id":76561199286102917,"connected_time":936000000000,"state":"active","ping":83},{"user_id":679,"name":"Silvercoat's Stargazer","steam_id":76561198399525329,"connected_time":4133000000000,"state":"active","ping":63},{"user_id":732,"name":"North Central Positronics Rep","steam_id":76561198133718360,"connected_time":897000000000,"state":"active","ping":54},{"user_id":722,"name":"and why he eepy","steam_id":76561198109904512,"connected_time":1359000000000,"state":"active","ping":45},{"user_id":731,"name":"Forehead","steam_id":76561198124151399,"connected_time":913000000000,"state":"active","ping":48},{"user_id":695,"name":"blood-thristy chihuahua","steam_id":76561198010019214,"connected_time":2462000000000,"state":"active","ping":32},{"user_id":747,"name":"Pinhead Larry","steam_id":76561198329193255,"connected_time":275000000000,"state":"active","ping":107},{"user_id":693,"name":"blood-thirsty pitbull","steam_id":76561198106690989,"connected_time":2670000000000,"state":"active","ping":47},{"user_id":702,"name":"Pockets","steam_id":76561198001742296,"connected_time":1906000000000,"state":"active","ping":73},{"user_id":742,"name":"Herdez Hot Salsa","steam_id":76561197991740906,"connected_time":515000000000,"state":"active","ping":69},{"user_id":733,"name":"kefkja","steam_id":76561198283963218,"connected_time":875000000000,"state":"active","ping":70},{"user_id":681,"name":"The Winter Medic","steam_id":76561198197112922,"connected_time":4076000000000,"state":"active","ping":68},{"user_id":743,"name":"Goofball","steam_id":76561198061211537,"connected_time":504000000000,"state":"active","ping":74},{"user_id":707,"name":"sithreis","steam_id":76561198000564263,"connected_time":1772000000000,"state":"active","ping":72},{"user_id":708,"name":"lanoc","steam_id":76561198055415367,"connected_time":1763000000000,"state":"active","ping":60},{"user_id":744,"name":"Chap","steam_id":76561198294226443,"connected_time":488000000000,"state":"active","ping":122},{"user_id":745,"name":"(‚óéÔπè‚óé)","steam_id":76561198007464245,"connected_time":488000000000,"state":"active","ping":74},{"user_id":711,"name":"sailaser","steam_id":76561198035752229,"connected_time":1718000000000,"state":"active","ping":55},{"user_id":738,"name":"zee","steam_id":76561197994492154,"connected_time":763000000000,"state":"active","ping":158},{"user_id":736,"name":"Sarachnid","steam_id":76561198067163856,"connected_time":800000000000,"state":"active","ping":89},{"user_id":748,"name":"CesarSalad","steam_id":76561198985356050,"connected_time":251000000000,"state":"active","ping":51},{"user_id":715,"name":"Zen Obron","steam_id":76561198130167754,"connected_time":1677000000000,"state":"active","ping":76},{"user_id":753,"name":"chai","steam_id":76561198058182599,"connected_time":32000000000,"state":"active","ping":78},{"user_id":726,"name":"MAXIMUS","steam_id":76561198085809453,"connected_time":1228000000000,"state":"active","ping":73}]},{"server_id":14,"name":"Uncletopia | New York City | 2 | All Maps","name_short":"nyc-2","host":"nyc-1.us.uncletopia.com","port":27025,"enabled":true,"region":"us-east","cc":"us","latitude":40.73061,"longitude":-73.93524,"reserved":0,"last_update":"0001-01-01T00:00:00Z","name_a2s":"Uncletopia | New York City | 2 | All Maps","protocol":17,"map":"pl_frontier_final","folder":"tf","game":"Team Fortress","app_id":440,"player_count":19,"max_players":24,"Bots":0,"server_type":"Dedicated","server_os":"Linux","password":true,"vac":true,"version":"7882260","steam_id":85568392924469994,"keywords":["nocrits","nodmgspread","payload","uncletopia"],"game_id":440,"stv_port":27026,"stv_name":"Uncletopia | New York City | 2 | All Maps | STV","players":[{"user_id":613,"name":"Snoogs","steam_id":76561198444880931,"connected_time":380000000000,"state":"active","ping":75},{"user_id":603,"name":"Citron","steam_id":76561198278687374,"connected_time":1113000000000,"state":"active","ping":45},{"user_id":581,"name":"TDOB","steam_id":76561198062701904,"connected_time":2957000000000,"state":"active","ping":66},{"user_id":612,"name":"Bee","steam_id":76561198074681324,"connected_time":459000000000,"state":"active","ping":36},{"user_id":614,"name":"dipp","steam_id":76561198395577807,"connected_time":323000000000,"state":"active","ping":45},{"user_id":593,"name":"snark","steam_id":76561199046993811,"connected_time":2302000000000,"state":"active","ping":78},{"user_id":598,"name":"LordOfTheNoobs","steam_id":76561197962697523,"connected_time":1618000000000,"state":"active","ping":72},{"user_id":607,"name":"Viokik","steam_id":76561198408846602,"connected_time":955000000000,"state":"active","ping":52},{"user_id":594,"name":"ThatOneKidJon","steam_id":76561198852588803,"connected_time":1931000000000,"state":"active","ping":51},{"user_id":601,"name":"l4d2 marshall","steam_id":76561198042570322,"connected_time":1275000000000,"state":"active","ping":72},{"user_id":497,"name":"Phil Collins","steam_id":76561198068868644,"connected_time":10294000000000,"state":"active","ping":108},{"user_id":611,"name":"Pluto","steam_id":76561198012630802,"connected_time":484000000000,"state":"active","ping":134},{"user_id":511,"name":"Pizza","steam_id":76561198118748364,"connected_time":9955000000000,"state":"active","ping":75},{"user_id":606,"name":" ï‚Ä¢·¥•‚Ä¢ î the bear","steam_id":76561197989591976,"connected_time":1032000000000,"state":"active","ping":56},{"user_id":591,"name":"AverageGloop","steam_id":76561198243395378,"connected_time":2682000000000,"state":"active","ping":43},{"user_id":505,"name":"deadpixel","steam_id":76561198150249843,"connected_time":10229000000000,"state":"active","ping":61},{"user_id":596,"name":"Dylanxp300","steam_id":76561198271974937,"connected_time":1646000000000,"state":"active","ping":54},{"user_id":609,"name":"Foul Stench","steam_id":76561199024444191,"connected_time":876000000000,"state":"active","ping":72},{"user_id":510,"name":"concrete_car","steam_id":76561198388207363,"connected_time":10049000000000,"state":"active","ping":63}]},{"server_id":15,"name":"Uncletopia | New York City | 3 | Stopwatch Beta","name_short":"nyc-3","host":"nyc-1.us.uncletopia.com","port":27035,"enabled":true,"region":"us-east","cc":"us","latitude":40.73061,"longitude":-73.93524,"reserved":0,"last_update":"0001-01-01T00:00:00Z","name_a2s":"Uncletopia | New York City | 3 | Stopwatch Beta","protocol":17,"map":"workshop/pl_vigil_rc9.ugc1266210012","folder":"tf","game":"Team Fortress","app_id":440,"player_count":0,"max_players":24,"Bots":0,"server_type":"Dedicated","server_os":"Linux","password":true,"vac":true,"version":"7882260","steam_id":85568392924742820,"keywords":["nocrits","nodmgspread","payload","uncletopia"],"game_id":440,"stv_port":27036,"stv_name":"Uncletopia | New York City | 3 | Stopwatch Beta | STV","players":null},{"server_id":16,"name":"Uncletopia | New York City | 4 | Community","name_short":"nyc-4","host":"nyc-1.us.uncletopia.com","port":27045,"enabled":true,"region":"us-east","cc":"us","latitude":40.73061,"longitude":-73.93524,"reserved":0,"last_update":"0001-01-01T00:00:00Z","name_a2s":"Uncletopia | New York City | 4 | Community","protocol":17,"map":"workshop/koth_kemptown_rc1.ugc767410655","folder":"tf","game":"Team Fortress","app_id":440,"player_count":0,"max_players":24,"Bots":0,"server_type":"Dedicated","server_os":"Linux","password":true,"vac":true,"version":"7882260","steam_id":85568392924742821,"keywords":["cp","nocrits","nodmgspread","uncletopia"],"game_id":440,"stv_port":27046,"stv_name":"Uncletopia | New York City | 4 | Community | STV","players":null},{"server_id":142,"name":"Uncletopia | S√£o Paulo | 1 | All Maps","name_short":"sao-1","host":"sao-1.br.uncletopia.com","port":27015,"enabled":true,"region":"sa","cc":"br","latitude":-23.533773,"longitude":-46.62529,"reserved":0,"last_update":"0001-01-01T00:00:00Z","name_a2s":"Uncletopia | S√£o Paulo | 1 | All Maps","protocol":17,"map":"koth_highpass","folder":"tf","game":"Team Fortress","app_id":440,"player_count":0,"max_players":24,"Bots":0,"server_type":"Dedicated","server_os":"Linux","password":true,"vac":true,"version":"7882260","steam_id":85568392924469996,"keywords":["cp","nocrits","nodmgspread","uncletopia"],"game_id":440,"stv_port":27016,"stv_name":"Uncletopia | S√£o Paulo | 1 | All Maps | STV","players":null},{"server_id":143,"name":"Uncletopia | S√£o Paulo | 2 | All Maps","name_short":"sao-2","host":"sao-2.br.uncletopia.com","port":27015,"enabled":true,"region":"sa","cc":"br","latitude":-23.533773,"longitude":-46.62529,"reserved":0,"last_update":"0001-01-01T00:00:00Z","name_a2s":"Uncletopia | S√£o Paulo | 2 | All Maps","protocol":17,"map":"pl_borneo","folder":"tf","game":"Team Fortress","app_id":440,"player_count":5,"max_players":24,"Bots":0,"server_type":"Dedicated","server_os":"Linux","password":true,"vac":true,"version":"7882260","steam_id":85568392924485349,"keywords":["nocrits","nodmgspread","payload","uncletopia"],"game_id":440,"stv_port":27016,"stv_name":"Uncletopia | S√£o Paulo | 2 | All Maps | STV","players":[{"user_id":462,"name":"geramor5","steam_id":76561199168585977,"connected_time":258000000000,"state":"active","ping":95},{"user_id":459,"name":"d4c","steam_id":76561199183265645,"connected_time":931000000000,"state":"active","ping":68},{"user_id":460,"name":"FAN N1 D TOP","steam_id":76561198190541041,"connected_time":792000000000,"state":"active","ping":60},{"user_id":461,"name":"Mr1000Voices","steam_id":76561199274190470,"connected_time":688000000000,"state":"active","ping":28},{"user_id":463,"name":"Nevermind","steam_id":76561198363889107,"connected_time":13000000000,"state":"spawning","ping":434}]},{"server_id":7,"name":"Uncletopia | Seattle | 1 | All Maps","name_short":"sea-1","host":"sea-1.us.uncletopia.com","port":27015,"enabled":true,"region":"us-west","cc":"us","latitude":47.608013,"longitude":-122.33517,"reserved":0,"last_update":"0001-01-01T00:00:00Z","name_a2s":"Uncletopia | Seattle | 1 | All Maps","protocol":17,"map":"pl_snowycoast","folder":"tf","game":"Team Fortress","app_id":440,"player_count":24,"max_players":24,"Bots":0,"server_type":"Dedicated","server_os":"Linux","password":true,"vac":true,"version":"7882260","steam_id":85568392924469997,"keywords":["nocrits","nodmgspread","payload","uncletopia"],"game_id":440,"stv_port":27016,"stv_name":"Uncletopia | Seattle | 1 | All Maps | STV","players":[{"user_id":337,"name":"quaq","steam_id":76561198059604047,"connected_time":11506000000000,"state":"active","ping":36},{"user_id":414,"name":"jpuck","steam_id":76561198025018960,"connected_time":2122000000000,"state":"active","ping":131},{"user_id":426,"name":"shane","steam_id":76561198060491451,"connected_time":720000000000,"state":"active","ping":81},{"user_id":394,"name":"Mignyanne :3","steam_id":76561198048754056,"connected_time":5272000000000,"state":"active","ping":70},{"user_id":417,"name":"blizz","steam_id":76561199139715539,"connected_time":2038000000000,"state":"active","ping":71},{"user_id":383,"name":"MCman","steam_id":76561198412110305,"connected_time":6586000000000,"state":"active","ping":78},{"user_id":419,"name":"Peppy","steam_id":76561198866629645,"connected_time":1875000000000,"state":"active","ping":58},{"user_id":415,"name":"BlazedBunny","steam_id":76561198243610560,"connected_time":2113000000000,"state":"active","ping":78},{"user_id":427,"name":"‚ô• Milo Stefferson ‚ô• (Soupca","steam_id":76561198056269538,"connected_time":666000000000,"state":"active","ping":61},{"user_id":325,"name":"lusty","steam_id":76561198138478947,"connected_time":13451000000000,"state":"active","ping":35},{"user_id":384,"name":"MegumiTame","steam_id":76561198450280686,"connected_time":6546000000000,"state":"active","ping":58},{"user_id":411,"name":"viciousbeatmaker","steam_id":76561198086876652,"connected_time":2225000000000,"state":"active","ping":84},{"user_id":410,"name":"Nea","steam_id":76561198408792773,"connected_time":3028000000000,"state":"active","ping":50},{"user_id":412,"name":"Fh","steam_id":76561198000903511,"connected_time":2132000000000,"state":"active","ping":62},{"user_id":423,"name":"Skabbety","steam_id":76561198168044257,"connected_time":883000000000,"state":"active","ping":39},{"user_id":424,"name":"WACKY JIM","steam_id":76561198961641122,"connected_time":857000000000,"state":"active","ping":60},{"user_id":374,"name":"BLU3","steam_id":76561198059652670,"connected_time":7435000000000,"state":"active","ping":51},{"user_id":421,"name":"Cam","steam_id":76561198285054047,"connected_time":925000000000,"state":"active","ping":87},{"user_id":413,"name":"Playfiendss","steam_id":76561198026186354,"connected_time":2131000000000,"state":"active","ping":95},{"user_id":422,"name":"Jacob Highrise","steam_id":76561198346327753,"connected_time":919000000000,"state":"active","ping":67},{"user_id":333,"name":"ORANGE","steam_id":76561198000401769,"connected_time":11943000000000,"state":"active","ping":56},{"user_id":391,"name":"Ayayayayayahuasca","steam_id":76561199002906056,"connected_time":5567000000000,"state":"active","ping":56},{"user_id":403,"name":"‚ô•haunti","steam_id":76561199235580556,"connected_time":4614000000000,"state":"active","ping":50},{"user_id":408,"name":"goldhed","steam_id":76561198051751133,"connected_time":3188000000000,"state":"active","ping":66}]},{"server_id":119,"name":"Uncletopia | Seattle | 2 | All Maps","name_short":"sea-2","host":"sea-1.us.uncletopia.com","port":27025,"enabled":true,"region":"us-west","cc":"us","latitude":47.608013,"longitude":-122.33517,"reserved":0,"last_update":"0001-01-01T00:00:00Z","name_a2s":"Uncletopia | Seattle | 2 | All Maps","protocol":17,"map":"pl_barnblitz","folder":"tf","game":"Team Fortress","app_id":440,"player_count":24,"max_players":24,"Bots":0,"server_type":"Dedicated","server_os":"Linux","password":true,"vac":true,"version":"7882260","steam_id":85568392924469998,"keywords":["nocrits","nodmgspread","payload","uncletopia"],"game_id":440,"stv_port":27026,"stv_name":"Uncletopia | Seattle | 2 | All Maps | STV","players":[{"user_id":449,"name":"Keamy","steam_id":76561199471434875,"connected_time":858000000000,"state":"active","ping":37},{"user_id":452,"name":"Nivek7769","steam_id":76561199230317225,"connected_time":788000000000,"state":"active","ping":140},{"user_id":455,"name":"bum","steam_id":76561198059483994,"connected_time":740000000000,"state":"active","ping":126},{"user_id":450,"name":"Bananodile","steam_id":76561197999021551,"connected_time":836000000000,"state":"active","ping":139},{"user_id":414,"name":"MayaBon","steam_id":76561198797968261,"connected_time":4686000000000,"state":"active","ping":64},{"user_id":425,"name":"Bendidy","steam_id":76561198041964300,"connected_time":3321000000000,"state":"active","ping":73},{"user_id":426,"name":"Haydob13","steam_id":76561198110378191,"connected_time":3309000000000,"state":"active","ping":53},{"user_id":411,"name":"gay opossum (Zoey)","steam_id":76561198010230351,"connected_time":5199000000000,"state":"active","ping":48},{"user_id":440,"name":"H _ N G M _ N","steam_id":76561198064662875,"connected_time":2050000000000,"state":"active","ping":62},{"user_id":451,"name":"Strikerbolt","steam_id":76561199095622897,"connected_time":834000000000,"state":"active","ping":85},{"user_id":464,"name":"nake","steam_id":76561198004619118,"connected_time":21000000000,"state":"active","ping":67},{"user_id":397,"name":"General Fisticuffs","steam_id":76561198255721392,"connected_time":6269000000000,"state":"active","ping":118},{"user_id":453,"name":"oo","steam_id":76561198119626492,"connected_time":773000000000,"state":"active","ping":74},{"user_id":463,"name":"UnusualTofu","steam_id":76561198060103750,"connected_time":60000000000,"state":"active","ping":83},{"user_id":430,"name":"chlo√©","steam_id":76561198858926895,"connected_time":3228000000000,"state":"active","ping":35},{"user_id":454,"name":"ChinoGambino","steam_id":76561199209172296,"connected_time":769000000000,"state":"active","ping":144},{"user_id":461,"name":"bulletproof","steam_id":76561199068672553,"connected_time":640000000000,"state":"active","ping":117},{"user_id":413,"name":"Qas","steam_id":76561198067564482,"connected_time":4689000000000,"state":"active","ping":80},{"user_id":438,"name":"Zorlovo","steam_id":76561198006443283,"connected_time":2446000000000,"state":"active","ping":91},{"user_id":427,"name":"ShadBad","steam_id":76561198248287390,"connected_time":3305000000000,"state":"active","ping":97},{"user_id":458,"name":"OddSlaush","steam_id":76561198043898488,"connected_time":679000000000,"state":"active","ping":60},{"user_id":459,"name":"Grognak","steam_id":76561198044710527,"connected_time":678000000000,"state":"active","ping":55},{"user_id":447,"name":"the meat man","steam_id":76561198037921140,"connected_time":1219000000000,"state":"active","ping":66},{"user_id":460,"name":"KellyKapoor","steam_id":76561198040828123,"connected_time":666000000000,"state":"active","ping":57}]},{"server_id":406,"name":"Uncletopia | Seattle | 3 | Stopwatch Beta","name_short":"sea-3","host":"sea-1.us.uncletopia.com","port":27035,"enabled":true,"region":"us-west","cc":"us","latitude":47.608013,"longitude":-122.33517,"reserved":0,"last_update":"0001-01-01T00:00:00Z","name_a2s":"Uncletopia | Seattle | 3 | Stopwatch Beta","protocol":17,"map":"workshop/koth_ramjam_rc1.ugc459778887","folder":"tf","game":"Team Fortress","app_id":440,"player_count":0,"max_players":24,"Bots":0,"server_type":"Dedicated","server_os":"Linux","password":true,"vac":true,"version":"7882260","steam_id":85568392924515217,"keywords":["cp","nocrits","nodmgspread","uncletopia"],"game_id":440,"stv_port":27036,"stv_name":"Uncletopia | Seattle | 3 | Stopwatch Beta | STV","players":null},{"server_id":17,"name":"Uncletopia | San Francisco | 1 | All Maps","name_short":"sfo-1","host":"sfo-1.us.uncletopia.com","port":27015,"enabled":true,"region":"us-west","cc":"us","latitude":37.77397,"longitude":-122.4313,"reserved":0,"last_update":"0001-01-01T00:00:00Z","name_a2s":"Uncletopia | San Francisco | 1 | All Maps","protocol":17,"map":"cp_dustbowl","folder":"tf","game":"Team Fortress","app_id":440,"player_count":20,"max_players":24,"Bots":0,"server_type":"Dedicated","server_os":"Linux","password":true,"vac":true,"version":"7882260","steam_id":85568392924469999,"keywords":["cp","nocrits","nodmgspread","uncletopia"],"game_id":440,"stv_port":27016,"stv_name":"Uncletopia | San Francisco | 1 | All Maps | STV","players":[{"user_id":216,"name":"‚õßAlkahestry","steam_id":76561198109641497,"connected_time":1219000000000,"state":"active","ping":45},{"user_id":205,"name":"ProNoob","steam_id":76561197966068103,"connected_time":1998000000000,"state":"active","ping":74},{"user_id":219,"name":"Vorpas Jabwak","steam_id":76561198112186064,"connected_time":1001000000000,"state":"active","ping":67},{"user_id":173,"name":"Q„Åø„Å©„Çä","steam_id":76561198304166877,"connected_time":5193000000000,"state":"active","ping":58},{"user_id":129,"name":"Feral Femboy","steam_id":76561198130714378,"connected_time":8278000000000,"state":"active","ping":72},{"user_id":81,"name":"The Next Pandemic","steam_id":76561199295525734,"connected_time":10596000000000,"state":"active","ping":64},{"user_id":229,"name":"choi","steam_id":76561198053669887,"connected_time":536000000000,"state":"active","ping":62},{"user_id":194,"name":"Amogous Supreme","steam_id":76561198025476774,"connected_time":2362000000000,"state":"active","ping":55},{"user_id":198,"name":"MegaMatt","steam_id":76561198198900365,"connected_time":2311000000000,"state":"active","ping":58},{"user_id":223,"name":"Yarch0","steam_id":76561199106172477,"connected_time":740000000000,"state":"active","ping":71},{"user_id":208,"name":"mug","steam_id":76561198063901029,"connected_time":1899000000000,"state":"active","ping":85},{"user_id":215,"name":"Some Genius","steam_id":76561198101868089,"connected_time":1509000000000,"state":"active","ping":45},{"user_id":62,"name":"LiveLongNote","steam_id":76561198138118635,"connected_time":12059000000000,"state":"active","ping":94},{"user_id":186,"name":"TwoBit","steam_id":76561198062437559,"connected_time":3683000000000,"state":"active","ping":130},{"user_id":225,"name":"_67_","steam_id":76561198145963563,"connected_time":691000000000,"state":"active","ping":84},{"user_id":213,"name":"dicksnip","steam_id":76561198356515396,"connected_time":1679000000000,"state":"active","ping":95},{"user_id":217,"name":"Short","steam_id":76561198369132688,"connected_time":1128000000000,"state":"active","ping":45},{"user_id":212,"name":"Doctor Sex","steam_id":76561198136205032,"connected_time":1695000000000,"state":"active","ping":82},{"user_id":226,"name":"Shadow Wizard Money Gang","steam_id":76561198149634242,"connected_time":675000000000,"state":"active","ping":82},{"user_id":227,"name":"Dcoyotzi","steam_id":76561199124707627,"connected_time":632000000000,"state":"active","ping":61}]},{"server_id":18,"name":"Uncletopia | San Francisco | 2 | All Maps","name_short":"sfo-2","host":"sfo-1.us.uncletopia.com","port":27025,"enabled":true,"region":"us-west","cc":"us","latitude":37.77397,"longitude":-122.4313,"reserved":0,"last_update":"0001-01-01T00:00:00Z","name_a2s":"Uncletopia | San Francisco | 2 | All Maps","protocol":17,"map":"ctf_2fort","folder":"tf","game":"Team Fortress","app_id":440,"player_count":0,"max_players":24,"Bots":0,"server_type":"Dedicated","server_os":"Linux","password":true,"vac":true,"version":"7882260","steam_id":85568392924470000,"keywords":["ctf","nocrits","nodmgspread","uncletopia"],"game_id":440,"stv_port":27026,"stv_name":"Uncletopia | San Francisco | 2 | All Maps | STV","players":null},{"server_id":19,"name":"Uncletopia | San Francisco | 3 | Stopwatch Beta","name_short":"sfo-3","host":"sfo-1.us.uncletopia.com","port":27035,"enabled":true,"region":"us-west","cc":"us","latitude":37.77397,"longitude":-122.4313,"reserved":0,"last_update":"0001-01-01T00:00:00Z","name_a2s":"Uncletopia | San Francisco | 3 | Stopwatch Beta","protocol":17,"map":"pl_snowycoast","folder":"tf","game":"Team Fortress","app_id":440,"player_count":0,"max_players":24,"Bots":0,"server_type":"Dedicated","server_os":"Linux","password":true,"vac":true,"version":"7882260","steam_id":85568392924742824,"keywords":["nocrits","nodmgspread","payload","uncletopia"],"game_id":440,"stv_port":27036,"stv_name":"Uncletopia | San Francisco | 3 | Stopwatch Beta | STV","players":null},{"server_id":20,"name":"Uncletopia | San Francisco | 4 | Community","name_short":"sfo-4","host":"sfo-1.us.uncletopia.com","port":27045,"enabled":true,"region":"us-west","cc":"us","latitude":37.77397,"longitude":-122.4313,"reserved":0,"last_update":"0001-01-01T00:00:00Z","name_a2s":"Uncletopia | San Francisco | 4 | Community","protocol":17,"map":"workshop/koth_kemptown_rc1.ugc767410655","folder":"tf","game":"Team Fortress","app_id":440,"player_count":0,"max_players":24,"Bots":0,"server_type":"Dedicated","server_os":"Linux","password":true,"vac":true,"version":"7882260","steam_id":85568392924742826,"keywords":["cp","nocrits","nodmgspread","uncletopia"],"game_id":440,"stv_port":27046,"stv_name":"Uncletopia | San Francisco | 4 | Community | STV","players":null},{"server_id":141,"name":"Uncletopia | Sydney | 1 | All Maps","name_short":"syd-1","host":"syd-1.au.uncletopia.com","port":27015,"enabled":true,"region":"au","cc":"au","latitude":-33.865143,"longitude":151.2099,"reserved":0,"last_update":"0001-01-01T00:00:00Z","name_a2s":"Uncletopia | Sydney | 1 | All Maps","protocol":17,"map":"pl_badwater","folder":"tf","game":"Team Fortress","app_id":440,"player_count":4,"max_players":24,"Bots":0,"server_type":"Dedicated","server_os":"Linux","password":true,"vac":true,"version":"7882260","steam_id":85568392924470001,"keywords":["nocrits","nodmgspread","payload","uncletopia"],"game_id":440,"stv_port":27016,"stv_name":"Uncletopia | Sydney | 1 | All Maps | STV","players":[{"user_id":72,"name":"rkbirnig","steam_id":76561199255174335,"connected_time":692000000000,"state":"active","ping":100},{"user_id":34,"name":"Okie Dokie","steam_id":76561198125237921,"connected_time":3823000000000,"state":"active","ping":34},{"user_id":36,"name":"Fixer","steam_id":76561199349854515,"connected_time":3747000000000,"state":"active","ping":53},{"user_id":59,"name":"neapolitan","steam_id":76561198154909553,"connected_time":2056000000000,"state":"active","ping":76}]},{"server_id":123,"name":"Uncletopia | Sydney | 2 | All Maps","name_short":"syd-2","host":"syd-1.au.uncletopia.com","port":27025,"enabled":true,"region":"au","cc":"au","latitude":-33.865143,"longitude":151.2099,"reserved":0,"last_update":"0001-01-01T00:00:00Z","name_a2s":"Uncletopia | Sydney | 2 | All Maps","protocol":17,"map":"koth_highpass","folder":"tf","game":"Team Fortress","app_id":440,"player_count":0,"max_players":24,"Bots":0,"server_type":"Dedicated","server_os":"Linux","password":true,"vac":true,"version":"7882260","steam_id":85568392924470002,"keywords":["cp","nocrits","nodmgspread","uncletopia"],"game_id":440,"stv_port":27026,"stv_name":"Uncletopia | Sydney | 2 | All Maps | STV","players":null},{"server_id":395,"name":"Uncletopia | Sydney | 3 | All Maps","name_short":"syd-3","host":"syd-1.au.uncletopia.com","port":27035,"enabled":true,"region":"au","cc":"au","latitude":-33.865143,"longitude":151.2099,"reserved":0,"last_update":"0001-01-01T00:00:00Z","name_a2s":"Uncletopia | Sydney | 3 | All Maps","protocol":17,"map":"koth_harvest_final","folder":"tf","game":"Team Fortress","app_id":440,"player_count":24,"max_players":24,"Bots":0,"server_type":"Dedicated","server_os":"Linux","password":true,"vac":true,"version":"7882260","steam_id":85568392925194467,"keywords":["cp","nocrits","nodmgspread","uncletopia"],"game_id":440,"stv_port":27036,"stv_name":"Uncletopia | Sydney | 3 | All Maps | STV","players":[{"user_id":204,"name":"wom","steam_id":76561199375834537,"connected_time":963000000000,"state":"active","ping":123},{"user_id":205,"name":"Lotuses","steam_id":76561199045059964,"connected_time":851000000000,"state":"active","ping":110},{"user_id":198,"name":"uwotm8","steam_id":76561198152215695,"connected_time":1661000000000,"state":"active","ping":70},{"user_id":206,"name":"ex0dia","steam_id":76561198048349719,"connected_time":814000000000,"state":"active","ping":55},{"user_id":208,"name":"boomkin","steam_id":76561198981789569,"connected_time":608000000000,"state":"active","ping":67},{"user_id":209,"name":"dumbvent","steam_id":76561198190062810,"connected_time":603000000000,"state":"active","ping":61},{"user_id":203,"name":"JunkKnight","steam_id":76561198050917553,"connected_time":1404000000000,"state":"active","ping":57},{"user_id":211,"name":"The :)","steam_id":76561198958059883,"connected_time":512000000000,"state":"active","ping":87},{"user_id":218,"name":"\u003e:FrozenDragon:\u003c","steam_id":76561198227960928,"connected_time":144000000000,"state":"active","ping":98},{"user_id":216,"name":"RBY","steam_id":76561198279663555,"connected_time":246000000000,"state":"active","ping":56},{"user_id":215,"name":"È¨º","steam_id":76561198241303512,"connected_time":319000000000,"state":"active","ping":53},{"user_id":184,"name":"Selling Anti-Matter for $543","steam_id":76561198070708382,"connected_time":2023000000000,"state":"active","ping":50},{"user_id":182,"name":"Owlenstein‚Ñ¢","steam_id":76561198093983826,"connected_time":2089000000000,"state":"active","ping":120},{"user_id":213,"name":"Marmalade Cat","steam_id":76561198086309767,"connected_time":431000000000,"state":"active","ping":67},{"user_id":217,"name":"jeff","steam_id":76561198327306842,"connected_time":214000000000,"state":"active","ping":121},{"user_id":219,"name":"alex","steam_id":76561198053382248,"connected_time":94000000000,"state":"active","ping":41},{"user_id":177,"name":"Rashid Of The Dank Memes","steam_id":76561198281398078,"connected_time":2328000000000,"state":"active","ping":65},{"user_id":220,"name":"Johnny Fairplay","steam_id":76561198121757287,"connected_time":61000000000,"state":"active","ping":45},{"user_id":186,"name":"Snowy","steam_id":76561198255720598,"connected_time":1959000000000,"state":"active","ping":51},{"user_id":202,"name":"Uncle_Bowlcut","steam_id":76561198225191728,"connected_time":1453000000000,"state":"active","ping":59},{"user_id":158,"name":"Hertog van Damme","steam_id":76561198152470958,"connected_time":3408000000000,"state":"active","ping":61},{"user_id":192,"name":"I'm using a controller","steam_id":76561198152210509,"connected_time":1832000000000,"state":"active","ping":36},{"user_id":197,"name":"Mouse Balls","steam_id":76561199037470627,"connected_time":1677000000000,"state":"active","ping":102},{"user_id":199,"name":"Shotty 2 Hotty","steam_id":76561199174449723,"connected_time":1615000000000,"state":"active","ping":170}]},{"server_id":396,"name":"Uncletopia | Sydney | 4 | All Maps","name_short":"syd-4","host":"syd-1.au.uncletopia.com","port":27045,"enabled":true,"region":"au","cc":"au","latitude":-33.865143,"longitude":151.2099,"reserved":0,"last_update":"0001-01-01T00:00:00Z","name_a2s":"Uncletopia | Sydney | 4 | All Maps","protocol":17,"map":"pl_badwater","folder":"tf","game":"Team Fortress","app_id":440,"player_count":0,"max_players":24,"Bots":0,"server_type":"Dedicated","server_os":"Linux","password":true,"vac":true,"version":"7882260","steam_id":85568392925397958,"keywords":["nocrits","nodmgspread","payload","uncletopia"],"game_id":440,"stv_port":27046,"stv_name":"Uncletopia | Sydney | 4 | All Maps | STV","players":null},{"server_id":58,"name":"Uncletopia | Sydney | 5 | Stopwatch Beta","name_short":"syd-5","host":"syd-1.au.uncletopia.com","port":27055,"enabled":true,"region":"au","cc":"au","latitude":-33.865143,"longitude":151.2099,"reserved":0,"last_update":"0001-01-01T00:00:00Z","name_a2s":"Uncletopia | Sydney | 5 | Stopwatch Beta","protocol":17,"map":"koth_viaduct","folder":"tf","game":"Team Fortress","app_id":440,"player_count":0,"max_players":24,"Bots":0,"server_type":"Dedicated","server_os":"Linux","password":true,"vac":true,"version":"7882260","steam_id":85568392925397959,"keywords":["cp","nocrits","nodmgspread","uncletopia"],"game_id":440,"stv_port":27056,"stv_name":"Uncletopia | Sydney | 5 | Stopwatch Beta | STV","players":null},{"server_id":59,"name":"Uncletopia | Sydney | 6 | Community","name_short":"syd-6","host":"syd-1.au.uncletopia.com","port":27065,"enabled":true,"region":"au","cc":"au","latitude":-33.865143,"longitude":151.2099,"reserved":0,"last_update":"0001-01-01T00:00:00Z","name_a2s":"Uncletopia | Sydney | 6 | Community","protocol":17,"map":"workshop/cp_kalinka_rc6a.ugc1272700588","folder":"tf","game":"Team Fortress","app_id":440,"player_count":0,"max_players":24,"Bots":0,"server_type":"Dedicated","server_os":"Linux","password":true,"vac":true,"version":"7882260","steam_id":85568392925397960,"keywords":["cp","nocrits","nodmgspread","uncletopia"],"game_id":440,"stv_port":27066,"stv_name":"Uncletopia | Sydney | 6 | Community | STV","players":null},{"server_id":49,"name":"Uncletopia | Warsaw | 1 | All Maps","name_short":"waw-1","host":"waw-1.pl.uncletopia.com","port":27015,"enabled":true,"region":"eu","cc":"pl","latitude":52.2297,"longitude":21.017532,"reserved":0,"last_update":"0001-01-01T00:00:00Z","name_a2s":"","protocol":0,"map":"","folder":"","game":"","app_id":0,"player_count":0,"max_players":0,"Bots":0,"server_type":"","server_os":"","password":false,"vac":false,"version":"","steam_id":0,"keywords":null,"game_id":0,"stv_port":0,"stv_name":"","players":null},{"server_id":50,"name":"Uncletopia | Warsaw | 2 | All Maps","name_short":"waw-2","host":"waw-1.pl.uncletopia.com","port":27025,"enabled":true,"region":"eu","cc":"pl","latitude":52.2297,"longitude":21.017532,"reserved":0,"last_update":"0001-01-01T00:00:00Z","name_a2s":"Uncletopia | Warsaw | 2 | All Maps","protocol":17,"map":"koth_viaduct","folder":"tf","game":"Team Fortress","app_id":440,"player_count":0,"max_players":24,"Bots":0,"server_type":"Dedicated","server_os":"Linux","password":true,"vac":true,"version":"7882260","steam_id":85568392925397851,"keywords":["cp","nocrits","nodmgspread","uncletopia"],"game_id":440,"stv_port":27026,"stv_name":"Uncletopia | Warsaw | 2 | All Maps | STV","players":null},{"server_id":51,"name":"Uncletopia | Warsaw | 3 | All Maps","name_short":"waw-3","host":"waw-1.pl.uncletopia.com","port":27035,"enabled":true,"region":"eu","cc":"pl","latitude":52.2297,"longitude":21.017532,"reserved":0,"last_update":"0001-01-01T00:00:00Z","name_a2s":"Uncletopia | Warsaw | 3 | All Maps","protocol":17,"map":"pl_swiftwater_final1","folder":"tf","game":"Team Fortress","app_id":440,"player_count":0,"max_players":24,"Bots":0,"server_type":"Dedicated","server_os":"Linux","password":true,"vac":true,"version":"7882260","steam_id":85568392925397852,"keywords":["nocrits","nodmgspread","payload","uncletopia"],"game_id":440,"stv_port":27036,"stv_name":"Uncletopia | Warsaw | 3 | All Maps | STV","players":null},{"server_id":52,"name":"Uncletopia | Warsaw | 4 | All Maps","name_short":"waw-4","host":"waw-1.pl.uncletopia.com","port":27045,"enabled":true,"region":"eu","cc":"pl","latitude":52.2297,"longitude":21.017532,"reserved":0,"last_update":"0001-01-01T00:00:00Z","name_a2s":"Uncletopia | Warsaw | 4 | All Maps","protocol":17,"map":"koth_cascade","folder":"tf","game":"Team Fortress","app_id":440,"player_count":0,"max_players":24,"Bots":0,"server_type":"Dedicated","server_os":"Linux","password":true,"vac":true,"version":"7882260","steam_id":85568392925397853,"keywords":["cp","nocrits","nodmgspread","uncletopia"],"game_id":440,"stv_port":27046,"stv_name":"Uncletopia | Warsaw | 4 | All Maps | STV","players":null},{"server_id":53,"name":"Uncletopia | Warsaw | 5 | Stopwatch Beta","name_short":"waw-5","host":"waw-1.pl.uncletopia.com","port":27055,"enabled":true,"region":"eu","cc":"pl","latitude":52.2297,"longitude":21.017532,"reserved":0,"last_update":"0001-01-01T00:00:00Z","name_a2s":"Uncletopia | Warsaw | 5 | Stopwatch Beta","protocol":17,"map":"cp_granary","folder":"tf","game":"Team Fortress","app_id":440,"player_count":0,"max_players":24,"Bots":0,"server_type":"Dedicated","server_os":"Linux","password":true,"vac":true,"version":"7882260","steam_id":85568392925397854,"keywords":["cp","nocrits","nodmgspread","uncletopia"],"game_id":440,"stv_port":27056,"stv_name":"Uncletopia | Warsaw | 5 | Stopwatch Beta | STV","players":null},{"server_id":54,"name":"Uncletopia | Warsaw | 6 | Community","name_short":"waw-6","host":"waw-1.pl.uncletopia.com","port":27065,"enabled":true,"region":"eu","cc":"pl","latitude":52.2297,"longitude":21.017532,"reserved":0,"last_update":"0001-01-01T00:00:00Z","name_a2s":"Uncletopia | Warsaw | 6 | Community","protocol":17,"map":"workshop/koth_bagel_rc6.ugc2514036946","folder":"tf","game":"Team Fortress","app_id":440,"player_count":0,"max_players":24,"Bots":0,"server_type":"Dedicated","server_os":"Linux","password":true,"vac":true,"version":"7882260","steam_id":85568392925397856,"keywords":["cp","nocrits","nodmgspread","uncletopia"],"game_id":440,"stv_port":27066,"stv_name":"Uncletopia | Warsaw | 6 | Community | STV","players":null}]}