{"status":true,"message":"","result":[{"server_id":9,"name":"Uncletopia | Atlanta | 1 | All Maps","name_short":"atl-1","host":"atl-1.us.uncletopia.com","port":27015,"enabled":true,"region":"us-east","cc":"us","latitude":33.753746,"longitude":-84.38633,"reserved":0,"last_update":"0001-01-01T00:00:00Z","name_a2s":"Uncletopia | Atlanta | 1 | All Maps","protocol":17,"map":"koth_cascade","folder":"tf","game":"Team Fortress","app_id":440,"player_count":0,"max_players":24,"Bots":0,"server_type":"Dedicated","server_os":"Linux","password":true,"vac":true,"version":"7757534","steam_id":85568392924469982,"keywords":["cp","nocrits","nodmgspread","uncletopia"],"game_id":440,"stv_port":27016,"stv_name":"Uncletopia | Atlanta | 1 | All Maps | STV","players":null},{"server_id":104,"name":"Uncletopia | Atlanta | 2 | All Maps","name_short":"atl-2","host":"atl-1.us.uncletopia.com","port":27025,"enabled":true,"region":"us-east","cc":"us","latitude":33.753746,"longitude":-84.38633,"reserved":0,"last_update":"0001-01-01T00:00:00Z","name_a2s":"Uncletopia | Atlanta | 2 | All Maps","protocol":17,"map":"cp_dustbowl","folder":"tf","game":"Team Fortress","app_id":440,"player_count":0,"max_players":24,"Bots":0,"server_type":"Dedicated","server_os":"Linux","password":true,"vac":true,"version":"7757534","steam_id":85568392924469983,"keywords":["cp","nocrits","nodmgspread","uncletopia"],"game_id":440,"stv_port":27026,"stv_name":"Uncletopia | Atlanta | 2 | All Maps | STV","players":null},{"server_id":400,"name":"Uncletopia | Atlanta | 3 | Community","name_short":"atl-3","host":"atl-1.us.uncletopia.com","port":27035,"enabled":true,"region":"us-east","cc":"us","latitude":33.753746,"longitude":-84.38633,"reserved":0,"last_update":"0001-01-01T00:00:00Z","name_a2s":"Uncletopia | Atlanta | 3 | Community","protocol":17,"map":"cp_snakewater_final1","folder":"tf","game":"Team Fortress","app_id":440,"player_count":0,"max_players":24,"Bots":0,"server_type":"Dedicated","server_os":"Linux","password":true,"vac":true,"version":"7757534","steam_id":85568392924515187,"keywords":["cp","nocrits","nodmgspread","uncletopia"],"game_id":440,"stv_port":27036,"stv_name":"Uncletopia | Atlanta | 3 | Community | STV","players":null},{"server_id":401,"name":"Uncletopia | Atlanta | 4 | No Payload","name_short":"atl-4","host":"atl-1.us.uncletopia.com","port":27045,"enabled":true,"region":"us-east","cc":"us","latitude":33.753746,"longitude":-84.38633,"reserved":0,"last_update":"0001-01-01T00:00:00Z","name_a2s":"","protocol":0,"map":"","folder":"","game":"","app_id":0,"player_count":0,"max_players":0,"Bots":0,"server_type":"","server_os":"","password":false,"vac":false,"version":"","steam_id":0,"keywords":null,"game_id":0,"stv_port":0,"stv_name":"","players":null},{"server_id":2,"name":"Uncletopia | Chicago | 1 | All Maps","name_short":"chi-1","host":"chi-1.us.uncletopia.com","port":27015,"enabled":true,"region":"us-central","cc":"us","latitude":41.881832,"longitude":-87.62318,"reserved":0,"last_update":"0001-01-01T00:00:00Z","name_a2s":"Uncletopia | Chicago | 1 | All Maps","protocol":17,"map":"pl_borneo","folder":"tf","game":"Team Fortress","app_id":440,"player_count":24,"max_players":24,"Bots":0,"server_type":"Dedicated","server_os":"Linux","password":true,"vac":true,"version":"7757534","steam_id":85568392924469984,"keywords":["nocrits","nodmgspread","payload","uncletopia"],"game_id":440,"stv_port":27016,"stv_name":"Uncletopia | Chicago | 1 | All Maps | STV","players":[{"user_id":91,"name":"Literally a Trans Woman","steam_id":76561198054639925,"connected_time":104000000000,"state":"active","ping":66},{"user_id":95,"name":"Porsy","steam_id":76561198041850843,"connected_time":67000000000,"state":"active","ping":33},{"user_id":11,"name":"Blue Necromancer","steam_id":76561198275755146,"connected_time":5511000000000,"state":"active","ping":109},{"user_id":92,"name":"Pop","steam_id":76561199012562851,"connected_time":103000000000,"state":"active","ping":84},{"user_id":89,"name":"Ejaculation Zach","steam_id":76561198203765200,"connected_time":306000000000,"state":"active","ping":59},{"user_id":81,"name":"AlphaScout","steam_id":76561198047797890,"connected_time":998000000000,"state":"active","ping":59},{"user_id":66,"name":"BTS | Bumbler","steam_id":76561198048895038,"connected_time":1948000000000,"state":"active","ping":74},{"user_id":78,"name":"ecks","steam_id":76561197978114705,"connected_time":1287000000000,"state":"active","ping":46},{"user_id":72,"name":"Aurro","steam_id":76561198315692300,"connected_time":1795000000000,"state":"active","ping":48},{"user_id":39,"name":"STONE COLD","steam_id":76561198041643833,"connected_time":4109000000000,"state":"active","ping":78},{"user_id":64,"name":"kametro4","steam_id":76561198835430429,"connected_time":2174000000000,"state":"active","ping":101},{"user_id":80,"name":"_Lusty_ | #savetf2","steam_id":76561198876948142,"connected_time":1008000000000,"state":"active","ping":69},{"user_id":90,"name":"☤Medic Jesus†","steam_id":76561197967470975,"connected_time":110000000000,"state":"active","ping":61},{"user_id":86,"name":"mangoman36","steam_id":76561198094984106,"connected_time":567000000000,"state":"active","ping":48},{"user_id":85,"name":"chikin.sauce","steam_id":76561198042464635,"connected_time":609000000000,"state":"active","ping":78},{"user_id":48,"name":"dicksnip","steam_id":76561198356515396,"connected_time":3292000000000,"state":"active","ping":70},{"user_id":93,"name":"Idealists","steam_id":76561198829068222,"connected_time":102000000000,"state":"connecting","ping":48},{"user_id":82,"name":"Cryonics","steam_id":76561198314197911,"connected_time":936000000000,"state":"active","ping":60},{"user_id":69,"name":"Nightlygalad","steam_id":76561198170693990,"connected_time":1824000000000,"state":"active","ping":113},{"user_id":88,"name":"Quaker Oats","steam_id":76561197992800293,"connected_time":420000000000,"state":"active","ping":94},{"user_id":37,"name":"Im High","steam_id":76561198049954886,"connected_time":4175000000000,"state":"active","ping":70},{"user_id":45,"name":"yeqaauuhhhttytttuthbt 5 hi iwbe","steam_id":76561198044856349,"connected_time":3710000000000,"state":"active","ping":45},{"user_id":75,"name":"donatello ツ","steam_id":76561198091157081,"connected_time":1684000000000,"state":"active","ping":58},{"user_id":79,"name":"Pugzilla","steam_id":76561198108088960,"connected_time":1170000000000,"state":"active","ping":63}]},{"server_id":106,"name":"Uncletopia | Chicago | 2 | All Maps","name_short":"chi-2","host":"chi-1.us.uncletopia.com","port":27025,"enabled":true,"region":"us-central","cc":"us","latitude":41.881832,"longitude":-87.62318,"reserved":0,"last_update":"0001-01-01T00:00:00Z","name_a2s":"Uncletopia | Chicago | 2 | All Maps","protocol":17,"map":"koth_nucleus","folder":"tf","game":"Team Fortress","app_id":440,"player_count":0,"max_players":24,"Bots":0,"server_type":"Dedicated","server_os":"Linux","password":true,"vac":true,"version":"7757534","steam_id":85568392924469985,"keywords":["cp","nocrits","nodmgspread","uncletopia"],"game_id":440,"stv_port":27026,"stv_name":"Uncletopia | Chicago | 2 | All Maps | STV","players":null},{"server_id":402,"name":"Uncletopia | Chicago | 3 | All Maps","name_short":"chi-3","host":"chi-1.us.uncletopia.com","port":27035,"enabled":true,"region":"us-central","cc":"us","latitude":41.881832,"longitude":-87.62318,"reserved":0,"last_update":"0001-01-01T00:00:00Z","name_a2s":"Uncletopia | Chicago | 3 | All Maps","protocol":17,"map":"koth_nucleus","folder":"tf","game":"Team Fortress","app_id":440,"player_count":0,"max_players":24,"Bots":0,"server_type":"Dedicated","server_os":"Linux","password":true,"vac":true,"version":"7757534","steam_id":85568392924515191,"keywords":["cp","nocrits","nodmgspread","uncletopia"],"game_id":440,"stv_port":27036,"stv_name":"Uncletopia | Chicago | 3 | All Maps | STV","players":null},{"server_id":403,"name":"Uncletopia | Chicago | 4 | All Maps","name_short":"chi-4","host":"chi-1.us.uncletopia.com","port":27045,"enabled":true,"region":"us-central","cc":"us","latitude":41.881832,"longitude":-87.62318,"reserved":0,"last_update":"0001-01-01T00:00:00Z","name_a2s":"Uncletopia | Chicago | 4 | All Maps","protocol":17,"map":"pl_pier","folder":"tf","game":"Team Fortress","app_id":440,"player_count":24,"max_players":24,"Bots":0,"server_type":"Dedicated","server_os":"Linux","password":true,"vac":true,"version":"7757534","steam_id":85568392924515193,"keywords":["nocrits","nodmgspread","payload","uncletopia"],"game_id":440,"stv_port":27046,"stv_name":"Uncletopia | Chicago | 4 | All Maps | STV","players":[{"user_id":112,"name":"The Land Admiral","steam_id":76561198159356609,"connected_time":5323000000000,"state":"active","ping":73},{"user_id":140,"name":"Redruin1","steam_id":76561198086528714,"connected_time":2488000000000,"state":"active","ping":76},{"user_id":143,"name":"Shadowstone67","steam_id":76561198199459430,"connected_time":2187000000000,"state":"active","ping":71},{"user_id":122,"name":"Kyzer","steam_id":76561198048034600,"connected_time":4282000000000,"state":"active","ping":63},{"user_id":71,"name":"Lusty.","steam_id":76561198446378419,"connected_time":8516000000000,"state":"active","ping":85},{"user_id":149,"name":"Gourm","steam_id":76561198892036159,"connected_time":1715000000000,"state":"active","ping":58},{"user_id":133,"name":"demira","steam_id":76561198321727327,"connected_time":3102000000000,"state":"active","ping":69},{"user_id":105,"name":"indi","steam_id":76561198045917538,"connected_time":5848000000000,"state":"active","ping":46},{"user_id":141,"name":"Hey! I'm Walkin 'ere!","steam_id":76561198882785912,"connected_time":2283000000000,"state":"active","ping":75},{"user_id":144,"name":"Sheba","steam_id":76561198267634960,"connected_time":2170000000000,"state":"active","ping":66},{"user_id":145,"name":"Raniel Dicciardo","steam_id":76561198053859538,"connected_time":2147000000000,"state":"active","ping":71},{"user_id":162,"name":"careuwuy","steam_id":76561198077321435,"connected_time":180000000000,"state":"active","ping":77},{"user_id":160,"name":"lynt","steam_id":76561198988333976,"connected_time":304000000000,"state":"active","ping":57},{"user_id":17,"name":"Bryguy","steam_id":76561198092096120,"connected_time":12743000000000,"state":"active","ping":42},{"user_id":137,"name":"MamamiaTF2","steam_id":76561199070885213,"connected_time":2927000000000,"state":"active","ping":74},{"user_id":158,"name":"Rin","steam_id":76561198151519157,"connected_time":1007000000000,"state":"active","ping":60},{"user_id":155,"name":"kren","steam_id":76561199050786518,"connected_time":1073000000000,"state":"active","ping":168},{"user_id":67,"name":"i love tf2!","steam_id":76561198050220225,"connected_time":9009000000000,"state":"active","ping":58},{"user_id":138,"name":"OttoDogX","steam_id":76561198042007578,"connected_time":2916000000000,"state":"active","ping":88},{"user_id":161,"name":"Legit_Jaxer","steam_id":76561198172234053,"connected_time":196000000000,"state":"active","ping":106},{"user_id":134,"name":"ATL1 | Pango","steam_id":76561198069811545,"connected_time":3047000000000,"state":"active","ping":73},{"user_id":148,"name":"Smoopy","steam_id":76561198068485493,"connected_time":1949000000000,"state":"active","ping":60},{"user_id":157,"name":"User","steam_id":76561198123471222,"connected_time":1045000000000,"state":"active","ping":35},{"user_id":152,"name":"SkrubWrecker","steam_id":76561198044717015,"connected_time":1458000000000,"state":"active","ping":70}]},{"server_id":36,"name":"Uncletopia | Chicago | 5 | All Maps","name_short":"chi-5","host":"chi-2.us.uncletopia.com","port":27015,"enabled":true,"region":"us-central","cc":"us","latitude":41.881832,"longitude":-87.62318,"reserved":0,"last_update":"0001-01-01T00:00:00Z","name_a2s":"Uncletopia | Chicago | 5 | All Maps","protocol":17,"map":"koth_cascade","folder":"tf","game":"Team Fortress","app_id":440,"player_count":0,"max_players":24,"Bots":0,"server_type":"Dedicated","server_os":"Linux","password":true,"vac":true,"version":"7757534","steam_id":85568392924866362,"keywords":["cp","nocrits","nodmgspread","uncletopia"],"game_id":440,"stv_port":27016,"stv_name":"Uncletopia | Chicago | 5 | All Maps | STV","players":null},{"server_id":37,"name":"Uncletopia | Chicago | 6 | All Maps","name_short":"chi-6","host":"chi-2.us.uncletopia.com","port":27025,"enabled":true,"region":"us-central","cc":"us","latitude":41.881832,"longitude":-87.62318,"reserved":0,"last_update":"0001-01-01T00:00:00Z","name_a2s":"Uncletopia | Chicago | 6 | All Maps","protocol":17,"map":"pl_borneo","folder":"tf","game":"Team Fortress","app_id":440,"player_count":0,"max_players":24,"Bots":0,"server_type":"Dedicated","server_os":"Linux","password":true,"vac":true,"version":"7757534","steam_id":85568392924866363,"keywords":["nocrits","nodmgspread","payload","uncletopia"],"game_id":440,"stv_port":27026,"stv_name":"Uncletopia | Chicago | 6 | All Maps | STV","players":null},{"server_id":38,"name":"Uncletopia | Chicago | 7 | Stopwatch Beta","name_short":"chi-7","host":"chi-2.us.uncletopia.com","port":27035,"enabled":true,"region":"us-central","cc":"us","latitude":41.881832,"longitude":-87.62318,"reserved":0,"last_update":"0001-01-01T00:00:00Z","name_a2s":"Uncletopia | Chicago | 7 | Stopwatch Beta","protocol":17,"map":"pl_barnblitz","folder":"tf","game":"Team Fortress","app_id":440,"player_count":0,"max_players":24,"Bots":0,"server_type":"Dedicated","server_os":"Linux","password":true,"vac":true,"version":"7757534","steam_id":85568392924866364,"keywords":["nocrits","nodmgspread","payload","uncletopia"],"game_id":440,"stv_port":27036,"stv_name":"Uncletopia | Chicago | 7 | Stopwatch Beta | STV","players":null},{"server_id":39,"name":"Uncletopia | Chicago | 8 | Community","name_short":"chi-8","host":"chi-2.us.uncletopia.com","port":27045,"enabled":true,"region":"us-central","cc":"us","latitude":41.881832,"longitude":-87.62318,"reserved":0,"last_update":"0001-01-01T00:00:00Z","name_a2s":"Uncletopia | Chicago | 8 | Community","protocol":17,"map":"koth_cascade","folder":"tf","game":"Team Fortress","app_id":440,"player_count":0,"max_players":24,"Bots":0,"server_type":"Dedicated","server_os":"Linux","password":true,"vac":true,"version":"7757534","steam_id":85568392924866365,"keywords":["cp","nocrits","nodmgspread","uncletopia"],"game_id":440,"stv_port":27046,"stv_name":"Uncletopia | Chicago | 8 | Community | STV","players":null},{"server_id":8,"name":"Uncletopia | Dallas | 1 | All Maps","name_short":"dal-1","host":"dal-1.us.uncletopia.com","port":27015,"enabled":true,"region":"us-central","cc":"us","latitude":32.779167,"longitude":-96.80889,"reserved":0,"last_update":"0001-01-01T00:00:00Z","name_a2s":"Uncletopia | Dallas | 1 | All Maps","protocol":17,"map":"koth_cascade","folder":"tf","game":"Team Fortress","app_id":440,"player_count":0,"max_players":24,"Bots":0,"server_type":"Dedicated","server_os":"Linux","password":true,"vac":true,"version":"7757534","steam_id":85568392924469986,"keywords":["cp","nocrits","nodmgspread","uncletopia"],"game_id":440,"stv_port":27016,"stv_name":"Uncletopia | Dallas | 1 | All Maps | STV","players":null},{"server_id":108,"name":"Uncletopia | Dallas | 2 | All Maps","name_short":"dal-2","host":"dal-1.us.uncletopia.com","port":27025,"enabled":true,"region":"us-central","cc":"us","latitude":32.779167,"longitude":-96.80889,"reserved":0,"last_update":"0001-01-01T00:00:00Z","name_a2s":"Uncletopia | Dallas | 2 | All Maps","protocol":17,"map":"pl_barnblitz","folder":"tf","game":"Team Fortress","app_id":440,"player_count":6,"max_players":24,"Bots":0,"server_type":"Dedicated","server_os":"Linux","password":true,"vac":true,"version":"7757534","steam_id":85568392924469988,"keywords":["nocrits","nodmgspread","payload","uncletopia"],"game_id":440,"stv_port":27026,"stv_name":"Uncletopia | Dallas | 2 | All Maps | STV","players":[{"user_id":5,"name":"FroScav121","steam_id":76561199186568892,"connected_time":2060000000000,"state":"active","ping":45},{"user_id":6,"name":"old birb man","steam_id":76561199410269097,"connected_time":1461000000000,"state":"active","ping":123},{"user_id":7,"name":"Shae","steam_id":76561199007574830,"connected_time":669000000000,"state":"active","ping":183},{"user_id":12,"name":"carrion goat she/it","steam_id":76561198262064871,"connected_time":96000000000,"state":"active","ping":70},{"user_id":13,"name":"dipinpreet","steam_id":76561198329035044,"connected_time":89000000000,"state":"active","ping":69},{"user_id":11,"name":"Pig master","steam_id":76561199388075545,"connected_time":320000000000,"state":"active","ping":114}]},{"server_id":5,"name":"Uncletopia | Frankfurt | 1 | All Maps","name_short":"frk-1","host":"frk-1.de.uncletopia.com","port":27015,"enabled":true,"region":"eu","cc":"de","latitude":50.110924,"longitude":8.682127,"reserved":0,"last_update":"0001-01-01T00:00:00Z","name_a2s":"Uncletopia | Frankfurt | 1 | All Maps","protocol":17,"map":"pl_snowycoast","folder":"tf","game":"Team Fortress","app_id":440,"player_count":24,"max_players":24,"Bots":0,"server_type":"Dedicated","server_os":"Linux","password":true,"vac":true,"version":"7757534","steam_id":85568392924469989,"keywords":["nocrits","nodmgspread","payload","uncletopia"],"game_id":440,"stv_port":27016,"stv_name":"Uncletopia | Frankfurt | 1 | All Maps | STV","players":[{"user_id":459,"name":"Average chronic pain enjoyer","steam_id":76561198059375315,"connected_time":1965000000000,"state":"active","ping":58},{"user_id":444,"name":"Renard pos4","steam_id":76561197998908594,"connected_time":2883000000000,"state":"active","ping":69},{"user_id":463,"name":"tired","steam_id":76561198046838168,"connected_time":1886000000000,"state":"active","ping":45},{"user_id":456,"name":"Spinyapickle","steam_id":76561198086653667,"connected_time":2104000000000,"state":"active","ping":67},{"user_id":382,"name":"Pek","steam_id":76561198110417995,"connected_time":6456000000000,"state":"active","ping":117},{"user_id":441,"name":"Hetmanych","steam_id":76561198870926865,"connected_time":2925000000000,"state":"active","ping":58},{"user_id":491,"name":"1990 mazda miata mx-5","steam_id":76561198272809526,"connected_time":63000000000,"state":"active","ping":64},{"user_id":470,"name":"Rincey-Windey","steam_id":76561198011591682,"connected_time":1634000000000,"state":"active","ping":103},{"user_id":484,"name":"Perci","steam_id":76561198097789669,"connected_time":677000000000,"state":"active","ping":60},{"user_id":447,"name":"hmmmmm","steam_id":76561198024619679,"connected_time":2755000000000,"state":"active","ping":61},{"user_id":482,"name":"The Wolf Leader","steam_id":76561198038007462,"connected_time":861000000000,"state":"active","ping":65},{"user_id":412,"name":"grandpa's post-mortem photo","steam_id":76561198130116078,"connected_time":4658000000000,"state":"active","ping":90},{"user_id":465,"name":"meatsoupcube","steam_id":76561198276802249,"connected_time":1885000000000,"state":"active","ping":63},{"user_id":466,"name":"Sifan (CAMSL)","steam_id":76561198094433932,"connected_time":1881000000000,"state":"active","ping":146},{"user_id":453,"name":"Skylox","steam_id":76561198129291480,"connected_time":2264000000000,"state":"active","ping":88},{"user_id":451,"name":"Kek meister 8 mil","steam_id":76561197989904384,"connected_time":2568000000000,"state":"active","ping":62},{"user_id":483,"name":"Lyra","steam_id":76561198043601838,"connected_time":796000000000,"state":"active","ping":60},{"user_id":487,"name":"r06u3 #SummerUpdate_Coming","steam_id":76561198254099253,"connected_time":319000000000,"state":"active","ping":175},{"user_id":455,"name":"killer of noob, winner of game","steam_id":76561198190583242,"connected_time":2213000000000,"state":"active","ping":74},{"user_id":488,"name":"Dr.090","steam_id":76561198201215334,"connected_time":304000000000,"state":"active","ping":78},{"user_id":471,"name":"Princess Fuzz","steam_id":76561198025783000,"connected_time":1573000000000,"state":"active","ping":51},{"user_id":458,"name":"Balls","steam_id":76561198086400484,"connected_time":2027000000000,"state":"active","ping":89},{"user_id":489,"name":"Pogi820","steam_id":76561198320573568,"connected_time":154000000000,"state":"active","ping":110},{"user_id":476,"name":"Burger king foot lettuce","steam_id":76561198158457225,"connected_time":1415000000000,"state":"active","ping":60}]},{"server_id":110,"name":"Uncletopia | Frankfurt | 2 | All Maps","name_short":"frk-2","host":"frk-1.de.uncletopia.com","port":27025,"enabled":true,"region":"eu","cc":"de","latitude":50.110924,"longitude":8.682127,"reserved":0,"last_update":"0001-01-01T00:00:00Z","name_a2s":"Uncletopia | Frankfurt | 2 | All Maps","protocol":17,"map":"pl_badwater","folder":"tf","game":"Team Fortress","app_id":440,"player_count":24,"max_players":24,"Bots":0,"server_type":"Dedicated","server_os":"Linux","password":true,"vac":true,"version":"7757534","steam_id":85568392924469990,"keywords":["nocrits","nodmgspread","payload","uncletopia"],"game_id":440,"stv_port":27026,"stv_name":"Uncletopia | Frankfurt | 2 | All Maps | STV","players":[{"user_id":172,"name":"addicted","steam_id":76561199129801006,"connected_time":3951000000000,"state":"active","ping":50},{"user_id":216,"name":"ZANNABLUKE","steam_id":76561198013534336,"connected_time":513000000000,"state":"active","ping":55},{"user_id":205,"name":".::[SerafeTTiN]::.","steam_id":76561198009471724,"connected_time":1286000000000,"state":"active","ping":91},{"user_id":182,"name":"Gardvord","steam_id":76561198120715753,"connected_time":3030000000000,"state":"active","ping":81},{"user_id":219,"name":"egzior","steam_id":76561198363608921,"connected_time":99000000000,"state":"active","ping":74},{"user_id":203,"name":"deVychu","steam_id":76561198078032019,"connected_time":1339000000000,"state":"active","ping":88},{"user_id":202,"name":"hideki","steam_id":76561198030728517,"connected_time":1887000000000,"state":"active","ping":38},{"user_id":108,"name":"howabe","steam_id":76561197996486818,"connected_time":9286000000000,"state":"active","ping":54},{"user_id":212,"name":"Oborawatabinost","steam_id":76561199052275857,"connected_time":931000000000,"state":"active","ping":106},{"user_id":196,"name":"Angelatine(slut)","steam_id":76561198101624996,"connected_time":2295000000000,"state":"active","ping":95},{"user_id":190,"name":"Shark Petter","steam_id":76561198358801819,"connected_time":2404000000000,"state":"active","ping":65},{"user_id":201,"name":"Sinny","steam_id":76561197999598422,"connected_time":1896000000000,"state":"active","ping":73},{"user_id":183,"name":"Play slowly, pls","steam_id":76561198006463587,"connected_time":3025000000000,"state":"active","ping":140},{"user_id":187,"name":"Warlord Zira","steam_id":76561198044174757,"connected_time":2837000000000,"state":"active","ping":84},{"user_id":220,"name":"Doriian","steam_id":76561198071438810,"connected_time":40000000000,"state":"active","ping":76},{"user_id":215,"name":"(1) XCheatLmaoX123","steam_id":76561199041640689,"connected_time":533000000000,"state":"active","ping":101},{"user_id":211,"name":"Umbro","steam_id":76561198087930438,"connected_time":965000000000,"state":"active","ping":72},{"user_id":213,"name":"♥ Emma ♥","steam_id":76561198046796406,"connected_time":803000000000,"state":"active","ping":57},{"user_id":217,"name":"Bounter","steam_id":76561198072614188,"connected_time":502000000000,"state":"active","ping":63},{"user_id":60,"name":"player","steam_id":76561198054474684,"connected_time":11587000000000,"state":"active","ping":74},{"user_id":170,"name":"sm0ke","steam_id":76561198198977226,"connected_time":4054000000000,"state":"active","ping":69},{"user_id":186,"name":"Peanut","steam_id":76561198018865486,"connected_time":2964000000000,"state":"active","ping":67},{"user_id":188,"name":"♥ Aura says Trans Rights ♥","steam_id":76561198066258544,"connected_time":2784000000000,"state":"active","ping":49},{"user_id":209,"name":"Vikud","steam_id":76561199110575856,"connected_time":1131000000000,"state":"active","ping":145}]},{"server_id":308,"name":"Uncletopia | Frankfurt | 3 | All Maps","name_short":"frk-3","host":"frk-1.de.uncletopia.com","port":27035,"enabled":true,"region":"eu","cc":"de","latitude":50.110924,"longitude":8.682127,"reserved":0,"last_update":"0001-01-01T00:00:00Z","name_a2s":"Uncletopia | Frankfurt | 3 | All Maps","protocol":17,"map":"pl_upward","folder":"tf","game":"Team Fortress","app_id":440,"player_count":24,"max_players":24,"Bots":0,"server_type":"Dedicated","server_os":"Linux","password":true,"vac":true,"version":"7757534","steam_id":85568392924504274,"keywords":["nocrits","nodmgspread","payload","uncletopia"],"game_id":440,"stv_port":27036,"stv_name":"Uncletopia | Frankfurt | 3 | All Maps | STV","players":[{"user_id":272,"name":"Darth Bismarck","steam_id":76561198919324747,"connected_time":1727000000000,"state":"active","ping":181},{"user_id":270,"name":"Nekoma","steam_id":76561198115044116,"connected_time":1903000000000,"state":"active","ping":94},{"user_id":275,"name":"Majima Gaming HD","steam_id":76561198365750503,"connected_time":1584000000000,"state":"active","ping":57},{"user_id":299,"name":"jill valentine","steam_id":76561198075068529,"connected_time":823000000000,"state":"active","ping":61},{"user_id":274,"name":"...","steam_id":76561198969234594,"connected_time":1625000000000,"state":"active","ping":67},{"user_id":276,"name":"tf2_f2p","steam_id":76561199385522547,"connected_time":1574000000000,"state":"active","ping":63},{"user_id":295,"name":"MAKHINA","steam_id":76561198074530948,"connected_time":1041000000000,"state":"active","ping":56},{"user_id":278,"name":"xZoroarkgaming","steam_id":76561199199302865,"connected_time":1424000000000,"state":"active","ping":138},{"user_id":279,"name":"Your friend (maybe)","steam_id":76561198240278328,"connected_time":1370000000000,"state":"active","ping":80},{"user_id":280,"name":"Onshoe","steam_id":76561198253877489,"connected_time":1368000000000,"state":"active","ping":97},{"user_id":281,"name":"19$ Regirock","steam_id":76561198142584465,"connected_time":1366000000000,"state":"active","ping":68},{"user_id":303,"name":"You know i had to do it to em","steam_id":76561198023884216,"connected_time":119000000000,"state":"active","ping":50},{"user_id":298,"name":"smk","steam_id":76561198068027379,"connected_time":852000000000,"state":"active","ping":64},{"user_id":284,"name":"pfear","steam_id":76561197999207328,"connected_time":1290000000000,"state":"active","ping":74},{"user_id":288,"name":"Jon Snuh","steam_id":76561198075298635,"connected_time":1155000000000,"state":"active","ping":148},{"user_id":286,"name":"Animatic","steam_id":76561198186421601,"connected_time":1220000000000,"state":"active","ping":177},{"user_id":287,"name":"gjhkgfkjfh","steam_id":76561198031181349,"connected_time":1220000000000,"state":"active","ping":83},{"user_id":289,"name":"Birdseye","steam_id":76561198025852216,"connected_time":1135000000000,"state":"active","ping":60},{"user_id":290,"name":"NotFionn","steam_id":76561198890525176,"connected_time":1133000000000,"state":"active","ping":90},{"user_id":291,"name":"Space","steam_id":76561198021572167,"connected_time":1127000000000,"state":"active","ping":60},{"user_id":292,"name":"Jordan52e5","steam_id":76561199136166531,"connected_time":1090000000000,"state":"active","ping":179},{"user_id":293,"name":"X45Y","steam_id":76561198112534025,"connected_time":1088000000000,"state":"active","ping":52},{"user_id":304,"name":"System","steam_id":76561199442503973,"connected_time":110000000000,"state":"active","ping":46},{"user_id":296,"name":"He could be any one of us","steam_id":76561198320506848,"connected_time":1023000000000,"state":"active","ping":59}]},{"server_id":309,"name":"Uncletopia | Frankfurt | 4 | All Maps","name_short":"frk-4","host":"frk-1.de.uncletopia.com","port":27045,"enabled":true,"region":"eu","cc":"de","latitude":50.110924,"longitude":8.682127,"reserved":0,"last_update":"0001-01-01T00:00:00Z","name_a2s":"Uncletopia | Frankfurt | 4 | All Maps","protocol":17,"map":"cp_sunshine","folder":"tf","game":"Team Fortress","app_id":440,"player_count":24,"max_players":24,"Bots":0,"server_type":"Dedicated","server_os":"Linux","password":true,"vac":true,"version":"7757534","steam_id":85568392924504275,"keywords":["cp","nocrits","nodmgspread","uncletopia"],"game_id":440,"stv_port":27046,"stv_name":"Uncletopia | Frankfurt | 4 | All Maps | STV","players":[{"user_id":73,"name":"Nomad994","steam_id":76561198051908201,"connected_time":981000000000,"state":"active","ping":82},{"user_id":71,"name":"ronaldMCdonald","steam_id":76561198880701663,"connected_time":1384000000000,"state":"active","ping":83},{"user_id":75,"name":"rG_Gaming","steam_id":76561198125010818,"connected_time":962000000000,"state":"active","ping":91},{"user_id":83,"name":"Tre3","steam_id":76561198054795379,"connected_time":566000000000,"state":"active","ping":48},{"user_id":76,"name":"TylowStar","steam_id":76561198357107806,"connected_time":944000000000,"state":"active","ping":62},{"user_id":70,"name":"SPONGE","steam_id":76561198040933472,"connected_time":1474000000000,"state":"active","ping":61},{"user_id":65,"name":"RiX","steam_id":76561197969053733,"connected_time":1816000000000,"state":"active","ping":67},{"user_id":46,"name":"Hegyi tahó F2P","steam_id":76561199219150356,"connected_time":2579000000000,"state":"active","ping":73},{"user_id":60,"name":"wren","steam_id":76561197996645029,"connected_time":2040000000000,"state":"active","ping":88},{"user_id":48,"name":"♥ Cirno ♥","steam_id":76561198834982738,"connected_time":2534000000000,"state":"active","ping":70},{"user_id":81,"name":"/ffª rilookp","steam_id":76561198143529110,"connected_time":611000000000,"state":"active","ping":46},{"user_id":84,"name":"Khazton","steam_id":76561197985241877,"connected_time":551000000000,"state":"active","ping":95},{"user_id":86,"name":"prayforturkey","steam_id":76561198167283985,"connected_time":19000000000,"state":"active","ping":68},{"user_id":79,"name":"xX_emilol69420_Xx","steam_id":76561198996582768,"connected_time":646000000000,"state":"active","ping":77},{"user_id":67,"name":"OreHaX","steam_id":76561198272166623,"connected_time":1716000000000,"state":"active","ping":70},{"user_id":31,"name":"Salih","steam_id":76561198287934839,"connected_time":3422000000000,"state":"active","ping":55},{"user_id":77,"name":"koji","steam_id":76561198051636999,"connected_time":895000000000,"state":"active","ping":52},{"user_id":85,"name":"Krauserik7","steam_id":76561198263204577,"connected_time":544000000000,"state":"active","ping":81},{"user_id":56,"name":"filip pilic","steam_id":76561199147666336,"connected_time":2246000000000,"state":"active","ping":76},{"user_id":38,"name":"Kenopsia","steam_id":76561198126750888,"connected_time":3137000000000,"state":"active","ping":85},{"user_id":61,"name":"I-I","steam_id":76561198267969436,"connected_time":2032000000000,"state":"active","ping":66},{"user_id":62,"name":"soup","steam_id":76561198386933065,"connected_time":1947000000000,"state":"active","ping":60},{"user_id":59,"name":"Meta","steam_id":76561198413073432,"connected_time":2156000000000,"state":"active","ping":68},{"user_id":69,"name":"Pæbæs","steam_id":76561198088369219,"connected_time":1502000000000,"state":"active","ping":80}]},{"server_id":310,"name":"Uncletopia | Frankfurt | 5 | All Maps","name_short":"frk-5","host":"frk-1.de.uncletopia.com","port":27055,"enabled":true,"region":"eu","cc":"de","latitude":50.110924,"longitude":8.682127,"reserved":0,"last_update":"0001-01-01T00:00:00Z","name_a2s":"Uncletopia | Frankfurt | 5 | All Maps","protocol":17,"map":"koth_lakeside_final","folder":"tf","game":"Team Fortress","app_id":440,"player_count":0,"max_players":24,"Bots":0,"server_type":"Dedicated","server_os":"Linux","password":true,"vac":true,"version":"7757534","steam_id":85568392924504277,"keywords":["cp","nocrits","nodmgspread","uncletopia"],"game_id":440,"stv_port":27056,"stv_name":"Uncletopia | Frankfurt | 5 | All Maps | STV","players":null},{"server_id":311,"name":"Uncletopia | Frankfurt | 6 | All Maps","name_short":"frk-6","host":"frk-1.de.uncletopia.com","port":27065,"enabled":true,"region":"eu","cc":"de","latitude":50.110924,"longitude":8.682127,"reserved":0,"last_update":"0001-01-01T00:00:00Z","name_a2s":"Uncletopia | Frankfurt | 6 | All Maps","protocol":17,"map":"pl_frontier_final","folder":"tf","game":"Team Fortress","app_id":440,"player_count":0,"max_players":24,"Bots":0,"server_type":"Dedicated","server_os":"Linux","password":true,"vac":true,"version":"7757534","steam_id":85568392924504278,"keywords":["nocrits","nodmgspread","payload","uncletopia"],"game_id":440,"stv_port":27066,"stv_name":"Uncletopia | Frankfurt | 6 | All Maps | STV","players":null},{"server_id":23,"name":"Uncletopia | Frankfurt | 7 | Stopwatch Beta","name_short":"frk-7","host":"frk-1.de.uncletopia.com","port":27075,"enabled":true,"region":"eu","cc":"de","latitude":50.110924,"longitude":8.682127,"reserved":0,"last_update":"0001-01-01T00:00:00Z","name_a2s":"Uncletopia | Frankfurt | 7 | Stopwatch Beta","protocol":17,"map":"cp_sunshine","folder":"tf","game":"Team Fortress","app_id":440,"player_count":0,"max_players":24,"Bots":0,"server_type":"Dedicated","server_os":"Linux","password":true,"vac":true,"version":"7757534","steam_id":85568392924742827,"keywords":["cp","nocrits","nodmgspread","uncletopia"],"game_id":440,"stv_port":27076,"stv_name":"Uncletopia | Frankfurt | 7 | Stopwatch Beta | STV","players":null},{"server_id":24,"name":"Uncletopia | Frankfurt | 8 | Community","name_short":"frk-8","host":"frk-1.de.uncletopia.com","port":27085,"enabled":true,"region":"eu","cc":"de","latitude":50.110924,"longitude":8.682127,"reserved":0,"last_update":"0001-01-01T00:00:00Z","name_a2s":"Uncletopia | Frankfurt | 8 | Community","protocol":17,"map":"workshop/koth_synthetic_rc6a.ugc1549817316","folder":"tf","game":"Team Fortress","app_id":440,"player_count":1,"max_players":24,"Bots":0,"server_type":"Dedicated","server_os":"Linux","password":true,"vac":true,"version":"7757534","steam_id":85568392924742828,"keywords":["cp","nocrits","nodmgspread","uncletopia"],"game_id":440,"stv_port":27086,"stv_name":"Uncletopia | Frankfurt | 8 | Community | STV","players":[{"user_id":22,"name":"MrAnchovy228","steam_id":76561199155621917,"connected_time":205000000000,"state":"spawning","ping":212}]},{"server_id":202,"name":"Uncletopia | Hong Kong | 1 | All Maps","name_short":"hgk-1","host":"hgk-1.hk.uncletopia.com","port":27015,"enabled":true,"region":"asia","cc":"hk","latitude":22.302711,"longitude":114.177216,"reserved":0,"last_update":"0001-01-01T00:00:00Z","name_a2s":"Uncletopia | Hong Kong | 1 | All Maps","protocol":17,"map":"pl_pier","folder":"tf","game":"Team Fortress","app_id":440,"player_count":24,"max_players":24,"Bots":0,"server_type":"Dedicated","server_os":"Linux","password":true,"vac":true,"version":"7757534","steam_id":85568392924494504,"keywords":["nocrits","nodmgspread","payload","uncletopia"],"game_id":440,"stv_port":27016,"stv_name":"Uncletopia | Hong Kong | 1 | All Maps | STV","players":[{"user_id":291,"name":"KimUD","steam_id":76561198088814587,"connected_time":798000000000,"state":"active","ping":75},{"user_id":272,"name":"Samsung Galaxy","steam_id":76561199418137152,"connected_time":2349000000000,"state":"active","ping":62},{"user_id":294,"name":"braindance","steam_id":76561198180486361,"connected_time":196000000000,"state":"active","ping":53},{"user_id":257,"name":"killman47","steam_id":76561198348487408,"connected_time":5490000000000,"state":"active","ping":41},{"user_id":295,"name":"waisave","steam_id":76561198017501531,"connected_time":53000000000,"state":"active","ping":39},{"user_id":243,"name":"shenko","steam_id":76561198082921407,"connected_time":7172000000000,"state":"active","ping":120},{"user_id":277,"name":"母の肉団子@hao123.com","steam_id":76561198069561896,"connected_time":1369000000000,"state":"active","ping":40},{"user_id":273,"name":"ketsu","steam_id":76561197966171554,"connected_time":1954000000000,"state":"active","ping":116},{"user_id":266,"name":"i am a F2P and my aim is shit","steam_id":76561199475974790,"connected_time":4053000000000,"state":"active","ping":87},{"user_id":283,"name":"attaac","steam_id":76561198144750492,"connected_time":1074000000000,"state":"active","ping":75},{"user_id":232,"name":"Momoxhien","steam_id":76561198414997429,"connected_time":7717000000000,"state":"active","ping":58},{"user_id":293,"name":"17","steam_id":76561198241530712,"connected_time":255000000000,"state":"active","ping":67},{"user_id":292,"name":"Stupid B","steam_id":76561198131423270,"connected_time":596000000000,"state":"active","ping":68},{"user_id":241,"name":"쿠키","steam_id":76561197997220367,"connected_time":7281000000000,"state":"active","ping":51},{"user_id":280,"name":"Corn wood","steam_id":76561199083620100,"connected_time":1311000000000,"state":"active","ping":89},{"user_id":209,"name":"Othopeus","steam_id":76561198283534382,"connected_time":8846000000000,"state":"active","ping":73},{"user_id":271,"name":"DevAllen","steam_id":76561198830629355,"connected_time":2387000000000,"state":"active","ping":71},{"user_id":267,"name":"cube","steam_id":76561198132354269,"connected_time":3231000000000,"state":"active","ping":94},{"user_id":281,"name":"MsD IV","steam_id":76561198059707655,"connected_time":1272000000000,"state":"active","ping":128},{"user_id":275,"name":"Amai1nL0v3","steam_id":76561199122491157,"connected_time":1856000000000,"state":"active","ping":99},{"user_id":282,"name":"NPC2080","steam_id":76561198077728536,"connected_time":1194000000000,"state":"active","ping":100},{"user_id":242,"name":"光头强","steam_id":76561198045255591,"connected_time":7235000000000,"state":"active","ping":128},{"user_id":290,"name":"๋","steam_id":76561198413116920,"connected_time":829000000000,"state":"active","ping":104},{"user_id":264,"name":"rat","steam_id":76561198840261854,"connected_time":4411000000000,"state":"active","ping":69}]},{"server_id":1,"name":"Uncletopia | Los Angeles | 1 | All Maps","name_short":"lax-1","host":"lax-1.us.uncletopia.com","port":27015,"enabled":true,"region":"us-west","cc":"us","latitude":33.94279,"longitude":-118.41004,"reserved":0,"last_update":"0001-01-01T00:00:00Z","name_a2s":"Uncletopia | Los Angeles | 1 | All Maps","protocol":17,"map":"koth_lakeside_final","folder":"tf","game":"Team Fortress","app_id":440,"player_count":0,"max_players":24,"Bots":0,"server_type":"Dedicated","server_os":"Linux","password":true,"vac":true,"version":"7757534","steam_id":85568392924469991,"keywords":["cp","nocrits","nodmgspread","uncletopia"],"game_id":440,"stv_port":27016,"stv_name":"Uncletopia | Los Angeles | 1 | All Maps | STV","players":null},{"server_id":112,"name":"Uncletopia | Los Angeles | 2 | All Maps","name_short":"lax-2","host":"lax-1.us.uncletopia.com","port":27025,"enabled":true,"region":"us-west","cc":"us","latitude":33.94279,"longitude":-118.41004,"reserved":0,"last_update":"0001-01-01T00:00:00Z","name_a2s":"Uncletopia | Los Angeles | 2 | All Maps","protocol":17,"map":"pl_badwater","folder":"tf","game":"Team Fortress","app_id":440,"player_count":0,"max_players":24,"Bots":0,"server_type":"Dedicated","server_os":"Linux","password":true,"vac":true,"version":"7757534","steam_id":85568392924469992,"keywords":["nocrits","nodmgspread","payload","uncletopia"],"game_id":440,"stv_port":27026,"stv_name":"Uncletopia | Los Angeles | 2 | All Maps | STV","players":null},{"server_id":324,"name":"Uncletopia | Los Angeles | 3 | All Maps","name_short":"lax-3","host":"lax-1.us.uncletopia.com","port":27035,"enabled":true,"region":"us-west","cc":"us","latitude":33.94279,"longitude":-118.41004,"reserved":0,"last_update":"0001-01-01T00:00:00Z","name_a2s":"Uncletopia | Los Angeles | 3 | All Maps","protocol":17,"map":"pl_barnblitz","folder":"tf","game":"Team Fortress","app_id":440,"player_count":0,"max_players":24,"Bots":0,"server_type":"Dedicated","server_os":"Linux","password":true,"vac":true,"version":"7757534","steam_id":85568392924510198,"keywords":["nocrits","nodmgspread","payload","uncletopia"],"game_id":440,"stv_port":27036,"stv_name":"Uncletopia | Los Angeles | 3 | All Maps | STV","players":null},{"server_id":25,"name":"Uncletopia | Los Angeles | 4 | Stopwatch Beta","name_short":"lax-4","host":"lax-1.us.uncletopia.com","port":27045,"enabled":true,"region":"us-west","cc":"us","latitude":33.94279,"longitude":-118.41004,"reserved":0,"last_update":"0001-01-01T00:00:00Z","name_a2s":"Uncletopia | Los Angeles | 4 | Stopwatch Beta","protocol":17,"map":"pl_swiftwater_final1","folder":"tf","game":"Team Fortress","app_id":440,"player_count":0,"max_players":24,"Bots":0,"server_type":"Dedicated","server_os":"Linux","password":true,"vac":true,"version":"7757534","steam_id":85568392924510199,"keywords":["nocrits","nodmgspread","payload","uncletopia"],"game_id":440,"stv_port":27046,"stv_name":"Uncletopia | Los Angeles | 4 | Stopwatch Beta | STV","players":null},{"server_id":11,"name":"Uncletopia | London | 1 | All Maps","name_short":"lon-1","host":"lon-1.uk.uncletopia.com","port":27015,"enabled":true,"region":"eu","cc":"gb","latitude":51.509865,"longitude":-0.118092,"reserved":0,"last_update":"0001-01-01T00:00:00Z","name_a2s":"Uncletopia | London | 1 | All Maps","protocol":17,"map":"pl_badwater","folder":"tf","game":"Team Fortress","app_id":440,"player_count":24,"max_players":24,"Bots":0,"server_type":"Dedicated","server_os":"Linux","password":true,"vac":true,"version":"7757534","steam_id":85568392924367362,"keywords":["nocrits","nodmgspread","payload","uncletopia"],"game_id":440,"stv_port":27016,"stv_name":"Uncletopia | London | 1 | All Maps | STV","players":[{"user_id":206,"name":"GMsU | Rebikas","steam_id":76561198077053764,"connected_time":6729000000000,"state":"active","ping":50},{"user_id":264,"name":"Craig Crusade","steam_id":76561199225918086,"connected_time":3180000000000,"state":"active","ping":60},{"user_id":287,"name":"Economic crisis","steam_id":76561198063562843,"connected_time":323000000000,"state":"active","ping":62},{"user_id":279,"name":"NFTs are the future!","steam_id":76561198128506921,"connected_time":1524000000000,"state":"active","ping":83},{"user_id":260,"name":"oopsboom24","steam_id":76561199105248648,"connected_time":3319000000000,"state":"active","ping":170},{"user_id":293,"name":"Winter","steam_id":76561198311381234,"connected_time":280000000000,"state":"active","ping":45},{"user_id":252,"name":"homeinvasion$","steam_id":76561199111905021,"connected_time":3846000000000,"state":"active","ping":117},{"user_id":292,"name":"Spectre","steam_id":76561198025652246,"connected_time":286000000000,"state":"active","ping":124},{"user_id":281,"name":"My left foot itches","steam_id":76561198078411001,"connected_time":1321000000000,"state":"active","ping":89},{"user_id":267,"name":"Kretur","steam_id":76561198161086266,"connected_time":1958000000000,"state":"active","ping":97},{"user_id":286,"name":"Wuffington","steam_id":76561198033762881,"connected_time":383000000000,"state":"active","ping":45},{"user_id":294,"name":"Dwevy","steam_id":76561198090379437,"connected_time":51000000000,"state":"active","ping":62},{"user_id":185,"name":"Apathy","steam_id":76561199308784371,"connected_time":9341000000000,"state":"active","ping":51},{"user_id":284,"name":"BONK-TEC!","steam_id":76561198272667029,"connected_time":526000000000,"state":"active","ping":54},{"user_id":289,"name":"Oak","steam_id":76561198067315672,"connected_time":316000000000,"state":"active","ping":44},{"user_id":258,"name":"quickfast","steam_id":76561199438900919,"connected_time":3476000000000,"state":"active","ping":44},{"user_id":247,"name":"Myrmodion","steam_id":76561198054746247,"connected_time":4589000000000,"state":"active","ping":72},{"user_id":263,"name":"vet","steam_id":76561198110545854,"connected_time":3199000000000,"state":"active","ping":158},{"user_id":290,"name":"Uncle Moomin","steam_id":76561198011628656,"connected_time":311000000000,"state":"active","ping":71},{"user_id":283,"name":":)","steam_id":76561198977420882,"connected_time":1288000000000,"state":"active","ping":42},{"user_id":221,"name":"ciliorkun18","steam_id":76561198228942500,"connected_time":6123000000000,"state":"active","ping":90},{"user_id":166,"name":"poliakov.noam","steam_id":76561199259322961,"connected_time":11161000000000,"state":"active","ping":103},{"user_id":246,"name":"GMsU | Smiley","steam_id":76561198121494414,"connected_time":4771000000000,"state":"active","ping":97},{"user_id":285,"name":"R0mulone","steam_id":76561198352513792,"connected_time":440000000000,"state":"active","ping":61}]},{"server_id":114,"name":"Uncletopia | London | 2 | All Maps","name_short":"lon-2","host":"lon-1.uk.uncletopia.com","port":27025,"enabled":true,"region":"eu","cc":"gb","latitude":51.509865,"longitude":-0.118092,"reserved":0,"last_update":"0001-01-01T00:00:00Z","name_a2s":"Uncletopia | London | 2 | All Maps","protocol":17,"map":"koth_viaduct","folder":"tf","game":"Team Fortress","app_id":440,"player_count":0,"max_players":24,"Bots":0,"server_type":"Dedicated","server_os":"Linux","password":true,"vac":true,"version":"7757534","steam_id":85568392924470941,"keywords":["cp","nocrits","nodmgspread","uncletopia"],"game_id":440,"stv_port":27026,"stv_name":"Uncletopia | London | 2 | All Maps | STV","players":null},{"server_id":320,"name":"Uncletopia | London | 3 | All Maps","name_short":"lon-3","host":"lon-1.uk.uncletopia.com","port":27035,"enabled":true,"region":"eu","cc":"gb","latitude":51.509865,"longitude":-0.118092,"reserved":0,"last_update":"0001-01-01T00:00:00Z","name_a2s":"Uncletopia | London | 3 | All Maps","protocol":17,"map":"pl_barnblitz","folder":"tf","game":"Team Fortress","app_id":440,"player_count":24,"max_players":24,"Bots":0,"server_type":"Dedicated","server_os":"Linux","password":true,"vac":true,"version":"7757534","steam_id":85568392924510192,"keywords":["nocrits","nodmgspread","payload","uncletopia"],"game_id":440,"stv_port":27036,"stv_name":"Uncletopia | London | 3 | All Maps | STV","players":[{"user_id":91,"name":"сын джеффа убийц\ufffd","steam_id":76561199149307190,"connected_time":5089000000000,"state":"active","ping":85},{"user_id":173,"name":"silicon based life form","steam_id":76561199127121346,"connected_time":1601000000000,"state":"active","ping":59},{"user_id":185,"name":"METhOphetamine","steam_id":76561198068216224,"connected_time":302000000000,"state":"active","ping":60},{"user_id":62,"name":"Dagda","steam_id":76561198871136698,"connected_time":6800000000000,"state":"active","ping":44},{"user_id":164,"name":"fmdi","steam_id":76561199433879329,"connected_time":2303000000000,"state":"active","ping":72},{"user_id":177,"name":"Unfortunate","steam_id":76561198125500777,"connected_time":919000000000,"state":"active","ping":96},{"user_id":163,"name":"JeanCorben","steam_id":76561197965133561,"connected_time":2330000000000,"state":"active","ping":44},{"user_id":186,"name":"Bill Hampton","steam_id":76561198310295139,"connected_time":279000000000,"state":"active","ping":100},{"user_id":162,"name":"KAZAM | Tervez","steam_id":76561198045459068,"connected_time":2363000000000,"state":"active","ping":82},{"user_id":149,"name":"Datenegassie","steam_id":76561198089417032,"connected_time":3490000000000,"state":"active","ping":61},{"user_id":183,"name":"Areck2","steam_id":76561199041737814,"connected_time":526000000000,"state":"active","ping":36},{"user_id":64,"name":"Spy TF2 (real)","steam_id":76561199034305167,"connected_time":6773000000000,"state":"active","ping":35},{"user_id":167,"name":"Nassu","steam_id":76561198147367577,"connected_time":2230000000000,"state":"active","ping":159},{"user_id":156,"name":"BobTheBox","steam_id":76561198080894136,"connected_time":2834000000000,"state":"active","ping":66},{"user_id":158,"name":"Corpus Christi","steam_id":76561198417999443,"connected_time":2613000000000,"state":"active","ping":106},{"user_id":168,"name":"lactose father","steam_id":76561199408853457,"connected_time":2221000000000,"state":"active","ping":83},{"user_id":187,"name":"xstylehardx","steam_id":76561198111203974,"connected_time":133000000000,"state":"active","ping":62},{"user_id":170,"name":"JamesPepega","steam_id":76561198019156154,"connected_time":2173000000000,"state":"active","ping":73},{"user_id":94,"name":"Chen","steam_id":76561198440363619,"connected_time":4971000000000,"state":"active","ping":54},{"user_id":188,"name":"rhost","steam_id":76561199230709660,"connected_time":122000000000,"state":"active","ping":60},{"user_id":84,"name":"john fortress","steam_id":76561198013237629,"connected_time":5603000000000,"state":"active","ping":93},{"user_id":132,"name":"Sigma","steam_id":76561199088506542,"connected_time":3963000000000,"state":"active","ping":61},{"user_id":182,"name":"sex defender","steam_id":76561199353731424,"connected_time":758000000000,"state":"active","ping":67},{"user_id":133,"name":"Noob_with_source","steam_id":76561198870362103,"connected_time":3953000000000,"state":"active","ping":59}]},{"server_id":321,"name":"Uncletopia | London | 4 | All Maps","name_short":"lon-4","host":"lon-1.uk.uncletopia.com","port":27045,"enabled":true,"region":"eu","cc":"gb","latitude":51.509865,"longitude":-0.118092,"reserved":0,"last_update":"0001-01-01T00:00:00Z","name_a2s":"Uncletopia | London | 4 | All Maps","protocol":17,"map":"pl_barnblitz","folder":"tf","game":"Team Fortress","app_id":440,"player_count":0,"max_players":24,"Bots":0,"server_type":"Dedicated","server_os":"Linux","password":true,"vac":true,"version":"7757534","steam_id":85568392924510193,"keywords":["nocrits","nodmgspread","payload","uncletopia"],"game_id":440,"stv_port":27046,"stv_name":"Uncletopia | London | 4 | All Maps | STV","players":null},{"server_id":21,"name":"Uncletopia | London | 5 | All Maps","name_short":"lon-5","host":"lon-1.uk.uncletopia.com","port":27055,"enabled":true,"region":"eu","cc":"gb","latitude":51.509865,"longitude":-0.118092,"reserved":0,"last_update":"0001-01-01T00:00:00Z","name_a2s":"Uncletopia | London | 5 | All Maps","protocol":17,"map":"cp_mountainlab","folder":"tf","game":"Team Fortress","app_id":440,"player_count":0,"max_players":24,"Bots":0,"server_type":"Dedicated","server_os":"Linux","password":true,"vac":true,"version":"7757534","steam_id":85568392924742829,"keywords":["cp","nocrits","nodmgspread","uncletopia"],"game_id":440,"stv_port":27056,"stv_name":"Uncletopia | London | 5 | All Maps | STV","players":null},{"server_id":22,"name":"Uncletopia | London | 6 | All Maps","name_short":"lon-6","host":"lon-1.uk.uncletopia.com","port":27065,"enabled":true,"region":"eu","cc":"gb","latitude":51.509865,"longitude":-0.118092,"reserved":0,"last_update":"0001-01-01T00:00:00Z","name_a2s":"Uncletopia | London | 6 | All Maps","protocol":17,"map":"cp_mountainlab","folder":"tf","game":"Team Fortress","app_id":440,"player_count":0,"max_players":24,"Bots":0,"server_type":"Dedicated","server_os":"Linux","password":true,"vac":true,"version":"7757534","steam_id":85568392924742830,"keywords":["cp","nocrits","nodmgspread","uncletopia"],"game_id":440,"stv_port":27066,"stv_name":"Uncletopia | London | 6 | All Maps | STV","players":null},{"server_id":40,"name":"Uncletopia | London | 7 | No Payload","name_short":"lon-7","host":"lon-1.uk.uncletopia.com","port":27075,"enabled":true,"region":"eu","cc":"gb","latitude":51.509865,"longitude":-0.118092,"reserved":0,"last_update":"0001-01-01T00:00:00Z","name_a2s":"Uncletopia | London | 7 | No Payload","protocol":17,"map":"cp_sunshine","folder":"tf","game":"Team Fortress","app_id":440,"player_count":0,"max_players":24,"Bots":0,"server_type":"Dedicated","server_os":"Linux","password":true,"vac":true,"version":"7757534","steam_id":85568392924964314,"keywords":["cp","nocrits","nodmgspread","uncletopia"],"game_id":440,"stv_port":27076,"stv_name":"Uncletopia | London | 7 | No Payload | STV","players":null},{"server_id":41,"name":"Uncletopia | London | 8 | Community","name_short":"lon-8","host":"lon-1.uk.uncletopia.com","port":27085,"enabled":true,"region":"eu","cc":"gb","latitude":51.509865,"longitude":-0.118092,"reserved":0,"last_update":"0001-01-01T00:00:00Z","name_a2s":"Uncletopia | London | 8 | Community","protocol":17,"map":"pl_barnblitz","folder":"tf","game":"Team Fortress","app_id":440,"player_count":0,"max_players":24,"Bots":0,"server_type":"Dedicated","server_os":"Linux","password":true,"vac":true,"version":"7757534","steam_id":85568392924964315,"keywords":["nocrits","nodmgspread","payload","uncletopia"],"game_id":440,"stv_port":27086,"stv_name":"Uncletopia | London | 8 | Community | STV","players":null},{"server_id":300,"name":"Uncletopia | Montréal | 1 | All Maps","name_short":"mtl-1","host":"mtl-1.ca.uncletopia.com","port":27015,"enabled":true,"region":"us-east","cc":"ca","latitude":45.50889,"longitude":-73.56167,"reserved":0,"last_update":"0001-01-01T00:00:00Z","name_a2s":"Uncletopia | Montréal | 1 | All Maps","protocol":17,"map":"pl_upward","folder":"tf","game":"Team Fortress","app_id":440,"player_count":0,"max_players":24,"Bots":0,"server_type":"Dedicated","server_os":"Linux","password":true,"vac":true,"version":"7757534","steam_id":85568392924500087,"keywords":["nocrits","nodmgspread","payload","uncletopia"],"game_id":440,"stv_port":27016,"stv_name":"Uncletopia | Montréal | 1 | All Maps | STV","players":null},{"server_id":301,"name":"Uncletopia | Montréal | 2 | All Maps","name_short":"mtl-2","host":"mtl-1.ca.uncletopia.com","port":27025,"enabled":true,"region":"us-east","cc":"ca","latitude":45.50889,"longitude":-73.56167,"reserved":0,"last_update":"0001-01-01T00:00:00Z","name_a2s":"Uncletopia | Montréal | 2 | All Maps","protocol":17,"map":"pl_snowycoast","folder":"tf","game":"Team Fortress","app_id":440,"player_count":0,"max_players":24,"Bots":0,"server_type":"Dedicated","server_os":"Linux","password":true,"vac":true,"version":"7757534","steam_id":85568392924500088,"keywords":["nocrits","nodmgspread","payload","uncletopia"],"game_id":440,"stv_port":27026,"stv_name":"Uncletopia | Montréal | 2 | All Maps | STV","players":null},{"server_id":302,"name":"Uncletopia | Montréal | 3 | All Maps","name_short":"mtl-3","host":"mtl-1.ca.uncletopia.com","port":27035,"enabled":true,"region":"us-east","cc":"ca","latitude":45.50889,"longitude":-73.56167,"reserved":0,"last_update":"0001-01-01T00:00:00Z","name_a2s":"Uncletopia | Montréal | 3 | All Maps","protocol":17,"map":"pl_swiftwater_final1","folder":"tf","game":"Team Fortress","app_id":440,"player_count":0,"max_players":24,"Bots":0,"server_type":"Dedicated","server_os":"Linux","password":true,"vac":true,"version":"7757534","steam_id":85568392924500089,"keywords":["nocrits","nodmgspread","payload","uncletopia"],"game_id":440,"stv_port":27036,"stv_name":"Uncletopia | Montréal | 3 | All Maps | STV","players":null},{"server_id":303,"name":"Uncletopia | Montréal | 4 | No Payload","name_short":"mtl-4","host":"mtl-1.ca.uncletopia.com","port":27045,"enabled":true,"region":"us-east","cc":"ca","latitude":45.50889,"longitude":-73.56167,"reserved":0,"last_update":"0001-01-01T00:00:00Z","name_a2s":"Uncletopia | Montréal | 4 | No Payload","protocol":17,"map":"pl_pier","folder":"tf","game":"Team Fortress","app_id":440,"player_count":0,"max_players":24,"Bots":0,"server_type":"Dedicated","server_os":"Linux","password":true,"vac":true,"version":"7757534","steam_id":85568392924500090,"keywords":["nocrits","nodmgspread","payload","uncletopia"],"game_id":440,"stv_port":27046,"stv_name":"Uncletopia | Montréal | 4 | No Payload | STV","players":null},{"server_id":13,"name":"Uncletopia | New York City | 1 | All Maps","name_short":"nyc-1","host":"nyc-1.us.uncletopia.com","port":27015,"enabled":true,"region":"us-east","cc":"us","latitude":40.73061,"longitude":-73.93524,"reserved":0,"last_update":"0001-01-01T00:00:00Z","name_a2s":"Uncletopia | New York City | 1 | All Maps","protocol":17,"map":"koth_viaduct","folder":"tf","game":"Team Fortress","app_id":440,"player_count":0,"max_players":24,"Bots":0,"server_type":"Dedicated","server_os":"Linux","password":true,"vac":true,"version":"7757534","steam_id":85568392924469993,"keywords":["cp","nocrits","nodmgspread","uncletopia"],"game_id":440,"stv_port":27016,"stv_name":"Uncletopia | New York City | 1 | All Maps | STV","players":null},{"server_id":14,"name":"Uncletopia | New York City | 2 | All Maps","name_short":"nyc-2","host":"nyc-1.us.uncletopia.com","port":27025,"enabled":true,"region":"us-east","cc":"us","latitude":40.73061,"longitude":-73.93524,"reserved":0,"last_update":"0001-01-01T00:00:00Z","name_a2s":"Uncletopia | New York City | 2 | All Maps","protocol":17,"map":"pl_pier","folder":"tf","game":"Team Fortress","app_id":440,"player_count":0,"max_players":24,"Bots":0,"server_type":"Dedicated","server_os":"Linux","password":true,"vac":true,"version":"7757534","steam_id":85568392924469994,"keywords":["nocrits","nodmgspread","payload","uncletopia"],"game_id":440,"stv_port":27026,"stv_name":"Uncletopia | New York City | 2 | All Maps | STV","players":null},{"server_id":15,"name":"Uncletopia | New York City | 3 | Stopwatch Beta","name_short":"nyc-3","host":"nyc-1.us.uncletopia.com","port":27035,"enabled":true,"region":"us-east","cc":"us","latitude":40.73061,"longitude":-73.93524,"reserved":0,"last_update":"0001-01-01T00:00:00Z","name_a2s":"Uncletopia | New York City | 3 | Stopwatch Beta","protocol":17,"map":"pl_upward","folder":"tf","game":"Team Fortress","app_id":440,"player_count":0,"max_players":24,"Bots":0,"server_type":"Dedicated","server_os":"Linux","password":true,"vac":true,"version":"7757534","steam_id":85568392924742820,"keywords":["nocrits","nodmgspread","payload","uncletopia"],"game_id":440,"stv_port":27036,"stv_name":"Uncletopia | New York City | 3 | Stopwatch Beta | STV","players":null},{"server_id":16,"name":"Uncletopia | New York City | 4 | Community","name_short":"nyc-4","host":"nyc-1.us.uncletopia.com","port":27045,"enabled":true,"region":"us-east","cc":"us","latitude":40.73061,"longitude":-73.93524,"reserved":0,"last_update":"0001-01-01T00:00:00Z","name_a2s":"Uncletopia | New York City | 4 | Community","protocol":17,"map":"workshop/koth_kemptown_rc1.ugc767410655","folder":"tf","game":"Team Fortress","app_id":440,"player_count":0,"max_players":24,"Bots":0,"server_type":"Dedicated","server_os":"Linux","password":true,"vac":true,"version":"7757534","steam_id":85568392924742821,"keywords":["cp","nocrits","nodmgspread","uncletopia"],"game_id":440,"stv_port":27046,"stv_name":"Uncletopia | New York City | 4 | Community | STV","players":null},{"server_id":142,"name":"Uncletopia | São Paulo | 1 | All Maps","name_short":"sao-1","host":"sao-1.br.uncletopia.com","port":27015,"enabled":true,"region":"sa","cc":"br","latitude":-23.533773,"longitude":-46.62529,"reserved":0,"last_update":"0001-01-01T00:00:00Z","name_a2s":"Uncletopia | São Paulo | 1 | All Maps","protocol":17,"map":"koth_lakeside_final","folder":"tf","game":"Team Fortress","app_id":440,"player_count":0,"max_players":24,"Bots":0,"server_type":"Dedicated","server_os":"Linux","password":true,"vac":true,"version":"7757534","steam_id":85568392924469996,"keywords":["cp","nocrits","nodmgspread","uncletopia"],"game_id":440,"stv_port":27016,"stv_name":"Uncletopia | São Paulo | 1 | All Maps | STV","players":null},{"server_id":143,"name":"Uncletopia | São Paulo | 2 | All Maps","name_short":"sao-2","host":"sao-2.br.uncletopia.com","port":27015,"enabled":true,"region":"sa","cc":"br","latitude":-23.533773,"longitude":-46.62529,"reserved":0,"last_update":"0001-01-01T00:00:00Z","name_a2s":"Uncletopia | São Paulo | 2 | All Maps","protocol":17,"map":"pl_borneo","folder":"tf","game":"Team Fortress","app_id":440,"player_count":0,"max_players":24,"Bots":0,"server_type":"Dedicated","server_os":"Linux","password":true,"vac":true,"version":"7757534","steam_id":85568392924485349,"keywords":["nocrits","nodmgspread","payload","uncletopia"],"game_id":440,"stv_port":27016,"stv_name":"Uncletopia | São Paulo | 2 | All Maps | STV","players":null},{"server_id":7,"name":"Uncletopia | Seattle | 1 | All Maps","name_short":"sea-1","host":"sea-1.us.uncletopia.com","port":27015,"enabled":true,"region":"us-west","cc":"us","latitude":47.608013,"longitude":-122.33517,"reserved":0,"last_update":"0001-01-01T00:00:00Z","name_a2s":"Uncletopia | Seattle | 1 | All Maps","protocol":17,"map":"pl_badwater","folder":"tf","game":"Team Fortress","app_id":440,"player_count":19,"max_players":24,"Bots":0,"server_type":"Dedicated","server_os":"Linux","password":true,"vac":true,"version":"7757534","steam_id":85568392924469997,"keywords":["nocrits","nodmgspread","payload","uncletopia"],"game_id":440,"stv_port":27016,"stv_name":"Uncletopia | Seattle | 1 | All Maps | STV","players":[{"user_id":80,"name":"Poppet","steam_id":76561198012301951,"connected_time":1272000000000,"state":"active","ping":114},{"user_id":95,"name":"Eris","steam_id":76561198170138453,"connected_time":333000000000,"state":"active","ping":127},{"user_id":81,"name":"Crash Boar","steam_id":76561198024088429,"connected_time":1244000000000,"state":"active","ping":94},{"user_id":82,"name":"Whomsticot","steam_id":76561198406721885,"connected_time":1144000000000,"state":"active","ping":82},{"user_id":77,"name":"Luigi","steam_id":76561198214638352,"connected_time":1405000000000,"state":"active","ping":75},{"user_id":78,"name":"Gat","steam_id":76561198049325202,"connected_time":1366000000000,"state":"active","ping":116},{"user_id":83,"name":"TheGreatDong","steam_id":76561198000634178,"connected_time":1142000000000,"state":"active","ping":63},{"user_id":96,"name":"the Sho","steam_id":76561199383245112,"connected_time":133000000000,"state":"active","ping":113},{"user_id":97,"name":"Eosson","steam_id":76561198108642113,"connected_time":127000000000,"state":"active","ping":59},{"user_id":98,"name":"Leopold \"Butters\" Stotch","steam_id":76561198974342727,"connected_time":111000000000,"state":"active","ping":132},{"user_id":100,"name":"89","steam_id":76561198106308056,"connected_time":40000000000,"state":"active","ping":161},{"user_id":86,"name":"fear","steam_id":76561198063170079,"connected_time":999000000000,"state":"active","ping":107},{"user_id":92,"name":"Hotdog Goblin","steam_id":76561198004133638,"connected_time":624000000000,"state":"active","ping":77},{"user_id":101,"name":"Winter Phresh","steam_id":76561198056987501,"connected_time":33000000000,"state":"spawning","ping":122},{"user_id":94,"name":"What are you doing?!","steam_id":76561198405248691,"connected_time":559000000000,"state":"active","ping":81},{"user_id":93,"name":"Mr. Mane T.S.H.A.","steam_id":76561198056728986,"connected_time":615000000000,"state":"active","ping":102},{"user_id":89,"name":"Dietrich","steam_id":76561198028163840,"connected_time":910000000000,"state":"active","ping":90},{"user_id":79,"name":"Outlaw Meat ENSLAVERYMASSTORTUR","steam_id":76561198074031788,"connected_time":1355000000000,"state":"active","ping":66},{"user_id":91,"name":"Eliteiment","steam_id":76561198215476517,"connected_time":872000000000,"state":"active","ping":132}]},{"server_id":119,"name":"Uncletopia | Seattle | 2 | All Maps","name_short":"sea-2","host":"sea-1.us.uncletopia.com","port":27025,"enabled":true,"region":"us-west","cc":"us","latitude":47.608013,"longitude":-122.33517,"reserved":0,"last_update":"0001-01-01T00:00:00Z","name_a2s":"Uncletopia | Seattle | 2 | All Maps","protocol":17,"map":"pl_badwater","folder":"tf","game":"Team Fortress","app_id":440,"player_count":0,"max_players":24,"Bots":0,"server_type":"Dedicated","server_os":"Linux","password":true,"vac":true,"version":"7757534","steam_id":85568392924469998,"keywords":["nocrits","nodmgspread","payload","uncletopia"],"game_id":440,"stv_port":27026,"stv_name":"Uncletopia | Seattle | 2 | All Maps | STV","players":null},{"server_id":406,"name":"Uncletopia | Seattle | 3 | Stopwatch Beta","name_short":"sea-3","host":"sea-1.us.uncletopia.com","port":27035,"enabled":true,"region":"us-west","cc":"us","latitude":47.608013,"longitude":-122.33517,"reserved":0,"last_update":"0001-01-01T00:00:00Z","name_a2s":"Uncletopia | Seattle | 3 | Stopwatch Beta","protocol":17,"map":"cp_dustbowl","folder":"tf","game":"Team Fortress","app_id":440,"player_count":0,"max_players":24,"Bots":0,"server_type":"Dedicated","server_os":"Linux","password":true,"vac":true,"version":"7757534","steam_id":85568392924515217,"keywords":["cp","nocrits","nodmgspread","uncletopia"],"game_id":440,"stv_port":27036,"stv_name":"Uncletopia | Seattle | 3 | Stopwatch Beta | STV","players":null},{"server_id":17,"name":"Uncletopia | San Francisco | 1 | All Maps","name_short":"sfo-1","host":"sfo-1.us.uncletopia.com","port":27015,"enabled":true,"region":"us-west","cc":"us","latitude":37.77397,"longitude":-122.4313,"reserved":0,"last_update":"0001-01-01T00:00:00Z","name_a2s":"Uncletopia | San Francisco | 1 | All Maps","protocol":17,"map":"cp_process_final","folder":"tf","game":"Team Fortress","app_id":440,"player_count":0,"max_players":24,"Bots":0,"server_type":"Dedicated","server_os":"Linux","password":true,"vac":true,"version":"7757534","steam_id":85568392924469999,"keywords":["cp","nocrits","nodmgspread","uncletopia"],"game_id":440,"stv_port":27016,"stv_name":"Uncletopia | San Francisco | 1 | All Maps | STV","players":null},{"server_id":18,"name":"Uncletopia | San Francisco | 2 | All Maps","name_short":"sfo-2","host":"sfo-1.us.uncletopia.com","port":27025,"enabled":true,"region":"us-west","cc":"us","latitude":37.77397,"longitude":-122.4313,"reserved":0,"last_update":"0001-01-01T00:00:00Z","name_a2s":"Uncletopia | San Francisco | 2 | All Maps","protocol":17,"map":"koth_highpass","folder":"tf","game":"Team Fortress","app_id":440,"player_count":0,"max_players":24,"Bots":0,"server_type":"Dedicated","server_os":"Linux","password":true,"vac":true,"version":"7757534","steam_id":85568392924470000,"keywords":["cp","nocrits","nodmgspread","uncletopia"],"game_id":440,"stv_port":27026,"stv_name":"Uncletopia | San Francisco | 2 | All Maps | STV","players":null},{"server_id":19,"name":"Uncletopia | San Francisco | 3 | Stopwatch Beta","name_short":"sfo-3","host":"sfo-1.us.uncletopia.com","port":27035,"enabled":true,"region":"us-west","cc":"us","latitude":37.77397,"longitude":-122.4313,"reserved":0,"last_update":"0001-01-01T00:00:00Z","name_a2s":"Uncletopia | San Francisco | 3 | Stopwatch Beta","protocol":17,"map":"koth_lakeside_final","folder":"tf","game":"Team Fortress","app_id":440,"player_count":0,"max_players":24,"Bots":0,"server_type":"Dedicated","server_os":"Linux","password":true,"vac":true,"version":"7757534","steam_id":85568392924742824,"keywords":["cp","nocrits","nodmgspread","uncletopia"],"game_id":440,"stv_port":27036,"stv_name":"Uncletopia | San Francisco | 3 | Stopwatch Beta | STV","players":null},{"server_id":20,"name":"Uncletopia | San Francisco | 4 | Community","name_short":"sfo-4","host":"sfo-1.us.uncletopia.com","port":27045,"enabled":true,"region":"us-west","cc":"us","latitude":37.77397,"longitude":-122.4313,"reserved":0,"last_update":"0001-01-01T00:00:00Z","name_a2s":"Uncletopia | San Francisco | 4 | Community","protocol":17,"map":"cp_altitude","folder":"tf","game":"Team Fortress","app_id":440,"player_count":0,"max_players":24,"Bots":0,"server_type":"Dedicated","server_os":"Linux","password":true,"vac":true,"version":"7757534","steam_id":85568392924742826,"keywords":["cp","nocrits","nodmgspread","uncletopia"],"game_id":440,"stv_port":27046,"stv_name":"Uncletopia | San Francisco | 4 | Community | STV","players":null},{"server_id":141,"name":"Uncletopia | Sydney | 1 | All Maps","name_short":"syd-1","host":"syd-1.au.uncletopia.com","port":27015,"enabled":true,"region":"au","cc":"au","latitude":-33.865143,"longitude":151.2099,"reserved":0,"last_update":"0001-01-01T00:00:00Z","name_a2s":"Uncletopia | Sydney | 1 | All Maps","protocol":17,"map":"koth_viaduct","folder":"tf","game":"Team Fortress","app_id":440,"player_count":0,"max_players":24,"Bots":0,"server_type":"Dedicated","server_os":"Linux","password":true,"vac":true,"version":"7757534","steam_id":85568392924470001,"keywords":["cp","nocrits","nodmgspread","uncletopia"],"game_id":440,"stv_port":27016,"stv_name":"Uncletopia | Sydney | 1 | All Maps | STV","players":null},{"server_id":123,"name":"Uncletopia | Sydney | 2 | All Maps","name_short":"syd-2","host":"syd-1.au.uncletopia.com","port":27025,"enabled":true,"region":"au","cc":"au","latitude":-33.865143,"longitude":151.2099,"reserved":0,"last_update":"0001-01-01T00:00:00Z","name_a2s":"Uncletopia | Sydney | 2 | All Maps","protocol":17,"map":"cp_snakewater_final1","folder":"tf","game":"Team Fortress","app_id":440,"player_count":0,"max_players":24,"Bots":0,"server_type":"Dedicated","server_os":"Linux","password":true,"vac":true,"version":"7757534","steam_id":85568392924470002,"keywords":["cp","nocrits","nodmgspread","uncletopia"],"game_id":440,"stv_port":27026,"stv_name":"Uncletopia | Sydney | 2 | All Maps | STV","players":null},{"server_id":395,"name":"Uncletopia | Sydney | 3 | All Maps","name_short":"syd-3","host":"syd-1.au.uncletopia.com","port":27035,"enabled":true,"region":"au","cc":"au","latitude":-33.865143,"longitude":151.2099,"reserved":0,"last_update":"0001-01-01T00:00:00Z","name_a2s":"Uncletopia | Sydney | 3 | All Maps","protocol":17,"map":"cp_process_final","folder":"tf","game":"Team Fortress","app_id":440,"player_count":0,"max_players":24,"Bots":0,"server_type":"Dedicated","server_os":"Linux","password":true,"vac":true,"version":"7757534","steam_id":85568392925194467,"keywords":["cp","nocrits","nodmgspread","uncletopia"],"game_id":440,"stv_port":27036,"stv_name":"Uncletopia | Sydney | 3 | All Maps | STV","players":null},{"server_id":396,"name":"Uncletopia | Sydney | 4 | All Maps","name_short":"syd-4","host":"syd-1.au.uncletopia.com","port":27045,"enabled":true,"region":"au","cc":"au","latitude":-33.865143,"longitude":151.2099,"reserved":0,"last_update":"0001-01-01T00:00:00Z","name_a2s":"Uncletopia | Sydney | 4 | All Maps","protocol":17,"map":"koth_highpass","folder":"tf","game":"Team Fortress","app_id":440,"player_count":0,"max_players":24,"Bots":0,"server_type":"Dedicated","server_os":"Linux","password":true,"vac":true,"version":"7757534","steam_id":85568392925397958,"keywords":["cp","nocrits","nodmgspread","uncletopia"],"game_id":440,"stv_port":27046,"stv_name":"Uncletopia | Sydney | 4 | All Maps | STV","players":null},{"server_id":58,"name":"Uncletopia | Sydney | 5 | Stopwatch Beta","name_short":"syd-5","host":"syd-1.au.uncletopia.com","port":27055,"enabled":true,"region":"au","cc":"au","latitude":-33.865143,"longitude":151.2099,"reserved":0,"last_update":"0001-01-01T00:00:00Z","name_a2s":"Uncletopia | Sydney | 5 | Stopwatch Beta","protocol":17,"map":"workshop/koth_product_final.ugc454272353","folder":"tf","game":"Team Fortress","app_id":440,"player_count":0,"max_players":24,"Bots":0,"server_type":"Dedicated","server_os":"Linux","password":true,"vac":true,"version":"7757534","steam_id":85568392925397959,"keywords":["cp","nocrits","nodmgspread","uncletopia"],"game_id":440,"stv_port":27056,"stv_name":"Uncletopia | Sydney | 5 | Stopwatch Beta | STV","players":null},{"server_id":59,"name":"Uncletopia | Sydney | 6 | Community","name_short":"syd-6","host":"syd-1.au.uncletopia.com","port":27065,"enabled":true,"region":"au","cc":"au","latitude":-33.865143,"longitude":151.2099,"reserved":0,"last_update":"0001-01-01T00:00:00Z","name_a2s":"Uncletopia | Sydney | 6 | Community","protocol":17,"map":"workshop/pl_corrode_rc2.ugc546577989","folder":"tf","game":"Team Fortress","app_id":440,"player_count":0,"max_players":24,"Bots":0,"server_type":"Dedicated","server_os":"Linux","password":true,"vac":true,"version":"7757534","steam_id":85568392925397960,"keywords":["nocrits","nodmgspread","payload","uncletopia"],"game_id":440,"stv_port":27066,"stv_name":"Uncletopia | Sydney | 6 | Community | STV","players":null},{"server_id":49,"name":"Uncletopia | Warsaw | 1 | All Maps","name_short":"waw-1","host":"waw-1.pl.uncletopia.com","port":27015,"enabled":true,"region":"eu","cc":"pl","latitude":52.2297,"longitude":21.017532,"reserved":0,"last_update":"0001-01-01T00:00:00Z","name_a2s":"","protocol":0,"map":"","folder":"","game":"","app_id":0,"player_count":0,"max_players":0,"Bots":0,"server_type":"","server_os":"","password":false,"vac":false,"version":"","steam_id":0,"keywords":null,"game_id":0,"stv_port":0,"stv_name":"","players":null},{"server_id":50,"name":"Uncletopia | Warsaw | 2 | All Maps","name_short":"waw-2","host":"waw-1.pl.uncletopia.com","port":27025,"enabled":true,"region":"eu","cc":"pl","latitude":52.2297,"longitude":21.017532,"reserved":0,"last_update":"0001-01-01T00:00:00Z","name_a2s":"Uncletopia | Warsaw | 2 | All Maps","protocol":17,"map":"koth_viaduct","folder":"tf","game":"Team Fortress","app_id":440,"player_count":0,"max_players":24,"Bots":0,"server_type":"Dedicated","server_os":"Linux","password":true,"vac":true,"version":"7757534","steam_id":85568392925397851,"keywords":["cp","nocrits","nodmgspread","uncletopia"],"game_id":440,"stv_port":27026,"stv_name":"Uncletopia | Warsaw | 2 | All Maps | STV","players":null},{"server_id":51,"name":"Uncletopia | Warsaw | 3 | All Maps","name_short":"waw-3","host":"waw-1.pl.uncletopia.com","port":27035,"enabled":true,"region":"eu","cc":"pl","latitude":52.2297,"longitude":21.017532,"reserved":0,"last_update":"0001-01-01T00:00:00Z","name_a2s":"Uncletopia | Warsaw | 3 | All Maps","protocol":17,"map":"koth_lakeside_final","folder":"tf","game":"Team Fortress","app_id":440,"player_count":0,"max_players":24,"Bots":0,"server_type":"Dedicated","server_os":"Linux","password":true,"vac":true,"version":"7757534","steam_id":85568392925397852,"keywords":["cp","nocrits","nodmgspread","uncletopia"],"game_id":440,"stv_port":27036,"stv_name":"Uncletopia | Warsaw | 3 | All Maps | STV","players":null},{"server_id":52,"name":"Uncletopia | Warsaw | 4 | All Maps","name_short":"waw-4","host":"waw-1.pl.uncletopia.com","port":27045,"enabled":true,"region":"eu","cc":"pl","latitude":52.2297,"longitude":21.017532,"reserved":0,"last_update":"0001-01-01T00:00:00Z","name_a2s":"Uncletopia | Warsaw | 4 | All Maps","protocol":17,"map":"koth_lakeside_final","folder":"tf","game":"Team Fortress","app_id":440,"player_count":0,"max_players":24,"Bots":0,"server_type":"Dedicated","server_os":"Linux","password":true,"vac":true,"version":"7757534","steam_id":85568392925397853,"keywords":["cp","nocrits","nodmgspread","uncletopia"],"game_id":440,"stv_port":27046,"stv_name":"Uncletopia | Warsaw | 4 | All Maps | STV","players":null},{"server_id":53,"name":"Uncletopia | Warsaw | 5 | Stopwatch Beta","name_short":"waw-5","host":"waw-1.pl.uncletopia.com","port":27055,"enabled":true,"region":"eu","cc":"pl","latitude":52.2297,"longitude":21.017532,"reserved":0,"last_update":"0001-01-01T00:00:00Z","name_a2s":"Uncletopia | Warsaw | 5 | Stopwatch Beta","protocol":17,"map":"pl_borneo","folder":"tf","game":"Team Fortress","app_id":440,"player_count":0,"max_players":24,"Bots":0,"server_type":"Dedicated","server_os":"Linux","password":true,"vac":true,"version":"7757534","steam_id":85568392925397854,"keywords":["nocrits","nodmgspread","payload","uncletopia"],"game_id":440,"stv_port":27056,"stv_name":"Uncletopia | Warsaw | 5 | Stopwatch Beta | STV","players":null},{"server_id":54,"name":"Uncletopia | Warsaw | 6 | Community","name_short":"waw-6","host":"waw-1.pl.uncletopia.com","port":27065,"enabled":true,"region":"eu","cc":"pl","latitude":52.2297,"longitude":21.017532,"reserved":0,"last_update":"0001-01-01T00:00:00Z","name_a2s":"Uncletopia | Warsaw | 6 | Community","protocol":17,"map":"koth_lakeside_final","folder":"tf","game":"Team Fortress","app_id":440,"player_count":0,"max_players":24,"Bots":0,"server_type":"Dedicated","server_os":"Linux","password":true,"vac":true,"version":"7757534","steam_id":85568392925397856,"keywords":["cp","nocrits","nodmgspread","uncletopia"],"game_id":440,"stv_port":27066,"stv_name":"Uncletopia | Warsaw | 6 | Community | STV","players":null}]}