{"status":true,"message":"","result":[{"server_id":9,"name":"Uncletopia | Atlanta | 1 | All Maps","name_short":"atl-1","host":"atl-1.us.uncletopia.com","port":27015,"enabled":true,"region":"us-east","cc":"us","latitude":33.753746,"longitude":-84.38633,"reserved":0,"last_update":"0001-01-01T00:00:00Z","name_a2s":"Uncletopia | Atlanta | 1 | All Maps","protocol":17,"map":"cp_mountainlab","folder":"tf","game":"Team Fortress","app_id":440,"player_count":24,"max_players":24,"Bots":0,"server_type":"Dedicated","server_os":"Linux","password":true,"vac":true,"version":"7882260","steam_id":85568392924469982,"keywords":["cp","nocrits","nodmgspread","uncletopia"],"game_id":440,"stv_port":27016,"stv_name":"Uncletopia | Atlanta | 1 | All Maps | STV","players":[{"user_id":42,"name":"That70sDog","steam_id":76561198119396142,"connected_time":7355000000000,"state":"active","ping":73},{"user_id":70,"name":"B.","steam_id":76561198040445907,"connected_time":4787000000000,"state":"active","ping":59},{"user_id":7,"name":"VIEGO J3L2404","steam_id":76561198273568117,"connected_time":8927000000000,"state":"active","ping":54},{"user_id":75,"name":"kbsfnk","steam_id":76561198036884600,"connected_time":4418000000000,"state":"active","ping":66},{"user_id":91,"name":"YourFriendJessie #savetf2","steam_id":76561198176883097,"connected_time":2113000000000,"state":"active","ping":89},{"user_id":103,"name":"Surinferior","steam_id":76561198008953177,"connected_time":1171000000000,"state":"active","ping":55},{"user_id":96,"name":"AdmiralCrunch","steam_id":76561198117444710,"connected_time":1866000000000,"state":"active","ping":45},{"user_id":95,"name":"Sods","steam_id":76561198010204565,"connected_time":1925000000000,"state":"active","ping":57},{"user_id":108,"name":"kingjeffry2012@hotmail.com","steam_id":76561198314104415,"connected_time":338000000000,"state":"active","ping":54},{"user_id":107,"name":"skittle ducks jr.","steam_id":76561198309823950,"connected_time":341000000000,"state":"active","ping":104},{"user_id":88,"name":"Oddball","steam_id":76561198040440984,"connected_time":2636000000000,"state":"active","ping":85},{"user_id":105,"name":"TheLonliestThelonius","steam_id":76561198097657243,"connected_time":555000000000,"state":"active","ping":96},{"user_id":72,"name":"Argo","steam_id":76561198353725622,"connected_time":4783000000000,"state":"active","ping":88},{"user_id":102,"name":"goblino","steam_id":76561198068260422,"connected_time":1189000000000,"state":"active","ping":74},{"user_id":93,"name":"Lotus Cookie","steam_id":76561199482553414,"connected_time":2084000000000,"state":"active","ping":137},{"user_id":89,"name":"Setsuko","steam_id":76561198830953881,"connected_time":2509000000000,"state":"active","ping":177},{"user_id":97,"name":"metalfan666","steam_id":76561198386344068,"connected_time":1562000000000,"state":"active","ping":67},{"user_id":94,"name":"tiananmensquare1989","steam_id":76561199076837870,"connected_time":2082000000000,"state":"active","ping":71},{"user_id":106,"name":"ATLS 1 | Krissy","steam_id":76561197960848174,"connected_time":413000000000,"state":"active","ping":64},{"user_id":110,"name":"|AG| Level","steam_id":76561198063633592,"connected_time":289000000000,"state":"active","ping":101},{"user_id":50,"name":"Switch","steam_id":76561197982035284,"connected_time":6824000000000,"state":"active","ping":69},{"user_id":64,"name":"JoJoJo","steam_id":76561198067153390,"connected_time":5306000000000,"state":"active","ping":77},{"user_id":51,"name":"Cookie Dough","steam_id":76561198882007496,"connected_time":6823000000000,"state":"active","ping":81},{"user_id":57,"name":"rice white","steam_id":76561198320732910,"connected_time":5922000000000,"state":"active","ping":75}]},{"server_id":104,"name":"Uncletopia | Atlanta | 2 | All Maps","name_short":"atl-2","host":"atl-1.us.uncletopia.com","port":27025,"enabled":true,"region":"us-east","cc":"us","latitude":33.753746,"longitude":-84.38633,"reserved":0,"last_update":"0001-01-01T00:00:00Z","name_a2s":"Uncletopia | Atlanta | 2 | All Maps","protocol":17,"map":"koth_cascade","folder":"tf","game":"Team Fortress","app_id":440,"player_count":5,"max_players":24,"Bots":0,"server_type":"Dedicated","server_os":"Linux","password":true,"vac":true,"version":"7882260","steam_id":85568392924469983,"keywords":["cp","nocrits","nodmgspread","uncletopia"],"game_id":440,"stv_port":27026,"stv_name":"Uncletopia | Atlanta | 2 | All Maps | STV","players":[{"user_id":9,"name":"Restricted_Files","steam_id":76561199448121007,"connected_time":411000000000,"state":"active","ping":102},{"user_id":11,"name":"D-MROMA","steam_id":76561198837664861,"connected_time":320000000000,"state":"active","ping":72},{"user_id":12,"name":"FreonAddict9x19","steam_id":76561198060010824,"connected_time":272000000000,"state":"active","ping":55},{"user_id":13,"name":"LeFunnyMan","steam_id":76561199081645289,"connected_time":168000000000,"state":"active","ping":69},{"user_id":14,"name":"brg","steam_id":76561197998415548,"connected_time":116000000000,"state":"active","ping":60}]},{"server_id":400,"name":"Uncletopia | Atlanta | 3 | Community","name_short":"atl-3","host":"atl-1.us.uncletopia.com","port":27035,"enabled":true,"region":"us-east","cc":"us","latitude":33.753746,"longitude":-84.38633,"reserved":0,"last_update":"0001-01-01T00:00:00Z","name_a2s":"Uncletopia | Atlanta | 3 | Community","protocol":17,"map":"workshop/cp_alloy_rc3.ugc592805587","folder":"tf","game":"Team Fortress","app_id":440,"player_count":0,"max_players":24,"Bots":0,"server_type":"Dedicated","server_os":"Linux","password":true,"vac":true,"version":"7882260","steam_id":85568392924515187,"keywords":["cp","nocrits","nodmgspread","uncletopia"],"game_id":440,"stv_port":27036,"stv_name":"Uncletopia | Atlanta | 3 | Community | STV","players":null},{"server_id":401,"name":"Uncletopia | Atlanta | 4 | No Payload","name_short":"atl-4","host":"atl-1.us.uncletopia.com","port":27045,"enabled":true,"region":"us-east","cc":"us","latitude":33.753746,"longitude":-84.38633,"reserved":0,"last_update":"0001-01-01T00:00:00Z","name_a2s":"","protocol":0,"map":"","folder":"","game":"","app_id":0,"player_count":0,"max_players":0,"Bots":0,"server_type":"","server_os":"","password":false,"vac":false,"version":"","steam_id":0,"keywords":null,"game_id":0,"stv_port":0,"stv_name":"","players":null},{"server_id":2,"name":"Uncletopia | Chicago | 1 | All Maps","name_short":"chi-1","host":"chi-1.us.uncletopia.com","port":27015,"enabled":true,"region":"us-central","cc":"us","latitude":41.881832,"longitude":-87.62318,"reserved":0,"last_update":"0001-01-01T00:00:00Z","name_a2s":"Uncletopia | Chicago | 1 | All Maps","protocol":17,"map":"pl_badwater","folder":"tf","game":"Team Fortress","app_id":440,"player_count":0,"max_players":24,"Bots":0,"server_type":"Dedicated","server_os":"Linux","password":true,"vac":true,"version":"7882260","steam_id":85568392924469984,"keywords":["nocrits","nodmgspread","payload","uncletopia"],"game_id":440,"stv_port":27016,"stv_name":"Uncletopia | Chicago | 1 | All Maps | STV","players":null},{"server_id":106,"name":"Uncletopia | Chicago | 2 | All Maps","name_short":"chi-2","host":"chi-1.us.uncletopia.com","port":27025,"enabled":true,"region":"us-central","cc":"us","latitude":41.881832,"longitude":-87.62318,"reserved":0,"last_update":"0001-01-01T00:00:00Z","name_a2s":"Uncletopia | Chicago | 2 | All Maps","protocol":17,"map":"pl_badwater","folder":"tf","game":"Team Fortress","app_id":440,"player_count":24,"max_players":24,"Bots":0,"server_type":"Dedicated","server_os":"Linux","password":true,"vac":true,"version":"7882260","steam_id":85568392924469985,"keywords":["nocrits","nodmgspread","payload","uncletopia"],"game_id":440,"stv_port":27026,"stv_name":"Uncletopia | Chicago | 2 | All Maps | STV","players":[{"user_id":13,"name":"Stiff Woody","steam_id":76561198047845399,"connected_time":4845000000000,"state":"active","ping":71},{"user_id":14,"name":"WatchWill","steam_id":76561198157237945,"connected_time":4796000000000,"state":"active","ping":72},{"user_id":64,"name":"Discourse","steam_id":76561198984286678,"connected_time":1856000000000,"state":"active","ping":51},{"user_id":70,"name":"Asthmatic boi","steam_id":76561198197796766,"connected_time":1343000000000,"state":"active","ping":53},{"user_id":65,"name":"Johnny Ballsack","steam_id":76561198072876620,"connected_time":1804000000000,"state":"active","ping":64},{"user_id":58,"name":"yo homie! *cool vinyl scratch*","steam_id":76561198929646112,"connected_time":2088000000000,"state":"active","ping":61},{"user_id":82,"name":"JustTryMeNow","steam_id":76561198262681545,"connected_time":596000000000,"state":"active","ping":57},{"user_id":71,"name":"Westwood","steam_id":76561199387699252,"connected_time":1275000000000,"state":"active","ping":86},{"user_id":46,"name":"The Fiend","steam_id":76561199229771413,"connected_time":2709000000000,"state":"active","ping":95},{"user_id":41,"name":"Ja","steam_id":76561198396340174,"connected_time":3276000000000,"state":"active","ping":73},{"user_id":47,"name":"Carrion Crawler","steam_id":76561198069814977,"connected_time":2704000000000,"state":"active","ping":68},{"user_id":56,"name":"SkarloeyFell","steam_id":76561199183127174,"connected_time":2129000000000,"state":"active","ping":69},{"user_id":75,"name":"LunarrD","steam_id":76561198811220107,"connected_time":981000000000,"state":"active","ping":85},{"user_id":68,"name":"Elevator","steam_id":76561198974286387,"connected_time":1479000000000,"state":"active","ping":69},{"user_id":72,"name":"Cooksandcleans™","steam_id":76561198049696128,"connected_time":1244000000000,"state":"active","ping":71},{"user_id":84,"name":"evnobev","steam_id":76561198038966462,"connected_time":573000000000,"state":"active","ping":50},{"user_id":34,"name":"Mr. Call You Back","steam_id":76561198025172811,"connected_time":3408000000000,"state":"active","ping":55},{"user_id":79,"name":"TheCatisFat","steam_id":76561199252132925,"connected_time":683000000000,"state":"active","ping":69},{"user_id":36,"name":"Adam (Cursed Confetti Creature)","steam_id":76561198317690197,"connected_time":3355000000000,"state":"active","ping":45},{"user_id":76,"name":"Aqua UwU","steam_id":76561198108784167,"connected_time":913000000000,"state":"active","ping":45},{"user_id":73,"name":"puffy","steam_id":76561198411347037,"connected_time":1208000000000,"state":"active","ping":61},{"user_id":80,"name":"Barlon","steam_id":76561198023717515,"connected_time":677000000000,"state":"active","ping":75},{"user_id":83,"name":"Esteban Delsin","steam_id":76561198433519639,"connected_time":595000000000,"state":"active","ping":115},{"user_id":44,"name":"AYAYA!!!","steam_id":76561198992102180,"connected_time":2825000000000,"state":"active","ping":49}]},{"server_id":402,"name":"Uncletopia | Chicago | 3 | All Maps","name_short":"chi-3","host":"chi-1.us.uncletopia.com","port":27035,"enabled":true,"region":"us-central","cc":"us","latitude":41.881832,"longitude":-87.62318,"reserved":0,"last_update":"0001-01-01T00:00:00Z","name_a2s":"Uncletopia | Chicago | 3 | All Maps","protocol":17,"map":"pl_snowycoast","folder":"tf","game":"Team Fortress","app_id":440,"player_count":0,"max_players":24,"Bots":0,"server_type":"Dedicated","server_os":"Linux","password":true,"vac":true,"version":"7882260","steam_id":85568392924515191,"keywords":["nocrits","nodmgspread","payload","uncletopia"],"game_id":440,"stv_port":27036,"stv_name":"Uncletopia | Chicago | 3 | All Maps | STV","players":null},{"server_id":403,"name":"Uncletopia | Chicago | 4 | All Maps","name_short":"chi-4","host":"chi-1.us.uncletopia.com","port":27045,"enabled":true,"region":"us-central","cc":"us","latitude":41.881832,"longitude":-87.62318,"reserved":0,"last_update":"0001-01-01T00:00:00Z","name_a2s":"Uncletopia | Chicago | 4 | All Maps","protocol":17,"map":"koth_cascade","folder":"tf","game":"Team Fortress","app_id":440,"player_count":0,"max_players":24,"Bots":0,"server_type":"Dedicated","server_os":"Linux","password":true,"vac":true,"version":"7882260","steam_id":85568392924515193,"keywords":["cp","nocrits","nodmgspread","uncletopia"],"game_id":440,"stv_port":27046,"stv_name":"Uncletopia | Chicago | 4 | All Maps | STV","players":null},{"server_id":36,"name":"Uncletopia | Chicago | 5 | All Maps","name_short":"chi-5","host":"chi-2.us.uncletopia.com","port":27015,"enabled":true,"region":"us-central","cc":"us","latitude":41.881832,"longitude":-87.62318,"reserved":0,"last_update":"0001-01-01T00:00:00Z","name_a2s":"Uncletopia | Chicago | 5 | All Maps","protocol":17,"map":"koth_lakeside_final","folder":"tf","game":"Team Fortress","app_id":440,"player_count":0,"max_players":24,"Bots":0,"server_type":"Dedicated","server_os":"Linux","password":true,"vac":true,"version":"7882260","steam_id":85568392924866362,"keywords":["cp","nocrits","nodmgspread","uncletopia"],"game_id":440,"stv_port":27016,"stv_name":"Uncletopia | Chicago | 5 | All Maps | STV","players":null},{"server_id":37,"name":"Uncletopia | Chicago | 6 | All Maps","name_short":"chi-6","host":"chi-2.us.uncletopia.com","port":27025,"enabled":true,"region":"us-central","cc":"us","latitude":41.881832,"longitude":-87.62318,"reserved":0,"last_update":"0001-01-01T00:00:00Z","name_a2s":"Uncletopia | Chicago | 6 | All Maps","protocol":17,"map":"koth_cascade","folder":"tf","game":"Team Fortress","app_id":440,"player_count":0,"max_players":24,"Bots":0,"server_type":"Dedicated","server_os":"Linux","password":true,"vac":true,"version":"7882260","steam_id":85568392924866363,"keywords":["cp","nocrits","nodmgspread","uncletopia"],"game_id":440,"stv_port":27026,"stv_name":"Uncletopia | Chicago | 6 | All Maps | STV","players":null},{"server_id":38,"name":"Uncletopia | Chicago | 7 | Stopwatch Beta","name_short":"chi-7","host":"chi-2.us.uncletopia.com","port":27035,"enabled":true,"region":"us-central","cc":"us","latitude":41.881832,"longitude":-87.62318,"reserved":0,"last_update":"0001-01-01T00:00:00Z","name_a2s":"Uncletopia | Chicago | 7 | Stopwatch Beta","protocol":17,"map":"cp_gullywash_final1","folder":"tf","game":"Team Fortress","app_id":440,"player_count":6,"max_players":24,"Bots":0,"server_type":"Dedicated","server_os":"Linux","password":true,"vac":true,"version":"7882260","steam_id":85568392924866364,"keywords":["cp","nocrits","nodmgspread","uncletopia"],"game_id":440,"stv_port":27036,"stv_name":"Uncletopia | Chicago | 7 | Stopwatch Beta | STV","players":[{"user_id":3,"name":"Klocek","steam_id":76561199007664847,"connected_time":1865000000000,"state":"active","ping":198},{"user_id":14,"name":"t(._. t)","steam_id":76561198241034752,"connected_time":380000000000,"state":"active","ping":130},{"user_id":8,"name":"Mr.Government","steam_id":76561199076891158,"connected_time":764000000000,"state":"active","ping":52},{"user_id":9,"name":"crabapples","steam_id":76561198075818655,"connected_time":595000000000,"state":"active","ping":60},{"user_id":16,"name":"Unwavering Flavor","steam_id":76561198053306065,"connected_time":118000000000,"state":"active","ping":84},{"user_id":12,"name":"Barney Calhoun","steam_id":76561198318789580,"connected_time":428000000000,"state":"active","ping":133}]},{"server_id":39,"name":"Uncletopia | Chicago | 8 | Community","name_short":"chi-8","host":"chi-2.us.uncletopia.com","port":27045,"enabled":true,"region":"us-central","cc":"us","latitude":41.881832,"longitude":-87.62318,"reserved":0,"last_update":"0001-01-01T00:00:00Z","name_a2s":"Uncletopia | Chicago | 8 | Community","protocol":17,"map":"workshop/cp_kalinka_rc6a.ugc1272700588","folder":"tf","game":"Team Fortress","app_id":440,"player_count":0,"max_players":24,"Bots":0,"server_type":"Dedicated","server_os":"Linux","password":true,"vac":true,"version":"7882260","steam_id":85568392924866365,"keywords":["cp","nocrits","nodmgspread","uncletopia"],"game_id":440,"stv_port":27046,"stv_name":"Uncletopia | Chicago | 8 | Community | STV","players":null},{"server_id":8,"name":"Uncletopia | Dallas | 1 | All Maps","name_short":"dal-1","host":"dal-1.us.uncletopia.com","port":27015,"enabled":true,"region":"us-central","cc":"us","latitude":32.779167,"longitude":-96.80889,"reserved":0,"last_update":"0001-01-01T00:00:00Z","name_a2s":"Uncletopia | Dallas | 1 | All Maps","protocol":17,"map":"cp_mountainlab","folder":"tf","game":"Team Fortress","app_id":440,"player_count":24,"max_players":24,"Bots":0,"server_type":"Dedicated","server_os":"Linux","password":true,"vac":true,"version":"7882260","steam_id":85568392924469986,"keywords":["cp","nocrits","nodmgspread","uncletopia"],"game_id":440,"stv_port":27016,"stv_name":"Uncletopia | Dallas | 1 | All Maps | STV","players":[{"user_id":212,"name":"Pandabare","steam_id":76561198446411056,"connected_time":982000000000,"state":"active","ping":59},{"user_id":214,"name":"life drop-out","steam_id":76561198366299848,"connected_time":864000000000,"state":"active","ping":77},{"user_id":203,"name":"The Janitor","steam_id":76561198370152780,"connected_time":1434000000000,"state":"active","ping":85},{"user_id":204,"name":"Weeb","steam_id":76561198333568146,"connected_time":1389000000000,"state":"active","ping":92},{"user_id":211,"name":"Manic Lunatic","steam_id":76561199022053857,"connected_time":1066000000000,"state":"active","ping":73},{"user_id":220,"name":"cave johnson","steam_id":76561199389283507,"connected_time":758000000000,"state":"active","ping":104},{"user_id":163,"name":"carrot cake","steam_id":76561198055174915,"connected_time":4774000000000,"state":"active","ping":84},{"user_id":219,"name":"HellaCopter","steam_id":76561198062313698,"connected_time":764000000000,"state":"active","ping":94},{"user_id":189,"name":"Yunky","steam_id":76561197966495749,"connected_time":2422000000000,"state":"active","ping":65},{"user_id":213,"name":"howbizarre","steam_id":76561198955248082,"connected_time":879000000000,"state":"active","ping":72},{"user_id":218,"name":"Lemonade Juice","steam_id":76561198402892608,"connected_time":774000000000,"state":"active","ping":71},{"user_id":198,"name":"AltrA","steam_id":76561198117148323,"connected_time":1607000000000,"state":"active","ping":80},{"user_id":193,"name":"The Duck","steam_id":76561199362841212,"connected_time":1946000000000,"state":"active","ping":69},{"user_id":195,"name":"Gull","steam_id":76561198094113612,"connected_time":1644000000000,"state":"active","ping":59},{"user_id":209,"name":"♡a femboy♡","steam_id":76561199212971864,"connected_time":1164000000000,"state":"active","ping":92},{"user_id":199,"name":"ArabianKnight","steam_id":76561199067723103,"connected_time":1581000000000,"state":"active","ping":72},{"user_id":191,"name":"SmokeyGalaxy","steam_id":76561198118780516,"connected_time":2288000000000,"state":"active","ping":61},{"user_id":186,"name":"the smiling zombie","steam_id":76561199246231090,"connected_time":2581000000000,"state":"active","ping":80},{"user_id":223,"name":"Tyler\u0026Fingers","steam_id":76561198085154485,"connected_time":295000000000,"state":"active","ping":89},{"user_id":222,"name":"agert","steam_id":76561199028751406,"connected_time":434000000000,"state":"active","ping":140},{"user_id":132,"name":"blossom","steam_id":76561198042735130,"connected_time":8271000000000,"state":"active","ping":107},{"user_id":168,"name":"minty","steam_id":76561198062821894,"connected_time":4134000000000,"state":"active","ping":52},{"user_id":188,"name":"WYSI","steam_id":76561198312133205,"connected_time":2563000000000,"state":"active","ping":87},{"user_id":208,"name":"TuJefa7u7","steam_id":76561198169519042,"connected_time":1263000000000,"state":"active","ping":81}]},{"server_id":108,"name":"Uncletopia | Dallas | 2 | All Maps","name_short":"dal-2","host":"dal-1.us.uncletopia.com","port":27025,"enabled":true,"region":"us-central","cc":"us","latitude":32.779167,"longitude":-96.80889,"reserved":0,"last_update":"0001-01-01T00:00:00Z","name_a2s":"Uncletopia | Dallas | 2 | All Maps","protocol":17,"map":"pl_frontier_final","folder":"tf","game":"Team Fortress","app_id":440,"player_count":0,"max_players":24,"Bots":0,"server_type":"Dedicated","server_os":"Linux","password":true,"vac":true,"version":"7882260","steam_id":85568392924469988,"keywords":["nocrits","nodmgspread","payload","uncletopia"],"game_id":440,"stv_port":27026,"stv_name":"Uncletopia | Dallas | 2 | All Maps | STV","players":null},{"server_id":5,"name":"Uncletopia | Frankfurt | 1 | All Maps","name_short":"frk-1","host":"frk-1.de.uncletopia.com","port":27015,"enabled":true,"region":"eu","cc":"de","latitude":50.110924,"longitude":8.682127,"reserved":0,"last_update":"0001-01-01T00:00:00Z","name_a2s":"Uncletopia | Frankfurt | 1 | All Maps","protocol":17,"map":"pl_badwater","folder":"tf","game":"Team Fortress","app_id":440,"player_count":24,"max_players":24,"Bots":0,"server_type":"Dedicated","server_os":"Linux","password":true,"vac":true,"version":"7882260","steam_id":85568392924469989,"keywords":["nocrits","nodmgspread","payload","uncletopia"],"game_id":440,"stv_port":27016,"stv_name":"Uncletopia | Frankfurt | 1 | All Maps | STV","players":[{"user_id":270,"name":"fecal matter","steam_id":76561198044293799,"connected_time":3060000000000,"state":"active","ping":59},{"user_id":268,"name":"Not A Fake Uncletopia Server","steam_id":76561198152871288,"connected_time":3088000000000,"state":"active","ping":60},{"user_id":253,"name":"Dapper","steam_id":76561198081694974,"connected_time":3694000000000,"state":"active","ping":53},{"user_id":301,"name":"Mr_Joergen","steam_id":76561198364713702,"connected_time":819000000000,"state":"active","ping":68},{"user_id":292,"name":"P Diddy","steam_id":76561198829344838,"connected_time":1816000000000,"state":"active","ping":53},{"user_id":261,"name":"Amoru","steam_id":76561198798161817,"connected_time":3467000000000,"state":"active","ping":79},{"user_id":288,"name":"slifer the executive producer","steam_id":76561198322087870,"connected_time":1889000000000,"state":"active","ping":112},{"user_id":298,"name":"Cars","steam_id":76561198173329977,"connected_time":1627000000000,"state":"active","ping":62},{"user_id":293,"name":"KnugenIV","steam_id":76561198127091993,"connected_time":1811000000000,"state":"active","ping":52},{"user_id":285,"name":"Milk","steam_id":76561198125876588,"connected_time":2142000000000,"state":"active","ping":51},{"user_id":294,"name":"Extra-Crispy","steam_id":76561198871762093,"connected_time":1809000000000,"state":"active","ping":69},{"user_id":299,"name":"I jazzed myself","steam_id":76561198203016603,"connected_time":1280000000000,"state":"active","ping":77},{"user_id":297,"name":"pardner","steam_id":76561198451471161,"connected_time":1747000000000,"state":"active","ping":70},{"user_id":302,"name":"ToniGAM3S","steam_id":76561198128605351,"connected_time":754000000000,"state":"active","ping":56},{"user_id":271,"name":"Good Burger","steam_id":76561198037237664,"connected_time":3055000000000,"state":"active","ping":63},{"user_id":272,"name":"blurst of times","steam_id":76561197972325640,"connected_time":3024000000000,"state":"active","ping":45},{"user_id":295,"name":"SirSangoor","steam_id":76561198044462559,"connected_time":1787000000000,"state":"active","ping":121},{"user_id":267,"name":"Xiqui","steam_id":76561198818386611,"connected_time":3114000000000,"state":"active","ping":86},{"user_id":84,"name":"^_^","steam_id":76561198032359132,"connected_time":16945000000000,"state":"active","ping":57},{"user_id":273,"name":"i hate this game","steam_id":76561198066977580,"connected_time":2999000000000,"state":"active","ping":92},{"user_id":275,"name":"LVL100_PSYDUCK","steam_id":76561198081392950,"connected_time":2868000000000,"state":"active","ping":70},{"user_id":244,"name":"N0tzz","steam_id":76561198391025653,"connected_time":4644000000000,"state":"active","ping":85},{"user_id":300,"name":"Xeno Soldier","steam_id":76561198042163847,"connected_time":1038000000000,"state":"active","ping":62},{"user_id":304,"name":"wead soldier cz","steam_id":76561199248572372,"connected_time":709000000000,"state":"active","ping":59}]},{"server_id":110,"name":"Uncletopia | Frankfurt | 2 | All Maps","name_short":"frk-2","host":"frk-1.de.uncletopia.com","port":27025,"enabled":true,"region":"eu","cc":"de","latitude":50.110924,"longitude":8.682127,"reserved":0,"last_update":"0001-01-01T00:00:00Z","name_a2s":"Uncletopia | Frankfurt | 2 | All Maps","protocol":17,"map":"cp_process_final","folder":"tf","game":"Team Fortress","app_id":440,"player_count":24,"max_players":24,"Bots":0,"server_type":"Dedicated","server_os":"Linux","password":true,"vac":true,"version":"7882260","steam_id":85568392924469990,"keywords":["cp","nocrits","nodmgspread","uncletopia"],"game_id":440,"stv_port":27026,"stv_name":"Uncletopia | Frankfurt | 2 | All Maps | STV","players":[{"user_id":320,"name":"Sham!","steam_id":76561198050434275,"connected_time":1993000000000,"state":"active","ping":56},{"user_id":336,"name":"Frylock","steam_id":76561198050292560,"connected_time":433000000000,"state":"active","ping":48},{"user_id":311,"name":"lyon","steam_id":76561197998096172,"connected_time":2296000000000,"state":"active","ping":74},{"user_id":333,"name":"Yaz","steam_id":76561198110613175,"connected_time":476000000000,"state":"active","ping":100},{"user_id":330,"name":"robotdog246","steam_id":76561199385465127,"connected_time":595000000000,"state":"active","ping":79},{"user_id":340,"name":"Dr. Jumba","steam_id":76561198333005543,"connected_time":258000000000,"state":"active","ping":114},{"user_id":337,"name":"BungiDungi","steam_id":76561198292524709,"connected_time":432000000000,"state":"active","ping":69},{"user_id":338,"name":"dog","steam_id":76561198063919822,"connected_time":394000000000,"state":"active","ping":45},{"user_id":294,"name":"AmssoBador Spacelot","steam_id":76561197993444617,"connected_time":3218000000000,"state":"active","ping":71},{"user_id":335,"name":"NotChloe","steam_id":76561198080658092,"connected_time":463000000000,"state":"active","ping":86},{"user_id":328,"name":"eXer","steam_id":76561198838634181,"connected_time":1052000000000,"state":"active","ping":87},{"user_id":332,"name":"chess club manager","steam_id":76561198011047413,"connected_time":570000000000,"state":"active","ping":72},{"user_id":273,"name":"Girls who say bruh","steam_id":76561199380849468,"connected_time":4260000000000,"state":"active","ping":61},{"user_id":341,"name":"PIF","steam_id":76561197994712966,"connected_time":132000000000,"state":"active","ping":91},{"user_id":326,"name":"Marukuso","steam_id":76561198154229845,"connected_time":1808000000000,"state":"active","ping":75},{"user_id":329,"name":"Amandus","steam_id":76561198036281079,"connected_time":1040000000000,"state":"active","ping":60},{"user_id":253,"name":"Ixsus\u003c3","steam_id":76561198094756869,"connected_time":5190000000000,"state":"active","ping":59},{"user_id":299,"name":"ez inflation graph","steam_id":76561199020785925,"connected_time":3052000000000,"state":"active","ping":76},{"user_id":323,"name":"El_Kommadante","steam_id":76561198079551685,"connected_time":1983000000000,"state":"active","ping":79},{"user_id":280,"name":"Oaky Leaf","steam_id":76561198162821920,"connected_time":3915000000000,"state":"active","ping":100},{"user_id":307,"name":"Mr_Pulse_","steam_id":76561198095001602,"connected_time":2683000000000,"state":"active","ping":91},{"user_id":342,"name":"sam-","steam_id":76561198013770973,"connected_time":124000000000,"state":"active","ping":74},{"user_id":345,"name":"Hi :)","steam_id":76561198923192374,"connected_time":48000000000,"state":"active","ping":60},{"user_id":344,"name":"swueuws","steam_id":76561198020716743,"connected_time":78000000000,"state":"active","ping":60}]},{"server_id":308,"name":"Uncletopia | Frankfurt | 3 | All Maps","name_short":"frk-3","host":"frk-1.de.uncletopia.com","port":27035,"enabled":true,"region":"eu","cc":"de","latitude":50.110924,"longitude":8.682127,"reserved":0,"last_update":"0001-01-01T00:00:00Z","name_a2s":"Uncletopia | Frankfurt | 3 | All Maps","protocol":17,"map":"pl_borneo","folder":"tf","game":"Team Fortress","app_id":440,"player_count":22,"max_players":24,"Bots":0,"server_type":"Dedicated","server_os":"Linux","password":true,"vac":true,"version":"7882260","steam_id":85568392924504274,"keywords":["nocrits","nodmgspread","payload","uncletopia"],"game_id":440,"stv_port":27036,"stv_name":"Uncletopia | Frankfurt | 3 | All Maps | STV","players":[{"user_id":223,"name":"MGE BROTHER","steam_id":76561198796600155,"connected_time":695000000000,"state":"active","ping":91},{"user_id":194,"name":"Laylakikio","steam_id":76561198090146457,"connected_time":2314000000000,"state":"active","ping":45},{"user_id":216,"name":"PingouinPoilu","steam_id":76561198025089253,"connected_time":1292000000000,"state":"active","ping":68},{"user_id":226,"name":"shovel operator","steam_id":76561198022348223,"connected_time":487000000000,"state":"active","ping":82},{"user_id":218,"name":"Dragon","steam_id":76561198163255365,"connected_time":1076000000000,"state":"active","ping":100},{"user_id":227,"name":"swashbuckler_helicopter1997","steam_id":76561198343328308,"connected_time":336000000000,"state":"active","ping":47},{"user_id":174,"name":"Jonno","steam_id":76561198023443744,"connected_time":3106000000000,"state":"active","ping":58},{"user_id":137,"name":"Guru","steam_id":76561198093853069,"connected_time":4114000000000,"state":"active","ping":59},{"user_id":171,"name":"R0Z3","steam_id":76561199027065608,"connected_time":3139000000000,"state":"active","ping":61},{"user_id":228,"name":"Carpetspill","steam_id":76561198240023406,"connected_time":330000000000,"state":"active","ping":173},{"user_id":132,"name":"I HAVE SLAIN THE ICE MONKEY","steam_id":76561198798803845,"connected_time":4803000000000,"state":"active","ping":49},{"user_id":229,"name":"JGV","steam_id":76561198094654971,"connected_time":318000000000,"state":"active","ping":75},{"user_id":204,"name":"Prole","steam_id":76561198049837199,"connected_time":1793000000000,"state":"active","ping":209},{"user_id":232,"name":"B.batt","steam_id":76561198998684199,"connected_time":123000000000,"state":"active","ping":115},{"user_id":221,"name":"Makłowicz","steam_id":76561198281831506,"connected_time":877000000000,"state":"active","ping":74},{"user_id":217,"name":"lunaire","steam_id":76561198163344452,"connected_time":1156000000000,"state":"active","ping":133},{"user_id":214,"name":"Créme de la créme","steam_id":76561198204080504,"connected_time":1363000000000,"state":"active","ping":101},{"user_id":201,"name":"REN","steam_id":76561198000596385,"connected_time":2056000000000,"state":"active","ping":76},{"user_id":222,"name":"Sulatejuusto","steam_id":76561198063971856,"connected_time":841000000000,"state":"active","ping":86},{"user_id":215,"name":"Miedzan","steam_id":76561198405250516,"connected_time":1336000000000,"state":"active","ping":64},{"user_id":213,"name":"Der Geist des Hans Rosling","steam_id":76561198049231109,"connected_time":1576000000000,"state":"active","ping":62},{"user_id":231,"name":"Marky","steam_id":76561199474556920,"connected_time":292000000000,"state":"active","ping":116}]},{"server_id":309,"name":"Uncletopia | Frankfurt | 4 | All Maps","name_short":"frk-4","host":"frk-1.de.uncletopia.com","port":27045,"enabled":true,"region":"eu","cc":"de","latitude":50.110924,"longitude":8.682127,"reserved":0,"last_update":"0001-01-01T00:00:00Z","name_a2s":"Uncletopia | Frankfurt | 4 | All Maps","protocol":17,"map":"pl_upward","folder":"tf","game":"Team Fortress","app_id":440,"player_count":24,"max_players":24,"Bots":0,"server_type":"Dedicated","server_os":"Linux","password":true,"vac":true,"version":"7882260","steam_id":85568392924504275,"keywords":["nocrits","nodmgspread","payload","uncletopia"],"game_id":440,"stv_port":27046,"stv_name":"Uncletopia | Frankfurt | 4 | All Maps | STV","players":[{"user_id":425,"name":"☭ybercat","steam_id":76561198014070417,"connected_time":1044000000000,"state":"active","ping":59},{"user_id":412,"name":"Anri Okita's Massive Milkers","steam_id":76561199186352720,"connected_time":1756000000000,"state":"active","ping":68},{"user_id":454,"name":"Myxin","steam_id":76561198967519667,"connected_time":347000000000,"state":"active","ping":43},{"user_id":427,"name":"Mike","steam_id":76561198228455736,"connected_time":885000000000,"state":"active","ping":74},{"user_id":403,"name":"ImABush","steam_id":76561198304471896,"connected_time":1849000000000,"state":"active","ping":48},{"user_id":408,"name":"Lempii","steam_id":76561198433507634,"connected_time":1796000000000,"state":"active","ping":88},{"user_id":420,"name":"Biden Blast (Kaio-ken x100)","steam_id":76561199042470246,"connected_time":1340000000000,"state":"active","ping":58},{"user_id":352,"name":"senior pomidor","steam_id":76561198123659806,"connected_time":4532000000000,"state":"active","ping":95},{"user_id":450,"name":"(wm) Das Fleisch","steam_id":76561198001250715,"connected_time":450000000000,"state":"active","ping":48},{"user_id":457,"name":"lol","steam_id":76561198104438656,"connected_time":72000000000,"state":"active","ping":67},{"user_id":396,"name":"Пивоед","steam_id":76561198863805733,"connected_time":2287000000000,"state":"active","ping":156},{"user_id":417,"name":"Gabys","steam_id":76561198282892553,"connected_time":1629000000000,"state":"active","ping":72},{"user_id":436,"name":"hondjo","steam_id":76561198119324108,"connected_time":702000000000,"state":"active","ping":48},{"user_id":414,"name":"Dolcelatte","steam_id":76561198038501770,"connected_time":1721000000000,"state":"active","ping":50},{"user_id":407,"name":"heavy like a brinks truck","steam_id":76561198257158275,"connected_time":1822000000000,"state":"active","ping":140},{"user_id":458,"name":"Majami","steam_id":76561198054365738,"connected_time":7000000000,"state":"spawning","ping":102},{"user_id":426,"name":"Claw","steam_id":76561198060985181,"connected_time":931000000000,"state":"active","ping":70},{"user_id":410,"name":"mindas","steam_id":76561198056839438,"connected_time":1768000000000,"state":"active","ping":61},{"user_id":384,"name":"TheBeardedM1G","steam_id":76561198040208946,"connected_time":3476000000000,"state":"active","ping":54},{"user_id":433,"name":"After8","steam_id":76561198090750865,"connected_time":739000000000,"state":"active","ping":62},{"user_id":421,"name":"[P-roc] Cmm Bert","steam_id":76561198016658674,"connected_time":1332000000000,"state":"active","ping":73},{"user_id":416,"name":"stonebum","steam_id":76561198057004606,"connected_time":1691000000000,"state":"active","ping":61},{"user_id":455,"name":"NoMaD994","steam_id":76561198051908201,"connected_time":286000000000,"state":"active","ping":90},{"user_id":435,"name":"YuraGreek","steam_id":76561198050182252,"connected_time":726000000000,"state":"active","ping":82}]},{"server_id":310,"name":"Uncletopia | Frankfurt | 5 | All Maps","name_short":"frk-5","host":"frk-1.de.uncletopia.com","port":27055,"enabled":true,"region":"eu","cc":"de","latitude":50.110924,"longitude":8.682127,"reserved":0,"last_update":"0001-01-01T00:00:00Z","name_a2s":"Uncletopia | Frankfurt | 5 | All Maps","protocol":17,"map":"pl_swiftwater_final1","folder":"tf","game":"Team Fortress","app_id":440,"player_count":23,"max_players":24,"Bots":0,"server_type":"Dedicated","server_os":"Linux","password":true,"vac":true,"version":"7882260","steam_id":85568392924504277,"keywords":["nocrits","nodmgspread","payload","uncletopia"],"game_id":440,"stv_port":27056,"stv_name":"Uncletopia | Frankfurt | 5 | All Maps | STV","players":[{"user_id":241,"name":"de_petuscan_yarik","steam_id":76561198090790555,"connected_time":750000000000,"state":"active","ping":115},{"user_id":263,"name":"Ecin","steam_id":76561198816655769,"connected_time":298000000000,"state":"active","ping":52},{"user_id":247,"name":"Borloxos","steam_id":76561198123110073,"connected_time":553000000000,"state":"active","ping":60},{"user_id":265,"name":"sega e momenta za apartamenta","steam_id":76561199086153248,"connected_time":127000000000,"state":"active","ping":70},{"user_id":255,"name":"EZPK","steam_id":76561197987474355,"connected_time":431000000000,"state":"active","ping":64},{"user_id":245,"name":"kaze","steam_id":76561198997095048,"connected_time":691000000000,"state":"active","ping":63},{"user_id":237,"name":"daliggowski","steam_id":76561198061192791,"connected_time":954000000000,"state":"active","ping":60},{"user_id":266,"name":"Qdarks","steam_id":76561198013391340,"connected_time":96000000000,"state":"active","ping":132},{"user_id":246,"name":"Piwoman?!","steam_id":76561198292235505,"connected_time":644000000000,"state":"active","ping":85},{"user_id":251,"name":"Kinnetic","steam_id":76561198161313074,"connected_time":459000000000,"state":"active","ping":112},{"user_id":209,"name":"Koli","steam_id":76561197992428783,"connected_time":3780000000000,"state":"active","ping":46},{"user_id":235,"name":"James","steam_id":76561198138558005,"connected_time":1059000000000,"state":"active","ping":73},{"user_id":220,"name":"Seron-Lowell","steam_id":76561198070291347,"connected_time":2870000000000,"state":"active","ping":60},{"user_id":249,"name":"Upset Arentrir","steam_id":76561198334126785,"connected_time":528000000000,"state":"active","ping":75},{"user_id":230,"name":"LavishLad","steam_id":76561199117799002,"connected_time":2156000000000,"state":"active","ping":177},{"user_id":250,"name":"Foreskin Gamer","steam_id":76561198283106341,"connected_time":482000000000,"state":"active","ping":54},{"user_id":267,"name":"KHEY","steam_id":76561198035380064,"connected_time":92000000000,"state":"active","ping":46},{"user_id":268,"name":"Armo PRO90","steam_id":76561198138789964,"connected_time":80000000000,"state":"active","ping":63},{"user_id":170,"name":"Ardbeg","steam_id":76561197973483985,"connected_time":6383000000000,"state":"active","ping":62},{"user_id":260,"name":"koi kaza takeaway","steam_id":76561199015561853,"connected_time":388000000000,"state":"active","ping":60},{"user_id":238,"name":"Flint","steam_id":76561197995920776,"connected_time":890000000000,"state":"active","ping":44},{"user_id":233,"name":"LUNATIC sumire.gg (inactive)","steam_id":76561198072250111,"connected_time":1481000000000,"state":"active","ping":60},{"user_id":258,"name":"veins","steam_id":76561198997602764,"connected_time":396000000000,"state":"active","ping":70}]},{"server_id":311,"name":"Uncletopia | Frankfurt | 6 | All Maps","name_short":"frk-6","host":"frk-1.de.uncletopia.com","port":27065,"enabled":true,"region":"eu","cc":"de","latitude":50.110924,"longitude":8.682127,"reserved":0,"last_update":"0001-01-01T00:00:00Z","name_a2s":"Uncletopia | Frankfurt | 6 | All Maps","protocol":17,"map":"pl_pier","folder":"tf","game":"Team Fortress","app_id":440,"player_count":23,"max_players":24,"Bots":0,"server_type":"Dedicated","server_os":"Linux","password":true,"vac":true,"version":"7882260","steam_id":85568392924504278,"keywords":["nocrits","nodmgspread","payload","uncletopia"],"game_id":440,"stv_port":27066,"stv_name":"Uncletopia | Frankfurt | 6 | All Maps | STV","players":[{"user_id":153,"name":"jovi_","steam_id":76561198449280552,"connected_time":104000000000,"state":"active","ping":60},{"user_id":148,"name":"dafydd","steam_id":76561198052200325,"connected_time":514000000000,"state":"active","ping":75},{"user_id":154,"name":"Open Salami","steam_id":76561198351223374,"connected_time":9000000000,"state":"spawning","ping":71},{"user_id":131,"name":"KrevTiz","steam_id":76561199043366861,"connected_time":1772000000000,"state":"active","ping":89},{"user_id":112,"name":"svantezch","steam_id":76561198373831657,"connected_time":3425000000000,"state":"active","ping":92},{"user_id":136,"name":"Laxslow","steam_id":76561198065361846,"connected_time":1024000000000,"state":"active","ping":59},{"user_id":149,"name":"JustTRAsh","steam_id":76561198802668992,"connected_time":271000000000,"state":"active","ping":114},{"user_id":114,"name":"Master Of Noob","steam_id":76561198217926783,"connected_time":3410000000000,"state":"active","ping":69},{"user_id":122,"name":"DrExplosive 30fps gaming","steam_id":76561198063678579,"connected_time":2401000000000,"state":"active","ping":57},{"user_id":147,"name":"KaasKrans","steam_id":76561198240451972,"connected_time":538000000000,"state":"active","ping":64},{"user_id":93,"name":"Anax Alter","steam_id":76561198110249546,"connected_time":4883000000000,"state":"active","ping":138},{"user_id":94,"name":"gagalak","steam_id":76561198089979108,"connected_time":4855000000000,"state":"active","ping":90},{"user_id":86,"name":"Dr. Sex 2","steam_id":76561199088284199,"connected_time":5309000000000,"state":"active","ping":57},{"user_id":103,"name":"Wardruna96","steam_id":76561199057083828,"connected_time":4444000000000,"state":"active","ping":86},{"user_id":117,"name":"Creative","steam_id":76561198835034247,"connected_time":3240000000000,"state":"active","ping":76},{"user_id":140,"name":"mp1mp2mp3","steam_id":76561198088967665,"connected_time":780000000000,"state":"active","ping":93},{"user_id":115,"name":"Venenakki","steam_id":76561198311526482,"connected_time":3407000000000,"state":"active","ping":65},{"user_id":135,"name":"BadHorowitz","steam_id":76561198028254675,"connected_time":1041000000000,"state":"active","ping":135},{"user_id":111,"name":"Sandvich","steam_id":76561199079493666,"connected_time":3637000000000,"state":"active","ping":89},{"user_id":146,"name":"Metaphysical Conifer Cone","steam_id":76561198272643802,"connected_time":558000000000,"state":"active","ping":79},{"user_id":124,"name":"я сосал меня ебал","steam_id":76561197971140507,"connected_time":1921000000000,"state":"active","ping":72},{"user_id":129,"name":"SCRAMMMBLED","steam_id":76561197998307746,"connected_time":1826000000000,"state":"active","ping":59},{"user_id":81,"name":"Meem","steam_id":76561199088570961,"connected_time":5652000000000,"state":"active","ping":97}]},{"server_id":23,"name":"Uncletopia | Frankfurt | 7 | Stopwatch Beta","name_short":"frk-7","host":"frk-1.de.uncletopia.com","port":27075,"enabled":true,"region":"eu","cc":"de","latitude":50.110924,"longitude":8.682127,"reserved":0,"last_update":"0001-01-01T00:00:00Z","name_a2s":"Uncletopia | Frankfurt | 7 | Stopwatch Beta","protocol":17,"map":"cp_gullywash_final1","folder":"tf","game":"Team Fortress","app_id":440,"player_count":0,"max_players":24,"Bots":0,"server_type":"Dedicated","server_os":"Linux","password":true,"vac":true,"version":"7882260","steam_id":85568392924742827,"keywords":["cp","nocrits","nodmgspread","uncletopia"],"game_id":440,"stv_port":27076,"stv_name":"Uncletopia | Frankfurt | 7 | Stopwatch Beta | STV","players":null},{"server_id":24,"name":"Uncletopia | Frankfurt | 8 | Community","name_short":"frk-8","host":"frk-1.de.uncletopia.com","port":27085,"enabled":true,"region":"eu","cc":"de","latitude":50.110924,"longitude":8.682127,"reserved":0,"last_update":"0001-01-01T00:00:00Z","name_a2s":"Uncletopia | Frankfurt | 8 | Community","protocol":17,"map":"workshop/koth_product_final.ugc454272353","folder":"tf","game":"Team Fortress","app_id":440,"player_count":3,"max_players":24,"Bots":0,"server_type":"Dedicated","server_os":"Linux","password":true,"vac":true,"version":"7882260","steam_id":85568392924742828,"keywords":["cp","nocrits","nodmgspread","uncletopia"],"game_id":440,"stv_port":27086,"stv_name":"Uncletopia | Frankfurt | 8 | Community | STV","players":[{"user_id":28,"name":"buble with funny colors","steam_id":76561198314959808,"connected_time":1211000000000,"state":"active","ping":92},{"user_id":31,"name":"the greep","steam_id":76561199065909635,"connected_time":0,"state":"spawning","ping":26},{"user_id":27,"name":"band-aid copyright infringement","steam_id":76561199027095451,"connected_time":1544000000000,"state":"active","ping":73}]},{"server_id":202,"name":"Uncletopia | Hong Kong | 1 | All Maps","name_short":"hgk-1","host":"hgk-1.hk.uncletopia.com","port":27015,"enabled":true,"region":"asia","cc":"hk","latitude":22.302711,"longitude":114.177216,"reserved":0,"last_update":"0001-01-01T00:00:00Z","name_a2s":"Uncletopia | Hong Kong | 1 | All Maps","protocol":17,"map":"pl_snowycoast","folder":"tf","game":"Team Fortress","app_id":440,"player_count":24,"max_players":24,"Bots":0,"server_type":"Dedicated","server_os":"Linux","password":true,"vac":true,"version":"7882260","steam_id":85568392924494504,"keywords":["nocrits","nodmgspread","payload","uncletopia"],"game_id":440,"stv_port":27016,"stv_name":"Uncletopia | Hong Kong | 1 | All Maps | STV","players":[{"user_id":378,"name":"pochiニキ","steam_id":76561199157719084,"connected_time":571000000000,"state":"active","ping":116},{"user_id":295,"name":"Vortex Swagger","steam_id":76561198833527091,"connected_time":7299000000000,"state":"active","ping":107},{"user_id":297,"name":"B","steam_id":76561199017344476,"connected_time":6517000000000,"state":"active","ping":76},{"user_id":350,"name":"Azule","steam_id":76561198136804802,"connected_time":3020000000000,"state":"active","ping":136},{"user_id":266,"name":"쿠키","steam_id":76561197997220367,"connected_time":9581000000000,"state":"active","ping":51},{"user_id":379,"name":"Nice","steam_id":76561199180653046,"connected_time":339000000000,"state":"active","ping":132},{"user_id":274,"name":"Stupid B","steam_id":76561198131423270,"connected_time":8517000000000,"state":"active","ping":125},{"user_id":351,"name":"13MAN","steam_id":76561198900023603,"connected_time":2988000000000,"state":"active","ping":156},{"user_id":374,"name":"PocoLoco","steam_id":76561198834044246,"connected_time":748000000000,"state":"active","ping":106},{"user_id":377,"name":"Mr.Roh","steam_id":76561199110680871,"connected_time":672000000000,"state":"active","ping":86},{"user_id":380,"name":"ok i pull up","steam_id":76561198164297839,"connected_time":334000000000,"state":"active","ping":89},{"user_id":356,"name":"熱Cocoa奶","steam_id":76561198972098557,"connected_time":1788000000000,"state":"active","ping":53},{"user_id":360,"name":"HoàngVN","steam_id":76561198111857790,"connected_time":1445000000000,"state":"active","ping":68},{"user_id":358,"name":"tiden2000","steam_id":76561198092969425,"connected_time":1735000000000,"state":"active","ping":106},{"user_id":362,"name":"wsc","steam_id":76561198375093234,"connected_time":1343000000000,"state":"active","ping":94},{"user_id":368,"name":"\"CBT Enjoyer\"","steam_id":76561199058105528,"connected_time":1017000000000,"state":"active","ping":153},{"user_id":283,"name":"23rd","steam_id":76561199014675406,"connected_time":7889000000000,"state":"active","ping":151},{"user_id":366,"name":"Derpy Mercs","steam_id":76561198398777251,"connected_time":1201000000000,"state":"active","ping":85},{"user_id":367,"name":"i am a F2P and my aim is shit","steam_id":76561199475974790,"connected_time":1127000000000,"state":"active","ping":84},{"user_id":369,"name":"Hằng Ra đơ","steam_id":76561199373637717,"connected_time":1013000000000,"state":"active","ping":84},{"user_id":381,"name":"Male Detected!","steam_id":76561199082459598,"connected_time":333000000000,"state":"active","ping":107},{"user_id":372,"name":"TomProPlayer","steam_id":76561199223292521,"connected_time":881000000000,"state":"active","ping":127},{"user_id":304,"name":"母の肉団子@hao123.com","steam_id":76561198069561896,"connected_time":5497000000000,"state":"active","ping":46},{"user_id":373,"name":"@GranRiki","steam_id":76561198034349916,"connected_time":816000000000,"state":"active","ping":83}]},{"server_id":1,"name":"Uncletopia | Los Angeles | 1 | All Maps","name_short":"lax-1","host":"lax-1.us.uncletopia.com","port":27015,"enabled":true,"region":"us-west","cc":"us","latitude":33.94279,"longitude":-118.41004,"reserved":0,"last_update":"0001-01-01T00:00:00Z","name_a2s":"Uncletopia | Los Angeles | 1 | All Maps","protocol":17,"map":"pl_pier","folder":"tf","game":"Team Fortress","app_id":440,"player_count":0,"max_players":24,"Bots":0,"server_type":"Dedicated","server_os":"Linux","password":true,"vac":true,"version":"7882260","steam_id":85568392924469991,"keywords":["nocrits","nodmgspread","payload","uncletopia"],"game_id":440,"stv_port":27016,"stv_name":"Uncletopia | Los Angeles | 1 | All Maps | STV","players":null},{"server_id":112,"name":"Uncletopia | Los Angeles | 2 | All Maps","name_short":"lax-2","host":"lax-1.us.uncletopia.com","port":27025,"enabled":true,"region":"us-west","cc":"us","latitude":33.94279,"longitude":-118.41004,"reserved":0,"last_update":"0001-01-01T00:00:00Z","name_a2s":"Uncletopia | Los Angeles | 2 | All Maps","protocol":17,"map":"koth_viaduct","folder":"tf","game":"Team Fortress","app_id":440,"player_count":0,"max_players":24,"Bots":0,"server_type":"Dedicated","server_os":"Linux","password":true,"vac":true,"version":"7882260","steam_id":85568392924469992,"keywords":["cp","nocrits","nodmgspread","uncletopia"],"game_id":440,"stv_port":27026,"stv_name":"Uncletopia | Los Angeles | 2 | All Maps | STV","players":null},{"server_id":324,"name":"Uncletopia | Los Angeles | 3 | All Maps","name_short":"lax-3","host":"lax-1.us.uncletopia.com","port":27035,"enabled":true,"region":"us-west","cc":"us","latitude":33.94279,"longitude":-118.41004,"reserved":0,"last_update":"0001-01-01T00:00:00Z","name_a2s":"Uncletopia | Los Angeles | 3 | All Maps","protocol":17,"map":"cp_altitude","folder":"tf","game":"Team Fortress","app_id":440,"player_count":0,"max_players":24,"Bots":0,"server_type":"Dedicated","server_os":"Linux","password":true,"vac":true,"version":"7882260","steam_id":85568392924510198,"keywords":["cp","nocrits","nodmgspread","uncletopia"],"game_id":440,"stv_port":27036,"stv_name":"Uncletopia | Los Angeles | 3 | All Maps | STV","players":null},{"server_id":25,"name":"Uncletopia | Los Angeles | 4 | Stopwatch Beta","name_short":"lax-4","host":"lax-1.us.uncletopia.com","port":27045,"enabled":true,"region":"us-west","cc":"us","latitude":33.94279,"longitude":-118.41004,"reserved":0,"last_update":"0001-01-01T00:00:00Z","name_a2s":"Uncletopia | Los Angeles | 4 | Stopwatch Beta","protocol":17,"map":"cp_snakewater_final1","folder":"tf","game":"Team Fortress","app_id":440,"player_count":0,"max_players":24,"Bots":0,"server_type":"Dedicated","server_os":"Linux","password":true,"vac":true,"version":"7882260","steam_id":85568392924510199,"keywords":["cp","nocrits","nodmgspread","uncletopia"],"game_id":440,"stv_port":27046,"stv_name":"Uncletopia | Los Angeles | 4 | Stopwatch Beta | STV","players":null},{"server_id":11,"name":"Uncletopia | London | 1 | All Maps","name_short":"lon-1","host":"lon-1.uk.uncletopia.com","port":27015,"enabled":true,"region":"eu","cc":"gb","latitude":51.509865,"longitude":-0.118092,"reserved":0,"last_update":"0001-01-01T00:00:00Z","name_a2s":"Uncletopia | London | 1 | All Maps","protocol":17,"map":"koth_lakeside_final","folder":"tf","game":"Team Fortress","app_id":440,"player_count":22,"max_players":24,"Bots":0,"server_type":"Dedicated","server_os":"Linux","password":true,"vac":true,"version":"7882260","steam_id":85568392924367362,"keywords":["cp","nocrits","nodmgspread","uncletopia"],"game_id":440,"stv_port":27016,"stv_name":"Uncletopia | London | 1 | All Maps | STV","players":[{"user_id":283,"name":"Worm","steam_id":76561198067869816,"connected_time":12000000000,"state":"active","ping":73},{"user_id":268,"name":"Dumbzilla","steam_id":76561198031304349,"connected_time":1481000000000,"state":"active","ping":49},{"user_id":267,"name":"Yaire","steam_id":76561198017343510,"connected_time":1662000000000,"state":"active","ping":37},{"user_id":258,"name":"Alx2k1","steam_id":76561198051544601,"connected_time":2573000000000,"state":"active","ping":78},{"user_id":279,"name":"Hoff","steam_id":76561198026537318,"connected_time":275000000000,"state":"active","ping":38},{"user_id":257,"name":"Healix","steam_id":76561198130270161,"connected_time":2921000000000,"state":"active","ping":57},{"user_id":278,"name":"putku09","steam_id":76561199132212075,"connected_time":763000000000,"state":"active","ping":114},{"user_id":280,"name":"Lyra","steam_id":76561198043601838,"connected_time":49000000000,"state":"active","ping":60},{"user_id":266,"name":"Oak","steam_id":76561198067315672,"connected_time":1804000000000,"state":"active","ping":39},{"user_id":249,"name":"NotFionn","steam_id":76561198890525176,"connected_time":3637000000000,"state":"active","ping":75},{"user_id":254,"name":"Aaron","steam_id":76561197990046953,"connected_time":3213000000000,"state":"active","ping":58},{"user_id":263,"name":"oh my science","steam_id":76561198190583242,"connected_time":2092000000000,"state":"active","ping":72},{"user_id":281,"name":"Sun Tzu's Fun Zoo","steam_id":76561198051129831,"connected_time":48000000000,"state":"active","ping":44},{"user_id":252,"name":"Sky♡","steam_id":76561199209906710,"connected_time":3589000000000,"state":"active","ping":44},{"user_id":217,"name":"Eidolon","steam_id":76561198043919565,"connected_time":5989000000000,"state":"active","ping":56},{"user_id":273,"name":"maritalfuture36","steam_id":76561198272718247,"connected_time":1345000000000,"state":"active","ping":78},{"user_id":277,"name":"Kolanciasty ♥","steam_id":76561198020042179,"connected_time":1015000000000,"state":"active","ping":83},{"user_id":282,"name":"ScaryTree","steam_id":76561199384362833,"connected_time":23000000000,"state":"active","ping":93},{"user_id":253,"name":"owo","steam_id":76561198158209651,"connected_time":3380000000000,"state":"active","ping":60},{"user_id":259,"name":"Mr. Heavy LFT Premiership","steam_id":76561198080912087,"connected_time":2490000000000,"state":"active","ping":62},{"user_id":228,"name":"Pyro is a girl with huge balls","steam_id":76561198975667801,"connected_time":5424000000000,"state":"active","ping":45},{"user_id":270,"name":"Dmskootje","steam_id":76561198127600559,"connected_time":1447000000000,"state":"active","ping":51}]},{"server_id":114,"name":"Uncletopia | London | 2 | All Maps","name_short":"lon-2","host":"lon-1.uk.uncletopia.com","port":27025,"enabled":true,"region":"eu","cc":"gb","latitude":51.509865,"longitude":-0.118092,"reserved":0,"last_update":"0001-01-01T00:00:00Z","name_a2s":"Uncletopia | London | 2 | All Maps","protocol":17,"map":"cp_sunshine","folder":"tf","game":"Team Fortress","app_id":440,"player_count":0,"max_players":24,"Bots":0,"server_type":"Dedicated","server_os":"Linux","password":true,"vac":true,"version":"7882260","steam_id":85568392924470941,"keywords":["cp","nocrits","nodmgspread","uncletopia"],"game_id":440,"stv_port":27026,"stv_name":"Uncletopia | London | 2 | All Maps | STV","players":null},{"server_id":320,"name":"Uncletopia | London | 3 | All Maps","name_short":"lon-3","host":"lon-1.uk.uncletopia.com","port":27035,"enabled":true,"region":"eu","cc":"gb","latitude":51.509865,"longitude":-0.118092,"reserved":0,"last_update":"0001-01-01T00:00:00Z","name_a2s":"Uncletopia | London | 3 | All Maps","protocol":17,"map":"pl_borneo","folder":"tf","game":"Team Fortress","app_id":440,"player_count":24,"max_players":24,"Bots":0,"server_type":"Dedicated","server_os":"Linux","password":true,"vac":true,"version":"7882260","steam_id":85568392924510192,"keywords":["nocrits","nodmgspread","payload","uncletopia"],"game_id":440,"stv_port":27036,"stv_name":"Uncletopia | London | 3 | All Maps | STV","players":[{"user_id":445,"name":"widzZz","steam_id":76561197972820255,"connected_time":631000000000,"state":"active","ping":60},{"user_id":438,"name":"=flashpoint=","steam_id":76561197976774456,"connected_time":1145000000000,"state":"active","ping":42},{"user_id":404,"name":"ran is running","steam_id":76561199443185667,"connected_time":2884000000000,"state":"active","ping":144},{"user_id":397,"name":"piss man (real)","steam_id":76561198839843428,"connected_time":3173000000000,"state":"active","ping":125},{"user_id":391,"name":"Mika","steam_id":76561199183780280,"connected_time":4421000000000,"state":"active","ping":65},{"user_id":447,"name":"Uncle Dale","steam_id":76561199144302768,"connected_time":208000000000,"state":"active","ping":123},{"user_id":440,"name":"Syd","steam_id":76561198020515027,"connected_time":1063000000000,"state":"active","ping":90},{"user_id":401,"name":"Spliffendor","steam_id":76561198144020209,"connected_time":3024000000000,"state":"active","ping":45},{"user_id":448,"name":"Blind","steam_id":76561198310295139,"connected_time":166000000000,"state":"active","ping":94},{"user_id":444,"name":"Sherlockno","steam_id":76561198361872092,"connected_time":772000000000,"state":"active","ping":78},{"user_id":446,"name":"Lord","steam_id":76561198241305816,"connected_time":572000000000,"state":"active","ping":120},{"user_id":407,"name":"truebosnianking","steam_id":76561199440060597,"connected_time":2570000000000,"state":"active","ping":85},{"user_id":416,"name":"kyuta","steam_id":76561198382281653,"connected_time":2366000000000,"state":"active","ping":82},{"user_id":428,"name":"Ratimedes","steam_id":76561199083035892,"connected_time":2003000000000,"state":"active","ping":177},{"user_id":410,"name":"Luke","steam_id":76561198253533632,"connected_time":2543000000000,"state":"active","ping":132},{"user_id":417,"name":"Khaiden","steam_id":76561198104454754,"connected_time":2358000000000,"state":"active","ping":91},{"user_id":449,"name":"Brica","steam_id":76561198196324799,"connected_time":151000000000,"state":"active","ping":88},{"user_id":424,"name":"stefanbejenari","steam_id":76561199466718294,"connected_time":2099000000000,"state":"active","ping":86},{"user_id":415,"name":"Bullet magnet (FIN)","steam_id":76561197975715220,"connected_time":2411000000000,"state":"active","ping":89},{"user_id":421,"name":"Monara12th","steam_id":76561199478607360,"connected_time":2220000000000,"state":"active","ping":50},{"user_id":422,"name":"Mancomb Seepgood","steam_id":76561197974116369,"connected_time":2210000000000,"state":"active","ping":43},{"user_id":450,"name":"kallerannar","steam_id":76561199095701143,"connected_time":130000000000,"state":"active","ping":79},{"user_id":437,"name":"Providence","steam_id":76561198003920270,"connected_time":1308000000000,"state":"active","ping":70},{"user_id":443,"name":"G R U G","steam_id":76561198188231318,"connected_time":959000000000,"state":"active","ping":87}]},{"server_id":321,"name":"Uncletopia | London | 4 | All Maps","name_short":"lon-4","host":"lon-1.uk.uncletopia.com","port":27045,"enabled":true,"region":"eu","cc":"gb","latitude":51.509865,"longitude":-0.118092,"reserved":0,"last_update":"0001-01-01T00:00:00Z","name_a2s":"Uncletopia | London | 4 | All Maps","protocol":17,"map":"pl_snowycoast","folder":"tf","game":"Team Fortress","app_id":440,"player_count":23,"max_players":24,"Bots":0,"server_type":"Dedicated","server_os":"Linux","password":true,"vac":true,"version":"7882260","steam_id":85568392924510193,"keywords":["nocrits","nodmgspread","payload","uncletopia"],"game_id":440,"stv_port":27046,"stv_name":"Uncletopia | London | 4 | All Maps | STV","players":[{"user_id":8,"name":"EddieTheBear","steam_id":76561197962698753,"connected_time":1073000000000,"state":"active","ping":81},{"user_id":10,"name":"Elix","steam_id":76561198157179447,"connected_time":1061000000000,"state":"active","ping":76},{"user_id":11,"name":"Gardvord","steam_id":76561198120715753,"connected_time":1043000000000,"state":"active","ping":70},{"user_id":12,"name":"Tortoise01Swe","steam_id":76561198118673227,"connected_time":999000000000,"state":"active","ping":88},{"user_id":17,"name":"☆MiNTERRRRR☆","steam_id":76561198799866156,"connected_time":748000000000,"state":"active","ping":115},{"user_id":16,"name":"Patrik Stjärna","steam_id":76561198044435735,"connected_time":876000000000,"state":"active","ping":87},{"user_id":15,"name":"DOODL","steam_id":76561198358378176,"connected_time":938000000000,"state":"active","ping":87},{"user_id":18,"name":"Festive Pie","steam_id":76561198299159635,"connected_time":738000000000,"state":"active","ping":69},{"user_id":22,"name":"ruschca","steam_id":76561198041966522,"connected_time":359000000000,"state":"active","ping":51},{"user_id":20,"name":"I-I","steam_id":76561198267969436,"connected_time":577000000000,"state":"active","ping":70},{"user_id":23,"name":"ice","steam_id":76561198011015750,"connected_time":358000000000,"state":"active","ping":60},{"user_id":38,"name":"donatofina","steam_id":76561198353497885,"connected_time":120000000000,"state":"active","ping":116},{"user_id":25,"name":"rhean\u002621","steam_id":76561198389400021,"connected_time":279000000000,"state":"active","ping":50},{"user_id":39,"name":"Bounter","steam_id":76561198072614188,"connected_time":81000000000,"state":"active","ping":76},{"user_id":40,"name":"Spraxinator","steam_id":76561199083563607,"connected_time":80000000000,"state":"active","ping":893},{"user_id":28,"name":"Lapis💛 ","steam_id":76561198009198502,"connected_time":262000000000,"state":"active","ping":122},{"user_id":42,"name":"finjar","steam_id":76561198350473059,"connected_time":6000000000,"state":"spawning","ping":80},{"user_id":30,"name":"Saucy Jack","steam_id":76561198894525288,"connected_time":212000000000,"state":"active","ping":41},{"user_id":31,"name":"sun_cola","steam_id":76561199056317430,"connected_time":203000000000,"state":"active","ping":175},{"user_id":41,"name":"Pyrolander","steam_id":76561198050785450,"connected_time":56000000000,"state":"active","ping":47},{"user_id":33,"name":"Oyu","steam_id":76561198113997772,"connected_time":184000000000,"state":"active","ping":69},{"user_id":35,"name":"dun-Dun-DUUUUUN!","steam_id":76561198193357946,"connected_time":150000000000,"state":"active","ping":103},{"user_id":36,"name":"knife","steam_id":76561199069440196,"connected_time":144000000000,"state":"active","ping":154}]},{"server_id":21,"name":"Uncletopia | London | 5 | All Maps","name_short":"lon-5","host":"lon-1.uk.uncletopia.com","port":27055,"enabled":true,"region":"eu","cc":"gb","latitude":51.509865,"longitude":-0.118092,"reserved":0,"last_update":"0001-01-01T00:00:00Z","name_a2s":"Uncletopia | London | 5 | All Maps","protocol":17,"map":"cp_altitude","folder":"tf","game":"Team Fortress","app_id":440,"player_count":0,"max_players":24,"Bots":0,"server_type":"Dedicated","server_os":"Linux","password":true,"vac":true,"version":"7882260","steam_id":85568392924742829,"keywords":["cp","nocrits","nodmgspread","uncletopia"],"game_id":440,"stv_port":27056,"stv_name":"Uncletopia | London | 5 | All Maps | STV","players":null},{"server_id":22,"name":"Uncletopia | London | 6 | All Maps","name_short":"lon-6","host":"lon-1.uk.uncletopia.com","port":27065,"enabled":true,"region":"eu","cc":"gb","latitude":51.509865,"longitude":-0.118092,"reserved":0,"last_update":"0001-01-01T00:00:00Z","name_a2s":"Uncletopia | London | 6 | All Maps","protocol":17,"map":"cp_dustbowl","folder":"tf","game":"Team Fortress","app_id":440,"player_count":23,"max_players":24,"Bots":0,"server_type":"Dedicated","server_os":"Linux","password":true,"vac":true,"version":"7882260","steam_id":85568392924742830,"keywords":["cp","nocrits","nodmgspread","uncletopia"],"game_id":440,"stv_port":27066,"stv_name":"Uncletopia | London | 6 | All Maps | STV","players":[{"user_id":161,"name":"00uk","steam_id":76561198281873108,"connected_time":2050000000000,"state":"active","ping":71},{"user_id":193,"name":"El`Capitano Flex","steam_id":76561198061813730,"connected_time":585000000000,"state":"active","ping":70},{"user_id":190,"name":"Pain in a Box","steam_id":76561197990777173,"connected_time":791000000000,"state":"active","ping":113},{"user_id":195,"name":"Tomfool","steam_id":76561197993256481,"connected_time":463000000000,"state":"active","ping":85},{"user_id":169,"name":"Thing","steam_id":76561197997904403,"connected_time":1716000000000,"state":"active","ping":102},{"user_id":170,"name":"Plep","steam_id":76561198840259819,"connected_time":1704000000000,"state":"active","ping":54},{"user_id":163,"name":"germinator","steam_id":76561199387893648,"connected_time":1940000000000,"state":"active","ping":108},{"user_id":143,"name":"IndigoJones","steam_id":76561198050284262,"connected_time":2941000000000,"state":"active","ping":48},{"user_id":164,"name":"Gigachad_floppa","steam_id":76561199063325086,"connected_time":1902000000000,"state":"active","ping":76},{"user_id":199,"name":"axel, comp bot","steam_id":76561197992311317,"connected_time":18000000000,"state":"active","ping":75},{"user_id":182,"name":"Grillem Dafoe","steam_id":76561198306874574,"connected_time":1395000000000,"state":"active","ping":62},{"user_id":189,"name":"The Daniella","steam_id":76561198023075547,"connected_time":873000000000,"state":"active","ping":61},{"user_id":148,"name":"Đesmond","steam_id":76561198097676225,"connected_time":2609000000000,"state":"active","ping":71},{"user_id":179,"name":"Diggity","steam_id":76561198297157085,"connected_time":1455000000000,"state":"active","ping":31},{"user_id":151,"name":"Niki9521","steam_id":76561199213404955,"connected_time":2588000000000,"state":"active","ping":66},{"user_id":186,"name":"Rue","steam_id":76561198013135993,"connected_time":1225000000000,"state":"active","ping":120},{"user_id":173,"name":"Dope","steam_id":76561198318858892,"connected_time":1688000000000,"state":"active","ping":62},{"user_id":198,"name":"MV","steam_id":76561198443803886,"connected_time":187000000000,"state":"active","ping":87},{"user_id":127,"name":"Hivel","steam_id":76561198151390773,"connected_time":4751000000000,"state":"active","ping":86},{"user_id":187,"name":"ያልታወቀ05 ***********","steam_id":76561198883687985,"connected_time":1182000000000,"state":"active","ping":62},{"user_id":194,"name":"Julen","steam_id":76561198371879846,"connected_time":585000000000,"state":"active","ping":89},{"user_id":184,"name":"Andy","steam_id":76561198136364381,"connected_time":1324000000000,"state":"active","ping":67}]},{"server_id":40,"name":"Uncletopia | London | 7 | No Payload","name_short":"lon-7","host":"lon-1.uk.uncletopia.com","port":27075,"enabled":true,"region":"eu","cc":"gb","latitude":51.509865,"longitude":-0.118092,"reserved":0,"last_update":"0001-01-01T00:00:00Z","name_a2s":"Uncletopia | London | 7 | No Payload","protocol":17,"map":"pl_pier","folder":"tf","game":"Team Fortress","app_id":440,"player_count":0,"max_players":24,"Bots":0,"server_type":"Dedicated","server_os":"Linux","password":true,"vac":true,"version":"7882260","steam_id":85568392924964314,"keywords":["nocrits","nodmgspread","payload","uncletopia"],"game_id":440,"stv_port":27076,"stv_name":"Uncletopia | London | 7 | No Payload | STV","players":null},{"server_id":41,"name":"Uncletopia | London | 8 | Community","name_short":"lon-8","host":"lon-1.uk.uncletopia.com","port":27085,"enabled":true,"region":"eu","cc":"gb","latitude":51.509865,"longitude":-0.118092,"reserved":0,"last_update":"0001-01-01T00:00:00Z","name_a2s":"Uncletopia | London | 8 | Community","protocol":17,"map":"workshop/cp_croissant_final.ugc458840209","folder":"tf","game":"Team Fortress","app_id":440,"player_count":24,"max_players":24,"Bots":0,"server_type":"Dedicated","server_os":"Linux","password":true,"vac":true,"version":"7882260","steam_id":85568392924964315,"keywords":["cp","nocrits","nodmgspread","uncletopia"],"game_id":440,"stv_port":27086,"stv_name":"Uncletopia | London | 8 | Community | STV","players":[{"user_id":127,"name":"THEY/THEM","steam_id":76561199181821779,"connected_time":4476000000000,"state":"active","ping":61},{"user_id":162,"name":"xd","steam_id":76561198103583326,"connected_time":1470000000000,"state":"active","ping":60},{"user_id":175,"name":"Труп Володя","steam_id":76561198035718457,"connected_time":447000000000,"state":"active","ping":106},{"user_id":166,"name":"LaserDisc_","steam_id":76561198048461220,"connected_time":994000000000,"state":"active","ping":84},{"user_id":151,"name":"RedFog","steam_id":76561198284713081,"connected_time":2788000000000,"state":"active","ping":46},{"user_id":170,"name":"piping hot","steam_id":76561198011692496,"connected_time":770000000000,"state":"active","ping":81},{"user_id":174,"name":"static","steam_id":76561198836825741,"connected_time":462000000000,"state":"active","ping":43},{"user_id":154,"name":"Dude Guy Bruh","steam_id":76561198006569710,"connected_time":2676000000000,"state":"active","ping":140},{"user_id":159,"name":"silicon based life form","steam_id":76561199127121346,"connected_time":2334000000000,"state":"active","ping":55},{"user_id":182,"name":"Dominos Director","steam_id":76561198274671599,"connected_time":66000000000,"state":"active","ping":121},{"user_id":185,"name":"Egor Pomidor","steam_id":76561199175688390,"connected_time":5000000000,"state":"spawning","ping":79},{"user_id":176,"name":"Dr. Funkenstein","steam_id":76561197977816210,"connected_time":417000000000,"state":"active","ping":49},{"user_id":107,"name":"Purps","steam_id":76561198053886680,"connected_time":5807000000000,"state":"active","ping":40},{"user_id":83,"name":"Flare","steam_id":76561198039098320,"connected_time":7944000000000,"state":"active","ping":51},{"user_id":109,"name":"Eggcracker","steam_id":76561199274850641,"connected_time":5711000000000,"state":"active","ping":84},{"user_id":150,"name":"wouris","steam_id":76561198876188003,"connected_time":2811000000000,"state":"active","ping":74},{"user_id":177,"name":"TJ1212","steam_id":76561199013575313,"connected_time":341000000000,"state":"active","ping":64},{"user_id":111,"name":"Fat Pigeon","steam_id":76561198817940142,"connected_time":5680000000000,"state":"active","ping":45},{"user_id":156,"name":"Priceybay","steam_id":76561198055389492,"connected_time":2593000000000,"state":"active","ping":45},{"user_id":178,"name":"QuackQuackCrack","steam_id":76561198087569947,"connected_time":335000000000,"state":"active","ping":124},{"user_id":179,"name":"☞LaZe☜","steam_id":76561198202191400,"connected_time":291000000000,"state":"active","ping":55},{"user_id":181,"name":"panakid","steam_id":76561198364121077,"connected_time":143000000000,"state":"active","ping":101},{"user_id":184,"name":"gojoel","steam_id":76561198251181946,"connected_time":48000000000,"state":"active","ping":39},{"user_id":152,"name":"bram","steam_id":76561198186054573,"connected_time":2770000000000,"state":"active","ping":75}]},{"server_id":300,"name":"Uncletopia | Montréal | 1 | All Maps","name_short":"mtl-1","host":"mtl-1.ca.uncletopia.com","port":27015,"enabled":true,"region":"us-east","cc":"ca","latitude":45.50889,"longitude":-73.56167,"reserved":0,"last_update":"0001-01-01T00:00:00Z","name_a2s":"Uncletopia | Montréal | 1 | All Maps","protocol":17,"map":"pl_borneo","folder":"tf","game":"Team Fortress","app_id":440,"player_count":0,"max_players":24,"Bots":0,"server_type":"Dedicated","server_os":"Linux","password":true,"vac":true,"version":"7882260","steam_id":85568392924500087,"keywords":["nocrits","nodmgspread","payload","uncletopia"],"game_id":440,"stv_port":27016,"stv_name":"Uncletopia | Montréal | 1 | All Maps | STV","players":null},{"server_id":301,"name":"Uncletopia | Montréal | 2 | All Maps","name_short":"mtl-2","host":"mtl-1.ca.uncletopia.com","port":27025,"enabled":true,"region":"us-east","cc":"ca","latitude":45.50889,"longitude":-73.56167,"reserved":0,"last_update":"0001-01-01T00:00:00Z","name_a2s":"Uncletopia | Montréal | 2 | All Maps","protocol":17,"map":"pl_snowycoast","folder":"tf","game":"Team Fortress","app_id":440,"player_count":0,"max_players":24,"Bots":0,"server_type":"Dedicated","server_os":"Linux","password":true,"vac":true,"version":"7882260","steam_id":85568392924500088,"keywords":["nocrits","nodmgspread","payload","uncletopia"],"game_id":440,"stv_port":27026,"stv_name":"Uncletopia | Montréal | 2 | All Maps | STV","players":null},{"server_id":302,"name":"Uncletopia | Montréal | 3 | All Maps","name_short":"mtl-3","host":"mtl-1.ca.uncletopia.com","port":27035,"enabled":true,"region":"us-east","cc":"ca","latitude":45.50889,"longitude":-73.56167,"reserved":0,"last_update":"0001-01-01T00:00:00Z","name_a2s":"Uncletopia | Montréal | 3 | All Maps","protocol":17,"map":"pl_borneo","folder":"tf","game":"Team Fortress","app_id":440,"player_count":0,"max_players":24,"Bots":0,"server_type":"Dedicated","server_os":"Linux","password":true,"vac":true,"version":"7882260","steam_id":85568392924500089,"keywords":["nocrits","nodmgspread","payload","uncletopia"],"game_id":440,"stv_port":27036,"stv_name":"Uncletopia | Montréal | 3 | All Maps | STV","players":null},{"server_id":303,"name":"Uncletopia | Montréal | 4 | No Payload","name_short":"mtl-4","host":"mtl-1.ca.uncletopia.com","port":27045,"enabled":true,"region":"us-east","cc":"ca","latitude":45.50889,"longitude":-73.56167,"reserved":0,"last_update":"0001-01-01T00:00:00Z","name_a2s":"Uncletopia | Montréal | 4 | No Payload","protocol":17,"map":"cp_altitude","folder":"tf","game":"Team Fortress","app_id":440,"player_count":0,"max_players":24,"Bots":0,"server_type":"Dedicated","server_os":"Linux","password":true,"vac":true,"version":"7882260","steam_id":85568392924500090,"keywords":["cp","nocrits","nodmgspread","uncletopia"],"game_id":440,"stv_port":27046,"stv_name":"Uncletopia | Montréal | 4 | No Payload | STV","players":null},{"server_id":13,"name":"Uncletopia | New York City | 1 | All Maps","name_short":"nyc-1","host":"nyc-1.us.uncletopia.com","port":27015,"enabled":true,"region":"us-east","cc":"us","latitude":40.73061,"longitude":-73.93524,"reserved":0,"last_update":"0001-01-01T00:00:00Z","name_a2s":"Uncletopia | New York City | 1 | All Maps","protocol":17,"map":"pl_swiftwater_final1","folder":"tf","game":"Team Fortress","app_id":440,"player_count":0,"max_players":24,"Bots":0,"server_type":"Dedicated","server_os":"Linux","password":true,"vac":true,"version":"7882260","steam_id":85568392924469993,"keywords":["nocrits","nodmgspread","payload","uncletopia"],"game_id":440,"stv_port":27016,"stv_name":"Uncletopia | New York City | 1 | All Maps | STV","players":null},{"server_id":14,"name":"Uncletopia | New York City | 2 | All Maps","name_short":"nyc-2","host":"nyc-1.us.uncletopia.com","port":27025,"enabled":true,"region":"us-east","cc":"us","latitude":40.73061,"longitude":-73.93524,"reserved":0,"last_update":"0001-01-01T00:00:00Z","name_a2s":"Uncletopia | New York City | 2 | All Maps","protocol":17,"map":"koth_cascade","folder":"tf","game":"Team Fortress","app_id":440,"player_count":0,"max_players":24,"Bots":0,"server_type":"Dedicated","server_os":"Linux","password":true,"vac":true,"version":"7882260","steam_id":85568392924469994,"keywords":["cp","nocrits","nodmgspread","uncletopia"],"game_id":440,"stv_port":27026,"stv_name":"Uncletopia | New York City | 2 | All Maps | STV","players":null},{"server_id":15,"name":"Uncletopia | New York City | 3 | Stopwatch Beta","name_short":"nyc-3","host":"nyc-1.us.uncletopia.com","port":27035,"enabled":true,"region":"us-east","cc":"us","latitude":40.73061,"longitude":-73.93524,"reserved":0,"last_update":"0001-01-01T00:00:00Z","name_a2s":"Uncletopia | New York City | 3 | Stopwatch Beta","protocol":17,"map":"koth_lakeside_final","folder":"tf","game":"Team Fortress","app_id":440,"player_count":0,"max_players":24,"Bots":0,"server_type":"Dedicated","server_os":"Linux","password":true,"vac":true,"version":"7882260","steam_id":85568392924742820,"keywords":["cp","nocrits","nodmgspread","uncletopia"],"game_id":440,"stv_port":27036,"stv_name":"Uncletopia | New York City | 3 | Stopwatch Beta | STV","players":null},{"server_id":16,"name":"Uncletopia | New York City | 4 | Community","name_short":"nyc-4","host":"nyc-1.us.uncletopia.com","port":27045,"enabled":true,"region":"us-east","cc":"us","latitude":40.73061,"longitude":-73.93524,"reserved":0,"last_update":"0001-01-01T00:00:00Z","name_a2s":"Uncletopia | New York City | 4 | Community","protocol":17,"map":"pl_badwater","folder":"tf","game":"Team Fortress","app_id":440,"player_count":0,"max_players":24,"Bots":0,"server_type":"Dedicated","server_os":"Linux","password":true,"vac":true,"version":"7882260","steam_id":85568392924742821,"keywords":["nocrits","nodmgspread","payload","uncletopia"],"game_id":440,"stv_port":27046,"stv_name":"Uncletopia | New York City | 4 | Community | STV","players":null},{"server_id":142,"name":"Uncletopia | São Paulo | 1 | All Maps","name_short":"sao-1","host":"sao-1.br.uncletopia.com","port":27015,"enabled":true,"region":"sa","cc":"br","latitude":-23.533773,"longitude":-46.62529,"reserved":0,"last_update":"0001-01-01T00:00:00Z","name_a2s":"Uncletopia | São Paulo | 1 | All Maps","protocol":17,"map":"pl_pier","folder":"tf","game":"Team Fortress","app_id":440,"player_count":0,"max_players":24,"Bots":0,"server_type":"Dedicated","server_os":"Linux","password":true,"vac":true,"version":"7882260","steam_id":85568392924469996,"keywords":["nocrits","nodmgspread","payload","uncletopia"],"game_id":440,"stv_port":27016,"stv_name":"Uncletopia | São Paulo | 1 | All Maps | STV","players":null},{"server_id":143,"name":"Uncletopia | São Paulo | 2 | All Maps","name_short":"sao-2","host":"sao-2.br.uncletopia.com","port":27015,"enabled":true,"region":"sa","cc":"br","latitude":-23.533773,"longitude":-46.62529,"reserved":0,"last_update":"0001-01-01T00:00:00Z","name_a2s":"Uncletopia | São Paulo | 2 | All Maps","protocol":17,"map":"pl_snowycoast","folder":"tf","game":"Team Fortress","app_id":440,"player_count":3,"max_players":24,"Bots":0,"server_type":"Dedicated","server_os":"Linux","password":true,"vac":true,"version":"7882260","steam_id":85568392924485349,"keywords":["nocrits","nodmgspread","payload","uncletopia"],"game_id":440,"stv_port":27016,"stv_name":"Uncletopia | São Paulo | 2 | All Maps | STV","players":[{"user_id":4,"name":"Gugamineyt13","steam_id":76561199059938679,"connected_time":1005000000000,"state":"active","ping":64},{"user_id":5,"name":"V.I.C - TF2GLAMOR","steam_id":76561199256281201,"connected_time":571000000000,"state":"active","ping":125},{"user_id":6,"name":"Shironias","steam_id":76561199131373869,"connected_time":263000000000,"state":"active","ping":95}]},{"server_id":7,"name":"Uncletopia | Seattle | 1 | All Maps","name_short":"sea-1","host":"sea-1.us.uncletopia.com","port":27015,"enabled":true,"region":"us-west","cc":"us","latitude":47.608013,"longitude":-122.33517,"reserved":0,"last_update":"0001-01-01T00:00:00Z","name_a2s":"Uncletopia | Seattle | 1 | All Maps","protocol":17,"map":"koth_viaduct","folder":"tf","game":"Team Fortress","app_id":440,"player_count":1,"max_players":24,"Bots":0,"server_type":"Dedicated","server_os":"Linux","password":true,"vac":true,"version":"7882260","steam_id":85568392924469997,"keywords":["cp","nocrits","nodmgspread","uncletopia"],"game_id":440,"stv_port":27016,"stv_name":"Uncletopia | Seattle | 1 | All Maps | STV","players":[{"user_id":10,"name":"Pneumo.","steam_id":76561197987911883,"connected_time":273000000000,"state":"connecting","ping":0}]},{"server_id":119,"name":"Uncletopia | Seattle | 2 | All Maps","name_short":"sea-2","host":"sea-1.us.uncletopia.com","port":27025,"enabled":true,"region":"us-west","cc":"us","latitude":47.608013,"longitude":-122.33517,"reserved":0,"last_update":"0001-01-01T00:00:00Z","name_a2s":"Uncletopia | Seattle | 2 | All Maps","protocol":17,"map":"koth_highpass","folder":"tf","game":"Team Fortress","app_id":440,"player_count":0,"max_players":24,"Bots":0,"server_type":"Dedicated","server_os":"Linux","password":true,"vac":true,"version":"7882260","steam_id":85568392924469998,"keywords":["cp","nocrits","nodmgspread","uncletopia"],"game_id":440,"stv_port":27026,"stv_name":"Uncletopia | Seattle | 2 | All Maps | STV","players":null},{"server_id":406,"name":"Uncletopia | Seattle | 3 | Stopwatch Beta","name_short":"sea-3","host":"sea-1.us.uncletopia.com","port":27035,"enabled":true,"region":"us-west","cc":"us","latitude":47.608013,"longitude":-122.33517,"reserved":0,"last_update":"0001-01-01T00:00:00Z","name_a2s":"Uncletopia | Seattle | 3 | Stopwatch Beta","protocol":17,"map":"cp_mountainlab","folder":"tf","game":"Team Fortress","app_id":440,"player_count":0,"max_players":24,"Bots":0,"server_type":"Dedicated","server_os":"Linux","password":true,"vac":true,"version":"7882260","steam_id":85568392924515217,"keywords":["cp","nocrits","nodmgspread","uncletopia"],"game_id":440,"stv_port":27036,"stv_name":"Uncletopia | Seattle | 3 | Stopwatch Beta | STV","players":null},{"server_id":17,"name":"Uncletopia | San Francisco | 1 | All Maps","name_short":"sfo-1","host":"sfo-1.us.uncletopia.com","port":27015,"enabled":true,"region":"us-west","cc":"us","latitude":37.77397,"longitude":-122.4313,"reserved":0,"last_update":"0001-01-01T00:00:00Z","name_a2s":"Uncletopia | San Francisco | 1 | All Maps","protocol":17,"map":"pl_barnblitz","folder":"tf","game":"Team Fortress","app_id":440,"player_count":0,"max_players":24,"Bots":0,"server_type":"Dedicated","server_os":"Linux","password":true,"vac":true,"version":"7882260","steam_id":85568392924469999,"keywords":["nocrits","nodmgspread","payload","uncletopia"],"game_id":440,"stv_port":27016,"stv_name":"Uncletopia | San Francisco | 1 | All Maps | STV","players":null},{"server_id":18,"name":"Uncletopia | San Francisco | 2 | All Maps","name_short":"sfo-2","host":"sfo-1.us.uncletopia.com","port":27025,"enabled":true,"region":"us-west","cc":"us","latitude":37.77397,"longitude":-122.4313,"reserved":0,"last_update":"0001-01-01T00:00:00Z","name_a2s":"Uncletopia | San Francisco | 2 | All Maps","protocol":17,"map":"koth_viaduct","folder":"tf","game":"Team Fortress","app_id":440,"player_count":22,"max_players":24,"Bots":0,"server_type":"Dedicated","server_os":"Linux","password":true,"vac":true,"version":"7882260","steam_id":85568392924470000,"keywords":["cp","nocrits","nodmgspread","uncletopia"],"game_id":440,"stv_port":27026,"stv_name":"Uncletopia | San Francisco | 2 | All Maps | STV","players":[{"user_id":92,"name":"brando","steam_id":76561198070627013,"connected_time":388000000000,"state":"active","ping":107},{"user_id":83,"name":"Ass Blaster, Disaster Master","steam_id":76561197997774469,"connected_time":851000000000,"state":"active","ping":45},{"user_id":65,"name":"deafened","steam_id":76561198454526448,"connected_time":2036000000000,"state":"active","ping":105},{"user_id":78,"name":"Mr. BREADLUCK","steam_id":76561199351608381,"connected_time":997000000000,"state":"active","ping":75},{"user_id":79,"name":"TheUltimatePybro","steam_id":76561198119425604,"connected_time":915000000000,"state":"active","ping":122},{"user_id":82,"name":"SMILEzZZ","steam_id":76561199034761420,"connected_time":878000000000,"state":"active","ping":130},{"user_id":64,"name":"that wasnt funny pal","steam_id":76561198837926595,"connected_time":2342000000000,"state":"active","ping":100},{"user_id":54,"name":"Bobbies1","steam_id":76561198363084669,"connected_time":2864000000000,"state":"active","ping":116},{"user_id":66,"name":"Cosmic Torgue","steam_id":76561198828724945,"connected_time":1953000000000,"state":"active","ping":130},{"user_id":77,"name":"MonteJT","steam_id":76561198055409360,"connected_time":1474000000000,"state":"active","ping":50},{"user_id":69,"name":"DualiTea","steam_id":76561198081733870,"connected_time":1848000000000,"state":"active","ping":98},{"user_id":57,"name":"Jeff Probst","steam_id":76561199215811448,"connected_time":2791000000000,"state":"active","ping":123},{"user_id":93,"name":"Fiestaknight","steam_id":76561198037847385,"connected_time":381000000000,"state":"active","ping":73},{"user_id":61,"name":"Rasputia","steam_id":76561198132051047,"connected_time":2575000000000,"state":"active","ping":60},{"user_id":68,"name":"Mediocre","steam_id":76561198056352693,"connected_time":1922000000000,"state":"active","ping":67},{"user_id":70,"name":"Jookson","steam_id":76561198413604994,"connected_time":1776000000000,"state":"active","ping":106},{"user_id":97,"name":"top 10 thug shakes","steam_id":76561199100342013,"connected_time":19000000000,"state":"active","ping":96},{"user_id":81,"name":"TheOnlyBeast","steam_id":76561197993208453,"connected_time":905000000000,"state":"active","ping":113},{"user_id":84,"name":"snowcreeper09","steam_id":76561198191154391,"connected_time":772000000000,"state":"active","ping":103},{"user_id":74,"name":"SanitysEdge","steam_id":76561198130732813,"connected_time":1678000000000,"state":"active","ping":36},{"user_id":96,"name":"Pneumo.","steam_id":76561197987911883,"connected_time":58000000000,"state":"active","ping":108},{"user_id":76,"name":"Bartholomew","steam_id":76561199097771720,"connected_time":1648000000000,"state":"active","ping":110}]},{"server_id":19,"name":"Uncletopia | San Francisco | 3 | Stopwatch Beta","name_short":"sfo-3","host":"sfo-1.us.uncletopia.com","port":27035,"enabled":true,"region":"us-west","cc":"us","latitude":37.77397,"longitude":-122.4313,"reserved":0,"last_update":"0001-01-01T00:00:00Z","name_a2s":"Uncletopia | San Francisco | 3 | Stopwatch Beta","protocol":17,"map":"pl_frontier_final","folder":"tf","game":"Team Fortress","app_id":440,"player_count":0,"max_players":24,"Bots":0,"server_type":"Dedicated","server_os":"Linux","password":true,"vac":true,"version":"7882260","steam_id":85568392924742824,"keywords":["nocrits","nodmgspread","payload","uncletopia"],"game_id":440,"stv_port":27036,"stv_name":"Uncletopia | San Francisco | 3 | Stopwatch Beta | STV","players":null},{"server_id":20,"name":"Uncletopia | San Francisco | 4 | Community","name_short":"sfo-4","host":"sfo-1.us.uncletopia.com","port":27045,"enabled":true,"region":"us-west","cc":"us","latitude":37.77397,"longitude":-122.4313,"reserved":0,"last_update":"0001-01-01T00:00:00Z","name_a2s":"Uncletopia | San Francisco | 4 | Community","protocol":17,"map":"cp_process_final","folder":"tf","game":"Team Fortress","app_id":440,"player_count":0,"max_players":24,"Bots":0,"server_type":"Dedicated","server_os":"Linux","password":true,"vac":true,"version":"7882260","steam_id":85568392924742826,"keywords":["cp","nocrits","nodmgspread","uncletopia"],"game_id":440,"stv_port":27046,"stv_name":"Uncletopia | San Francisco | 4 | Community | STV","players":null},{"server_id":141,"name":"Uncletopia | Sydney | 1 | All Maps","name_short":"syd-1","host":"syd-1.au.uncletopia.com","port":27015,"enabled":true,"region":"au","cc":"au","latitude":-33.865143,"longitude":151.2099,"reserved":0,"last_update":"0001-01-01T00:00:00Z","name_a2s":"Uncletopia | Sydney | 1 | All Maps","protocol":17,"map":"pl_borneo","folder":"tf","game":"Team Fortress","app_id":440,"player_count":0,"max_players":24,"Bots":0,"server_type":"Dedicated","server_os":"Linux","password":true,"vac":true,"version":"7882260","steam_id":85568392924470001,"keywords":["nocrits","nodmgspread","payload","uncletopia"],"game_id":440,"stv_port":27016,"stv_name":"Uncletopia | Sydney | 1 | All Maps | STV","players":null},{"server_id":123,"name":"Uncletopia | Sydney | 2 | All Maps","name_short":"syd-2","host":"syd-1.au.uncletopia.com","port":27025,"enabled":true,"region":"au","cc":"au","latitude":-33.865143,"longitude":151.2099,"reserved":0,"last_update":"0001-01-01T00:00:00Z","name_a2s":"Uncletopia | Sydney | 2 | All Maps","protocol":17,"map":"koth_cascade","folder":"tf","game":"Team Fortress","app_id":440,"player_count":0,"max_players":24,"Bots":0,"server_type":"Dedicated","server_os":"Linux","password":true,"vac":true,"version":"7882260","steam_id":85568392924470002,"keywords":["cp","nocrits","nodmgspread","uncletopia"],"game_id":440,"stv_port":27026,"stv_name":"Uncletopia | Sydney | 2 | All Maps | STV","players":null},{"server_id":395,"name":"Uncletopia | Sydney | 3 | All Maps","name_short":"syd-3","host":"syd-1.au.uncletopia.com","port":27035,"enabled":true,"region":"au","cc":"au","latitude":-33.865143,"longitude":151.2099,"reserved":0,"last_update":"0001-01-01T00:00:00Z","name_a2s":"Uncletopia | Sydney | 3 | All Maps","protocol":17,"map":"cp_sunshine","folder":"tf","game":"Team Fortress","app_id":440,"player_count":0,"max_players":24,"Bots":0,"server_type":"Dedicated","server_os":"Linux","password":true,"vac":true,"version":"7882260","steam_id":85568392925194467,"keywords":["cp","nocrits","nodmgspread","uncletopia"],"game_id":440,"stv_port":27036,"stv_name":"Uncletopia | Sydney | 3 | All Maps | STV","players":null},{"server_id":396,"name":"Uncletopia | Sydney | 4 | All Maps","name_short":"syd-4","host":"syd-1.au.uncletopia.com","port":27045,"enabled":true,"region":"au","cc":"au","latitude":-33.865143,"longitude":151.2099,"reserved":0,"last_update":"0001-01-01T00:00:00Z","name_a2s":"Uncletopia | Sydney | 4 | All Maps","protocol":17,"map":"pl_barnblitz","folder":"tf","game":"Team Fortress","app_id":440,"player_count":0,"max_players":24,"Bots":0,"server_type":"Dedicated","server_os":"Linux","password":true,"vac":true,"version":"7882260","steam_id":85568392925397958,"keywords":["nocrits","nodmgspread","payload","uncletopia"],"game_id":440,"stv_port":27046,"stv_name":"Uncletopia | Sydney | 4 | All Maps | STV","players":null},{"server_id":58,"name":"Uncletopia | Sydney | 5 | Stopwatch Beta","name_short":"syd-5","host":"syd-1.au.uncletopia.com","port":27055,"enabled":true,"region":"au","cc":"au","latitude":-33.865143,"longitude":151.2099,"reserved":0,"last_update":"0001-01-01T00:00:00Z","name_a2s":"Uncletopia | Sydney | 5 | Stopwatch Beta","protocol":17,"map":"workshop/pl_vigil_rc9.ugc1266210012","folder":"tf","game":"Team Fortress","app_id":440,"player_count":0,"max_players":24,"Bots":0,"server_type":"Dedicated","server_os":"Linux","password":true,"vac":true,"version":"7882260","steam_id":85568392925397959,"keywords":["nocrits","nodmgspread","payload","uncletopia"],"game_id":440,"stv_port":27056,"stv_name":"Uncletopia | Sydney | 5 | Stopwatch Beta | STV","players":null},{"server_id":59,"name":"Uncletopia | Sydney | 6 | Community","name_short":"syd-6","host":"syd-1.au.uncletopia.com","port":27065,"enabled":true,"region":"au","cc":"au","latitude":-33.865143,"longitude":151.2099,"reserved":0,"last_update":"0001-01-01T00:00:00Z","name_a2s":"Uncletopia | Sydney | 6 | Community","protocol":17,"map":"workshop/rd_asteroid_redux_b1.ugc2154902912","folder":"tf","game":"Team Fortress","app_id":440,"player_count":0,"max_players":24,"Bots":0,"server_type":"Dedicated","server_os":"Linux","password":true,"vac":true,"version":"7882260","steam_id":85568392925397960,"keywords":["beta","nocrits","nodmgspread","rd","uncletopia"],"game_id":440,"stv_port":27066,"stv_name":"Uncletopia | Sydney | 6 | Community | STV","players":null},{"server_id":49,"name":"Uncletopia | Warsaw | 1 | All Maps","name_short":"waw-1","host":"waw-1.pl.uncletopia.com","port":27015,"enabled":true,"region":"eu","cc":"pl","latitude":52.2297,"longitude":21.017532,"reserved":0,"last_update":"0001-01-01T00:00:00Z","name_a2s":"","protocol":0,"map":"","folder":"","game":"","app_id":0,"player_count":0,"max_players":0,"Bots":0,"server_type":"","server_os":"","password":false,"vac":false,"version":"","steam_id":0,"keywords":null,"game_id":0,"stv_port":0,"stv_name":"","players":null},{"server_id":50,"name":"Uncletopia | Warsaw | 2 | All Maps","name_short":"waw-2","host":"waw-1.pl.uncletopia.com","port":27025,"enabled":true,"region":"eu","cc":"pl","latitude":52.2297,"longitude":21.017532,"reserved":0,"last_update":"0001-01-01T00:00:00Z","name_a2s":"Uncletopia | Warsaw | 2 | All Maps","protocol":17,"map":"cp_mountainlab","folder":"tf","game":"Team Fortress","app_id":440,"player_count":0,"max_players":24,"Bots":0,"server_type":"Dedicated","server_os":"Linux","password":true,"vac":true,"version":"7882260","steam_id":85568392925397851,"keywords":["cp","nocrits","nodmgspread","uncletopia"],"game_id":440,"stv_port":27026,"stv_name":"Uncletopia | Warsaw | 2 | All Maps | STV","players":null},{"server_id":51,"name":"Uncletopia | Warsaw | 3 | All Maps","name_short":"waw-3","host":"waw-1.pl.uncletopia.com","port":27035,"enabled":true,"region":"eu","cc":"pl","latitude":52.2297,"longitude":21.017532,"reserved":0,"last_update":"0001-01-01T00:00:00Z","name_a2s":"Uncletopia | Warsaw | 3 | All Maps","protocol":17,"map":"koth_viaduct","folder":"tf","game":"Team Fortress","app_id":440,"player_count":0,"max_players":24,"Bots":0,"server_type":"Dedicated","server_os":"Linux","password":true,"vac":true,"version":"7882260","steam_id":85568392925397852,"keywords":["cp","nocrits","nodmgspread","uncletopia"],"game_id":440,"stv_port":27036,"stv_name":"Uncletopia | Warsaw | 3 | All Maps | STV","players":null},{"server_id":52,"name":"Uncletopia | Warsaw | 4 | All Maps","name_short":"waw-4","host":"waw-1.pl.uncletopia.com","port":27045,"enabled":true,"region":"eu","cc":"pl","latitude":52.2297,"longitude":21.017532,"reserved":0,"last_update":"0001-01-01T00:00:00Z","name_a2s":"Uncletopia | Warsaw | 4 | All Maps","protocol":17,"map":"koth_highpass","folder":"tf","game":"Team Fortress","app_id":440,"player_count":0,"max_players":24,"Bots":0,"server_type":"Dedicated","server_os":"Linux","password":true,"vac":true,"version":"7882260","steam_id":85568392925397853,"keywords":["cp","nocrits","nodmgspread","uncletopia"],"game_id":440,"stv_port":27046,"stv_name":"Uncletopia | Warsaw | 4 | All Maps | STV","players":null},{"server_id":53,"name":"Uncletopia | Warsaw | 5 | Stopwatch Beta","name_short":"waw-5","host":"waw-1.pl.uncletopia.com","port":27055,"enabled":true,"region":"eu","cc":"pl","latitude":52.2297,"longitude":21.017532,"reserved":0,"last_update":"0001-01-01T00:00:00Z","name_a2s":"Uncletopia | Warsaw | 5 | Stopwatch Beta","protocol":17,"map":"cp_mountainlab","folder":"tf","game":"Team Fortress","app_id":440,"player_count":0,"max_players":24,"Bots":0,"server_type":"Dedicated","server_os":"Linux","password":true,"vac":true,"version":"7882260","steam_id":85568392925397854,"keywords":["cp","nocrits","nodmgspread","uncletopia"],"game_id":440,"stv_port":27056,"stv_name":"Uncletopia | Warsaw | 5 | Stopwatch Beta | STV","players":null},{"server_id":54,"name":"Uncletopia | Warsaw | 6 | Community","name_short":"waw-6","host":"waw-1.pl.uncletopia.com","port":27065,"enabled":true,"region":"eu","cc":"pl","latitude":52.2297,"longitude":21.017532,"reserved":0,"last_update":"0001-01-01T00:00:00Z","name_a2s":"Uncletopia | Warsaw | 6 | Community","protocol":17,"map":"koth_viaduct","folder":"tf","game":"Team Fortress","app_id":440,"player_count":1,"max_players":24,"Bots":0,"server_type":"Dedicated","server_os":"Linux","password":true,"vac":true,"version":"7882260","steam_id":85568392925397856,"keywords":["cp","nocrits","nodmgspread","uncletopia"],"game_id":440,"stv_port":27066,"stv_name":"Uncletopia | Warsaw | 6 | Community | STV","players":[{"user_id":5,"name":"kroolframer1","steam_id":76561199266227289,"connected_time":1000000000,"state":"connecting","ping":0}]}]}