{"status":true,"message":"","result":[{"server_id":9,"name":"Uncletopia | Atlanta | 1 | All Maps","name_short":"atl-1","host":"atl-1.us.uncletopia.com","port":27015,"enabled":true,"region":"us-east","cc":"us","latitude":33.753746,"longitude":-84.38633,"reserved":0,"last_update":"0001-01-01T00:00:00Z","name_a2s":"Uncletopia | Atlanta | 1 | All Maps","protocol":17,"map":"pl_pier","folder":"tf","game":"Team Fortress","app_id":440,"player_count":24,"max_players":24,"Bots":0,"server_type":"Dedicated","server_os":"Linux","password":true,"vac":true,"version":"7757534","steam_id":85568392924469982,"keywords":["nocrits","nodmgspread","payload","uncletopia"],"game_id":440,"stv_port":27016,"stv_name":"Uncletopia | Atlanta | 1 | All Maps | STV","players":[{"user_id":631,"name":"RED1 | mayhem","steam_id":76561199246637881,"connected_time":247000000000,"state":"active","ping":60},{"user_id":606,"name":"BLU1 | cola","steam_id":76561198374390458,"connected_time":3456000000000,"state":"active","ping":56},{"user_id":620,"name":"RED1 | eish","steam_id":76561198089463603,"connected_time":1764000000000,"state":"active","ping":116},{"user_id":610,"name":"RED1 | nomad","steam_id":76561197998740399,"connected_time":3214000000000,"state":"active","ping":67},{"user_id":604,"name":"火星 | Marsy","steam_id":76561198014979892,"connected_time":3462000000000,"state":"active","ping":65},{"user_id":624,"name":"w key + left click + spacebar","steam_id":76561198319442494,"connected_time":1335000000000,"state":"active","ping":106},{"user_id":608,"name":"RED1 | Lylith","steam_id":76561198386687546,"connected_time":3388000000000,"state":"active","ping":55},{"user_id":629,"name":"Spy_Is_Pye","steam_id":76561199439622967,"connected_time":257000000000,"state":"active","ping":74},{"user_id":632,"name":"Bandicario","steam_id":76561198432036026,"connected_time":146000000000,"state":"active","ping":54},{"user_id":518,"name":"RED1 | Le4n!!!","steam_id":76561198045522596,"connected_time":16188000000000,"state":"active","ping":64},{"user_id":613,"name":"ATL1 | LuckyZero-_-","steam_id":76561198139891051,"connected_time":2134000000000,"state":"active","ping":79},{"user_id":568,"name":"BLU1 Save your wifi","steam_id":76561198286147372,"connected_time":8867000000000,"state":"active","ping":51},{"user_id":627,"name":"ash","steam_id":76561198127890645,"connected_time":703000000000,"state":"active","ping":61},{"user_id":558,"name":"stink","steam_id":76561198099318923,"connected_time":10185000000000,"state":"active","ping":81},{"user_id":552,"name":"ATL1 | Kramer","steam_id":76561198083595936,"connected_time":11314000000000,"state":"active","ping":77},{"user_id":628,"name":"Karma","steam_id":76561198030565234,"connected_time":671000000000,"state":"active","ping":66},{"user_id":589,"name":"Laura Palmer Gaming","steam_id":76561198282965733,"connected_time":5343000000000,"state":"active","ping":69},{"user_id":615,"name":"luxin","steam_id":76561198399383047,"connected_time":2128000000000,"state":"active","ping":54},{"user_id":621,"name":"Shmoopy","steam_id":76561198030459152,"connected_time":1751000000000,"state":"active","ping":61},{"user_id":625,"name":"Incineroar, God's Executioner B","steam_id":76561197994454639,"connected_time":1126000000000,"state":"active","ping":97},{"user_id":564,"name":"melancholy","steam_id":76561198024301465,"connected_time":8933000000000,"state":"active","ping":49},{"user_id":630,"name":"Give me another chance","steam_id":76561198095920344,"connected_time":257000000000,"state":"active","ping":147},{"user_id":605,"name":"gettysburg","steam_id":76561198016157051,"connected_time":3462000000000,"state":"active","ping":56},{"user_id":623,"name":"Spiffyputt","steam_id":76561198439345687,"connected_time":1680000000000,"state":"active","ping":68}]},{"server_id":400,"name":"Uncletopia | Atlanta | 3 | Stopwatch Beta","name_short":"atl-3","host":"atl-1.us.uncletopia.com","port":27035,"enabled":true,"region":"us-east","cc":"us","latitude":33.753746,"longitude":-84.38633,"reserved":0,"last_update":"0001-01-01T00:00:00Z","name_a2s":"Uncletopia | Atlanta | 3 | Stopwatch Beta","protocol":17,"map":"workshop/pl_barnblitz_pro7.ugc582280235","folder":"tf","game":"Team Fortress","app_id":440,"player_count":0,"max_players":24,"Bots":0,"server_type":"Dedicated","server_os":"Linux","password":true,"vac":true,"version":"7757534","steam_id":85568392924515187,"keywords":["nocrits","nodmgspread","payload","uncletopia"],"game_id":440,"stv_port":27036,"stv_name":"Uncletopia | Atlanta | 3 | Stopwatch Beta | STV","players":null},{"server_id":401,"name":"Uncletopia | Atlanta | 4 | No Payload","name_short":"atl-4","host":"atl-1.us.uncletopia.com","port":27045,"enabled":true,"region":"us-east","cc":"us","latitude":33.753746,"longitude":-84.38633,"reserved":0,"last_update":"0001-01-01T00:00:00Z","name_a2s":"Uncletopia | Atlanta | 4 | No Payload","protocol":17,"map":"pl_pier","folder":"tf","game":"Team Fortress","app_id":440,"player_count":0,"max_players":24,"Bots":0,"server_type":"Dedicated","server_os":"Linux","password":true,"vac":true,"version":"7723704","steam_id":85568392924515188,"keywords":["nocrits","nodmgspread","payload","uncletopia"],"game_id":440,"stv_port":27046,"stv_name":"Uncletopia | Atlanta | 4 | No Payload | STV","players":null},{"server_id":2,"name":"Uncletopia | Chicago | 1 | All Maps","name_short":"chi-1","host":"chi-1.us.uncletopia.com","port":27015,"enabled":true,"region":"us-central","cc":"us","latitude":41.881832,"longitude":-87.62318,"reserved":0,"last_update":"0001-01-01T00:00:00Z","name_a2s":"Uncletopia | Chicago | 1 | All Maps","protocol":17,"map":"pl_badwater","folder":"tf","game":"Team Fortress","app_id":440,"player_count":24,"max_players":24,"Bots":0,"server_type":"Dedicated","server_os":"Linux","password":true,"vac":true,"version":"7757534","steam_id":85568392924469984,"keywords":["nocrits","nodmgspread","payload","uncletopia"],"game_id":440,"stv_port":27016,"stv_name":"Uncletopia | Chicago | 1 | All Maps | STV","players":[{"user_id":837,"name":"Rye","steam_id":76561199417069130,"connected_time":1000000000,"state":"spawning","ping":73},{"user_id":808,"name":"blob","steam_id":76561198122375328,"connected_time":705000000000,"state":"active","ping":67},{"user_id":834,"name":"Emperor Dankatine","steam_id":76561198044741086,"connected_time":184000000000,"state":"active","ping":85},{"user_id":659,"name":"tim-","steam_id":76561199119101315,"connected_time":5456000000000,"state":"active","ping":68},{"user_id":810,"name":"Malex","steam_id":76561198012216805,"connected_time":680000000000,"state":"active","ping":60},{"user_id":522,"name":"Fu Qian Qian","steam_id":76561199081837220,"connected_time":12235000000000,"state":"active","ping":80},{"user_id":811,"name":"But First You've Got To Get Mad","steam_id":76561197973496224,"connected_time":680000000000,"state":"active","ping":63},{"user_id":806,"name":"Randy \"the Man\" Johnson","steam_id":76561198039124445,"connected_time":873000000000,"state":"active","ping":123},{"user_id":599,"name":"Legion","steam_id":76561199036242643,"connected_time":6397000000000,"state":"active","ping":71},{"user_id":830,"name":"stevemarshall","steam_id":76561198405982285,"connected_time":262000000000,"state":"active","ping":46},{"user_id":816,"name":"The fish of doom","steam_id":76561198049069677,"connected_time":596000000000,"state":"active","ping":57},{"user_id":828,"name":"small balls prime","steam_id":76561198100195534,"connected_time":285000000000,"state":"active","ping":86},{"user_id":814,"name":"pwllw","steam_id":76561198095431471,"connected_time":654000000000,"state":"active","ping":75},{"user_id":831,"name":"Mitchu The Bidness Man","steam_id":76561198102494381,"connected_time":249000000000,"state":"active","ping":60},{"user_id":832,"name":"LordOfTheNoobs","steam_id":76561197962697523,"connected_time":248000000000,"state":"active","ping":73},{"user_id":835,"name":"peanut butter jelly DA LONG WAY","steam_id":76561198079416036,"connected_time":100000000000,"state":"active","ping":45},{"user_id":815,"name":"king of bogers","steam_id":76561198045731295,"connected_time":644000000000,"state":"active","ping":68},{"user_id":783,"name":"primordialheath","steam_id":76561199386942638,"connected_time":2440000000000,"state":"active","ping":68},{"user_id":796,"name":"Nicholas Deckolas","steam_id":76561198005301468,"connected_time":1411000000000,"state":"active","ping":87},{"user_id":802,"name":"._.","steam_id":76561198210196856,"connected_time":1177000000000,"state":"active","ping":109},{"user_id":793,"name":"hey beautiful!","steam_id":76561198224614084,"connected_time":1714000000000,"state":"active","ping":75},{"user_id":787,"name":"Lia_Rein","steam_id":76561198151569597,"connected_time":2080000000000,"state":"active","ping":131},{"user_id":836,"name":"jackpot","steam_id":76561198065339248,"connected_time":20000000000,"state":"spawning","ping":98},{"user_id":818,"name":"Notorious Criminal Prawo Jazdy","steam_id":76561198339011254,"connected_time":584000000000,"state":"active","ping":79}]},{"server_id":106,"name":"Uncletopia | Chicago | 2 | All Maps","name_short":"chi-2","host":"chi-1.us.uncletopia.com","port":27025,"enabled":true,"region":"us-central","cc":"us","latitude":41.881832,"longitude":-87.62318,"reserved":0,"last_update":"0001-01-01T00:00:00Z","name_a2s":"Uncletopia | Chicago | 2 | All Maps","protocol":17,"map":"pl_upward","folder":"tf","game":"Team Fortress","app_id":440,"player_count":20,"max_players":24,"Bots":0,"server_type":"Dedicated","server_os":"Linux","password":true,"vac":true,"version":"7757534","steam_id":85568392924469985,"keywords":["nocrits","nodmgspread","payload","uncletopia"],"game_id":440,"stv_port":27026,"stv_name":"Uncletopia | Chicago | 2 | All Maps | STV","players":[{"user_id":804,"name":"gabagool","steam_id":76561198012131766,"connected_time":1101000000000,"state":"active","ping":128},{"user_id":813,"name":"monke","steam_id":76561198035138859,"connected_time":26000000000,"state":"spawning","ping":68},{"user_id":781,"name":"god's sleepiest soldier","steam_id":76561198992914023,"connected_time":3032000000000,"state":"active","ping":54},{"user_id":795,"name":"GreenApples","steam_id":76561198120559543,"connected_time":1660000000000,"state":"active","ping":90},{"user_id":764,"name":"internet crush","steam_id":76561198068406937,"connected_time":3442000000000,"state":"active","ping":75},{"user_id":812,"name":"SnickerDoodles","steam_id":76561198033015232,"connected_time":120000000000,"state":"active","ping":73},{"user_id":765,"name":"PhantomOc3lot","steam_id":76561198097648222,"connected_time":3434000000000,"state":"active","ping":90},{"user_id":766,"name":":(","steam_id":76561197960555601,"connected_time":3429000000000,"state":"active","ping":100},{"user_id":767,"name":"nintenbro64","steam_id":76561198091282261,"connected_time":3423000000000,"state":"active","ping":99},{"user_id":768,"name":"Hawkeye","steam_id":76561198037535203,"connected_time":3405000000000,"state":"active","ping":55},{"user_id":770,"name":"Astro","steam_id":76561198116667442,"connected_time":3312000000000,"state":"active","ping":162},{"user_id":810,"name":"trash beast","steam_id":76561198015792736,"connected_time":397000000000,"state":"active","ping":71},{"user_id":739,"name":"trans rat gaming","steam_id":76561198964321336,"connected_time":6073000000000,"state":"active","ping":141},{"user_id":772,"name":"TartMeringue","steam_id":76561198986757576,"connected_time":3283000000000,"state":"active","ping":70},{"user_id":800,"name":"Greed","steam_id":76561198041628318,"connected_time":1421000000000,"state":"active","ping":114},{"user_id":805,"name":"Kapitan Bomba","steam_id":76561199102087660,"connected_time":1087000000000,"state":"active","ping":58},{"user_id":802,"name":"Dullahan","steam_id":76561198119668908,"connected_time":1371000000000,"state":"active","ping":93},{"user_id":788,"name":"Lucy","steam_id":76561198032590343,"connected_time":2497000000000,"state":"active","ping":86},{"user_id":791,"name":"DeadErebus","steam_id":76561198286117045,"connected_time":2092000000000,"state":"active","ping":32},{"user_id":789,"name":"Goldbug","steam_id":76561198025221202,"connected_time":2476000000000,"state":"active","ping":117}]},{"server_id":402,"name":"Uncletopia | Chicago | 3 | All Maps","name_short":"chi-3","host":"chi-1.us.uncletopia.com","port":27035,"enabled":true,"region":"us-central","cc":"us","latitude":41.881832,"longitude":-87.62318,"reserved":0,"last_update":"0001-01-01T00:00:00Z","name_a2s":"Uncletopia | Chicago | 3 | All Maps","protocol":17,"map":"pl_pier","folder":"tf","game":"Team Fortress","app_id":440,"player_count":23,"max_players":24,"Bots":0,"server_type":"Dedicated","server_os":"Linux","password":true,"vac":true,"version":"7757534","steam_id":85568392924515191,"keywords":["nocrits","nodmgspread","payload","uncletopia"],"game_id":440,"stv_port":27036,"stv_name":"Uncletopia | Chicago | 3 | All Maps | STV","players":[{"user_id":602,"name":"Deviljinin","steam_id":76561198127549413,"connected_time":3742000000000,"state":"active","ping":63},{"user_id":624,"name":"Mr. Snatched Yo Nutsack","steam_id":76561199075873174,"connected_time":551000000000,"state":"active","ping":143},{"user_id":623,"name":"Country Dish Towel","steam_id":76561198068958789,"connected_time":556000000000,"state":"active","ping":65},{"user_id":613,"name":"Sjsparrow","steam_id":76561197995352435,"connected_time":1958000000000,"state":"active","ping":50},{"user_id":610,"name":"turt","steam_id":76561198260892128,"connected_time":2870000000000,"state":"active","ping":58},{"user_id":586,"name":"Summer","steam_id":76561198121692871,"connected_time":4510000000000,"state":"active","ping":62},{"user_id":565,"name":"META.exe","steam_id":76561199067098696,"connected_time":6675000000000,"state":"active","ping":105},{"user_id":587,"name":"finn (he/him)","steam_id":76561198257531708,"connected_time":4510000000000,"state":"active","ping":60},{"user_id":611,"name":"Cool Cool Mountain","steam_id":76561199004839490,"connected_time":2850000000000,"state":"active","ping":71},{"user_id":622,"name":"Scout","steam_id":76561198149172070,"connected_time":829000000000,"state":"active","ping":86},{"user_id":617,"name":"Linko","steam_id":76561198073290788,"connected_time":1877000000000,"state":"active","ping":107},{"user_id":593,"name":"3 fortnite vbucks","steam_id":76561198246007884,"connected_time":4425000000000,"state":"active","ping":71},{"user_id":625,"name":"frank","steam_id":76561198045436159,"connected_time":547000000000,"state":"active","ping":74},{"user_id":591,"name":"phone","steam_id":76561198029268743,"connected_time":4477000000000,"state":"active","ping":60},{"user_id":604,"name":"ape (real)","steam_id":76561198379444671,"connected_time":3518000000000,"state":"active","ping":54},{"user_id":619,"name":"Sarbanes-Oxley","steam_id":76561197975898479,"connected_time":1845000000000,"state":"active","ping":80},{"user_id":596,"name":"SomeScuffedKid","steam_id":76561198086113234,"connected_time":4393000000000,"state":"active","ping":63},{"user_id":627,"name":"Lorberry","steam_id":76561198023706058,"connected_time":469000000000,"state":"active","ping":91},{"user_id":620,"name":"Drake from State Farm","steam_id":76561199069029812,"connected_time":1273000000000,"state":"active","ping":105},{"user_id":628,"name":"Dewth","steam_id":76561198083907105,"connected_time":137000000000,"state":"active","ping":101},{"user_id":605,"name":"RedHed","steam_id":76561199350870177,"connected_time":3506000000000,"state":"active","ping":61},{"user_id":621,"name":"Rudy","steam_id":76561198013456828,"connected_time":1213000000000,"state":"active","ping":59},{"user_id":600,"name":"MEATBALL","steam_id":76561198028499312,"connected_time":4225000000000,"state":"active","ping":65}]},{"server_id":403,"name":"Uncletopia | Chicago | 4 | All Maps","name_short":"chi-4","host":"chi-1.us.uncletopia.com","port":27045,"enabled":true,"region":"us-central","cc":"us","latitude":41.881832,"longitude":-87.62318,"reserved":0,"last_update":"0001-01-01T00:00:00Z","name_a2s":"Uncletopia | Chicago | 4 | All Maps","protocol":17,"map":"ctf_turbine","folder":"tf","game":"Team Fortress","app_id":440,"player_count":19,"max_players":24,"Bots":0,"server_type":"Dedicated","server_os":"Linux","password":true,"vac":true,"version":"7757534","steam_id":85568392924515193,"keywords":["ctf","nocrits","nodmgspread","uncletopia"],"game_id":440,"stv_port":27046,"stv_name":"Uncletopia | Chicago | 4 | All Maps | STV","players":[{"user_id":648,"name":"three three","steam_id":76561198177354155,"connected_time":533000000000,"state":"active","ping":61},{"user_id":651,"name":"Wild_Rumpus","steam_id":76561198066393719,"connected_time":339000000000,"state":"active","ping":56},{"user_id":601,"name":"Goblin Mode","steam_id":76561198064870076,"connected_time":3569000000000,"state":"active","ping":91},{"user_id":659,"name":"armed slobbery. enguzzlement.","steam_id":76561198237292756,"connected_time":120000000000,"state":"active","ping":61},{"user_id":619,"name":"SlimGrady","steam_id":76561198451231329,"connected_time":1943000000000,"state":"active","ping":64},{"user_id":650,"name":"Miller™","steam_id":76561198085090516,"connected_time":380000000000,"state":"active","ping":148},{"user_id":652,"name":"kimin","steam_id":76561198263393063,"connected_time":331000000000,"state":"active","ping":119},{"user_id":653,"name":"GC.sibling bane","steam_id":76561198196769297,"connected_time":321000000000,"state":"active","ping":90},{"user_id":608,"name":"Matt.jpg","steam_id":76561198132469465,"connected_time":2314000000000,"state":"active","ping":78},{"user_id":654,"name":"GC.loafe","steam_id":76561198119679320,"connected_time":297000000000,"state":"active","ping":52},{"user_id":587,"name":"cooltool21","steam_id":76561197996817585,"connected_time":4743000000000,"state":"active","ping":75},{"user_id":600,"name":"ogre confrontation","steam_id":76561198192654455,"connected_time":3727000000000,"state":"active","ping":75},{"user_id":655,"name":"Wug","steam_id":76561198084112264,"connected_time":291000000000,"state":"active","ping":75},{"user_id":622,"name":"Rx Auntie","steam_id":76561198051618393,"connected_time":1745000000000,"state":"active","ping":67},{"user_id":658,"name":"murphy700","steam_id":76561198063107723,"connected_time":150000000000,"state":"active","ping":50},{"user_id":613,"name":"Furry Saul Goodman","steam_id":76561198069580305,"connected_time":2215000000000,"state":"active","ping":46},{"user_id":626,"name":"Patisserie","steam_id":76561198239169752,"connected_time":1589000000000,"state":"active","ping":60},{"user_id":629,"name":"Tomato Soup","steam_id":76561198051834684,"connected_time":1479000000000,"state":"active","ping":146},{"user_id":634,"name":"totoro","steam_id":76561198210420871,"connected_time":1389000000000,"state":"active","ping":46}]},{"server_id":36,"name":"Uncletopia | Chicago | 5 | All Maps","name_short":"chi-5","host":"chi-2.us.uncletopia.com","port":27015,"enabled":true,"region":"us-central","cc":"us","latitude":41.881832,"longitude":-87.62318,"reserved":0,"last_update":"0001-01-01T00:00:00Z","name_a2s":"Uncletopia | Chicago | 5 | All Maps","protocol":17,"map":"pl_pier","folder":"tf","game":"Team Fortress","app_id":440,"player_count":23,"max_players":24,"Bots":0,"server_type":"Dedicated","server_os":"Linux","password":true,"vac":true,"version":"7757534","steam_id":85568392924866362,"keywords":["nocrits","nodmgspread","payload","uncletopia"],"game_id":440,"stv_port":27016,"stv_name":"Uncletopia | Chicago | 5 | All Maps | STV","players":[{"user_id":257,"name":"Bear Pants","steam_id":76561198078751566,"connected_time":768000000000,"state":"active","ping":61},{"user_id":261,"name":"Found Fumo Footage (Real)","steam_id":76561198281974391,"connected_time":364000000000,"state":"active","ping":62},{"user_id":255,"name":"KingToaster","steam_id":76561198007903802,"connected_time":982000000000,"state":"active","ping":85},{"user_id":230,"name":"evan_is_sauce","steam_id":76561199086802383,"connected_time":2124000000000,"state":"active","ping":102},{"user_id":177,"name":"vvichael","steam_id":76561198238148528,"connected_time":6745000000000,"state":"active","ping":66},{"user_id":253,"name":"Crazybird769","steam_id":76561198097963689,"connected_time":1091000000000,"state":"active","ping":60},{"user_id":260,"name":"snow","steam_id":76561198018184698,"connected_time":705000000000,"state":"active","ping":71},{"user_id":240,"name":"melon soda","steam_id":76561198066748230,"connected_time":1515000000000,"state":"active","ping":66},{"user_id":256,"name":"[RH] Al Fire 101","steam_id":76561197975696892,"connected_time":778000000000,"state":"active","ping":60},{"user_id":52,"name":"Phil Collins","steam_id":76561198068868644,"connected_time":16185000000000,"state":"active","ping":108},{"user_id":259,"name":"Dylan","steam_id":76561198060996590,"connected_time":734000000000,"state":"active","ping":104},{"user_id":198,"name":"ej","steam_id":76561198059281026,"connected_time":4952000000000,"state":"active","ping":101},{"user_id":244,"name":"deadpixel","steam_id":76561198150249843,"connected_time":1463000000000,"state":"active","ping":109},{"user_id":241,"name":"hierodule","steam_id":76561198023229665,"connected_time":1515000000000,"state":"active","ping":74},{"user_id":223,"name":"Cagnus Marlsen","steam_id":76561198063341193,"connected_time":2844000000000,"state":"active","ping":67},{"user_id":262,"name":"Evil Numskull","steam_id":76561198087631219,"connected_time":220000000000,"state":"active","ping":108},{"user_id":249,"name":"caption cool","steam_id":76561197990612056,"connected_time":1181000000000,"state":"active","ping":50},{"user_id":242,"name":"amazing","steam_id":76561198386233160,"connected_time":1510000000000,"state":"active","ping":90},{"user_id":254,"name":"ShadowisE","steam_id":76561197990144848,"connected_time":1049000000000,"state":"active","ping":50},{"user_id":105,"name":"ApricotOcelot","steam_id":76561198128393362,"connected_time":12415000000000,"state":"active","ping":74},{"user_id":248,"name":"mtnQ","steam_id":76561198024026924,"connected_time":1189000000000,"state":"active","ping":51},{"user_id":231,"name":"lego justin roiland","steam_id":76561198367019006,"connected_time":2116000000000,"state":"active","ping":74},{"user_id":228,"name":"Evil rat","steam_id":76561198117181511,"connected_time":2315000000000,"state":"active","ping":70}]},{"server_id":37,"name":"Uncletopia | Chicago | 6 | All Maps","name_short":"chi-6","host":"chi-2.us.uncletopia.com","port":27025,"enabled":true,"region":"us-central","cc":"us","latitude":41.881832,"longitude":-87.62318,"reserved":0,"last_update":"0001-01-01T00:00:00Z","name_a2s":"Uncletopia | Chicago | 6 | All Maps","protocol":17,"map":"pl_barnblitz","folder":"tf","game":"Team Fortress","app_id":440,"player_count":23,"max_players":24,"Bots":0,"server_type":"Dedicated","server_os":"Linux","password":true,"vac":true,"version":"7757534","steam_id":85568392924866363,"keywords":["nocrits","nodmgspread","payload","uncletopia"],"game_id":440,"stv_port":27026,"stv_name":"Uncletopia | Chicago | 6 | All Maps | STV","players":[{"user_id":373,"name":"lanoc","steam_id":76561198055415367,"connected_time":327000000000,"state":"active","ping":56},{"user_id":329,"name":"*hits the griddy*","steam_id":76561198979494052,"connected_time":3139000000000,"state":"active","ping":90},{"user_id":356,"name":"NANO","steam_id":76561199009634635,"connected_time":1385000000000,"state":"active","ping":104},{"user_id":299,"name":"SilentFootba11","steam_id":76561199006570947,"connected_time":5712000000000,"state":"active","ping":70},{"user_id":377,"name":"⛧","steam_id":76561198021308963,"connected_time":198000000000,"state":"active","ping":68},{"user_id":361,"name":"volta","steam_id":76561199214283884,"connected_time":986000000000,"state":"active","ping":92},{"user_id":362,"name":"gamer dilbert","steam_id":76561197984752473,"connected_time":854000000000,"state":"active","ping":60},{"user_id":336,"name":"Father Jon","steam_id":76561198324730919,"connected_time":2867000000000,"state":"active","ping":90},{"user_id":363,"name":"MagicKing27ttv","steam_id":76561198276953046,"connected_time":847000000000,"state":"active","ping":75},{"user_id":375,"name":"akirajimbo","steam_id":76561197979960008,"connected_time":254000000000,"state":"active","ping":59},{"user_id":376,"name":"MasterCrafter27","steam_id":76561198151035981,"connected_time":236000000000,"state":"active","ping":103},{"user_id":366,"name":"Bottom Text","steam_id":76561198075447301,"connected_time":620000000000,"state":"active","ping":72},{"user_id":382,"name":"Zippy","steam_id":76561198279229422,"connected_time":67000000000,"state":"active","ping":51},{"user_id":342,"name":"Amish Robot","steam_id":76561198041156065,"connected_time":2661000000000,"state":"active","ping":79},{"user_id":344,"name":"CroMaLaka","steam_id":76561198380926090,"connected_time":2649000000000,"state":"active","ping":78},{"user_id":368,"name":"Gary","steam_id":76561198133309753,"connected_time":586000000000,"state":"active","ping":64},{"user_id":305,"name":"Snoopy","steam_id":76561198273735974,"connected_time":5619000000000,"state":"active","ping":124},{"user_id":369,"name":"sithreis","steam_id":76561198000564263,"connected_time":580000000000,"state":"active","ping":72},{"user_id":347,"name":"Mr. Toucher","steam_id":76561199121158746,"connected_time":2600000000000,"state":"active","ping":115},{"user_id":370,"name":"java","steam_id":76561198030276792,"connected_time":575000000000,"state":"active","ping":60},{"user_id":371,"name":"King","steam_id":76561198010019214,"connected_time":573000000000,"state":"active","ping":48},{"user_id":372,"name":"Iron","steam_id":76561198247918478,"connected_time":565000000000,"state":"active","ping":66},{"user_id":349,"name":"Manuel Labor","steam_id":76561199365623849,"connected_time":2463000000000,"state":"active","ping":93}]},{"server_id":38,"name":"Uncletopia | Chicago | 7 | Stopwatch Beta","name_short":"chi-7","host":"chi-2.us.uncletopia.com","port":27035,"enabled":true,"region":"us-central","cc":"us","latitude":41.881832,"longitude":-87.62318,"reserved":0,"last_update":"0001-01-01T00:00:00Z","name_a2s":"Uncletopia | Chicago | 7 | Stopwatch Beta","protocol":17,"map":"workshop/koth_ramjam_rc1.ugc459778887","folder":"tf","game":"Team Fortress","app_id":440,"player_count":2,"max_players":24,"Bots":0,"server_type":"Dedicated","server_os":"Linux","password":true,"vac":true,"version":"7757534","steam_id":85568392924866364,"keywords":["cp","nocrits","nodmgspread","uncletopia"],"game_id":440,"stv_port":27036,"stv_name":"Uncletopia | Chicago | 7 | Stopwatch Beta | STV","players":[{"user_id":17,"name":"lquidtoastt","steam_id":76561199096349404,"connected_time":891000000000,"state":"active","ping":47},{"user_id":18,"name":"toxic_raptor","steam_id":76561199387886048,"connected_time":824000000000,"state":"active","ping":78}]},{"server_id":39,"name":"Uncletopia | Chicago | 8 | Community","name_short":"chi-8","host":"chi-2.us.uncletopia.com","port":27045,"enabled":true,"region":"us-central","cc":"us","latitude":41.881832,"longitude":-87.62318,"reserved":0,"last_update":"0001-01-01T00:00:00Z","name_a2s":"Uncletopia | Chicago | 8 | Community","protocol":17,"map":"workshop/koth_bagel_rc5.ugc2514036946","folder":"tf","game":"Team Fortress","app_id":440,"player_count":0,"max_players":24,"Bots":0,"server_type":"Dedicated","server_os":"Linux","password":true,"vac":true,"version":"7757534","steam_id":85568392924866365,"keywords":["cp","nocrits","nodmgspread","uncletopia"],"game_id":440,"stv_port":27046,"stv_name":"Uncletopia | Chicago | 8 | Community | STV","players":null},{"server_id":8,"name":"Uncletopia | Dallas | 1 | All Maps","name_short":"dal-1","host":"dal-1.us.uncletopia.com","port":27015,"enabled":true,"region":"us-central","cc":"us","latitude":32.779167,"longitude":-96.80889,"reserved":0,"last_update":"0001-01-01T00:00:00Z","name_a2s":"Uncletopia | Dallas | 1 | All Maps","protocol":17,"map":"pl_badwater","folder":"tf","game":"Team Fortress","app_id":440,"player_count":24,"max_players":24,"Bots":0,"server_type":"Dedicated","server_os":"Linux","password":true,"vac":true,"version":"7757534","steam_id":85568392924469986,"keywords":["nocrits","nodmgspread","payload","uncletopia"],"game_id":440,"stv_port":27016,"stv_name":"Uncletopia | Dallas | 1 | All Maps | STV","players":[{"user_id":630,"name":"Azaheth","steam_id":76561198253616898,"connected_time":3674000000000,"state":"active","ping":90},{"user_id":644,"name":"+","steam_id":76561198262422184,"connected_time":2728000000000,"state":"active","ping":47},{"user_id":668,"name":"FG7","steam_id":76561198381197197,"connected_time":582000000000,"state":"active","ping":98},{"user_id":666,"name":"{ST} Oxythemoron","steam_id":76561198060089965,"connected_time":1326000000000,"state":"active","ping":70},{"user_id":565,"name":"The Robot Menace","steam_id":76561198043390413,"connected_time":8024000000000,"state":"active","ping":52},{"user_id":619,"name":"Lamy","steam_id":76561198348354629,"connected_time":5549000000000,"state":"active","ping":69},{"user_id":568,"name":"Mitty","steam_id":76561198014177684,"connected_time":7877000000000,"state":"active","ping":85},{"user_id":675,"name":"the smiling zombie","steam_id":76561199246231090,"connected_time":327000000000,"state":"active","ping":80},{"user_id":667,"name":"Greg Boberton 2012","steam_id":76561198983566026,"connected_time":603000000000,"state":"active","ping":81},{"user_id":623,"name":"TheTruthOfTheCessationOfDukkha","steam_id":76561198214370515,"connected_time":4607000000000,"state":"active","ping":74},{"user_id":649,"name":"yoohb0330","steam_id":76561198274007110,"connected_time":2355000000000,"state":"active","ping":81},{"user_id":566,"name":"Grinski","steam_id":76561198054787727,"connected_time":8017000000000,"state":"active","ping":103},{"user_id":670,"name":"amani","steam_id":76561198085310326,"connected_time":499000000000,"state":"active","ping":89},{"user_id":672,"name":"gancho","steam_id":76561198170706982,"connected_time":413000000000,"state":"active","ping":43},{"user_id":661,"name":"MeMyBongusAndTheGreatOutdoors","steam_id":76561198097708978,"connected_time":1518000000000,"state":"active","ping":81},{"user_id":628,"name":"Dreamy Sweat from 2hu","steam_id":76561198094602446,"connected_time":4402000000000,"state":"active","ping":90},{"user_id":674,"name":"Rakk","steam_id":76561198855176174,"connected_time":409000000000,"state":"active","ping":77},{"user_id":638,"name":"peee pee man","steam_id":76561198044979205,"connected_time":3185000000000,"state":"active","ping":94},{"user_id":665,"name":"Dragonofponies","steam_id":76561199016800803,"connected_time":1355000000000,"state":"active","ping":57},{"user_id":676,"name":"cologne","steam_id":76561198069600113,"connected_time":322000000000,"state":"active","ping":78},{"user_id":660,"name":"HiddenEgg","steam_id":76561199045105518,"connected_time":1657000000000,"state":"active","ping":90},{"user_id":659,"name":"Etomb","steam_id":76561198210017208,"connected_time":1729000000000,"state":"active","ping":101},{"user_id":663,"name":"Phillip Jeffries","steam_id":76561198064052174,"connected_time":1372000000000,"state":"active","ping":91},{"user_id":569,"name":"「Jimbo Reference」","steam_id":76561198016078541,"connected_time":7863000000000,"state":"active","ping":86}]},{"server_id":108,"name":"Uncletopia | Dallas | 2 | All Maps","name_short":"dal-2","host":"dal-1.us.uncletopia.com","port":27025,"enabled":true,"region":"us-central","cc":"us","latitude":32.779167,"longitude":-96.80889,"reserved":0,"last_update":"0001-01-01T00:00:00Z","name_a2s":"Uncletopia | Dallas | 2 | All Maps","protocol":17,"map":"pl_swiftwater_final1","folder":"tf","game":"Team Fortress","app_id":440,"player_count":2,"max_players":24,"Bots":0,"server_type":"Dedicated","server_os":"Linux","password":true,"vac":true,"version":"7757534","steam_id":85568392924469988,"keywords":["nocrits","nodmgspread","payload","uncletopia"],"game_id":440,"stv_port":27026,"stv_name":"Uncletopia | Dallas | 2 | All Maps | STV","players":[{"user_id":462,"name":"||:♩♩♩♪:|| Opplydead","steam_id":76561198028630334,"connected_time":8313000000000,"state":"active","ping":65},{"user_id":568,"name":"KittyToy","steam_id":76561198043990701,"connected_time":522000000000,"state":"active","ping":105}]},{"server_id":5,"name":"Uncletopia | Frankfurt | 1 | All Maps","name_short":"frk-1","host":"frk-1.de.uncletopia.com","port":27015,"enabled":true,"region":"eu","cc":"de","latitude":50.110924,"longitude":8.682127,"reserved":0,"last_update":"0001-01-01T00:00:00Z","name_a2s":"Uncletopia | Frankfurt | 1 | All Maps","protocol":17,"map":"pl_pier","folder":"tf","game":"Team Fortress","app_id":440,"player_count":0,"max_players":24,"Bots":0,"server_type":"Dedicated","server_os":"Linux","password":true,"vac":true,"version":"7757534","steam_id":85568392924469989,"keywords":["nocrits","nodmgspread","payload","uncletopia"],"game_id":440,"stv_port":27016,"stv_name":"Uncletopia | Frankfurt | 1 | All Maps | STV","players":null},{"server_id":110,"name":"Uncletopia | Frankfurt | 2 | All Maps","name_short":"frk-2","host":"frk-1.de.uncletopia.com","port":27025,"enabled":true,"region":"eu","cc":"de","latitude":50.110924,"longitude":8.682127,"reserved":0,"last_update":"0001-01-01T00:00:00Z","name_a2s":"Uncletopia | Frankfurt | 2 | All Maps","protocol":17,"map":"cp_altitude","folder":"tf","game":"Team Fortress","app_id":440,"player_count":0,"max_players":24,"Bots":0,"server_type":"Dedicated","server_os":"Linux","password":true,"vac":true,"version":"7757534","steam_id":85568392924469990,"keywords":["cp","nocrits","nodmgspread","uncletopia"],"game_id":440,"stv_port":27026,"stv_name":"Uncletopia | Frankfurt | 2 | All Maps | STV","players":null},{"server_id":308,"name":"Uncletopia | Frankfurt | 3 | All Maps","name_short":"frk-3","host":"frk-1.de.uncletopia.com","port":27035,"enabled":true,"region":"eu","cc":"de","latitude":50.110924,"longitude":8.682127,"reserved":0,"last_update":"0001-01-01T00:00:00Z","name_a2s":"Uncletopia | Frankfurt | 3 | All Maps","protocol":17,"map":"pl_barnblitz","folder":"tf","game":"Team Fortress","app_id":440,"player_count":0,"max_players":24,"Bots":0,"server_type":"Dedicated","server_os":"Linux","password":true,"vac":true,"version":"7757534","steam_id":85568392924504274,"keywords":["nocrits","nodmgspread","payload","uncletopia"],"game_id":440,"stv_port":27036,"stv_name":"Uncletopia | Frankfurt | 3 | All Maps | STV","players":null},{"server_id":309,"name":"Uncletopia | Frankfurt | 4 | All Maps","name_short":"frk-4","host":"frk-1.de.uncletopia.com","port":27045,"enabled":true,"region":"eu","cc":"de","latitude":50.110924,"longitude":8.682127,"reserved":0,"last_update":"0001-01-01T00:00:00Z","name_a2s":"Uncletopia | Frankfurt | 4 | All Maps","protocol":17,"map":"pl_snowycoast","folder":"tf","game":"Team Fortress","app_id":440,"player_count":0,"max_players":24,"Bots":0,"server_type":"Dedicated","server_os":"Linux","password":true,"vac":true,"version":"7757534","steam_id":85568392924504275,"keywords":["nocrits","nodmgspread","payload","uncletopia"],"game_id":440,"stv_port":27046,"stv_name":"Uncletopia | Frankfurt | 4 | All Maps | STV","players":null},{"server_id":310,"name":"Uncletopia | Frankfurt | 5 | All Maps","name_short":"frk-5","host":"frk-1.de.uncletopia.com","port":27055,"enabled":true,"region":"eu","cc":"de","latitude":50.110924,"longitude":8.682127,"reserved":0,"last_update":"0001-01-01T00:00:00Z","name_a2s":"Uncletopia | Frankfurt | 5 | All Maps","protocol":17,"map":"cp_altitude","folder":"tf","game":"Team Fortress","app_id":440,"player_count":0,"max_players":24,"Bots":0,"server_type":"Dedicated","server_os":"Linux","password":true,"vac":true,"version":"7757534","steam_id":85568392924504277,"keywords":["cp","nocrits","nodmgspread","uncletopia"],"game_id":440,"stv_port":27056,"stv_name":"Uncletopia | Frankfurt | 5 | All Maps | STV","players":null},{"server_id":311,"name":"Uncletopia | Frankfurt | 6 | All Maps","name_short":"frk-6","host":"frk-1.de.uncletopia.com","port":27065,"enabled":true,"region":"eu","cc":"de","latitude":50.110924,"longitude":8.682127,"reserved":0,"last_update":"0001-01-01T00:00:00Z","name_a2s":"Uncletopia | Frankfurt | 6 | All Maps","protocol":17,"map":"koth_highpass","folder":"tf","game":"Team Fortress","app_id":440,"player_count":0,"max_players":24,"Bots":0,"server_type":"Dedicated","server_os":"Linux","password":true,"vac":true,"version":"7757534","steam_id":85568392924504278,"keywords":["cp","nocrits","nodmgspread","uncletopia"],"game_id":440,"stv_port":27066,"stv_name":"Uncletopia | Frankfurt | 6 | All Maps | STV","players":null},{"server_id":23,"name":"Uncletopia | Frankfurt | 7 | Stopwatch Beta","name_short":"frk-7","host":"frk-1.de.uncletopia.com","port":27075,"enabled":true,"region":"eu","cc":"de","latitude":50.110924,"longitude":8.682127,"reserved":0,"last_update":"0001-01-01T00:00:00Z","name_a2s":"Uncletopia | Frankfurt | 7 | Stopwatch Beta","protocol":17,"map":"pl_borneo","folder":"tf","game":"Team Fortress","app_id":440,"player_count":0,"max_players":24,"Bots":0,"server_type":"Dedicated","server_os":"Linux","password":true,"vac":true,"version":"7757534","steam_id":85568392924742827,"keywords":["nocrits","nodmgspread","payload","uncletopia"],"game_id":440,"stv_port":27076,"stv_name":"Uncletopia | Frankfurt | 7 | Stopwatch Beta | STV","players":null},{"server_id":24,"name":"Uncletopia | Frankfurt | 8 | Community","name_short":"frk-8","host":"frk-1.de.uncletopia.com","port":27085,"enabled":true,"region":"eu","cc":"de","latitude":50.110924,"longitude":8.682127,"reserved":0,"last_update":"0001-01-01T00:00:00Z","name_a2s":"Uncletopia | Frankfurt | 8 | Community","protocol":17,"map":"koth_cascade","folder":"tf","game":"Team Fortress","app_id":440,"player_count":0,"max_players":24,"Bots":0,"server_type":"Dedicated","server_os":"Linux","password":true,"vac":true,"version":"7757534","steam_id":85568392924742828,"keywords":["cp","nocrits","nodmgspread","uncletopia"],"game_id":440,"stv_port":27086,"stv_name":"Uncletopia | Frankfurt | 8 | Community | STV","players":null},{"server_id":202,"name":"Uncletopia | Hong Kong | 1 | All Maps","name_short":"hgk-1","host":"hgk-1.hk.uncletopia.com","port":27015,"enabled":true,"region":"asia","cc":"hk","latitude":22.302711,"longitude":114.177216,"reserved":0,"last_update":"0001-01-01T00:00:00Z","name_a2s":"Uncletopia | Hong Kong | 1 | All Maps","protocol":17,"map":"pl_upward","folder":"tf","game":"Team Fortress","app_id":440,"player_count":24,"max_players":24,"Bots":0,"server_type":"Dedicated","server_os":"Linux","password":true,"vac":true,"version":"7757534","steam_id":85568392924494504,"keywords":["nocrits","nodmgspread","payload","uncletopia"],"game_id":440,"stv_port":27016,"stv_name":"Uncletopia | Hong Kong | 1 | All Maps | STV","players":[{"user_id":160,"name":"Sayo-Nara","steam_id":76561198005744733,"connected_time":4304000000000,"state":"active","ping":90},{"user_id":187,"name":"マグナス","steam_id":76561198208990721,"connected_time":2627000000000,"state":"active","ping":135},{"user_id":124,"name":"Bertengkar","steam_id":76561198213031155,"connected_time":6415000000000,"state":"active","ping":95},{"user_id":199,"name":"irylfaith","steam_id":76561199071455481,"connected_time":637000000000,"state":"active","ping":89},{"user_id":207,"name":"Saffron","steam_id":76561199025320247,"connected_time":297000000000,"state":"active","ping":66},{"user_id":208,"name":"banana","steam_id":76561199205336397,"connected_time":241000000000,"state":"active","ping":86},{"user_id":201,"name":"Milk❤ (most loved guy in ut)","steam_id":76561198163911560,"connected_time":512000000000,"state":"active","ping":163},{"user_id":181,"name":"koolaidkiller47","steam_id":76561198413116920,"connected_time":3116000000000,"state":"active","ping":75},{"user_id":166,"name":":D","steam_id":76561198009692495,"connected_time":4072000000000,"state":"active","ping":89},{"user_id":182,"name":"✧BaKa BAzooKA✧(◕▿◕ )","steam_id":76561198061628689,"connected_time":3082000000000,"state":"active","ping":58},{"user_id":186,"name":"rtgod","steam_id":76561198125363469,"connected_time":2865000000000,"state":"active","ping":75},{"user_id":211,"name":"momosneakeradventure","steam_id":76561199046440440,"connected_time":20000000000,"state":"active","ping":45},{"user_id":192,"name":"LudE","steam_id":76561198828840546,"connected_time":2008000000000,"state":"active","ping":82},{"user_id":193,"name":"spinach (new mouse)","steam_id":76561198042539541,"connected_time":1968000000000,"state":"active","ping":89},{"user_id":176,"name":"Momoxhien","steam_id":76561198414997429,"connected_time":3802000000000,"state":"active","ping":62},{"user_id":190,"name":":)","steam_id":76561198437941450,"connected_time":2247000000000,"state":"active","ping":86},{"user_id":195,"name":"17","steam_id":76561198241530712,"connected_time":1628000000000,"state":"active","ping":60},{"user_id":196,"name":"Lu","steam_id":76561198320532821,"connected_time":1615000000000,"state":"active","ping":58},{"user_id":210,"name":"iced","steam_id":76561198999114004,"connected_time":92000000000,"state":"active","ping":107},{"user_id":197,"name":"force","steam_id":76561199109339247,"connected_time":850000000000,"state":"active","ping":79},{"user_id":179,"name":"loreley","steam_id":76561198230213828,"connected_time":3305000000000,"state":"active","ping":68},{"user_id":206,"name":"Smick","steam_id":76561199184927159,"connected_time":402000000000,"state":"active","ping":123},{"user_id":98,"name":"煙海 | Enkai","steam_id":76561198050460825,"connected_time":8118000000000,"state":"active","ping":75},{"user_id":130,"name":"Urotsuki","steam_id":76561198074339034,"connected_time":5545000000000,"state":"active","ping":77}]},{"server_id":1,"name":"Uncletopia | Los Angeles | 1 | All Maps","name_short":"lax-1","host":"lax-1.us.uncletopia.com","port":27015,"enabled":true,"region":"us-west","cc":"us","latitude":33.94279,"longitude":-118.41004,"reserved":0,"last_update":"0001-01-01T00:00:00Z","name_a2s":"Uncletopia | Los Angeles | 1 | All Maps","protocol":17,"map":"pl_snowycoast","folder":"tf","game":"Team Fortress","app_id":440,"player_count":22,"max_players":24,"Bots":0,"server_type":"Dedicated","server_os":"Linux","password":true,"vac":true,"version":"7757534","steam_id":85568392924469991,"keywords":["nocrits","nodmgspread","payload","uncletopia"],"game_id":440,"stv_port":27016,"stv_name":"Uncletopia | Los Angeles | 1 | All Maps | STV","players":[{"user_id":525,"name":"emukill","steam_id":76561198053143720,"connected_time":976000000000,"state":"active","ping":92},{"user_id":482,"name":"garry","steam_id":76561199091007559,"connected_time":3866000000000,"state":"active","ping":58},{"user_id":530,"name":"Sparkly Venice","steam_id":76561198056445740,"connected_time":324000000000,"state":"active","ping":89},{"user_id":498,"name":"bad spy player","steam_id":76561198873699671,"connected_time":2390000000000,"state":"active","ping":81},{"user_id":524,"name":"Friggy","steam_id":76561198131467867,"connected_time":1012000000000,"state":"active","ping":45},{"user_id":534,"name":"Bomb Squirtle™","steam_id":76561197998931145,"connected_time":163000000000,"state":"active","ping":123},{"user_id":431,"name":"Mothma","steam_id":76561198353789504,"connected_time":7075000000000,"state":"active","ping":62},{"user_id":519,"name":"yoyo","steam_id":76561198285758098,"connected_time":1175000000000,"state":"active","ping":55},{"user_id":535,"name":"Mike Hawk","steam_id":76561198045053326,"connected_time":155000000000,"state":"active","ping":78},{"user_id":488,"name":"DeathSushi","steam_id":76561199156131540,"connected_time":3558000000000,"state":"active","ping":91},{"user_id":499,"name":"compulsive","steam_id":76561198212421513,"connected_time":2366000000000,"state":"active","ping":46},{"user_id":533,"name":"nyoah","steam_id":76561198834915248,"connected_time":210000000000,"state":"active","ping":46},{"user_id":520,"name":"Big_John [Real]","steam_id":76561198099825954,"connected_time":1164000000000,"state":"active","ping":137},{"user_id":536,"name":"Feel the bern","steam_id":76561198078824519,"connected_time":115000000000,"state":"active","ping":82},{"user_id":537,"name":"Mr. Stockington","steam_id":76561198091354032,"connected_time":108000000000,"state":"active","ping":44},{"user_id":538,"name":"supcupman","steam_id":76561198051513866,"connected_time":85000000000,"state":"active","ping":69},{"user_id":539,"name":"non menthol newport","steam_id":76561198041907345,"connected_time":47000000000,"state":"active","ping":70},{"user_id":522,"name":"drool","steam_id":76561199045901994,"connected_time":1130000000000,"state":"active","ping":66},{"user_id":529,"name":"Fungus","steam_id":76561198390297486,"connected_time":576000000000,"state":"active","ping":40},{"user_id":517,"name":"2 Point Tom","steam_id":76561198087617008,"connected_time":1479000000000,"state":"active","ping":89},{"user_id":527,"name":"thepopeofshame","steam_id":76561199047823974,"connected_time":932000000000,"state":"active","ping":51},{"user_id":540,"name":"ForAPessimistImPrettyOptimistic","steam_id":76561198170128009,"connected_time":25000000000,"state":"active","ping":71}]},{"server_id":112,"name":"Uncletopia | Los Angeles | 2 | All Maps","name_short":"lax-2","host":"lax-1.us.uncletopia.com","port":27025,"enabled":true,"region":"us-west","cc":"us","latitude":33.94279,"longitude":-118.41004,"reserved":0,"last_update":"0001-01-01T00:00:00Z","name_a2s":"Uncletopia | Los Angeles | 2 | All Maps","protocol":17,"map":"pl_pier","folder":"tf","game":"Team Fortress","app_id":440,"player_count":24,"max_players":24,"Bots":0,"server_type":"Dedicated","server_os":"Linux","password":true,"vac":true,"version":"7757534","steam_id":85568392924469992,"keywords":["nocrits","nodmgspread","payload","uncletopia"],"game_id":440,"stv_port":27026,"stv_name":"Uncletopia | Los Angeles | 2 | All Maps | STV","players":[{"user_id":172,"name":"SuperSchlong","steam_id":76561197963363115,"connected_time":943000000000,"state":"active","ping":54},{"user_id":174,"name":"walidov","steam_id":76561198079965605,"connected_time":913000000000,"state":"active","ping":95},{"user_id":170,"name":"Bell DOG","steam_id":76561198136406552,"connected_time":1422000000000,"state":"active","ping":126},{"user_id":151,"name":"cheese man","steam_id":76561199016285746,"connected_time":2522000000000,"state":"active","ping":51},{"user_id":167,"name":"dumbeeon","steam_id":76561198059351874,"connected_time":1682000000000,"state":"active","ping":50},{"user_id":168,"name":"Tuna","steam_id":76561198129907971,"connected_time":1631000000000,"state":"active","ping":56},{"user_id":178,"name":"delight","steam_id":76561197980280272,"connected_time":408000000000,"state":"active","ping":70},{"user_id":171,"name":"WaffleCake","steam_id":76561199116787657,"connected_time":1410000000000,"state":"active","ping":80},{"user_id":154,"name":"Night of the Living Boobs™","steam_id":76561198086447265,"connected_time":2456000000000,"state":"active","ping":45},{"user_id":161,"name":"Matte :)","steam_id":76561198070631073,"connected_time":1825000000000,"state":"active","ping":61},{"user_id":164,"name":"Sir Nope (TSS)","steam_id":76561198035935649,"connected_time":1804000000000,"state":"active","ping":63},{"user_id":124,"name":"Can You Feel It Mr.Krabs","steam_id":76561198128302414,"connected_time":4952000000000,"state":"active","ping":46},{"user_id":175,"name":"TheBrocklobster","steam_id":76561198039682984,"connected_time":889000000000,"state":"active","ping":66},{"user_id":180,"name":"Kuudere","steam_id":76561198075028016,"connected_time":213000000000,"state":"active","ping":77},{"user_id":179,"name":"Punished Jeff #NeverSimpAgain","steam_id":76561198304252584,"connected_time":344000000000,"state":"active","ping":66},{"user_id":72,"name":"brobtlcehc","steam_id":76561198043558709,"connected_time":8839000000000,"state":"active","ping":75},{"user_id":177,"name":"Builder","steam_id":76561198042004822,"connected_time":710000000000,"state":"active","ping":58},{"user_id":166,"name":"K.A.R.M.A.","steam_id":76561198240750142,"connected_time":1715000000000,"state":"active","ping":51},{"user_id":173,"name":"The Caretaker","steam_id":76561198125241411,"connected_time":915000000000,"state":"active","ping":70},{"user_id":137,"name":"doobiebob","steam_id":76561198071963742,"connected_time":3444000000000,"state":"active","ping":57},{"user_id":176,"name":"hedahman","steam_id":76561198052398134,"connected_time":854000000000,"state":"active","ping":74},{"user_id":48,"name":"YourWishes","steam_id":76561198154414336,"connected_time":11777000000000,"state":"active","ping":52},{"user_id":146,"name":"Beary Adorable","steam_id":76561198023815802,"connected_time":3069000000000,"state":"active","ping":89},{"user_id":89,"name":"p9 jorts","steam_id":76561199041179985,"connected_time":7049000000000,"state":"active","ping":92}]},{"server_id":324,"name":"Uncletopia | Los Angeles | 3 | All Maps","name_short":"lax-3","host":"lax-1.us.uncletopia.com","port":27035,"enabled":true,"region":"us-west","cc":"us","latitude":33.94279,"longitude":-118.41004,"reserved":0,"last_update":"0001-01-01T00:00:00Z","name_a2s":"Uncletopia | Los Angeles | 3 | All Maps","protocol":17,"map":"cp_mountainlab","folder":"tf","game":"Team Fortress","app_id":440,"player_count":24,"max_players":24,"Bots":0,"server_type":"Dedicated","server_os":"Linux","password":true,"vac":true,"version":"7757534","steam_id":85568392924510198,"keywords":["cp","nocrits","nodmgspread","uncletopia"],"game_id":440,"stv_port":27036,"stv_name":"Uncletopia | Los Angeles | 3 | All Maps | STV","players":[{"user_id":96,"name":"nfseskimo","steam_id":76561198078745666,"connected_time":1243000000000,"state":"active","ping":77},{"user_id":118,"name":"HOG RIDER","steam_id":76561198298589502,"connected_time":207000000000,"state":"active","ping":47},{"user_id":51,"name":"Cthuflu","steam_id":76561198010893799,"connected_time":5171000000000,"state":"active","ping":110},{"user_id":99,"name":"Thequirka","steam_id":76561198968058652,"connected_time":876000000000,"state":"active","ping":80},{"user_id":26,"name":"CasualCakeEater","steam_id":76561199406096223,"connected_time":5954000000000,"state":"active","ping":67},{"user_id":70,"name":"Bones","steam_id":76561198069911981,"connected_time":4081000000000,"state":"active","ping":72},{"user_id":100,"name":"ice cream (冰淇淋)","steam_id":76561198976530881,"connected_time":868000000000,"state":"active","ping":44},{"user_id":101,"name":"rysworld","steam_id":76561198015372065,"connected_time":813000000000,"state":"active","ping":49},{"user_id":114,"name":"PROFILE NAME","steam_id":76561198059084503,"connected_time":349000000000,"state":"active","ping":102},{"user_id":60,"name":"Cute Gatito","steam_id":76561198351147780,"connected_time":4682000000000,"state":"active","ping":47},{"user_id":103,"name":"Raccoon","steam_id":76561197999084741,"connected_time":778000000000,"state":"active","ping":76},{"user_id":34,"name":"Tummy Sunday","steam_id":76561198031336957,"connected_time":5717000000000,"state":"active","ping":90},{"user_id":35,"name":"dandy","steam_id":76561197967362217,"connected_time":5682000000000,"state":"active","ping":46},{"user_id":36,"name":"Oliver Klozoff","steam_id":76561198024788419,"connected_time":5632000000000,"state":"active","ping":98},{"user_id":109,"name":"Pootis420","steam_id":76561198390196058,"connected_time":546000000000,"state":"active","ping":57},{"user_id":40,"name":"Bobbo","steam_id":76561198055689771,"connected_time":5463000000000,"state":"active","ping":77},{"user_id":105,"name":"jodie.blend","steam_id":76561198140701807,"connected_time":709000000000,"state":"active","ping":127},{"user_id":106,"name":"Konnor","steam_id":76561199136300254,"connected_time":684000000000,"state":"active","ping":44},{"user_id":110,"name":"Skeech","steam_id":76561198119215388,"connected_time":487000000000,"state":"active","ping":93},{"user_id":112,"name":"Nugakku","steam_id":76561198082346219,"connected_time":385000000000,"state":"active","ping":59},{"user_id":113,"name":"foucault","steam_id":76561198043411930,"connected_time":371000000000,"state":"active","ping":50},{"user_id":119,"name":"doctor sex md","steam_id":76561198150678175,"connected_time":200000000000,"state":"active","ping":50},{"user_id":69,"name":"SilverMango","steam_id":76561198091243252,"connected_time":4273000000000,"state":"active","ping":55},{"user_id":120,"name":"SneakyRocks","steam_id":76561198201694213,"connected_time":142000000000,"state":"active","ping":56}]},{"server_id":25,"name":"Uncletopia | Los Angeles | 4 | Stopwatch Beta","name_short":"lax-4","host":"lax-1.us.uncletopia.com","port":27045,"enabled":true,"region":"us-west","cc":"us","latitude":33.94279,"longitude":-118.41004,"reserved":0,"last_update":"0001-01-01T00:00:00Z","name_a2s":"Uncletopia | Los Angeles | 4 | Stopwatch Beta","protocol":17,"map":"koth_viaduct","folder":"tf","game":"Team Fortress","app_id":440,"player_count":0,"max_players":24,"Bots":0,"server_type":"Dedicated","server_os":"Linux","password":true,"vac":true,"version":"7757534","steam_id":85568392924510199,"keywords":["cp","nocrits","nodmgspread","uncletopia"],"game_id":440,"stv_port":27046,"stv_name":"Uncletopia | Los Angeles | 4 | Stopwatch Beta | STV","players":null},{"server_id":11,"name":"Uncletopia | London | 1 | All Maps","name_short":"lon-1","host":"lon-1.uk.uncletopia.com","port":27015,"enabled":true,"region":"eu","cc":"gb","latitude":51.509865,"longitude":-0.118092,"reserved":0,"last_update":"0001-01-01T00:00:00Z","name_a2s":"Uncletopia | London | 1 | All Maps","protocol":17,"map":"koth_viaduct","folder":"tf","game":"Team Fortress","app_id":440,"player_count":0,"max_players":24,"Bots":0,"server_type":"Dedicated","server_os":"Linux","password":true,"vac":true,"version":"7757534","steam_id":85568392924367362,"keywords":["cp","nocrits","nodmgspread","uncletopia"],"game_id":440,"stv_port":27016,"stv_name":"Uncletopia | London | 1 | All Maps | STV","players":null},{"server_id":114,"name":"Uncletopia | London | 2 | All Maps","name_short":"lon-2","host":"lon-1.uk.uncletopia.com","port":27025,"enabled":true,"region":"eu","cc":"gb","latitude":51.509865,"longitude":-0.118092,"reserved":0,"last_update":"0001-01-01T00:00:00Z","name_a2s":"Uncletopia | London | 2 | All Maps","protocol":17,"map":"pl_pier","folder":"tf","game":"Team Fortress","app_id":440,"player_count":23,"max_players":24,"Bots":0,"server_type":"Dedicated","server_os":"Linux","password":true,"vac":true,"version":"7757534","steam_id":85568392924470941,"keywords":["nocrits","nodmgspread","payload","uncletopia"],"game_id":440,"stv_port":27026,"stv_name":"Uncletopia | London | 2 | All Maps | STV","players":[{"user_id":1107,"name":"Weakest Sniper Enjoyer","steam_id":76561198133597860,"connected_time":4595000000000,"state":"active","ping":84},{"user_id":1114,"name":"dx_xb","steam_id":76561198064878900,"connected_time":3830000000000,"state":"active","ping":62},{"user_id":1152,"name":"abigail","steam_id":76561198132932617,"connected_time":61000000000,"state":"active","ping":56},{"user_id":1148,"name":"naleksi","steam_id":76561198018391055,"connected_time":734000000000,"state":"active","ping":97},{"user_id":1149,"name":"Slushy_","steam_id":76561198148649945,"connected_time":229000000000,"state":"active","ping":86},{"user_id":1119,"name":"Tata Cobraz0r","steam_id":76561198017693962,"connected_time":3481000000000,"state":"active","ping":75},{"user_id":1143,"name":"Pineapple Okanつ ◕_◕ ༽\ufffd\ufffd","steam_id":76561198069199449,"connected_time":1718000000000,"state":"active","ping":112},{"user_id":1109,"name":"eli","steam_id":76561198802155838,"connected_time":4563000000000,"state":"active","ping":135},{"user_id":1145,"name":"333res","steam_id":76561198148106704,"connected_time":1218000000000,"state":"active","ping":107},{"user_id":1141,"name":"Rave Robber","steam_id":76561199414716848,"connected_time":2172000000000,"state":"active","ping":74},{"user_id":1127,"name":"que movida","steam_id":76561197966125354,"connected_time":3196000000000,"state":"active","ping":64},{"user_id":1153,"name":"hud_saytext_time 0","steam_id":76561198010327228,"connected_time":51000000000,"state":"active","ping":70},{"user_id":1154,"name":"jonbob","steam_id":76561197963506620,"connected_time":43000000000,"state":"active","ping":46},{"user_id":1105,"name":"Dreadnawght","steam_id":76561198000973506,"connected_time":4608000000000,"state":"active","ping":61},{"user_id":1129,"name":"Autumnsky","steam_id":76561198055161203,"connected_time":3140000000000,"state":"active","ping":59},{"user_id":1102,"name":"brkc_love","steam_id":76561198090152271,"connected_time":5367000000000,"state":"active","ping":47},{"user_id":1115,"name":"gagalak","steam_id":76561198089979108,"connected_time":3767000000000,"state":"active","ping":99},{"user_id":1142,"name":"marsel","steam_id":76561198116168271,"connected_time":1828000000000,"state":"active","ping":75},{"user_id":1144,"name":"FrogGodPrime","steam_id":76561198042502842,"connected_time":1628000000000,"state":"active","ping":61},{"user_id":1136,"name":"cherry","steam_id":76561199006915718,"connected_time":2743000000000,"state":"active","ping":60},{"user_id":1079,"name":"glyph","steam_id":76561197980736364,"connected_time":6882000000000,"state":"active","ping":80},{"user_id":1082,"name":"r0la","steam_id":76561198128315340,"connected_time":6845000000000,"state":"active","ping":75},{"user_id":1084,"name":"Cumbustible Punda #SaveTF2","steam_id":76561197974274677,"connected_time":6804000000000,"state":"active","ping":56}]},{"server_id":320,"name":"Uncletopia | London | 3 | All Maps","name_short":"lon-3","host":"lon-1.uk.uncletopia.com","port":27035,"enabled":true,"region":"eu","cc":"gb","latitude":51.509865,"longitude":-0.118092,"reserved":0,"last_update":"0001-01-01T00:00:00Z","name_a2s":"Uncletopia | London | 3 | All Maps","protocol":17,"map":"pl_swiftwater_final1","folder":"tf","game":"Team Fortress","app_id":440,"player_count":0,"max_players":24,"Bots":0,"server_type":"Dedicated","server_os":"Linux","password":true,"vac":true,"version":"7757534","steam_id":85568392924510192,"keywords":["nocrits","nodmgspread","payload","uncletopia"],"game_id":440,"stv_port":27036,"stv_name":"Uncletopia | London | 3 | All Maps | STV","players":null},{"server_id":321,"name":"Uncletopia | London | 4 | All Maps","name_short":"lon-4","host":"lon-1.uk.uncletopia.com","port":27045,"enabled":true,"region":"eu","cc":"gb","latitude":51.509865,"longitude":-0.118092,"reserved":0,"last_update":"0001-01-01T00:00:00Z","name_a2s":"Uncletopia | London | 4 | All Maps","protocol":17,"map":"cp_process_final","folder":"tf","game":"Team Fortress","app_id":440,"player_count":0,"max_players":24,"Bots":0,"server_type":"Dedicated","server_os":"Linux","password":true,"vac":true,"version":"7757534","steam_id":85568392924510193,"keywords":["cp","nocrits","nodmgspread","uncletopia"],"game_id":440,"stv_port":27046,"stv_name":"Uncletopia | London | 4 | All Maps | STV","players":null},{"server_id":21,"name":"Uncletopia | London | 5 | All Maps","name_short":"lon-5","host":"lon-1.uk.uncletopia.com","port":27055,"enabled":true,"region":"eu","cc":"gb","latitude":51.509865,"longitude":-0.118092,"reserved":0,"last_update":"0001-01-01T00:00:00Z","name_a2s":"Uncletopia | London | 5 | All Maps","protocol":17,"map":"pl_badwater","folder":"tf","game":"Team Fortress","app_id":440,"player_count":0,"max_players":24,"Bots":0,"server_type":"Dedicated","server_os":"Linux","password":true,"vac":true,"version":"7757534","steam_id":85568392924742829,"keywords":["nocrits","nodmgspread","payload","uncletopia"],"game_id":440,"stv_port":27056,"stv_name":"Uncletopia | London | 5 | All Maps | STV","players":null},{"server_id":22,"name":"Uncletopia | London | 6 | All Maps","name_short":"lon-6","host":"lon-1.uk.uncletopia.com","port":27065,"enabled":true,"region":"eu","cc":"gb","latitude":51.509865,"longitude":-0.118092,"reserved":0,"last_update":"0001-01-01T00:00:00Z","name_a2s":"Uncletopia | London | 6 | All Maps","protocol":17,"map":"pl_badwater","folder":"tf","game":"Team Fortress","app_id":440,"player_count":0,"max_players":24,"Bots":0,"server_type":"Dedicated","server_os":"Linux","password":true,"vac":true,"version":"7757534","steam_id":85568392924742830,"keywords":["nocrits","nodmgspread","payload","uncletopia"],"game_id":440,"stv_port":27066,"stv_name":"Uncletopia | London | 6 | All Maps | STV","players":null},{"server_id":40,"name":"Uncletopia | London | 7 | No Payload","name_short":"lon-7","host":"lon-1.uk.uncletopia.com","port":27075,"enabled":true,"region":"eu","cc":"gb","latitude":51.509865,"longitude":-0.118092,"reserved":0,"last_update":"0001-01-01T00:00:00Z","name_a2s":"Uncletopia | London | 7 | No Payload","protocol":17,"map":"koth_suijin","folder":"tf","game":"Team Fortress","app_id":440,"player_count":0,"max_players":24,"Bots":0,"server_type":"Dedicated","server_os":"Linux","password":true,"vac":true,"version":"7757534","steam_id":85568392924964314,"keywords":["cp","nocrits","nodmgspread","uncletopia"],"game_id":440,"stv_port":27076,"stv_name":"Uncletopia | London | 7 | No Payload | STV","players":null},{"server_id":41,"name":"Uncletopia | London | 8 | Community","name_short":"lon-8","host":"lon-1.uk.uncletopia.com","port":27085,"enabled":true,"region":"eu","cc":"gb","latitude":51.509865,"longitude":-0.118092,"reserved":0,"last_update":"0001-01-01T00:00:00Z","name_a2s":"Uncletopia | London | 8 | Community","protocol":17,"map":"workshop/pl_vigil_rc9.ugc1266210012","folder":"tf","game":"Team Fortress","app_id":440,"player_count":0,"max_players":24,"Bots":0,"server_type":"Dedicated","server_os":"Linux","password":true,"vac":true,"version":"7757534","steam_id":85568392924964315,"keywords":["nocrits","nodmgspread","payload","uncletopia"],"game_id":440,"stv_port":27086,"stv_name":"Uncletopia | London | 8 | Community | STV","players":null},{"server_id":300,"name":"Uncletopia | Montréal | 1 | All Maps","name_short":"mtl-1","host":"mtl-1.ca.uncletopia.com","port":27015,"enabled":true,"region":"us-east","cc":"ca","latitude":45.50889,"longitude":-73.56167,"reserved":0,"last_update":"0001-01-01T00:00:00Z","name_a2s":"Uncletopia | Montréal | 1 | All Maps","protocol":17,"map":"koth_highpass","folder":"tf","game":"Team Fortress","app_id":440,"player_count":7,"max_players":24,"Bots":0,"server_type":"Dedicated","server_os":"Linux","password":true,"vac":true,"version":"7757534","steam_id":85568392924500087,"keywords":["cp","nocrits","nodmgspread","uncletopia"],"game_id":440,"stv_port":27016,"stv_name":"Uncletopia | Montréal | 1 | All Maps | STV","players":[{"user_id":170,"name":"Magnolia","steam_id":76561199044602594,"connected_time":745000000000,"state":"active","ping":45},{"user_id":172,"name":"Detritrus","steam_id":76561198842014421,"connected_time":142000000000,"state":"active","ping":32},{"user_id":165,"name":"Superfly Johnson","steam_id":76561198130438044,"connected_time":1986000000000,"state":"active","ping":46},{"user_id":129,"name":"AquaEclipse","steam_id":76561198225964744,"connected_time":4771000000000,"state":"active","ping":73},{"user_id":149,"name":"RaccoonCole","steam_id":76561198122478897,"connected_time":2861000000000,"state":"active","ping":85},{"user_id":162,"name":"kezia","steam_id":76561198059815894,"connected_time":2276000000000,"state":"active","ping":31},{"user_id":132,"name":"hauntaholic","steam_id":76561198095051652,"connected_time":4669000000000,"state":"active","ping":84}]},{"server_id":301,"name":"Uncletopia | Montréal | 2 | All Maps","name_short":"mtl-2","host":"mtl-1.ca.uncletopia.com","port":27025,"enabled":true,"region":"us-east","cc":"ca","latitude":45.50889,"longitude":-73.56167,"reserved":0,"last_update":"0001-01-01T00:00:00Z","name_a2s":"Uncletopia | Montréal | 2 | All Maps","protocol":17,"map":"koth_lakeside_final","folder":"tf","game":"Team Fortress","app_id":440,"player_count":0,"max_players":24,"Bots":0,"server_type":"Dedicated","server_os":"Linux","password":true,"vac":true,"version":"7757534","steam_id":85568392924500088,"keywords":["cp","nocrits","nodmgspread","uncletopia"],"game_id":440,"stv_port":27026,"stv_name":"Uncletopia | Montréal | 2 | All Maps | STV","players":null},{"server_id":302,"name":"Uncletopia | Montréal | 3 | All Maps","name_short":"mtl-3","host":"mtl-1.ca.uncletopia.com","port":27035,"enabled":true,"region":"us-east","cc":"ca","latitude":45.50889,"longitude":-73.56167,"reserved":0,"last_update":"0001-01-01T00:00:00Z","name_a2s":"Uncletopia | Montréal | 3 | All Maps","protocol":17,"map":"koth_cascade","folder":"tf","game":"Team Fortress","app_id":440,"player_count":0,"max_players":24,"Bots":0,"server_type":"Dedicated","server_os":"Linux","password":true,"vac":true,"version":"7757534","steam_id":85568392924500089,"keywords":["cp","nocrits","nodmgspread","uncletopia"],"game_id":440,"stv_port":27036,"stv_name":"Uncletopia | Montréal | 3 | All Maps | STV","players":null},{"server_id":303,"name":"Uncletopia | Montréal | 4 | No Payload","name_short":"mtl-4","host":"mtl-1.ca.uncletopia.com","port":27045,"enabled":true,"region":"us-east","cc":"ca","latitude":45.50889,"longitude":-73.56167,"reserved":0,"last_update":"0001-01-01T00:00:00Z","name_a2s":"Uncletopia | Montréal | 4 | No Payload","protocol":17,"map":"koth_lakeside_final","folder":"tf","game":"Team Fortress","app_id":440,"player_count":0,"max_players":24,"Bots":0,"server_type":"Dedicated","server_os":"Linux","password":true,"vac":true,"version":"7757534","steam_id":85568392924500090,"keywords":["cp","nocrits","nodmgspread","uncletopia"],"game_id":440,"stv_port":27046,"stv_name":"Uncletopia | Montréal | 4 | No Payload | STV","players":null},{"server_id":13,"name":"Uncletopia | New York City | 1 | All Maps","name_short":"nyc-1","host":"nyc-1.us.uncletopia.com","port":27015,"enabled":true,"region":"us-east","cc":"us","latitude":40.73061,"longitude":-73.93524,"reserved":0,"last_update":"0001-01-01T00:00:00Z","name_a2s":"Uncletopia | New York City | 1 | All Maps","protocol":17,"map":"pl_upward","folder":"tf","game":"Team Fortress","app_id":440,"player_count":24,"max_players":24,"Bots":0,"server_type":"Dedicated","server_os":"Linux","password":true,"vac":true,"version":"7757534","steam_id":85568392924469993,"keywords":["nocrits","nodmgspread","payload","uncletopia"],"game_id":440,"stv_port":27016,"stv_name":"Uncletopia | New York City | 1 | All Maps | STV","players":[{"user_id":604,"name":"blademiss","steam_id":76561198062083019,"connected_time":1377000000000,"state":"active","ping":111},{"user_id":599,"name":"Evan","steam_id":76561198081165364,"connected_time":1888000000000,"state":"active","ping":56},{"user_id":570,"name":"Sapphireblitz","steam_id":76561198272635379,"connected_time":4752000000000,"state":"active","ping":69},{"user_id":597,"name":"Fantastibad","steam_id":76561199087329262,"connected_time":2360000000000,"state":"active","ping":48},{"user_id":595,"name":"jorjor wells","steam_id":76561199073429082,"connected_time":2489000000000,"state":"active","ping":51},{"user_id":603,"name":"Detective Parks","steam_id":76561198153415500,"connected_time":1384000000000,"state":"active","ping":83},{"user_id":605,"name":"High Quality Ice","steam_id":76561198969178047,"connected_time":1369000000000,"state":"active","ping":52},{"user_id":591,"name":"Madvillain - Accordion . . .","steam_id":76561198294013916,"connected_time":2630000000000,"state":"active","ping":45},{"user_id":616,"name":"Banana es","steam_id":76561199051216149,"connected_time":849000000000,"state":"active","ping":64},{"user_id":608,"name":"Aristotle Voulton","steam_id":76561198100174923,"connected_time":1268000000000,"state":"active","ping":92},{"user_id":624,"name":"e","steam_id":76561198131245396,"connected_time":104000000000,"state":"active","ping":71},{"user_id":610,"name":"Pancake","steam_id":76561198212039509,"connected_time":1122000000000,"state":"active","ping":92},{"user_id":622,"name":"ʕ•ᴥ•ʔ the bear","steam_id":76561197989591976,"connected_time":371000000000,"state":"active","ping":61},{"user_id":592,"name":"Lupin III","steam_id":76561198054723601,"connected_time":2599000000000,"state":"active","ping":59},{"user_id":500,"name":"flappyflap2","steam_id":76561198285048973,"connected_time":9855000000000,"state":"active","ping":45},{"user_id":612,"name":"AmazingPlasma","steam_id":76561199005527586,"connected_time":1107000000000,"state":"active","ping":153},{"user_id":617,"name":"gobbie FASTNESS","steam_id":76561198026865054,"connected_time":673000000000,"state":"active","ping":56},{"user_id":553,"name":"A Puppy","steam_id":76561198828184456,"connected_time":6647000000000,"state":"active","ping":47},{"user_id":490,"name":"Warzard","steam_id":76561199154051413,"connected_time":10582000000000,"state":"active","ping":98},{"user_id":618,"name":"Buck","steam_id":76561198064244796,"connected_time":562000000000,"state":"active","ping":47},{"user_id":613,"name":"reymundo","steam_id":76561197989412830,"connected_time":1031000000000,"state":"active","ping":125},{"user_id":625,"name":"Filthy Hobo","steam_id":76561198174373015,"connected_time":98000000000,"state":"active","ping":103},{"user_id":615,"name":"cyborgor","steam_id":76561198040782513,"connected_time":915000000000,"state":"active","ping":105},{"user_id":550,"name":"rude boi","steam_id":76561198006783260,"connected_time":6717000000000,"state":"active","ping":54}]},{"server_id":14,"name":"Uncletopia | New York City | 2 | All Maps","name_short":"nyc-2","host":"nyc-1.us.uncletopia.com","port":27025,"enabled":true,"region":"us-east","cc":"us","latitude":40.73061,"longitude":-73.93524,"reserved":0,"last_update":"0001-01-01T00:00:00Z","name_a2s":"Uncletopia | New York City | 2 | All Maps","protocol":17,"map":"pl_swiftwater_final1","folder":"tf","game":"Team Fortress","app_id":440,"player_count":24,"max_players":24,"Bots":0,"server_type":"Dedicated","server_os":"Linux","password":true,"vac":true,"version":"7757534","steam_id":85568392924469994,"keywords":["nocrits","nodmgspread","payload","uncletopia"],"game_id":440,"stv_port":27026,"stv_name":"Uncletopia | New York City | 2 | All Maps | STV","players":[{"user_id":547,"name":"Chesh","steam_id":76561197990316722,"connected_time":810000000000,"state":"active","ping":70},{"user_id":552,"name":"Ghost","steam_id":76561198110914180,"connected_time":375000000000,"state":"active","ping":174},{"user_id":537,"name":"ROGUE-PLANET","steam_id":76561198116023052,"connected_time":1463000000000,"state":"active","ping":78},{"user_id":539,"name":"deepwoken","steam_id":76561198055439054,"connected_time":1146000000000,"state":"active","ping":66},{"user_id":538,"name":"dispentry","steam_id":76561198862784149,"connected_time":1211000000000,"state":"active","ping":61},{"user_id":541,"name":"Biosock Infiknit","steam_id":76561198072693794,"connected_time":980000000000,"state":"active","ping":64},{"user_id":553,"name":"Sen4248","steam_id":76561198088573978,"connected_time":177000000000,"state":"active","ping":134},{"user_id":483,"name":"Sveniven","steam_id":76561198118864411,"connected_time":4559000000000,"state":"active","ping":91},{"user_id":515,"name":"kametro4","steam_id":76561198835430429,"connected_time":2106000000000,"state":"active","ping":80},{"user_id":520,"name":"Strange Festive Femboy","steam_id":76561198050385093,"connected_time":1964000000000,"state":"active","ping":61},{"user_id":542,"name":"vulvor","steam_id":76561197982382171,"connected_time":980000000000,"state":"active","ping":120},{"user_id":528,"name":"Breezy","steam_id":76561198177950102,"connected_time":1812000000000,"state":"active","ping":55},{"user_id":441,"name":"WhoIsFrosty","steam_id":76561198880588117,"connected_time":7784000000000,"state":"active","ping":88},{"user_id":513,"name":"what","steam_id":76561198082336619,"connected_time":2138000000000,"state":"active","ping":62},{"user_id":543,"name":"hack fraud","steam_id":76561198015036066,"connected_time":976000000000,"state":"active","ping":106},{"user_id":548,"name":"Neato Burrito","steam_id":76561198250033944,"connected_time":792000000000,"state":"active","ping":60},{"user_id":545,"name":"The Announcer's Feet","steam_id":76561199443456893,"connected_time":876000000000,"state":"active","ping":93},{"user_id":524,"name":"Gelidus","steam_id":76561198817304634,"connected_time":1933000000000,"state":"active","ping":75},{"user_id":549,"name":"cigarette","steam_id":76561198317827526,"connected_time":782000000000,"state":"active","ping":69},{"user_id":550,"name":"Saturn","steam_id":76561198211622632,"connected_time":720000000000,"state":"active","ping":48},{"user_id":522,"name":"brn","steam_id":76561198118211523,"connected_time":1954000000000,"state":"active","ping":44},{"user_id":551,"name":"Largelad","steam_id":76561198024042970,"connected_time":706000000000,"state":"active","ping":100},{"user_id":531,"name":"matkaster","steam_id":76561197998546486,"connected_time":1640000000000,"state":"active","ping":83},{"user_id":532,"name":"alexthepenguin7","steam_id":76561198390154448,"connected_time":1625000000000,"state":"active","ping":78}]},{"server_id":15,"name":"Uncletopia | New York City | 3 | Stopwatch Beta","name_short":"nyc-3","host":"nyc-1.us.uncletopia.com","port":27035,"enabled":true,"region":"us-east","cc":"us","latitude":40.73061,"longitude":-73.93524,"reserved":0,"last_update":"0001-01-01T00:00:00Z","name_a2s":"Uncletopia | New York City | 3 | Stopwatch Beta","protocol":17,"map":"workshop/koth_clearcut_b15.ugc2107050255","folder":"tf","game":"Team Fortress","app_id":440,"player_count":0,"max_players":24,"Bots":0,"server_type":"Dedicated","server_os":"Linux","password":true,"vac":true,"version":"7757534","steam_id":85568392924742820,"keywords":["cp","nocrits","nodmgspread","uncletopia"],"game_id":440,"stv_port":27036,"stv_name":"Uncletopia | New York City | 3 | Stopwatch Beta | STV","players":null},{"server_id":16,"name":"Uncletopia | New York City | 4 | Community","name_short":"nyc-4","host":"nyc-1.us.uncletopia.com","port":27045,"enabled":true,"region":"us-east","cc":"us","latitude":40.73061,"longitude":-73.93524,"reserved":0,"last_update":"0001-01-01T00:00:00Z","name_a2s":"Uncletopia | New York City | 4 | Community","protocol":17,"map":"workshop/pl_barnblitz_pro7.ugc582280235","folder":"tf","game":"Team Fortress","app_id":440,"player_count":0,"max_players":24,"Bots":0,"server_type":"Dedicated","server_os":"Linux","password":true,"vac":true,"version":"7757534","steam_id":85568392924742821,"keywords":["nocrits","nodmgspread","payload","uncletopia"],"game_id":440,"stv_port":27046,"stv_name":"Uncletopia | New York City | 4 | Community | STV","players":null},{"server_id":142,"name":"Uncletopia | São Paulo | 1 | All Maps","name_short":"sao-1","host":"sao-1.br.uncletopia.com","port":27015,"enabled":true,"region":"sa","cc":"br","latitude":-23.533773,"longitude":-46.62529,"reserved":0,"last_update":"0001-01-01T00:00:00Z","name_a2s":"Uncletopia | São Paulo | 1 | All Maps","protocol":17,"map":"plr_pipeline","folder":"tf","game":"Team Fortress","app_id":440,"player_count":0,"max_players":24,"Bots":0,"server_type":"Dedicated","server_os":"Linux","password":true,"vac":true,"version":"7757534","steam_id":85568392924469996,"keywords":["nocrits","nodmgspread","payload","uncletopia"],"game_id":440,"stv_port":27016,"stv_name":"Uncletopia | São Paulo | 1 | All Maps | STV","players":null},{"server_id":143,"name":"Uncletopia | São Paulo | 2 | All Maps","name_short":"sao-2","host":"sao-2.br.uncletopia.com","port":27015,"enabled":true,"region":"sa","cc":"br","latitude":-23.533773,"longitude":-46.62529,"reserved":0,"last_update":"0001-01-01T00:00:00Z","name_a2s":"Uncletopia | São Paulo | 2 | All Maps","protocol":17,"map":"koth_cascade","folder":"tf","game":"Team Fortress","app_id":440,"player_count":0,"max_players":24,"Bots":0,"server_type":"Dedicated","server_os":"Linux","password":true,"vac":true,"version":"7757534","steam_id":85568392924485349,"keywords":["cp","nocrits","nodmgspread","uncletopia"],"game_id":440,"stv_port":27016,"stv_name":"Uncletopia | São Paulo | 2 | All Maps | STV","players":null},{"server_id":7,"name":"Uncletopia | Seattle | 1 | All Maps","name_short":"sea-1","host":"sea-1.us.uncletopia.com","port":27015,"enabled":true,"region":"us-west","cc":"us","latitude":47.608013,"longitude":-122.33517,"reserved":0,"last_update":"0001-01-01T00:00:00Z","name_a2s":"Uncletopia | Seattle | 1 | All Maps","protocol":17,"map":"koth_nucleus","folder":"tf","game":"Team Fortress","app_id":440,"player_count":24,"max_players":24,"Bots":0,"server_type":"Dedicated","server_os":"Linux","password":true,"vac":true,"version":"7757534","steam_id":85568392924469997,"keywords":["cp","nocrits","nodmgspread","uncletopia"],"game_id":440,"stv_port":27016,"stv_name":"Uncletopia | Seattle | 1 | All Maps | STV","players":[{"user_id":801,"name":"Grill Skills","steam_id":76561198053575147,"connected_time":983000000000,"state":"active","ping":69},{"user_id":739,"name":"the them","steam_id":76561198082922382,"connected_time":7179000000000,"state":"active","ping":79},{"user_id":769,"name":"[TrC] Dackstrus","steam_id":76561197973518509,"connected_time":3362000000000,"state":"active","ping":58},{"user_id":791,"name":"Nekogaming1500","steam_id":76561198979123816,"connected_time":1312000000000,"state":"active","ping":52},{"user_id":793,"name":"soup","steam_id":76561198043209046,"connected_time":1272000000000,"state":"active","ping":75},{"user_id":647,"name":"rat gets the cheese","steam_id":76561198031234032,"connected_time":14119000000000,"state":"active","ping":95},{"user_id":772,"name":"carmillaluvr1334","steam_id":76561198325306660,"connected_time":3339000000000,"state":"active","ping":52},{"user_id":788,"name":"jameS","steam_id":76561198122043365,"connected_time":1837000000000,"state":"active","ping":163},{"user_id":806,"name":"Clemont007","steam_id":76561198030935625,"connected_time":242000000000,"state":"active","ping":74},{"user_id":783,"name":"resonant","steam_id":76561198271146637,"connected_time":2641000000000,"state":"active","ping":110},{"user_id":752,"name":"Villchip","steam_id":76561198198599982,"connected_time":6012000000000,"state":"active","ping":53},{"user_id":775,"name":"lavender","steam_id":76561199069518286,"connected_time":3286000000000,"state":"active","ping":68},{"user_id":765,"name":"Ham Radio","steam_id":76561198030613297,"connected_time":3571000000000,"state":"active","ping":99},{"user_id":798,"name":"Kirbothebrony","steam_id":76561198971911330,"connected_time":1178000000000,"state":"active","ping":130},{"user_id":802,"name":"AmiableNebula she/her","steam_id":76561198094306627,"connected_time":981000000000,"state":"active","ping":76},{"user_id":803,"name":"gorlab","steam_id":76561198025089694,"connected_time":965000000000,"state":"active","ping":59},{"user_id":800,"name":"[TrC] Nosy","steam_id":76561197978859310,"connected_time":1156000000000,"state":"active","ping":57},{"user_id":787,"name":"ikuyo","steam_id":76561198996950205,"connected_time":2048000000000,"state":"active","ping":73},{"user_id":662,"name":"Level 99 Mudcrab","steam_id":76561198077452771,"connected_time":13309000000000,"state":"active","ping":60},{"user_id":778,"name":"AmudPuddle","steam_id":76561198017041618,"connected_time":3265000000000,"state":"active","ping":136},{"user_id":805,"name":"\u003c3","steam_id":76561198196829267,"connected_time":549000000000,"state":"active","ping":78},{"user_id":790,"name":"YuuriDaThrilla","steam_id":76561198184814466,"connected_time":1328000000000,"state":"active","ping":33},{"user_id":796,"name":"Chara","steam_id":76561198853239207,"connected_time":1243000000000,"state":"active","ping":99},{"user_id":764,"name":"bruh","steam_id":76561199095370765,"connected_time":3708000000000,"state":"active","ping":65}]},{"server_id":119,"name":"Uncletopia | Seattle | 2 | All Maps","name_short":"sea-2","host":"sea-1.us.uncletopia.com","port":27025,"enabled":true,"region":"us-west","cc":"us","latitude":47.608013,"longitude":-122.33517,"reserved":0,"last_update":"0001-01-01T00:00:00Z","name_a2s":"Uncletopia | Seattle | 2 | All Maps","protocol":17,"map":"pl_wutville_event","folder":"tf","game":"Team Fortress","app_id":440,"player_count":24,"max_players":24,"Bots":0,"server_type":"Dedicated","server_os":"Linux","password":true,"vac":true,"version":"7757534","steam_id":85568392924469998,"keywords":["nocrits","nodmgspread","payload","uncletopia"],"game_id":440,"stv_port":27026,"stv_name":"Uncletopia | Seattle | 2 | All Maps | STV","players":[{"user_id":228,"name":"obamaconsumespancakes","steam_id":76561199283740228,"connected_time":12617000000000,"state":"active","ping":59},{"user_id":327,"name":"Big Gazza","steam_id":76561199030963367,"connected_time":6280000000000,"state":"active","ping":86},{"user_id":400,"name":"que","steam_id":76561199061415560,"connected_time":365000000000,"state":"active","ping":59},{"user_id":397,"name":"burntapplz","steam_id":76561199246260315,"connected_time":692000000000,"state":"active","ping":90},{"user_id":382,"name":"JUSTICE!!!!!!!!!!!!!!!!!!!!!!!","steam_id":76561198334511480,"connected_time":1978000000000,"state":"active","ping":76},{"user_id":329,"name":"WayPastMeh","steam_id":76561198440277329,"connected_time":6275000000000,"state":"active","ping":57},{"user_id":343,"name":"IntravenusDeMilo","steam_id":76561197970629020,"connected_time":4995000000000,"state":"active","ping":43},{"user_id":399,"name":"ms. anthrope","steam_id":76561198063533082,"connected_time":484000000000,"state":"active","ping":39},{"user_id":387,"name":"CFDv20","steam_id":76561198450073779,"connected_time":984000000000,"state":"active","ping":44},{"user_id":388,"name":"rider_of_brohan15","steam_id":76561198172978817,"connected_time":915000000000,"state":"active","ping":60},{"user_id":371,"name":"Charles Codsworth","steam_id":76561198038976657,"connected_time":2922000000000,"state":"active","ping":86},{"user_id":390,"name":"Godsworn","steam_id":76561198046061345,"connected_time":795000000000,"state":"active","ping":98},{"user_id":391,"name":"KingTinkerer","steam_id":76561198226856548,"connected_time":790000000000,"state":"active","ping":75},{"user_id":335,"name":"General Fisticuffs","steam_id":76561198255721392,"connected_time":5786000000000,"state":"active","ping":118},{"user_id":364,"name":"Santicules","steam_id":76561198209373536,"connected_time":3093000000000,"state":"active","ping":109},{"user_id":365,"name":"Dr. Reaper","steam_id":76561198049436290,"connected_time":3068000000000,"state":"active","ping":59},{"user_id":366,"name":"Robert E.T.","steam_id":76561197986439371,"connected_time":3062000000000,"state":"active","ping":53},{"user_id":317,"name":"king piccolo gaming","steam_id":76561198000744865,"connected_time":8583000000000,"state":"active","ping":48},{"user_id":380,"name":"god approaches","steam_id":76561198081617990,"connected_time":1999000000000,"state":"active","ping":118},{"user_id":372,"name":"Google","steam_id":76561198857237473,"connected_time":2840000000000,"state":"active","ping":54},{"user_id":395,"name":"Father Joker","steam_id":76561198232461944,"connected_time":740000000000,"state":"active","ping":73},{"user_id":383,"name":"Grim1438","steam_id":76561199218478092,"connected_time":1938000000000,"state":"active","ping":60},{"user_id":394,"name":"Chucklemaster","steam_id":76561198023645303,"connected_time":771000000000,"state":"active","ping":40},{"user_id":396,"name":"MonkeyMan","steam_id":76561198411913979,"connected_time":714000000000,"state":"active","ping":99}]},{"server_id":406,"name":"Uncletopia | Seattle | 3 | Stopwatch Beta","name_short":"sea-3","host":"sea-1.us.uncletopia.com","port":27035,"enabled":true,"region":"us-west","cc":"us","latitude":47.608013,"longitude":-122.33517,"reserved":0,"last_update":"0001-01-01T00:00:00Z","name_a2s":"Uncletopia | Seattle | 3 | Stopwatch Beta","protocol":17,"map":"pl_upward","folder":"tf","game":"Team Fortress","app_id":440,"player_count":0,"max_players":24,"Bots":0,"server_type":"Dedicated","server_os":"Linux","password":true,"vac":true,"version":"7757534","steam_id":85568392924515217,"keywords":["nocrits","nodmgspread","payload","uncletopia"],"game_id":440,"stv_port":27036,"stv_name":"Uncletopia | Seattle | 3 | Stopwatch Beta | STV","players":null},{"server_id":17,"name":"Uncletopia | San Francisco | 1 | All Maps","name_short":"sfo-1","host":"sfo-1.us.uncletopia.com","port":27015,"enabled":true,"region":"us-west","cc":"us","latitude":37.77397,"longitude":-122.4313,"reserved":0,"last_update":"0001-01-01T00:00:00Z","name_a2s":"Uncletopia | San Francisco | 1 | All Maps","protocol":17,"map":"pl_swiftwater_final1","folder":"tf","game":"Team Fortress","app_id":440,"player_count":13,"max_players":24,"Bots":0,"server_type":"Dedicated","server_os":"Linux","password":true,"vac":true,"version":"7757534","steam_id":85568392924469999,"keywords":["nocrits","nodmgspread","payload","uncletopia"],"game_id":440,"stv_port":27016,"stv_name":"Uncletopia | San Francisco | 1 | All Maps | STV","players":[{"user_id":93,"name":"robertistoastyargentina","steam_id":76561198324736786,"connected_time":174000000000,"state":"active","ping":87},{"user_id":84,"name":"PainInTheRuss","steam_id":76561197977960543,"connected_time":1066000000000,"state":"active","ping":45},{"user_id":90,"name":"Jason Voorhees","steam_id":76561198358987380,"connected_time":273000000000,"state":"active","ping":66},{"user_id":88,"name":"ninety9dragonfly","steam_id":76561198363406983,"connected_time":392000000000,"state":"active","ping":57},{"user_id":40,"name":"The slosh machine","steam_id":76561198216723177,"connected_time":3119000000000,"state":"active","ping":72},{"user_id":94,"name":"ayaya?","steam_id":76561199000188109,"connected_time":135000000000,"state":"active","ping":60},{"user_id":74,"name":"El Gato Paranoico","steam_id":76561198116567116,"connected_time":1491000000000,"state":"active","ping":105},{"user_id":79,"name":"klover","steam_id":76561198072254781,"connected_time":1238000000000,"state":"active","ping":46},{"user_id":92,"name":"Idontknow","steam_id":76561199207044048,"connected_time":227000000000,"state":"active","ping":56},{"user_id":85,"name":"dosimeter","steam_id":76561198039608940,"connected_time":819000000000,"state":"active","ping":85},{"user_id":89,"name":"Buuw","steam_id":76561198085707714,"connected_time":382000000000,"state":"active","ping":61},{"user_id":55,"name":"hoOmIN","steam_id":76561198334947079,"connected_time":1909000000000,"state":"active","ping":58},{"user_id":83,"name":"chanoc","steam_id":76561198026734746,"connected_time":1094000000000,"state":"active","ping":43}]},{"server_id":18,"name":"Uncletopia | San Francisco | 2 | All Maps","name_short":"sfo-2","host":"sfo-1.us.uncletopia.com","port":27025,"enabled":true,"region":"us-west","cc":"us","latitude":37.77397,"longitude":-122.4313,"reserved":0,"last_update":"0001-01-01T00:00:00Z","name_a2s":"Uncletopia | San Francisco | 2 | All Maps","protocol":17,"map":"cp_process_final","folder":"tf","game":"Team Fortress","app_id":440,"player_count":10,"max_players":24,"Bots":0,"server_type":"Dedicated","server_os":"Linux","password":true,"vac":true,"version":"7757534","steam_id":85568392924470000,"keywords":["cp","nocrits","nodmgspread","uncletopia"],"game_id":440,"stv_port":27026,"stv_name":"Uncletopia | San Francisco | 2 | All Maps | STV","players":[{"user_id":157,"name":"-Enter Name Here-","steam_id":76561198040358938,"connected_time":0,"state":"spawning","ping":0},{"user_id":103,"name":"TAMBERSPACE","steam_id":76561198248665352,"connected_time":5146000000000,"state":"active","ping":47},{"user_id":154,"name":"capsshield18","steam_id":76561199203816000,"connected_time":490000000000,"state":"active","ping":59},{"user_id":126,"name":"Macho Ravioli","steam_id":76561198135494174,"connected_time":3566000000000,"state":"active","ping":45},{"user_id":144,"name":"295.3","steam_id":76561198126358045,"connected_time":1502000000000,"state":"active","ping":107},{"user_id":105,"name":"May may :)","steam_id":76561198816778484,"connected_time":5138000000000,"state":"spawning","ping":80},{"user_id":155,"name":"pingus","steam_id":76561198268995867,"connected_time":288000000000,"state":"active","ping":64},{"user_id":85,"name":"NotAWeeb","steam_id":76561198165530739,"connected_time":6434000000000,"state":"active","ping":37},{"user_id":151,"name":"pablo.drain2005","steam_id":76561199253405698,"connected_time":1092000000000,"state":"active","ping":60},{"user_id":119,"name":"Gameonator108","steam_id":76561199089224205,"connected_time":4740000000000,"state":"active","ping":71}]},{"server_id":19,"name":"Uncletopia | San Francisco | 3 | Stopwatch Beta","name_short":"sfo-3","host":"sfo-1.us.uncletopia.com","port":27035,"enabled":true,"region":"us-west","cc":"us","latitude":37.77397,"longitude":-122.4313,"reserved":0,"last_update":"0001-01-01T00:00:00Z","name_a2s":"Uncletopia | San Francisco | 3 | Stopwatch Beta","protocol":17,"map":"koth_viaduct","folder":"tf","game":"Team Fortress","app_id":440,"player_count":0,"max_players":24,"Bots":0,"server_type":"Dedicated","server_os":"Linux","password":true,"vac":true,"version":"7757534","steam_id":85568392924742824,"keywords":["cp","nocrits","nodmgspread","uncletopia"],"game_id":440,"stv_port":27036,"stv_name":"Uncletopia | San Francisco | 3 | Stopwatch Beta | STV","players":null},{"server_id":20,"name":"Uncletopia | San Francisco | 4 | Community","name_short":"sfo-4","host":"sfo-1.us.uncletopia.com","port":27045,"enabled":true,"region":"us-west","cc":"us","latitude":37.77397,"longitude":-122.4313,"reserved":0,"last_update":"0001-01-01T00:00:00Z","name_a2s":"Uncletopia | San Francisco | 4 | Community","protocol":17,"map":"workshop/pl_vigil_rc9.ugc1266210012","folder":"tf","game":"Team Fortress","app_id":440,"player_count":3,"max_players":24,"Bots":0,"server_type":"Dedicated","server_os":"Linux","password":true,"vac":true,"version":"7757534","steam_id":85568392924742826,"keywords":["nocrits","nodmgspread","payload","uncletopia"],"game_id":440,"stv_port":27046,"stv_name":"Uncletopia | San Francisco | 4 | Community | STV","players":[{"user_id":15,"name":"borzier","steam_id":76561198069190432,"connected_time":538000000000,"state":"active","ping":120},{"user_id":16,"name":"scratching post enjoyer","steam_id":76561198204169516,"connected_time":531000000000,"state":"active","ping":67},{"user_id":18,"name":"Irregular Quiche","steam_id":76561198090193269,"connected_time":505000000000,"state":"active","ping":70}]},{"server_id":141,"name":"Uncletopia | Sydney | 1 | All Maps","name_short":"syd-1","host":"syd-1.au.uncletopia.com","port":27015,"enabled":true,"region":"au","cc":"au","latitude":-33.865143,"longitude":151.2099,"reserved":0,"last_update":"0001-01-01T00:00:00Z","name_a2s":"Uncletopia | Sydney | 1 | All Maps","protocol":17,"map":"cp_dustbowl","folder":"tf","game":"Team Fortress","app_id":440,"player_count":20,"max_players":24,"Bots":0,"server_type":"Dedicated","server_os":"Linux","password":true,"vac":true,"version":"7757534","steam_id":85568392924470001,"keywords":["cp","nocrits","nodmgspread","uncletopia"],"game_id":440,"stv_port":27016,"stv_name":"Uncletopia | Sydney | 1 | All Maps | STV","players":[{"user_id":135,"name":"3 Hundred Rats in a Trenchcoat","steam_id":76561199194483038,"connected_time":154000000000,"state":"active","ping":70},{"user_id":111,"name":"Piyo.","steam_id":76561197985114373,"connected_time":1652000000000,"state":"active","ping":68},{"user_id":126,"name":"fellas in paris","steam_id":76561198046025785,"connected_time":910000000000,"state":"active","ping":59},{"user_id":136,"name":"SomthingFishy","steam_id":76561198202305407,"connected_time":128000000000,"state":"active","ping":69},{"user_id":129,"name":"Hike munt","steam_id":76561198063690508,"connected_time":512000000000,"state":"active","ping":53},{"user_id":100,"name":"thrax","steam_id":76561197992385270,"connected_time":3052000000000,"state":"active","ping":53},{"user_id":134,"name":"Jett","steam_id":76561198969434128,"connected_time":226000000000,"state":"active","ping":255},{"user_id":133,"name":"Planari","steam_id":76561198065364610,"connected_time":260000000000,"state":"active","ping":94},{"user_id":64,"name":"Editor_Billy","steam_id":76561199165608946,"connected_time":5757000000000,"state":"active","ping":59},{"user_id":124,"name":"The Real MVP","steam_id":76561198046510592,"connected_time":1099000000000,"state":"active","ping":83},{"user_id":87,"name":"bowser","steam_id":76561198271462646,"connected_time":3887000000000,"state":"active","ping":43},{"user_id":113,"name":"Gregory Bahamas","steam_id":76561199018104831,"connected_time":1649000000000,"state":"active","ping":68},{"user_id":130,"name":"Professional Model Railroader","steam_id":76561199249059042,"connected_time":399000000000,"state":"active","ping":91},{"user_id":132,"name":"Sy 4","steam_id":76561198879862702,"connected_time":292000000000,"state":"active","ping":66},{"user_id":119,"name":"JoeNoodle6","steam_id":76561198858642295,"connected_time":1258000000000,"state":"active","ping":99},{"user_id":127,"name":"Squishy","steam_id":76561198985769205,"connected_time":910000000000,"state":"active","ping":54},{"user_id":120,"name":"I AM THE SNAIL","steam_id":76561198039603964,"connected_time":1240000000000,"state":"active","ping":66},{"user_id":123,"name":"Assasin43","steam_id":76561198067678083,"connected_time":1144000000000,"state":"active","ping":100},{"user_id":44,"name":"FyreFeat","steam_id":76561198068428930,"connected_time":6692000000000,"state":"active","ping":55},{"user_id":125,"name":"Kaon","steam_id":76561198045370804,"connected_time":1089000000000,"state":"active","ping":77}]},{"server_id":123,"name":"Uncletopia | Sydney | 2 | All Maps","name_short":"syd-2","host":"syd-1.au.uncletopia.com","port":27025,"enabled":true,"region":"au","cc":"au","latitude":-33.865143,"longitude":151.2099,"reserved":0,"last_update":"0001-01-01T00:00:00Z","name_a2s":"Uncletopia | Sydney | 2 | All Maps","protocol":17,"map":"pl_barnblitz","folder":"tf","game":"Team Fortress","app_id":440,"player_count":24,"max_players":24,"Bots":0,"server_type":"Dedicated","server_os":"Linux","password":true,"vac":true,"version":"7757534","steam_id":85568392924470002,"keywords":["nocrits","nodmgspread","payload","uncletopia"],"game_id":440,"stv_port":27026,"stv_name":"Uncletopia | Sydney | 2 | All Maps | STV","players":[{"user_id":392,"name":"KillerBlow","steam_id":76561198930232832,"connected_time":576000000000,"state":"active","ping":84},{"user_id":344,"name":"internetkittenz13","steam_id":76561198881042979,"connected_time":3186000000000,"state":"active","ping":28},{"user_id":291,"name":"Bobby Bigman","steam_id":76561198044679656,"connected_time":8064000000000,"state":"active","ping":59},{"user_id":385,"name":"Brobie","steam_id":76561198307832686,"connected_time":975000000000,"state":"active","ping":66},{"user_id":386,"name":"Oysenberry","steam_id":76561198125443335,"connected_time":948000000000,"state":"active","ping":41},{"user_id":381,"name":"mrquestables","steam_id":76561198954911129,"connected_time":1296000000000,"state":"active","ping":51},{"user_id":384,"name":"Lone Wolf","steam_id":76561198044154658,"connected_time":1093000000000,"state":"active","ping":58},{"user_id":396,"name":"free fuse ice tea","steam_id":76561199440190709,"connected_time":423000000000,"state":"active","ping":82},{"user_id":387,"name":"Servo Guy","steam_id":76561199069287849,"connected_time":893000000000,"state":"active","ping":68},{"user_id":391,"name":"shrivel","steam_id":76561198129577552,"connected_time":714000000000,"state":"active","ping":79},{"user_id":374,"name":"stevo","steam_id":76561198117749786,"connected_time":1619000000000,"state":"active","ping":85},{"user_id":371,"name":"East","steam_id":76561197998179587,"connected_time":1754000000000,"state":"active","ping":100},{"user_id":306,"name":"Consolidated Fart","steam_id":76561198924101909,"connected_time":6524000000000,"state":"active","ping":72},{"user_id":388,"name":"armCHAMP Billie Eilish feet mmm","steam_id":76561198044752424,"connected_time":884000000000,"state":"active","ping":59},{"user_id":350,"name":"sabeuo","steam_id":76561198288259746,"connected_time":2964000000000,"state":"active","ping":53},{"user_id":400,"name":"ziah","steam_id":76561198159375596,"connected_time":186000000000,"state":"active","ping":57},{"user_id":399,"name":"dbx","steam_id":76561198034306834,"connected_time":322000000000,"state":"active","ping":43},{"user_id":395,"name":"Nuker","steam_id":76561198207761688,"connected_time":504000000000,"state":"active","ping":44},{"user_id":378,"name":"Zeal","steam_id":76561198060829393,"connected_time":1474000000000,"state":"active","ping":67},{"user_id":382,"name":"Crimson Aurora","steam_id":76561198157492747,"connected_time":1218000000000,"state":"active","ping":109},{"user_id":355,"name":"BIGNATE","steam_id":76561199207791519,"connected_time":2856000000000,"state":"active","ping":89},{"user_id":389,"name":"Drakeo","steam_id":76561198268859184,"connected_time":864000000000,"state":"active","ping":92},{"user_id":367,"name":"tweedie","steam_id":76561198063425523,"connected_time":2176000000000,"state":"active","ping":55},{"user_id":357,"name":"iplayforfun","steam_id":76561198861979482,"connected_time":2839000000000,"state":"active","ping":60}]},{"server_id":395,"name":"Uncletopia | Sydney | 3 | All Maps","name_short":"syd-3","host":"syd-1.au.uncletopia.com","port":27035,"enabled":true,"region":"au","cc":"au","latitude":-33.865143,"longitude":151.2099,"reserved":0,"last_update":"0001-01-01T00:00:00Z","name_a2s":"Uncletopia | Sydney | 3 | All Maps","protocol":17,"map":"pl_upward","folder":"tf","game":"Team Fortress","app_id":440,"player_count":0,"max_players":24,"Bots":0,"server_type":"Dedicated","server_os":"Linux","password":true,"vac":true,"version":"7757534","steam_id":85568392925194467,"keywords":["nocrits","nodmgspread","payload","uncletopia"],"game_id":440,"stv_port":27036,"stv_name":"Uncletopia | Sydney | 3 | All Maps | STV","players":null},{"server_id":396,"name":"Uncletopia | Sydney | 4 | All Maps","name_short":"syd-4","host":"syd-1.au.uncletopia.com","port":27045,"enabled":true,"region":"au","cc":"au","latitude":-33.865143,"longitude":151.2099,"reserved":0,"last_update":"0001-01-01T00:00:00Z","name_a2s":"Uncletopia | Sydney | 4 | All Maps","protocol":17,"map":"koth_highpass","folder":"tf","game":"Team Fortress","app_id":440,"player_count":0,"max_players":24,"Bots":0,"server_type":"Dedicated","server_os":"Linux","password":true,"vac":true,"version":"7757534","steam_id":85568392925397958,"keywords":["cp","nocrits","nodmgspread","uncletopia"],"game_id":440,"stv_port":27046,"stv_name":"Uncletopia | Sydney | 4 | All Maps | STV","players":null},{"server_id":58,"name":"Uncletopia | Sydney | 5 | Stopwatch Beta","name_short":"syd-5","host":"syd-1.au.uncletopia.com","port":27055,"enabled":true,"region":"au","cc":"au","latitude":-33.865143,"longitude":151.2099,"reserved":0,"last_update":"0001-01-01T00:00:00Z","name_a2s":"Uncletopia | Sydney | 5 | Stopwatch Beta","protocol":17,"map":"pl_barnblitz","folder":"tf","game":"Team Fortress","app_id":440,"player_count":0,"max_players":24,"Bots":0,"server_type":"Dedicated","server_os":"Linux","password":true,"vac":true,"version":"7757534","steam_id":85568392925397959,"keywords":["nocrits","nodmgspread","payload","uncletopia"],"game_id":440,"stv_port":27056,"stv_name":"Uncletopia | Sydney | 5 | Stopwatch Beta | STV","players":null},{"server_id":59,"name":"Uncletopia | Sydney | 6 | Community","name_short":"syd-6","host":"syd-1.au.uncletopia.com","port":27065,"enabled":true,"region":"au","cc":"au","latitude":-33.865143,"longitude":151.2099,"reserved":0,"last_update":"0001-01-01T00:00:00Z","name_a2s":"Uncletopia | Sydney | 6 | Community","protocol":17,"map":"workshop/koth_synthetic_rc6a.ugc1549817316","folder":"tf","game":"Team Fortress","app_id":440,"player_count":0,"max_players":24,"Bots":0,"server_type":"Dedicated","server_os":"Linux","password":true,"vac":true,"version":"7757534","steam_id":85568392925397960,"keywords":["cp","nocrits","nodmgspread","uncletopia"],"game_id":440,"stv_port":27066,"stv_name":"Uncletopia | Sydney | 6 | Community | STV","players":null},{"server_id":49,"name":"Uncletopia | Warsaw | 1 | All Maps","name_short":"waw-1","host":"waw-1.pl.uncletopia.com","port":27015,"enabled":true,"region":"eu","cc":"pl","latitude":52.2297,"longitude":21.017532,"reserved":0,"last_update":"0001-01-01T00:00:00Z","name_a2s":"","protocol":0,"map":"","folder":"","game":"","app_id":0,"player_count":0,"max_players":0,"Bots":0,"server_type":"","server_os":"","password":false,"vac":false,"version":"","steam_id":0,"keywords":null,"game_id":0,"stv_port":0,"stv_name":"","players":null},{"server_id":50,"name":"Uncletopia | Warsaw | 2 | All Maps","name_short":"waw-2","host":"waw-1.pl.uncletopia.com","port":27025,"enabled":true,"region":"eu","cc":"pl","latitude":52.2297,"longitude":21.017532,"reserved":0,"last_update":"0001-01-01T00:00:00Z","name_a2s":"Uncletopia | Warsaw | 2 | All Maps","protocol":17,"map":"cp_snakewater_final1","folder":"tf","game":"Team Fortress","app_id":440,"player_count":0,"max_players":24,"Bots":0,"server_type":"Dedicated","server_os":"Linux","password":true,"vac":true,"version":"7757534","steam_id":85568392925397851,"keywords":["cp","nocrits","nodmgspread","uncletopia"],"game_id":440,"stv_port":27026,"stv_name":"Uncletopia | Warsaw | 2 | All Maps | STV","players":null},{"server_id":51,"name":"Uncletopia | Warsaw | 3 | All Maps","name_short":"waw-3","host":"waw-1.pl.uncletopia.com","port":27035,"enabled":true,"region":"eu","cc":"pl","latitude":52.2297,"longitude":21.017532,"reserved":0,"last_update":"0001-01-01T00:00:00Z","name_a2s":"Uncletopia | Warsaw | 3 | All Maps","protocol":17,"map":"cp_sunshine","folder":"tf","game":"Team Fortress","app_id":440,"player_count":0,"max_players":24,"Bots":0,"server_type":"Dedicated","server_os":"Linux","password":true,"vac":true,"version":"7757534","steam_id":85568392925397852,"keywords":["cp","nocrits","nodmgspread","uncletopia"],"game_id":440,"stv_port":27036,"stv_name":"Uncletopia | Warsaw | 3 | All Maps | STV","players":null},{"server_id":52,"name":"Uncletopia | Warsaw | 4 | All Maps","name_short":"waw-4","host":"waw-1.pl.uncletopia.com","port":27045,"enabled":true,"region":"eu","cc":"pl","latitude":52.2297,"longitude":21.017532,"reserved":0,"last_update":"0001-01-01T00:00:00Z","name_a2s":"Uncletopia | Warsaw | 4 | All Maps","protocol":17,"map":"pl_borneo","folder":"tf","game":"Team Fortress","app_id":440,"player_count":0,"max_players":24,"Bots":0,"server_type":"Dedicated","server_os":"Linux","password":true,"vac":true,"version":"7757534","steam_id":85568392925397853,"keywords":["nocrits","nodmgspread","payload","uncletopia"],"game_id":440,"stv_port":27046,"stv_name":"Uncletopia | Warsaw | 4 | All Maps | STV","players":null},{"server_id":53,"name":"Uncletopia | Warsaw | 5 | Stopwatch Beta","name_short":"waw-5","host":"waw-1.pl.uncletopia.com","port":27055,"enabled":true,"region":"eu","cc":"pl","latitude":52.2297,"longitude":21.017532,"reserved":0,"last_update":"0001-01-01T00:00:00Z","name_a2s":"Uncletopia | Warsaw | 5 | Stopwatch Beta","protocol":17,"map":"pl_upward","folder":"tf","game":"Team Fortress","app_id":440,"player_count":0,"max_players":24,"Bots":0,"server_type":"Dedicated","server_os":"Linux","password":true,"vac":true,"version":"7757534","steam_id":85568392925397854,"keywords":["nocrits","nodmgspread","payload","uncletopia"],"game_id":440,"stv_port":27056,"stv_name":"Uncletopia | Warsaw | 5 | Stopwatch Beta | STV","players":null},{"server_id":54,"name":"Uncletopia | Warsaw | 6 | Community","name_short":"waw-6","host":"waw-1.pl.uncletopia.com","port":27065,"enabled":true,"region":"eu","cc":"pl","latitude":52.2297,"longitude":21.017532,"reserved":0,"last_update":"0001-01-01T00:00:00Z","name_a2s":"Uncletopia | Warsaw | 6 | Community","protocol":17,"map":"pl_barnblitz","folder":"tf","game":"Team Fortress","app_id":440,"player_count":0,"max_players":24,"Bots":0,"server_type":"Dedicated","server_os":"Linux","password":true,"vac":true,"version":"7757534","steam_id":85568392925397856,"keywords":["nocrits","nodmgspread","payload","uncletopia"],"game_id":440,"stv_port":27066,"stv_name":"Uncletopia | Warsaw | 6 | Community | STV","players":null}]}