{"status":true,"message":"","result":[{"server_id":9,"name":"Uncletopia | Atlanta | 1 | All Maps","name_short":"atl-1","host":"atl-1.us.uncletopia.com","port":27015,"enabled":true,"region":"us-east","cc":"us","latitude":33.753746,"longitude":-84.38633,"reserved":0,"last_update":"0001-01-01T00:00:00Z","name_a2s":"Uncletopia | Atlanta | 1 | All Maps","protocol":17,"map":"pl_snowycoast","folder":"tf","game":"Team Fortress","app_id":440,"player_count":10,"max_players":24,"Bots":0,"server_type":"Dedicated","server_os":"Linux","password":true,"vac":true,"version":"7882260","steam_id":85568392924469982,"keywords":["nocrits","nodmgspread","payload","uncletopia"],"game_id":440,"stv_port":27016,"stv_name":"Uncletopia | Atlanta | 1 | All Maps | STV","players":[{"user_id":9,"name":"ATL1 | on my hunting trip","steam_id":76561198315341646,"connected_time":1873000000000,"state":"active","ping":68},{"user_id":11,"name":"sassy loli","steam_id":76561198402316065,"connected_time":1520000000000,"state":"active","ping":89},{"user_id":19,"name":"BIG HOG","steam_id":76561198079923652,"connected_time":645000000000,"state":"active","ping":62},{"user_id":13,"name":"Albino Jellyfish","steam_id":76561198208561097,"connected_time":1277000000000,"state":"active","ping":58},{"user_id":14,"name":"J O V A","steam_id":76561198090333536,"connected_time":1022000000000,"state":"active","ping":69},{"user_id":15,"name":"Dr. Ôº¥ÔΩâÔΩçÔΩìÔΩãÔΩÅ","steam_id":76561198272075712,"connected_time":952000000000,"state":"active","ping":47},{"user_id":16,"name":"Lumi","steam_id":76561198089978036,"connected_time":868000000000,"state":"active","ping":65},{"user_id":20,"name":"assivore","steam_id":76561198408068778,"connected_time":613000000000,"state":"active","ping":74},{"user_id":25,"name":"DiscoTraveler","steam_id":76561199240168088,"connected_time":382000000000,"state":"active","ping":36},{"user_id":28,"name":"Dr. Ogadicto","steam_id":76561198151256410,"connected_time":294000000000,"state":"active","ping":126}]},{"server_id":104,"name":"Uncletopia | Atlanta | 2 | All Maps","name_short":"atl-2","host":"atl-1.us.uncletopia.com","port":27025,"enabled":true,"region":"us-east","cc":"us","latitude":33.753746,"longitude":-84.38633,"reserved":0,"last_update":"0001-01-01T00:00:00Z","name_a2s":"Uncletopia | Atlanta | 2 | All Maps","protocol":17,"map":"cp_process_final","folder":"tf","game":"Team Fortress","app_id":440,"player_count":0,"max_players":24,"Bots":0,"server_type":"Dedicated","server_os":"Linux","password":true,"vac":true,"version":"7882260","steam_id":85568392924469983,"keywords":["cp","nocrits","nodmgspread","uncletopia"],"game_id":440,"stv_port":27026,"stv_name":"Uncletopia | Atlanta | 2 | All Maps | STV","players":null},{"server_id":400,"name":"Uncletopia | Atlanta | 3 | Community","name_short":"atl-3","host":"atl-1.us.uncletopia.com","port":27035,"enabled":true,"region":"us-east","cc":"us","latitude":33.753746,"longitude":-84.38633,"reserved":0,"last_update":"0001-01-01T00:00:00Z","name_a2s":"Uncletopia | Atlanta | 3 | Community","protocol":17,"map":"workshop/pl_emerge_rc2.ugc888027758","folder":"tf","game":"Team Fortress","app_id":440,"player_count":0,"max_players":24,"Bots":0,"server_type":"Dedicated","server_os":"Linux","password":true,"vac":true,"version":"7882260","steam_id":85568392924515187,"keywords":["nocrits","nodmgspread","payload","uncletopia"],"game_id":440,"stv_port":27036,"stv_name":"Uncletopia | Atlanta | 3 | Community | STV","players":null},{"server_id":401,"name":"Uncletopia | Atlanta | 4 | No Payload","name_short":"atl-4","host":"atl-1.us.uncletopia.com","port":27045,"enabled":true,"region":"us-east","cc":"us","latitude":33.753746,"longitude":-84.38633,"reserved":0,"last_update":"0001-01-01T00:00:00Z","name_a2s":"","protocol":0,"map":"","folder":"","game":"","app_id":0,"player_count":0,"max_players":0,"Bots":0,"server_type":"","server_os":"","password":false,"vac":false,"version":"","steam_id":0,"keywords":null,"game_id":0,"stv_port":0,"stv_name":"","players":null},{"server_id":2,"name":"Uncletopia | Chicago | 1 | All Maps","name_short":"chi-1","host":"chi-1.us.uncletopia.com","port":27015,"enabled":true,"region":"us-central","cc":"us","latitude":41.881832,"longitude":-87.62318,"reserved":0,"last_update":"0001-01-01T00:00:00Z","name_a2s":"Uncletopia | Chicago | 1 | All Maps","protocol":17,"map":"pl_barnblitz","folder":"tf","game":"Team Fortress","app_id":440,"player_count":24,"max_players":24,"Bots":0,"server_type":"Dedicated","server_os":"Linux","password":true,"vac":true,"version":"7882260","steam_id":85568392924469984,"keywords":["nocrits","nodmgspread","payload","uncletopia"],"game_id":440,"stv_port":27016,"stv_name":"Uncletopia | Chicago | 1 | All Maps | STV","players":[{"user_id":147,"name":"Mr.noob","steam_id":76561199200442395,"connected_time":2318000000000,"state":"active","ping":165},{"user_id":168,"name":"Wingman","steam_id":76561198066270405,"connected_time":581000000000,"state":"active","ping":87},{"user_id":165,"name":"dobby","steam_id":76561198012274834,"connected_time":694000000000,"state":"active","ping":94},{"user_id":115,"name":"alN","steam_id":76561198329171346,"connected_time":5438000000000,"state":"active","ping":45},{"user_id":162,"name":"heavyArmor","steam_id":76561198191056059,"connected_time":754000000000,"state":"active","ping":66},{"user_id":148,"name":"Gnarly Shark Bite","steam_id":76561198004058342,"connected_time":2215000000000,"state":"active","ping":77},{"user_id":144,"name":"maS","steam_id":76561198033846407,"connected_time":2344000000000,"state":"active","ping":60},{"user_id":169,"name":"forkes","steam_id":76561198130478202,"connected_time":550000000000,"state":"active","ping":42},{"user_id":167,"name":"jes√∫s.gonzalez.2007","steam_id":76561199149935993,"connected_time":613000000000,"state":"active","ping":64},{"user_id":138,"name":"bikerkid207","steam_id":76561198390782783,"connected_time":3550000000000,"state":"active","ping":66},{"user_id":152,"name":"Ash_Follow3","steam_id":76561199150479264,"connected_time":1671000000000,"state":"active","ping":60},{"user_id":150,"name":"***** beheader","steam_id":76561199395351700,"connected_time":2030000000000,"state":"active","ping":101},{"user_id":157,"name":"Drachma","steam_id":76561198007310514,"connected_time":1189000000000,"state":"active","ping":58},{"user_id":175,"name":"Corporate Liquidator","steam_id":76561198199620753,"connected_time":258000000000,"state":"active","ping":61},{"user_id":171,"name":"997 N State Street, Orem, Utah","steam_id":76561198285931413,"connected_time":540000000000,"state":"active","ping":74},{"user_id":174,"name":"The Loveable CHI.I.BI.","steam_id":76561198039262228,"connected_time":307000000000,"state":"active","ping":82},{"user_id":158,"name":"n99k","steam_id":76561198203732449,"connected_time":1181000000000,"state":"active","ping":75},{"user_id":173,"name":"Five","steam_id":76561198026640473,"connected_time":455000000000,"state":"active","ping":60},{"user_id":163,"name":"WatchWill","steam_id":76561198157237945,"connected_time":754000000000,"state":"active","ping":68},{"user_id":145,"name":"Tahm Selleck","steam_id":76561198138083134,"connected_time":2341000000000,"state":"active","ping":76},{"user_id":130,"name":"Rornir","steam_id":76561198081829615,"connected_time":4404000000000,"state":"active","ping":38},{"user_id":176,"name":"RagingBagon","steam_id":76561198255453127,"connected_time":257000000000,"state":"active","ping":96},{"user_id":153,"name":"Jango","steam_id":76561198084589742,"connected_time":1659000000000,"state":"active","ping":77},{"user_id":149,"name":"Smokey","steam_id":76561198071523590,"connected_time":2177000000000,"state":"active","ping":81}]},{"server_id":106,"name":"Uncletopia | Chicago | 2 | All Maps","name_short":"chi-2","host":"chi-1.us.uncletopia.com","port":27025,"enabled":true,"region":"us-central","cc":"us","latitude":41.881832,"longitude":-87.62318,"reserved":0,"last_update":"0001-01-01T00:00:00Z","name_a2s":"Uncletopia | Chicago | 2 | All Maps","protocol":17,"map":"cp_sunshine","folder":"tf","game":"Team Fortress","app_id":440,"player_count":0,"max_players":24,"Bots":0,"server_type":"Dedicated","server_os":"Linux","password":true,"vac":true,"version":"7882260","steam_id":85568392924469985,"keywords":["cp","nocrits","nodmgspread","uncletopia"],"game_id":440,"stv_port":27026,"stv_name":"Uncletopia | Chicago | 2 | All Maps | STV","players":null},{"server_id":402,"name":"Uncletopia | Chicago | 3 | All Maps","name_short":"chi-3","host":"chi-1.us.uncletopia.com","port":27035,"enabled":true,"region":"us-central","cc":"us","latitude":41.881832,"longitude":-87.62318,"reserved":0,"last_update":"0001-01-01T00:00:00Z","name_a2s":"Uncletopia | Chicago | 3 | All Maps","protocol":17,"map":"pl_frontier_final","folder":"tf","game":"Team Fortress","app_id":440,"player_count":0,"max_players":24,"Bots":0,"server_type":"Dedicated","server_os":"Linux","password":true,"vac":true,"version":"7882260","steam_id":85568392924515191,"keywords":["nocrits","nodmgspread","payload","uncletopia"],"game_id":440,"stv_port":27036,"stv_name":"Uncletopia | Chicago | 3 | All Maps | STV","players":null},{"server_id":403,"name":"Uncletopia | Chicago | 4 | All Maps","name_short":"chi-4","host":"chi-1.us.uncletopia.com","port":27045,"enabled":true,"region":"us-central","cc":"us","latitude":41.881832,"longitude":-87.62318,"reserved":0,"last_update":"0001-01-01T00:00:00Z","name_a2s":"Uncletopia | Chicago | 4 | All Maps","protocol":17,"map":"koth_cascade","folder":"tf","game":"Team Fortress","app_id":440,"player_count":0,"max_players":24,"Bots":0,"server_type":"Dedicated","server_os":"Linux","password":true,"vac":true,"version":"7882260","steam_id":85568392924515193,"keywords":["cp","nocrits","nodmgspread","uncletopia"],"game_id":440,"stv_port":27046,"stv_name":"Uncletopia | Chicago | 4 | All Maps | STV","players":null},{"server_id":36,"name":"Uncletopia | Chicago | 5 | All Maps","name_short":"chi-5","host":"chi-2.us.uncletopia.com","port":27015,"enabled":true,"region":"us-central","cc":"us","latitude":41.881832,"longitude":-87.62318,"reserved":0,"last_update":"0001-01-01T00:00:00Z","name_a2s":"Uncletopia | Chicago | 5 | All Maps","protocol":17,"map":"koth_highpass","folder":"tf","game":"Team Fortress","app_id":440,"player_count":0,"max_players":24,"Bots":0,"server_type":"Dedicated","server_os":"Linux","password":true,"vac":true,"version":"7882260","steam_id":85568392924866362,"keywords":["cp","nocrits","nodmgspread","uncletopia"],"game_id":440,"stv_port":27016,"stv_name":"Uncletopia | Chicago | 5 | All Maps | STV","players":null},{"server_id":37,"name":"Uncletopia | Chicago | 6 | All Maps","name_short":"chi-6","host":"chi-2.us.uncletopia.com","port":27025,"enabled":true,"region":"us-central","cc":"us","latitude":41.881832,"longitude":-87.62318,"reserved":0,"last_update":"0001-01-01T00:00:00Z","name_a2s":"Uncletopia | Chicago | 6 | All Maps","protocol":17,"map":"pl_barnblitz","folder":"tf","game":"Team Fortress","app_id":440,"player_count":24,"max_players":24,"Bots":0,"server_type":"Dedicated","server_os":"Linux","password":true,"vac":true,"version":"7882260","steam_id":85568392924866363,"keywords":["nocrits","nodmgspread","payload","uncletopia"],"game_id":440,"stv_port":27026,"stv_name":"Uncletopia | Chicago | 6 | All Maps | STV","players":[{"user_id":259,"name":"Sean Bae","steam_id":76561198036909521,"connected_time":3387000000000,"state":"active","ping":67},{"user_id":237,"name":"Open Mailbox","steam_id":76561198051933580,"connected_time":5294000000000,"state":"active","ping":86},{"user_id":267,"name":"30-50 feral hogs","steam_id":76561198073587145,"connected_time":1747000000000,"state":"active","ping":118},{"user_id":218,"name":"Lifial","steam_id":76561198271885819,"connected_time":6571000000000,"state":"active","ping":71},{"user_id":274,"name":"Deathroad","steam_id":76561199121468261,"connected_time":1276000000000,"state":"active","ping":171},{"user_id":230,"name":"Dad 2","steam_id":76561198138546187,"connected_time":5800000000000,"state":"active","ping":72},{"user_id":270,"name":"yoklaty","steam_id":76561199020932212,"connected_time":1354000000000,"state":"active","ping":179},{"user_id":264,"name":"Jasper Zawn","steam_id":76561198077651204,"connected_time":2187000000000,"state":"active","ping":66},{"user_id":168,"name":"and i'm javert!","steam_id":76561198117033273,"connected_time":10819000000000,"state":"active","ping":141},{"user_id":271,"name":"wafflehamster2000","steam_id":76561198849161820,"connected_time":1320000000000,"state":"active","ping":65},{"user_id":260,"name":"firstlastmcgee","steam_id":76561198170187989,"connected_time":3363000000000,"state":"active","ping":60},{"user_id":275,"name":"Queen Frau the Round","steam_id":76561197999942134,"connected_time":1125000000000,"state":"active","ping":44},{"user_id":265,"name":"Snozz Core","steam_id":76561198064520262,"connected_time":1926000000000,"state":"active","ping":70},{"user_id":283,"name":"Soju","steam_id":76561198044130442,"connected_time":805000000000,"state":"active","ping":76},{"user_id":262,"name":"guywholikesSOUP","steam_id":76561198006670369,"connected_time":2435000000000,"state":"active","ping":60},{"user_id":239,"name":"Acro Banwagon","steam_id":76561198092451804,"connected_time":5229000000000,"state":"active","ping":71},{"user_id":278,"name":"Vortiger","steam_id":76561198275813176,"connected_time":1082000000000,"state":"active","ping":105},{"user_id":284,"name":"The Milkman","steam_id":76561198258221214,"connected_time":797000000000,"state":"active","ping":76},{"user_id":279,"name":"LV.5 Crook","steam_id":76561198068799033,"connected_time":1065000000000,"state":"active","ping":84},{"user_id":281,"name":"slafflow","steam_id":76561199381012350,"connected_time":995000000000,"state":"active","ping":76},{"user_id":280,"name":"Anomalous Materials Scientist","steam_id":76561198092542997,"connected_time":1033000000000,"state":"active","ping":61},{"user_id":282,"name":"Kuddly Kay (She/Her)","steam_id":76561198353432576,"connected_time":884000000000,"state":"active","ping":98},{"user_id":229,"name":"Mom 2","steam_id":76561198200961750,"connected_time":5839000000000,"state":"active","ping":123},{"user_id":250,"name":"gamerlegend47","steam_id":76561198122776598,"connected_time":4308000000000,"state":"active","ping":70}]},{"server_id":38,"name":"Uncletopia | Chicago | 7 | Stopwatch Beta","name_short":"chi-7","host":"chi-2.us.uncletopia.com","port":27035,"enabled":true,"region":"us-central","cc":"us","latitude":41.881832,"longitude":-87.62318,"reserved":0,"last_update":"0001-01-01T00:00:00Z","name_a2s":"Uncletopia | Chicago | 7 | Stopwatch Beta","protocol":17,"map":"pl_borneo","folder":"tf","game":"Team Fortress","app_id":440,"player_count":0,"max_players":24,"Bots":0,"server_type":"Dedicated","server_os":"Linux","password":true,"vac":true,"version":"7882260","steam_id":85568392924866364,"keywords":["nocrits","nodmgspread","payload","uncletopia"],"game_id":440,"stv_port":27036,"stv_name":"Uncletopia | Chicago | 7 | Stopwatch Beta | STV","players":null},{"server_id":39,"name":"Uncletopia | Chicago | 8 | Community","name_short":"chi-8","host":"chi-2.us.uncletopia.com","port":27045,"enabled":true,"region":"us-central","cc":"us","latitude":41.881832,"longitude":-87.62318,"reserved":0,"last_update":"0001-01-01T00:00:00Z","name_a2s":"Uncletopia | Chicago | 8 | Community","protocol":17,"map":"workshop/koth_ashville_final.ugc2130459942","folder":"tf","game":"Team Fortress","app_id":440,"player_count":0,"max_players":24,"Bots":0,"server_type":"Dedicated","server_os":"Linux","password":true,"vac":true,"version":"7882260","steam_id":85568392924866365,"keywords":["cp","nocrits","nodmgspread","uncletopia"],"game_id":440,"stv_port":27046,"stv_name":"Uncletopia | Chicago | 8 | Community | STV","players":null},{"server_id":8,"name":"Uncletopia | Dallas | 1 | All Maps","name_short":"dal-1","host":"dal-1.us.uncletopia.com","port":27015,"enabled":true,"region":"us-central","cc":"us","latitude":32.779167,"longitude":-96.80889,"reserved":0,"last_update":"0001-01-01T00:00:00Z","name_a2s":"Uncletopia | Dallas | 1 | All Maps","protocol":17,"map":"koth_cascade","folder":"tf","game":"Team Fortress","app_id":440,"player_count":0,"max_players":24,"Bots":0,"server_type":"Dedicated","server_os":"Linux","password":true,"vac":true,"version":"7882260","steam_id":85568392924469986,"keywords":["cp","nocrits","nodmgspread","uncletopia"],"game_id":440,"stv_port":27016,"stv_name":"Uncletopia | Dallas | 1 | All Maps | STV","players":null},{"server_id":108,"name":"Uncletopia | Dallas | 2 | All Maps","name_short":"dal-2","host":"dal-1.us.uncletopia.com","port":27025,"enabled":true,"region":"us-central","cc":"us","latitude":32.779167,"longitude":-96.80889,"reserved":0,"last_update":"0001-01-01T00:00:00Z","name_a2s":"Uncletopia | Dallas | 2 | All Maps","protocol":17,"map":"koth_lakeside_final","folder":"tf","game":"Team Fortress","app_id":440,"player_count":0,"max_players":24,"Bots":0,"server_type":"Dedicated","server_os":"Linux","password":true,"vac":true,"version":"7882260","steam_id":85568392924469988,"keywords":["cp","nocrits","nodmgspread","uncletopia"],"game_id":440,"stv_port":27026,"stv_name":"Uncletopia | Dallas | 2 | All Maps | STV","players":null},{"server_id":5,"name":"Uncletopia | Frankfurt | 1 | All Maps","name_short":"frk-1","host":"frk-1.de.uncletopia.com","port":27015,"enabled":true,"region":"eu","cc":"de","latitude":50.110924,"longitude":8.682127,"reserved":0,"last_update":"0001-01-01T00:00:00Z","name_a2s":"Uncletopia | Frankfurt | 1 | All Maps","protocol":17,"map":"pl_swiftwater_final1","folder":"tf","game":"Team Fortress","app_id":440,"player_count":24,"max_players":24,"Bots":0,"server_type":"Dedicated","server_os":"Linux","password":true,"vac":true,"version":"7882260","steam_id":85568392924469989,"keywords":["nocrits","nodmgspread","payload","uncletopia"],"game_id":440,"stv_port":27016,"stv_name":"Uncletopia | Frankfurt | 1 | All Maps | STV","players":[{"user_id":336,"name":"AJ Skye","steam_id":76561198061289475,"connected_time":1026000000000,"state":"active","ping":67},{"user_id":326,"name":"reformed i swear","steam_id":76561198152392309,"connected_time":1717000000000,"state":"active","ping":55},{"user_id":303,"name":"Valdis","steam_id":76561198057340489,"connected_time":3081000000000,"state":"active","ping":52},{"user_id":337,"name":"Curlew","steam_id":76561198075884540,"connected_time":1009000000000,"state":"active","ping":75},{"user_id":284,"name":"Adib al-asfar","steam_id":76561198095691592,"connected_time":4415000000000,"state":"active","ping":62},{"user_id":310,"name":"Zina Tv","steam_id":76561198116530769,"connected_time":2855000000000,"state":"active","ping":85},{"user_id":321,"name":"medicinal man","steam_id":76561198202668788,"connected_time":2373000000000,"state":"active","ping":54},{"user_id":338,"name":"Rambi","steam_id":76561199058078505,"connected_time":994000000000,"state":"active","ping":147},{"user_id":346,"name":"Hoff","steam_id":76561198138540938,"connected_time":500000000000,"state":"active","ping":84},{"user_id":308,"name":"slugg","steam_id":76561198297753260,"connected_time":2947000000000,"state":"active","ping":75},{"user_id":340,"name":"...","steam_id":76561199003053533,"connected_time":898000000000,"state":"active","ping":221},{"user_id":314,"name":"ThatGamingKiwi","steam_id":76561199170522237,"connected_time":2832000000000,"state":"active","ping":165},{"user_id":341,"name":"Mr.Schnittlauch","steam_id":76561198295868113,"connected_time":878000000000,"state":"active","ping":60},{"user_id":288,"name":"taima","steam_id":76561198281053248,"connected_time":4061000000000,"state":"active","ping":69},{"user_id":307,"name":"Benny Harvey RIP","steam_id":76561198386373871,"connected_time":3015000000000,"state":"active","ping":76},{"user_id":347,"name":"Mr_Joergen","steam_id":76561198364713702,"connected_time":314000000000,"state":"active","ping":66},{"user_id":315,"name":"vadr","steam_id":76561198334528186,"connected_time":2804000000000,"state":"active","ping":58},{"user_id":335,"name":"senko","steam_id":76561198002990168,"connected_time":1223000000000,"state":"active","ping":61},{"user_id":320,"name":"Chuck van Chider","steam_id":76561198022104234,"connected_time":2732000000000,"state":"active","ping":66},{"user_id":332,"name":"Sanji's Toes","steam_id":76561198108347594,"connected_time":1369000000000,"state":"active","ping":85},{"user_id":318,"name":"rumford is underrated","steam_id":76561199165355017,"connected_time":2783000000000,"state":"active","ping":103},{"user_id":348,"name":"Sundowner","steam_id":76561197990317249,"connected_time":18000000000,"state":"spawning","ping":83},{"user_id":295,"name":"strideŒî","steam_id":76561199007826093,"connected_time":3367000000000,"state":"active","ping":79},{"user_id":344,"name":"thussu","steam_id":76561198890409949,"connected_time":822000000000,"state":"active","ping":92}]},{"server_id":110,"name":"Uncletopia | Frankfurt | 2 | All Maps","name_short":"frk-2","host":"frk-1.de.uncletopia.com","port":27025,"enabled":true,"region":"eu","cc":"de","latitude":50.110924,"longitude":8.682127,"reserved":0,"last_update":"0001-01-01T00:00:00Z","name_a2s":"Uncletopia | Frankfurt | 2 | All Maps","protocol":17,"map":"pl_frontier_final","folder":"tf","game":"Team Fortress","app_id":440,"player_count":24,"max_players":24,"Bots":0,"server_type":"Dedicated","server_os":"Linux","password":true,"vac":true,"version":"7882260","steam_id":85568392924469990,"keywords":["nocrits","nodmgspread","payload","uncletopia"],"game_id":440,"stv_port":27026,"stv_name":"Uncletopia | Frankfurt | 2 | All Maps | STV","players":[{"user_id":198,"name":"whoppr","steam_id":76561198886757115,"connected_time":537000000000,"state":"active","ping":60},{"user_id":153,"name":"on se perkele","steam_id":76561198111134021,"connected_time":3101000000000,"state":"active","ping":81},{"user_id":189,"name":"Vitamin Weee","steam_id":76561199183937747,"connected_time":1458000000000,"state":"active","ping":84},{"user_id":208,"name":"soopeli","steam_id":76561198003350251,"connected_time":196000000000,"state":"active","ping":63},{"user_id":190,"name":"cosmetical","steam_id":76561198444036574,"connected_time":1456000000000,"state":"active","ping":66},{"user_id":207,"name":"Soldoux","steam_id":76561199093055113,"connected_time":252000000000,"state":"active","ping":61},{"user_id":200,"name":"wieto","steam_id":76561198050626427,"connected_time":526000000000,"state":"active","ping":60},{"user_id":136,"name":"BELADIT","steam_id":76561198011911501,"connected_time":4019000000000,"state":"active","ping":88},{"user_id":201,"name":"molderfaker","steam_id":76561199347900130,"connected_time":514000000000,"state":"active","ping":88},{"user_id":199,"name":"mridkmyname","steam_id":76561199053952121,"connected_time":536000000000,"state":"active","ping":72},{"user_id":184,"name":"Spoody #JustPassing","steam_id":76561198031523769,"connected_time":1754000000000,"state":"active","ping":60},{"user_id":203,"name":"hotdog enjoyer","steam_id":76561199065132696,"connected_time":499000000000,"state":"active","ping":70},{"user_id":182,"name":"zvekan","steam_id":76561198381101196,"connected_time":1791000000000,"state":"active","ping":56},{"user_id":180,"name":"SooS","steam_id":76561198058943929,"connected_time":1818000000000,"state":"active","ping":85},{"user_id":205,"name":"PashaVerti","steam_id":76561199013963024,"connected_time":441000000000,"state":"active","ping":87},{"user_id":173,"name":"Slifer the Sky Dragon","steam_id":76561198062255803,"connected_time":2672000000000,"state":"active","ping":67},{"user_id":174,"name":"azzy","steam_id":76561198061293740,"connected_time":2672000000000,"state":"active","ping":79},{"user_id":186,"name":"Volterion #SaveTf2","steam_id":76561198293088484,"connected_time":1499000000000,"state":"active","ping":60},{"user_id":181,"name":"„ÄéDorarhim„Äè","steam_id":76561198220232352,"connected_time":1818000000000,"state":"active","ping":52},{"user_id":178,"name":"Mother Puncher","steam_id":76561198150448445,"connected_time":2153000000000,"state":"active","ping":65},{"user_id":194,"name":"rex110","steam_id":76561198159631448,"connected_time":1121000000000,"state":"active","ping":86},{"user_id":152,"name":"Tea","steam_id":76561198799243030,"connected_time":3117000000000,"state":"active","ping":71},{"user_id":192,"name":"Solymr ibn Wali Barad","steam_id":76561198044008976,"connected_time":1231000000000,"state":"active","ping":75},{"user_id":196,"name":"Ratatatatatatouille","steam_id":76561198182267098,"connected_time":1073000000000,"state":"active","ping":88}]},{"server_id":308,"name":"Uncletopia | Frankfurt | 3 | All Maps","name_short":"frk-3","host":"frk-1.de.uncletopia.com","port":27035,"enabled":true,"region":"eu","cc":"de","latitude":50.110924,"longitude":8.682127,"reserved":0,"last_update":"0001-01-01T00:00:00Z","name_a2s":"Uncletopia | Frankfurt | 3 | All Maps","protocol":17,"map":"pl_badwater","folder":"tf","game":"Team Fortress","app_id":440,"player_count":24,"max_players":24,"Bots":0,"server_type":"Dedicated","server_os":"Linux","password":true,"vac":true,"version":"7882260","steam_id":85568392924504274,"keywords":["nocrits","nodmgspread","payload","uncletopia"],"game_id":440,"stv_port":27036,"stv_name":"Uncletopia | Frankfurt | 3 | All Maps | STV","players":[{"user_id":202,"name":"Valkyr","steam_id":76561197994049208,"connected_time":1785000000000,"state":"active","ping":68},{"user_id":212,"name":"Tison","steam_id":76561199127635841,"connected_time":1603000000000,"state":"active","ping":44},{"user_id":207,"name":"WALTER WHITE","steam_id":76561199147666336,"connected_time":1692000000000,"state":"active","ping":62},{"user_id":204,"name":"solverod","steam_id":76561199213630004,"connected_time":1716000000000,"state":"active","ping":138},{"user_id":153,"name":"Plop_","steam_id":76561198112567921,"connected_time":4541000000000,"state":"active","ping":45},{"user_id":223,"name":"extra icky","steam_id":76561198097507847,"connected_time":771000000000,"state":"active","ping":73},{"user_id":229,"name":"REN","steam_id":76561198000596385,"connected_time":557000000000,"state":"active","ping":67},{"user_id":216,"name":"Milosz52","steam_id":76561199060940204,"connected_time":1049000000000,"state":"active","ping":78},{"user_id":86,"name":"Caliban","steam_id":76561197999696839,"connected_time":8778000000000,"state":"active","ping":114},{"user_id":227,"name":"Yarub","steam_id":76561199108317566,"connected_time":615000000000,"state":"active","ping":98},{"user_id":209,"name":"cl_skinnyboi 1","steam_id":76561198042864708,"connected_time":1674000000000,"state":"active","ping":65},{"user_id":219,"name":"S Ka Y","steam_id":76561197993423450,"connected_time":813000000000,"state":"active","ping":51},{"user_id":188,"name":"dropkickas","steam_id":76561198105121641,"connected_time":3012000000000,"state":"active","ping":62},{"user_id":225,"name":"Dr. Cox","steam_id":76561198246629218,"connected_time":737000000000,"state":"active","ping":104},{"user_id":197,"name":"eva.","steam_id":76561198054474684,"connected_time":1910000000000,"state":"active","ping":79},{"user_id":148,"name":"Jazzlike","steam_id":76561198839813662,"connected_time":4963000000000,"state":"active","ping":85},{"user_id":213,"name":"vadim_kotler","steam_id":76561199016634369,"connected_time":1534000000000,"state":"active","ping":114},{"user_id":214,"name":"herbal tea","steam_id":76561197980736364,"connected_time":1434000000000,"state":"active","ping":77},{"user_id":228,"name":"twitch.tv/siiqull","steam_id":76561198133341026,"connected_time":605000000000,"state":"active","ping":101},{"user_id":220,"name":"flr","steam_id":76561198249327786,"connected_time":809000000000,"state":"active","ping":61},{"user_id":176,"name":"f√©nix","steam_id":76561198083199151,"connected_time":3574000000000,"state":"active","ping":61},{"user_id":68,"name":"Chromega","steam_id":76561199075307750,"connected_time":10295000000000,"state":"active","ping":62},{"user_id":224,"name":"a bullet","steam_id":76561198809248362,"connected_time":766000000000,"state":"active","ping":87},{"user_id":226,"name":"Vectillion","steam_id":76561198074292454,"connected_time":719000000000,"state":"active","ping":79}]},{"server_id":309,"name":"Uncletopia | Frankfurt | 4 | All Maps","name_short":"frk-4","host":"frk-1.de.uncletopia.com","port":27045,"enabled":true,"region":"eu","cc":"de","latitude":50.110924,"longitude":8.682127,"reserved":0,"last_update":"0001-01-01T00:00:00Z","name_a2s":"Uncletopia | Frankfurt | 4 | All Maps","protocol":17,"map":"pl_badwater","folder":"tf","game":"Team Fortress","app_id":440,"player_count":24,"max_players":24,"Bots":0,"server_type":"Dedicated","server_os":"Linux","password":true,"vac":true,"version":"7882260","steam_id":85568392924504275,"keywords":["nocrits","nodmgspread","payload","uncletopia"],"game_id":440,"stv_port":27046,"stv_name":"Uncletopia | Frankfurt | 4 | All Maps | STV","players":[{"user_id":395,"name":"SCRAMMMBLED","steam_id":76561197998307746,"connected_time":1848000000000,"state":"active","ping":61},{"user_id":406,"name":"twitch/auratf2","steam_id":76561197988085026,"connected_time":318000000000,"state":"active","ping":69},{"user_id":396,"name":"Yargƒ±√ß","steam_id":76561199147152361,"connected_time":1721000000000,"state":"active","ping":111},{"user_id":391,"name":"murderwow","steam_id":76561198024566944,"connected_time":2049000000000,"state":"active","ping":97},{"user_id":284,"name":"P9Nexus","steam_id":76561198073416257,"connected_time":7989000000000,"state":"active","ping":45},{"user_id":383,"name":"romaingallo","steam_id":76561198268112907,"connected_time":2545000000000,"state":"active","ping":65},{"user_id":362,"name":"dnljns","steam_id":76561198085091752,"connected_time":3974000000000,"state":"active","ping":79},{"user_id":392,"name":"Reyasmus","steam_id":76561199107253208,"connected_time":2044000000000,"state":"active","ping":68},{"user_id":393,"name":"Zegon (Limited Edition)","steam_id":76561198196418618,"connected_time":1968000000000,"state":"active","ping":47},{"user_id":409,"name":"Combat Wombat","steam_id":76561197994720068,"connected_time":175000000000,"state":"active","ping":70},{"user_id":405,"name":"Doriian","steam_id":76561198071438810,"connected_time":489000000000,"state":"active","ping":83},{"user_id":370,"name":"Feylo","steam_id":76561199149815448,"connected_time":3116000000000,"state":"active","ping":62},{"user_id":408,"name":"manKe","steam_id":76561198008564860,"connected_time":178000000000,"state":"active","ping":59},{"user_id":397,"name":"The one who knocks","steam_id":76561198089341471,"connected_time":1655000000000,"state":"active","ping":82},{"user_id":390,"name":"hallu","steam_id":76561198198581079,"connected_time":2144000000000,"state":"active","ping":84},{"user_id":407,"name":"Foly","steam_id":76561198379383694,"connected_time":249000000000,"state":"active","ping":74},{"user_id":401,"name":"holykyckling","steam_id":76561198040661615,"connected_time":1128000000000,"state":"active","ping":75},{"user_id":400,"name":"limbicsystem","steam_id":76561198025612680,"connected_time":1144000000000,"state":"active","ping":68},{"user_id":399,"name":"skatie","steam_id":76561198169487380,"connected_time":1182000000000,"state":"active","ping":77},{"user_id":295,"name":"burgz","steam_id":76561198109955787,"connected_time":7799000000000,"state":"active","ping":55},{"user_id":374,"name":"Jan.","steam_id":76561197974066329,"connected_time":2920000000000,"state":"active","ping":64},{"user_id":360,"name":"Dr. Mike","steam_id":76561197991205793,"connected_time":4256000000000,"state":"active","ping":74},{"user_id":385,"name":"YaG-10 (29-K)","steam_id":76561198112012468,"connected_time":2497000000000,"state":"active","ping":76},{"user_id":381,"name":"Ross from F.R.I.E.N.D.S.","steam_id":76561198008511665,"connected_time":2724000000000,"state":"active","ping":60}]},{"server_id":310,"name":"Uncletopia | Frankfurt | 5 | All Maps","name_short":"frk-5","host":"frk-1.de.uncletopia.com","port":27055,"enabled":true,"region":"eu","cc":"de","latitude":50.110924,"longitude":8.682127,"reserved":0,"last_update":"0001-01-01T00:00:00Z","name_a2s":"Uncletopia | Frankfurt | 5 | All Maps","protocol":17,"map":"koth_cascade","folder":"tf","game":"Team Fortress","app_id":440,"player_count":0,"max_players":24,"Bots":0,"server_type":"Dedicated","server_os":"Linux","password":true,"vac":true,"version":"7882260","steam_id":85568392924504277,"keywords":["cp","nocrits","nodmgspread","uncletopia"],"game_id":440,"stv_port":27056,"stv_name":"Uncletopia | Frankfurt | 5 | All Maps | STV","players":null},{"server_id":311,"name":"Uncletopia | Frankfurt | 6 | All Maps","name_short":"frk-6","host":"frk-1.de.uncletopia.com","port":27065,"enabled":true,"region":"eu","cc":"de","latitude":50.110924,"longitude":8.682127,"reserved":0,"last_update":"0001-01-01T00:00:00Z","name_a2s":"Uncletopia | Frankfurt | 6 | All Maps","protocol":17,"map":"koth_lakeside_final","folder":"tf","game":"Team Fortress","app_id":440,"player_count":1,"max_players":24,"Bots":0,"server_type":"Dedicated","server_os":"Linux","password":true,"vac":true,"version":"7882260","steam_id":85568392924504278,"keywords":["cp","nocrits","nodmgspread","uncletopia"],"game_id":440,"stv_port":27066,"stv_name":"Uncletopia | Frankfurt | 6 | All Maps | STV","players":[{"user_id":19,"name":"big meaty cock","steam_id":76561198125305204,"connected_time":197000000000,"state":"active","ping":84}]},{"server_id":23,"name":"Uncletopia | Frankfurt | 7 | Stopwatch Beta","name_short":"frk-7","host":"frk-1.de.uncletopia.com","port":27075,"enabled":true,"region":"eu","cc":"de","latitude":50.110924,"longitude":8.682127,"reserved":0,"last_update":"0001-01-01T00:00:00Z","name_a2s":"Uncletopia | Frankfurt | 7 | Stopwatch Beta","protocol":17,"map":"workshop/koth_product_final.ugc454272353","folder":"tf","game":"Team Fortress","app_id":440,"player_count":0,"max_players":24,"Bots":0,"server_type":"Dedicated","server_os":"Linux","password":true,"vac":true,"version":"7882260","steam_id":85568392924742827,"keywords":["cp","nocrits","nodmgspread","uncletopia"],"game_id":440,"stv_port":27076,"stv_name":"Uncletopia | Frankfurt | 7 | Stopwatch Beta | STV","players":null},{"server_id":24,"name":"Uncletopia | Frankfurt | 8 | Community","name_short":"frk-8","host":"frk-1.de.uncletopia.com","port":27085,"enabled":true,"region":"eu","cc":"de","latitude":50.110924,"longitude":8.682127,"reserved":0,"last_update":"0001-01-01T00:00:00Z","name_a2s":"Uncletopia | Frankfurt | 8 | Community","protocol":17,"map":"workshop/pl_divulgence_b4b.ugc2884808746","folder":"tf","game":"Team Fortress","app_id":440,"player_count":24,"max_players":24,"Bots":0,"server_type":"Dedicated","server_os":"Linux","password":true,"vac":true,"version":"7882260","steam_id":85568392924742828,"keywords":["nocrits","nodmgspread","payload","uncletopia"],"game_id":440,"stv_port":27086,"stv_name":"Uncletopia | Frankfurt | 8 | Community | STV","players":[{"user_id":18,"name":"ARCANE","steam_id":76561198141294779,"connected_time":2192000000000,"state":"active","ping":107},{"user_id":19,"name":"Coromax","steam_id":76561198797006018,"connected_time":2115000000000,"state":"active","ping":74},{"user_id":31,"name":"cof","steam_id":76561199128417805,"connected_time":1411000000000,"state":"active","ping":70},{"user_id":38,"name":"Alice can't hit pipes","steam_id":76561198052410860,"connected_time":1132000000000,"state":"active","ping":142},{"user_id":57,"name":"the gamer","steam_id":76561198445810164,"connected_time":518000000000,"state":"active","ping":78},{"user_id":60,"name":"Tywhip","steam_id":76561199207545191,"connected_time":432000000000,"state":"active","ping":59},{"user_id":27,"name":"christoph","steam_id":76561198862617811,"connected_time":1512000000000,"state":"active","ping":66},{"user_id":68,"name":"Ned","steam_id":76561198862694323,"connected_time":2000000000,"state":"spawning","ping":118},{"user_id":67,"name":"Ugnus Maggla","steam_id":76561198065288396,"connected_time":135000000000,"state":"active","ping":62},{"user_id":61,"name":"Guru","steam_id":76561198093853069,"connected_time":430000000000,"state":"active","ping":58},{"user_id":33,"name":"$t@lker_Tim","steam_id":76561198963658042,"connected_time":1263000000000,"state":"active","ping":111},{"user_id":59,"name":"idiot with a plan","steam_id":76561198253503043,"connected_time":478000000000,"state":"active","ping":69},{"user_id":39,"name":"big poo","steam_id":76561199088284199,"connected_time":1129000000000,"state":"active","ping":68},{"user_id":43,"name":"Trolli","steam_id":76561199069726280,"connected_time":924000000000,"state":"active","ping":43},{"user_id":64,"name":"_Corvo_","steam_id":76561198129339188,"connected_time":332000000000,"state":"active","ping":87},{"user_id":62,"name":"Adolf gayming","steam_id":76561198830058797,"connected_time":403000000000,"state":"active","ping":78},{"user_id":65,"name":"nemelex","steam_id":76561198958005865,"connected_time":312000000000,"state":"active","ping":62},{"user_id":44,"name":"M2rtRa","steam_id":76561198111036466,"connected_time":889000000000,"state":"active","ping":62},{"user_id":47,"name":"sword .-word","steam_id":76561198060849026,"connected_time":776000000000,"state":"active","ping":88},{"user_id":49,"name":"Mr. Data","steam_id":76561198039083551,"connected_time":683000000000,"state":"active","ping":71},{"user_id":50,"name":"Proud Jojo Fan #TF2SP","steam_id":76561198847327216,"connected_time":676000000000,"state":"active","ping":64},{"user_id":58,"name":"Corpus Christi","steam_id":76561198417999443,"connected_time":484000000000,"state":"active","ping":101},{"user_id":66,"name":"SpilledMilk","steam_id":76561198174123971,"connected_time":290000000000,"state":"active","ping":57},{"user_id":54,"name":"Carol Olston","steam_id":76561198080257273,"connected_time":589000000000,"state":"active","ping":54}]},{"server_id":202,"name":"Uncletopia | Hong Kong | 1 | All Maps","name_short":"hgk-1","host":"hgk-1.hk.uncletopia.com","port":27015,"enabled":true,"region":"asia","cc":"hk","latitude":22.302711,"longitude":114.177216,"reserved":0,"last_update":"0001-01-01T00:00:00Z","name_a2s":"Uncletopia | Hong Kong | 1 | All Maps","protocol":17,"map":"koth_viaduct","folder":"tf","game":"Team Fortress","app_id":440,"player_count":1,"max_players":24,"Bots":0,"server_type":"Dedicated","server_os":"Linux","password":true,"vac":true,"version":"7882260","steam_id":85568392924494504,"keywords":["cp","nocrits","nodmgspread","uncletopia"],"game_id":440,"stv_port":27016,"stv_name":"Uncletopia | Hong Kong | 1 | All Maps | STV","players":[{"user_id":622,"name":"Ice","steam_id":76561198378604254,"connected_time":100000000000,"state":"active","ping":239}]},{"server_id":1,"name":"Uncletopia | Los Angeles | 1 | All Maps","name_short":"lax-1","host":"lax-1.us.uncletopia.com","port":27015,"enabled":true,"region":"us-west","cc":"us","latitude":33.94279,"longitude":-118.41004,"reserved":0,"last_update":"0001-01-01T00:00:00Z","name_a2s":"Uncletopia | Los Angeles | 1 | All Maps","protocol":17,"map":"cp_sunshine","folder":"tf","game":"Team Fortress","app_id":440,"player_count":0,"max_players":24,"Bots":0,"server_type":"Dedicated","server_os":"Linux","password":true,"vac":true,"version":"7882260","steam_id":85568392924469991,"keywords":["cp","nocrits","nodmgspread","uncletopia"],"game_id":440,"stv_port":27016,"stv_name":"Uncletopia | Los Angeles | 1 | All Maps | STV","players":null},{"server_id":112,"name":"Uncletopia | Los Angeles | 2 | All Maps","name_short":"lax-2","host":"lax-1.us.uncletopia.com","port":27025,"enabled":true,"region":"us-west","cc":"us","latitude":33.94279,"longitude":-118.41004,"reserved":0,"last_update":"0001-01-01T00:00:00Z","name_a2s":"Uncletopia | Los Angeles | 2 | All Maps","protocol":17,"map":"cp_snakewater_final1","folder":"tf","game":"Team Fortress","app_id":440,"player_count":0,"max_players":24,"Bots":0,"server_type":"Dedicated","server_os":"Linux","password":true,"vac":true,"version":"7882260","steam_id":85568392924469992,"keywords":["cp","nocrits","nodmgspread","uncletopia"],"game_id":440,"stv_port":27026,"stv_name":"Uncletopia | Los Angeles | 2 | All Maps | STV","players":null},{"server_id":324,"name":"Uncletopia | Los Angeles | 3 | All Maps","name_short":"lax-3","host":"lax-1.us.uncletopia.com","port":27035,"enabled":true,"region":"us-west","cc":"us","latitude":33.94279,"longitude":-118.41004,"reserved":0,"last_update":"0001-01-01T00:00:00Z","name_a2s":"Uncletopia | Los Angeles | 3 | All Maps","protocol":17,"map":"pl_upward","folder":"tf","game":"Team Fortress","app_id":440,"player_count":0,"max_players":24,"Bots":0,"server_type":"Dedicated","server_os":"Linux","password":true,"vac":true,"version":"7882260","steam_id":85568392924510198,"keywords":["nocrits","nodmgspread","payload","uncletopia"],"game_id":440,"stv_port":27036,"stv_name":"Uncletopia | Los Angeles | 3 | All Maps | STV","players":null},{"server_id":25,"name":"Uncletopia | Los Angeles | 4 | Stopwatch Beta","name_short":"lax-4","host":"lax-1.us.uncletopia.com","port":27045,"enabled":true,"region":"us-west","cc":"us","latitude":33.94279,"longitude":-118.41004,"reserved":0,"last_update":"0001-01-01T00:00:00Z","name_a2s":"Uncletopia | Los Angeles | 4 | Stopwatch Beta","protocol":17,"map":"cp_snakewater_final1","folder":"tf","game":"Team Fortress","app_id":440,"player_count":0,"max_players":24,"Bots":0,"server_type":"Dedicated","server_os":"Linux","password":true,"vac":true,"version":"7882260","steam_id":85568392924510199,"keywords":["cp","nocrits","nodmgspread","uncletopia"],"game_id":440,"stv_port":27046,"stv_name":"Uncletopia | Los Angeles | 4 | Stopwatch Beta | STV","players":null},{"server_id":11,"name":"Uncletopia | London | 1 | All Maps","name_short":"lon-1","host":"lon-1.uk.uncletopia.com","port":27015,"enabled":true,"region":"eu","cc":"gb","latitude":51.509865,"longitude":-0.118092,"reserved":0,"last_update":"0001-01-01T00:00:00Z","name_a2s":"Uncletopia | London | 1 | All Maps","protocol":17,"map":"pl_upward","folder":"tf","game":"Team Fortress","app_id":440,"player_count":24,"max_players":24,"Bots":0,"server_type":"Dedicated","server_os":"Linux","password":true,"vac":true,"version":"7882260","steam_id":85568392924367362,"keywords":["nocrits","nodmgspread","payload","uncletopia"],"game_id":440,"stv_port":27016,"stv_name":"Uncletopia | London | 1 | All Maps | STV","players":[{"user_id":595,"name":"Minimi","steam_id":76561198873850443,"connected_time":3335000000000,"state":"active","ping":47},{"user_id":605,"name":"Matrix108","steam_id":76561198180382327,"connected_time":2418000000000,"state":"active","ping":74},{"user_id":640,"name":"regimiro","steam_id":76561198120457008,"connected_time":27000000000,"state":"active","ping":252},{"user_id":635,"name":"Mr_Pulse_","steam_id":76561198095001602,"connected_time":880000000000,"state":"active","ping":104},{"user_id":632,"name":"svantezch","steam_id":76561198373831657,"connected_time":946000000000,"state":"active","ping":77},{"user_id":541,"name":"jimmy bob","steam_id":76561198319583692,"connected_time":4804000000000,"state":"active","ping":56},{"user_id":622,"name":"Gnarville","steam_id":76561198006373329,"connected_time":1510000000000,"state":"active","ping":46},{"user_id":624,"name":"shooer! :D \u003e\u003c(((¬∫\u003e","steam_id":76561198110531281,"connected_time":1417000000000,"state":"active","ping":66},{"user_id":612,"name":"R0mulone","steam_id":76561198352513792,"connected_time":1885000000000,"state":"active","ping":60},{"user_id":639,"name":"cult","steam_id":76561198188647690,"connected_time":248000000000,"state":"active","ping":75},{"user_id":614,"name":"Tortes","steam_id":76561199049185884,"connected_time":1739000000000,"state":"active","ping":105},{"user_id":623,"name":"minitel","steam_id":76561198056336216,"connected_time":1468000000000,"state":"active","ping":55},{"user_id":638,"name":"–ü—É–∫—Å–µ–ª—å","steam_id":76561198294425174,"connected_time":568000000000,"state":"active","ping":76},{"user_id":594,"name":"Yelowchy","steam_id":76561198199416121,"connected_time":3413000000000,"state":"active","ping":75},{"user_id":626,"name":"Captain Samo","steam_id":76561198047224482,"connected_time":1319000000000,"state":"active","ping":66},{"user_id":628,"name":"Loperin","steam_id":76561198111237338,"connected_time":1191000000000,"state":"active","ping":81},{"user_id":633,"name":"Show me your gun","steam_id":76561198368339225,"connected_time":938000000000,"state":"active","ping":130},{"user_id":634,"name":"Alexandre","steam_id":76561198121784446,"connected_time":938000000000,"state":"active","ping":39},{"user_id":587,"name":"Kahvi","steam_id":76561198723244199,"connected_time":3957000000000,"state":"active","ping":77},{"user_id":611,"name":"Jesus Enjoyer","steam_id":76561198840259819,"connected_time":1914000000000,"state":"active","ping":58},{"user_id":513,"name":"astra","steam_id":76561198042980579,"connected_time":7004000000000,"state":"active","ping":68},{"user_id":610,"name":"aminoxsos1230987","steam_id":76561198839741609,"connected_time":1955000000000,"state":"active","ping":70},{"user_id":615,"name":"êÇÉêÇÉ","steam_id":76561198191052349,"connected_time":1730000000000,"state":"active","ping":106},{"user_id":636,"name":"congo","steam_id":76561198236836866,"connected_time":862000000000,"state":"active","ping":87}]},{"server_id":114,"name":"Uncletopia | London | 2 | All Maps","name_short":"lon-2","host":"lon-1.uk.uncletopia.com","port":27025,"enabled":true,"region":"eu","cc":"gb","latitude":51.509865,"longitude":-0.118092,"reserved":0,"last_update":"0001-01-01T00:00:00Z","name_a2s":"Uncletopia | London | 2 | All Maps","protocol":17,"map":"cp_snakewater_final1","folder":"tf","game":"Team Fortress","app_id":440,"player_count":24,"max_players":24,"Bots":0,"server_type":"Dedicated","server_os":"Linux","password":true,"vac":true,"version":"7882260","steam_id":85568392924470941,"keywords":["cp","nocrits","nodmgspread","uncletopia"],"game_id":440,"stv_port":27026,"stv_name":"Uncletopia | London | 2 | All Maps | STV","players":[{"user_id":179,"name":"GunGuy","steam_id":76561198124510978,"connected_time":591000000000,"state":"active","ping":38},{"user_id":176,"name":"t√Øger","steam_id":76561198260483157,"connected_time":779000000000,"state":"active","ping":81},{"user_id":138,"name":"SnowShot","steam_id":76561198004766638,"connected_time":4018000000000,"state":"active","ping":76},{"user_id":160,"name":"Cutesy Femboy","steam_id":76561198156906497,"connected_time":2077000000000,"state":"active","ping":51},{"user_id":127,"name":"[waffles]","steam_id":76561198951206047,"connected_time":4521000000000,"state":"active","ping":89},{"user_id":191,"name":"monaskick","steam_id":76561198326190912,"connected_time":314000000000,"state":"active","ping":78},{"user_id":195,"name":"CAMON ENGELAND","steam_id":76561198054301125,"connected_time":9000000000,"state":"spawning","ping":80},{"user_id":188,"name":"SirSangoor","steam_id":76561198044462559,"connected_time":430000000000,"state":"active","ping":111},{"user_id":189,"name":"mumbler","steam_id":76561197970641239,"connected_time":430000000000,"state":"active","ping":62},{"user_id":182,"name":"GMsU | Rebikas","steam_id":76561198077053764,"connected_time":561000000000,"state":"active","ping":56},{"user_id":169,"name":"Jon","steam_id":76561199380849468,"connected_time":1149000000000,"state":"active","ping":61},{"user_id":183,"name":"Tomo -∆í$-","steam_id":76561199015097595,"connected_time":534000000000,"state":"active","ping":45},{"user_id":187,"name":"Lux","steam_id":76561198060417740,"connected_time":443000000000,"state":"active","ping":47},{"user_id":163,"name":"‚ù§G a n K","steam_id":76561199125995565,"connected_time":2009000000000,"state":"active","ping":64},{"user_id":141,"name":"Sta≈Ñczyk","steam_id":76561197998906563,"connected_time":3661000000000,"state":"active","ping":42},{"user_id":136,"name":"jona3838","steam_id":76561199097658195,"connected_time":4049000000000,"state":"active","ping":102},{"user_id":185,"name":"jerf(bored)","steam_id":76561199213901239,"connected_time":527000000000,"state":"active","ping":46},{"user_id":186,"name":"kyra","steam_id":76561198412004372,"connected_time":520000000000,"state":"active","ping":63},{"user_id":192,"name":"Fat Pigeon","steam_id":76561198817940142,"connected_time":282000000000,"state":"active","ping":45},{"user_id":152,"name":"Loupombear","steam_id":76561198115905860,"connected_time":2806000000000,"state":"active","ping":49},{"user_id":194,"name":"porta","steam_id":76561198876318011,"connected_time":40000000000,"state":"active","ping":55},{"user_id":167,"name":"rotting woman","steam_id":76561198396168679,"connected_time":1230000000000,"state":"active","ping":184},{"user_id":144,"name":"hedon/","steam_id":76561198249832770,"connected_time":3559000000000,"state":"active","ping":47}]},{"server_id":320,"name":"Uncletopia | London | 3 | All Maps","name_short":"lon-3","host":"lon-1.uk.uncletopia.com","port":27035,"enabled":true,"region":"eu","cc":"gb","latitude":51.509865,"longitude":-0.118092,"reserved":0,"last_update":"0001-01-01T00:00:00Z","name_a2s":"Uncletopia | London | 3 | All Maps","protocol":17,"map":"koth_highpass","folder":"tf","game":"Team Fortress","app_id":440,"player_count":0,"max_players":24,"Bots":0,"server_type":"Dedicated","server_os":"Linux","password":true,"vac":true,"version":"7882260","steam_id":85568392924510192,"keywords":["cp","nocrits","nodmgspread","uncletopia"],"game_id":440,"stv_port":27036,"stv_name":"Uncletopia | London | 3 | All Maps | STV","players":null},{"server_id":321,"name":"Uncletopia | London | 4 | All Maps","name_short":"lon-4","host":"lon-1.uk.uncletopia.com","port":27045,"enabled":true,"region":"eu","cc":"gb","latitude":51.509865,"longitude":-0.118092,"reserved":0,"last_update":"0001-01-01T00:00:00Z","name_a2s":"Uncletopia | London | 4 | All Maps","protocol":17,"map":"koth_highpass","folder":"tf","game":"Team Fortress","app_id":440,"player_count":0,"max_players":24,"Bots":0,"server_type":"Dedicated","server_os":"Linux","password":true,"vac":true,"version":"7882260","steam_id":85568392924510193,"keywords":["cp","nocrits","nodmgspread","uncletopia"],"game_id":440,"stv_port":27046,"stv_name":"Uncletopia | London | 4 | All Maps | STV","players":null},{"server_id":21,"name":"Uncletopia | London | 5 | All Maps","name_short":"lon-5","host":"lon-1.uk.uncletopia.com","port":27055,"enabled":true,"region":"eu","cc":"gb","latitude":51.509865,"longitude":-0.118092,"reserved":0,"last_update":"0001-01-01T00:00:00Z","name_a2s":"Uncletopia | London | 5 | All Maps","protocol":17,"map":"ctf_2fort","folder":"tf","game":"Team Fortress","app_id":440,"player_count":24,"max_players":24,"Bots":0,"server_type":"Dedicated","server_os":"Linux","password":true,"vac":true,"version":"7882260","steam_id":85568392924742829,"keywords":["ctf","nocrits","nodmgspread","uncletopia"],"game_id":440,"stv_port":27056,"stv_name":"Uncletopia | London | 5 | All Maps | STV","players":[{"user_id":10,"name":"chopsticks","steam_id":76561198045899345,"connected_time":6849000000000,"state":"active","ping":111},{"user_id":11,"name":"Butt Fangs Fetish","steam_id":76561198038130063,"connected_time":6843000000000,"state":"active","ping":90},{"user_id":102,"name":"TJ1212","steam_id":76561199013575313,"connected_time":1406000000000,"state":"active","ping":66},{"user_id":115,"name":"hybrid","steam_id":76561197996468677,"connected_time":844000000000,"state":"active","ping":70},{"user_id":93,"name":"–ëravo","steam_id":76561198259340310,"connected_time":2258000000000,"state":"active","ping":65},{"user_id":17,"name":"Jonno","steam_id":76561198285144917,"connected_time":6694000000000,"state":"active","ping":115},{"user_id":18,"name":"Havelyn","steam_id":76561198036159862,"connected_time":6667000000000,"state":"active","ping":136},{"user_id":103,"name":"Mowelic","steam_id":76561198873641222,"connected_time":1387000000000,"state":"active","ping":83},{"user_id":104,"name":"Dr. Funkenstein","steam_id":76561197977816210,"connected_time":1379000000000,"state":"active","ping":47},{"user_id":66,"name":"twitch.tv/Dr.Sex","steam_id":76561198029044617,"connected_time":3999000000000,"state":"active","ping":50},{"user_id":129,"name":"Bart„ÉÑ","steam_id":76561198164718893,"connected_time":17000000000,"state":"spawning","ping":40},{"user_id":116,"name":"Tekky","steam_id":76561197990987315,"connected_time":804000000000,"state":"active","ping":36},{"user_id":105,"name":"Lokinn","steam_id":76561198127117580,"connected_time":1350000000000,"state":"active","ping":63},{"user_id":106,"name":"‚ôõperry the platypus‚ôõ","steam_id":76561199379159771,"connected_time":1342000000000,"state":"active","ping":140},{"user_id":117,"name":"HugeE","steam_id":76561198245495152,"connected_time":770000000000,"state":"active","ping":60},{"user_id":118,"name":"The Ghost","steam_id":76561199123985571,"connected_time":763000000000,"state":"active","ping":93},{"user_id":128,"name":"Bob Sacamano","steam_id":76561198085610701,"connected_time":86000000000,"state":"active","ping":99},{"user_id":113,"name":"gamer","steam_id":76561198052344629,"connected_time":1015000000000,"state":"active","ping":32},{"user_id":114,"name":"Tingalingo","steam_id":76561198290632549,"connected_time":959000000000,"state":"active","ping":106},{"user_id":125,"name":"lord-carlos","steam_id":76561198025150761,"connected_time":427000000000,"state":"active","ping":61},{"user_id":124,"name":"Dolcelatte","steam_id":76561198038501770,"connected_time":464000000000,"state":"active","ping":60},{"user_id":121,"name":"I love playing medic.","steam_id":76561199101935057,"connected_time":720000000000,"state":"active","ping":105},{"user_id":122,"name":"peso enjoyer","steam_id":76561198798177799,"connected_time":701000000000,"state":"active","ping":83},{"user_id":45,"name":"Vinipux","steam_id":76561198224485952,"connected_time":5830000000000,"state":"active","ping":102}]},{"server_id":22,"name":"Uncletopia | London | 6 | All Maps","name_short":"lon-6","host":"lon-1.uk.uncletopia.com","port":27065,"enabled":true,"region":"eu","cc":"gb","latitude":51.509865,"longitude":-0.118092,"reserved":0,"last_update":"0001-01-01T00:00:00Z","name_a2s":"Uncletopia | London | 6 | All Maps","protocol":17,"map":"cp_mountainlab","folder":"tf","game":"Team Fortress","app_id":440,"player_count":0,"max_players":24,"Bots":0,"server_type":"Dedicated","server_os":"Linux","password":true,"vac":true,"version":"7882260","steam_id":85568392924742830,"keywords":["cp","nocrits","nodmgspread","uncletopia"],"game_id":440,"stv_port":27066,"stv_name":"Uncletopia | London | 6 | All Maps | STV","players":null},{"server_id":40,"name":"Uncletopia | London | 7 | No Payload","name_short":"lon-7","host":"lon-1.uk.uncletopia.com","port":27075,"enabled":true,"region":"eu","cc":"gb","latitude":51.509865,"longitude":-0.118092,"reserved":0,"last_update":"0001-01-01T00:00:00Z","name_a2s":"Uncletopia | London | 7 | No Payload","protocol":17,"map":"cp_granary","folder":"tf","game":"Team Fortress","app_id":440,"player_count":0,"max_players":24,"Bots":0,"server_type":"Dedicated","server_os":"Linux","password":true,"vac":true,"version":"7882260","steam_id":85568392924964314,"keywords":["cp","nocrits","nodmgspread","uncletopia"],"game_id":440,"stv_port":27076,"stv_name":"Uncletopia | London | 7 | No Payload | STV","players":null},{"server_id":41,"name":"Uncletopia | London | 8 | Community","name_short":"lon-8","host":"lon-1.uk.uncletopia.com","port":27085,"enabled":true,"region":"eu","cc":"gb","latitude":51.509865,"longitude":-0.118092,"reserved":0,"last_update":"0001-01-01T00:00:00Z","name_a2s":"Uncletopia | London | 8 | Community","protocol":17,"map":"workshop/pl_cashworks_final1.ugc2904065412","folder":"tf","game":"Team Fortress","app_id":440,"player_count":24,"max_players":24,"Bots":0,"server_type":"Dedicated","server_os":"Linux","password":true,"vac":true,"version":"7882260","steam_id":85568392924964315,"keywords":["nocrits","nodmgspread","payload","uncletopia"],"game_id":440,"stv_port":27086,"stv_name":"Uncletopia | London | 8 | Community | STV","players":[{"user_id":463,"name":"Tegnerud","steam_id":76561198214185612,"connected_time":180000000000,"state":"active","ping":75},{"user_id":414,"name":"Ava9","steam_id":76561198975869024,"connected_time":4232000000000,"state":"active","ping":83},{"user_id":456,"name":"Krabs","steam_id":76561198161679477,"connected_time":249000000000,"state":"active","ping":39},{"user_id":464,"name":"lofimonkeyjazz","steam_id":76561198117059662,"connected_time":164000000000,"state":"active","ping":82},{"user_id":452,"name":"Bambi","steam_id":76561198166972711,"connected_time":329000000000,"state":"active","ping":57},{"user_id":458,"name":"Gordon","steam_id":76561198303652059,"connected_time":232000000000,"state":"active","ping":69},{"user_id":383,"name":"elsuedi","steam_id":76561198074722832,"connected_time":5489000000000,"state":"active","ping":60},{"user_id":465,"name":"Hacpow","steam_id":76561198083205388,"connected_time":95000000000,"state":"active","ping":76},{"user_id":466,"name":"KillerQueen (he/they/she)","steam_id":76561199019399725,"connected_time":95000000000,"state":"active","ping":48},{"user_id":460,"name":"Lucky B.üèÜ","steam_id":76561198077571162,"connected_time":206000000000,"state":"active","ping":56},{"user_id":467,"name":"Controller Gaming","steam_id":76561198134805479,"connected_time":57000000000,"state":"active","ping":45},{"user_id":371,"name":"band-aid copyright infringement","steam_id":76561199027095451,"connected_time":5842000000000,"state":"active","ping":97},{"user_id":461,"name":"ShinxPasta","steam_id":76561198217784611,"connected_time":203000000000,"state":"active","ping":59},{"user_id":451,"name":"Serton‚ôù","steam_id":76561198011061126,"connected_time":468000000000,"state":"active","ping":72},{"user_id":462,"name":"üóªüé¥Hadrian Maloneüé¥üóª","steam_id":76561198036151103,"connected_time":201000000000,"state":"active","ping":60},{"user_id":470,"name":"kallerannar","steam_id":76561199095701143,"connected_time":2000000000,"state":"spawning","ping":67},{"user_id":300,"name":"duplicated","steam_id":76561198344952248,"connected_time":11603000000000,"state":"active","ping":60},{"user_id":468,"name":"JENNY","steam_id":76561198072302273,"connected_time":44000000000,"state":"active","ping":49},{"user_id":435,"name":"Portal79","steam_id":76561198095499584,"connected_time":2430000000000,"state":"active","ping":56},{"user_id":453,"name":"Mach","steam_id":76561198952487564,"connected_time":328000000000,"state":"active","ping":167},{"user_id":469,"name":"generic alias","steam_id":76561198271607226,"connected_time":42000000000,"state":"active","ping":93},{"user_id":471,"name":"DrExplosive 30fps gaming","steam_id":76561198063678579,"connected_time":0,"state":"spawning","ping":59},{"user_id":426,"name":"Miton","steam_id":76561197970323209,"connected_time":3124000000000,"state":"active","ping":91},{"user_id":391,"name":"LarsInABox","steam_id":76561198028329262,"connected_time":5249000000000,"state":"active","ping":74}]},{"server_id":300,"name":"Uncletopia | Montr√©al | 1 | All Maps","name_short":"mtl-1","host":"mtl-1.ca.uncletopia.com","port":27015,"enabled":true,"region":"us-east","cc":"ca","latitude":45.50889,"longitude":-73.56167,"reserved":0,"last_update":"0001-01-01T00:00:00Z","name_a2s":"Uncletopia | Montr√©al | 1 | All Maps","protocol":17,"map":"pl_pier","folder":"tf","game":"Team Fortress","app_id":440,"player_count":24,"max_players":24,"Bots":0,"server_type":"Dedicated","server_os":"Linux","password":true,"vac":true,"version":"7882260","steam_id":85568392924500087,"keywords":["nocrits","nodmgspread","payload","uncletopia"],"game_id":440,"stv_port":27016,"stv_name":"Uncletopia | Montr√©al | 1 | All Maps | STV","players":[{"user_id":3,"name":"send dudes","steam_id":76561198084277762,"connected_time":4542000000000,"state":"active","ping":41},{"user_id":47,"name":"CORGI.EXE","steam_id":76561198077093432,"connected_time":1305000000000,"state":"active","ping":55},{"user_id":5,"name":"tasty","steam_id":76561198083839061,"connected_time":4381000000000,"state":"active","ping":74},{"user_id":50,"name":"FateTheTitan","steam_id":76561198176884955,"connected_time":1076000000000,"state":"active","ping":129},{"user_id":28,"name":"joethefool","steam_id":76561199015436319,"connected_time":2109000000000,"state":"active","ping":58},{"user_id":55,"name":"twix","steam_id":76561198040912048,"connected_time":695000000000,"state":"active","ping":42},{"user_id":30,"name":"Moonman327","steam_id":76561197992616059,"connected_time":2035000000000,"state":"active","ping":77},{"user_id":56,"name":"Tsubasa","steam_id":76561198329439995,"connected_time":684000000000,"state":"active","ping":41},{"user_id":64,"name":"twin","steam_id":76561198055626638,"connected_time":76000000000,"state":"active","ping":86},{"user_id":65,"name":"dicksnip","steam_id":76561198356515396,"connected_time":41000000000,"state":"active","ping":99},{"user_id":19,"name":"Bee_Pirate","steam_id":76561199000599111,"connected_time":2680000000000,"state":"active","ping":49},{"user_id":32,"name":"EmergantZombie","steam_id":76561198004993012,"connected_time":2011000000000,"state":"active","ping":100},{"user_id":57,"name":"ethical games journalist","steam_id":76561198090807130,"connected_time":642000000000,"state":"active","ping":86},{"user_id":51,"name":"Turbocat","steam_id":76561198145431353,"connected_time":1010000000000,"state":"active","ping":62},{"user_id":58,"name":"E10","steam_id":76561199070597462,"connected_time":632000000000,"state":"active","ping":75},{"user_id":41,"name":"Fat Payton | (GL)","steam_id":76561198169302585,"connected_time":1594000000000,"state":"active","ping":76},{"user_id":34,"name":"Sea raider","steam_id":76561198123982355,"connected_time":1976000000000,"state":"active","ping":110},{"user_id":61,"name":"mineblast99","steam_id":76561199065648954,"connected_time":278000000000,"state":"active","ping":77},{"user_id":59,"name":"neet","steam_id":76561197968115168,"connected_time":549000000000,"state":"active","ping":60},{"user_id":53,"name":"Cookies n Milk","steam_id":76561198071075134,"connected_time":918000000000,"state":"active","ping":101},{"user_id":60,"name":"BonnieDrag","steam_id":76561199149216429,"connected_time":528000000000,"state":"active","ping":165},{"user_id":62,"name":"Balls‚Ñ¢","steam_id":76561198057538549,"connected_time":244000000000,"state":"active","ping":107},{"user_id":63,"name":"Superjesusman","steam_id":76561198078211879,"connected_time":239000000000,"state":"active","ping":47},{"user_id":66,"name":"Bad Rollout","steam_id":76561197971948876,"connected_time":20000000000,"state":"spawning","ping":82}]},{"server_id":301,"name":"Uncletopia | Montr√©al | 2 | All Maps","name_short":"mtl-2","host":"mtl-1.ca.uncletopia.com","port":27025,"enabled":true,"region":"us-east","cc":"ca","latitude":45.50889,"longitude":-73.56167,"reserved":0,"last_update":"0001-01-01T00:00:00Z","name_a2s":"Uncletopia | Montr√©al | 2 | All Maps","protocol":17,"map":"pl_frontier_final","folder":"tf","game":"Team Fortress","app_id":440,"player_count":0,"max_players":24,"Bots":0,"server_type":"Dedicated","server_os":"Linux","password":true,"vac":true,"version":"7882260","steam_id":85568392924500088,"keywords":["nocrits","nodmgspread","payload","uncletopia"],"game_id":440,"stv_port":27026,"stv_name":"Uncletopia | Montr√©al | 2 | All Maps | STV","players":null},{"server_id":302,"name":"Uncletopia | Montr√©al | 3 | All Maps","name_short":"mtl-3","host":"mtl-1.ca.uncletopia.com","port":27035,"enabled":true,"region":"us-east","cc":"ca","latitude":45.50889,"longitude":-73.56167,"reserved":0,"last_update":"0001-01-01T00:00:00Z","name_a2s":"Uncletopia | Montr√©al | 3 | All Maps","protocol":17,"map":"koth_viaduct","folder":"tf","game":"Team Fortress","app_id":440,"player_count":0,"max_players":24,"Bots":0,"server_type":"Dedicated","server_os":"Linux","password":true,"vac":true,"version":"7882260","steam_id":85568392924500089,"keywords":["cp","nocrits","nodmgspread","uncletopia"],"game_id":440,"stv_port":27036,"stv_name":"Uncletopia | Montr√©al | 3 | All Maps | STV","players":null},{"server_id":303,"name":"Uncletopia | Montr√©al | 4 | No Payload","name_short":"mtl-4","host":"mtl-1.ca.uncletopia.com","port":27045,"enabled":true,"region":"us-east","cc":"ca","latitude":45.50889,"longitude":-73.56167,"reserved":0,"last_update":"0001-01-01T00:00:00Z","name_a2s":"Uncletopia | Montr√©al | 4 | No Payload","protocol":17,"map":"cp_sunshine","folder":"tf","game":"Team Fortress","app_id":440,"player_count":0,"max_players":24,"Bots":0,"server_type":"Dedicated","server_os":"Linux","password":true,"vac":true,"version":"7882260","steam_id":85568392924500090,"keywords":["cp","nocrits","nodmgspread","uncletopia"],"game_id":440,"stv_port":27046,"stv_name":"Uncletopia | Montr√©al | 4 | No Payload | STV","players":null},{"server_id":13,"name":"Uncletopia | New York City | 1 | All Maps","name_short":"nyc-1","host":"nyc-1.us.uncletopia.com","port":27015,"enabled":true,"region":"us-east","cc":"us","latitude":40.73061,"longitude":-73.93524,"reserved":0,"last_update":"0001-01-01T00:00:00Z","name_a2s":"Uncletopia | New York City | 1 | All Maps","protocol":17,"map":"pl_barnblitz","folder":"tf","game":"Team Fortress","app_id":440,"player_count":24,"max_players":24,"Bots":0,"server_type":"Dedicated","server_os":"Linux","password":true,"vac":true,"version":"7882260","steam_id":85568392924469993,"keywords":["nocrits","nodmgspread","payload","uncletopia"],"game_id":440,"stv_port":27016,"stv_name":"Uncletopia | New York City | 1 | All Maps | STV","players":[{"user_id":134,"name":"Sha-Woompa","steam_id":76561199068063459,"connected_time":858000000000,"state":"active","ping":70},{"user_id":140,"name":"TLG, Certified Gamer Mom","steam_id":76561198076669951,"connected_time":70000000000,"state":"active","ping":58},{"user_id":124,"name":"H E L L O    T H E R E","steam_id":76561198433936091,"connected_time":1635000000000,"state":"active","ping":79},{"user_id":115,"name":"quint","steam_id":76561198046797995,"connected_time":2401000000000,"state":"active","ping":79},{"user_id":104,"name":"a 1930s robber","steam_id":76561198125237406,"connected_time":3206000000000,"state":"active","ping":62},{"user_id":141,"name":"googy doogy","steam_id":76561199025852100,"connected_time":36000000000,"state":"spawning","ping":80},{"user_id":53,"name":"Silvercoat's Stargazer","steam_id":76561198399525329,"connected_time":4915000000000,"state":"active","ping":70},{"user_id":103,"name":"trobin120","steam_id":76561199122420273,"connected_time":3428000000000,"state":"active","ping":49},{"user_id":138,"name":"Ian","steam_id":76561199078852180,"connected_time":236000000000,"state":"active","ping":71},{"user_id":137,"name":"Baron von Whoopsie","steam_id":76561197996691013,"connected_time":249000000000,"state":"active","ping":55},{"user_id":126,"name":"Handsome Hanson","steam_id":76561198059248994,"connected_time":1260000000000,"state":"active","ping":75},{"user_id":142,"name":"„ÄåÔº¶ÔºµÔºÆÔº´„Äç","steam_id":76561198190323610,"connected_time":6000000000,"state":"active","ping":116},{"user_id":129,"name":"KGAMER","steam_id":76561199087940594,"connected_time":1006000000000,"state":"active","ping":54},{"user_id":118,"name":"the pest","steam_id":76561198826298849,"connected_time":2157000000000,"state":"active","ping":93},{"user_id":132,"name":"ballsackfondler9000","steam_id":76561198332667074,"connected_time":898000000000,"state":"active","ping":62},{"user_id":112,"name":"LocaKola","steam_id":76561198173435430,"connected_time":2626000000000,"state":"active","ping":67},{"user_id":48,"name":"kingjeffry2012@hotmail.com","steam_id":76561198314104415,"connected_time":5816000000000,"state":"active","ping":80},{"user_id":107,"name":"lingulata","steam_id":76561198076208960,"connected_time":3013000000000,"state":"active","ping":75},{"user_id":111,"name":"Scrib Nibbler","steam_id":76561198042227832,"connected_time":2779000000000,"state":"active","ping":81},{"user_id":128,"name":"Zenabie","steam_id":76561198088372680,"connected_time":1248000000000,"state":"active","ping":79},{"user_id":131,"name":"GamblerTuba","steam_id":76561198015189132,"connected_time":974000000000,"state":"active","ping":85},{"user_id":135,"name":"Gorgon Freeman","steam_id":76561198000367036,"connected_time":840000000000,"state":"active","ping":74},{"user_id":114,"name":"xen","steam_id":76561198048568188,"connected_time":2407000000000,"state":"active","ping":46},{"user_id":116,"name":"guac","steam_id":76561198070305720,"connected_time":2397000000000,"state":"active","ping":98}]},{"server_id":14,"name":"Uncletopia | New York City | 2 | All Maps","name_short":"nyc-2","host":"nyc-1.us.uncletopia.com","port":27025,"enabled":true,"region":"us-east","cc":"us","latitude":40.73061,"longitude":-73.93524,"reserved":0,"last_update":"0001-01-01T00:00:00Z","name_a2s":"Uncletopia | New York City | 2 | All Maps","protocol":17,"map":"cp_snakewater_final1","folder":"tf","game":"Team Fortress","app_id":440,"player_count":0,"max_players":24,"Bots":0,"server_type":"Dedicated","server_os":"Linux","password":true,"vac":true,"version":"7882260","steam_id":85568392924469994,"keywords":["cp","nocrits","nodmgspread","uncletopia"],"game_id":440,"stv_port":27026,"stv_name":"Uncletopia | New York City | 2 | All Maps | STV","players":null},{"server_id":15,"name":"Uncletopia | New York City | 3 | Stopwatch Beta","name_short":"nyc-3","host":"nyc-1.us.uncletopia.com","port":27035,"enabled":true,"region":"us-east","cc":"us","latitude":40.73061,"longitude":-73.93524,"reserved":0,"last_update":"0001-01-01T00:00:00Z","name_a2s":"Uncletopia | New York City | 3 | Stopwatch Beta","protocol":17,"map":"koth_lakeside_final","folder":"tf","game":"Team Fortress","app_id":440,"player_count":0,"max_players":24,"Bots":0,"server_type":"Dedicated","server_os":"Linux","password":true,"vac":true,"version":"7882260","steam_id":85568392924742820,"keywords":["cp","nocrits","nodmgspread","uncletopia"],"game_id":440,"stv_port":27036,"stv_name":"Uncletopia | New York City | 3 | Stopwatch Beta | STV","players":null},{"server_id":16,"name":"Uncletopia | New York City | 4 | Community","name_short":"nyc-4","host":"nyc-1.us.uncletopia.com","port":27045,"enabled":true,"region":"us-east","cc":"us","latitude":40.73061,"longitude":-73.93524,"reserved":0,"last_update":"0001-01-01T00:00:00Z","name_a2s":"Uncletopia | New York City | 4 | Community","protocol":17,"map":"workshop/cp_fulgur_rc2a.ugc2068252300","folder":"tf","game":"Team Fortress","app_id":440,"player_count":0,"max_players":24,"Bots":0,"server_type":"Dedicated","server_os":"Linux","password":true,"vac":true,"version":"7882260","steam_id":85568392924742821,"keywords":["cp","nocrits","nodmgspread","uncletopia"],"game_id":440,"stv_port":27046,"stv_name":"Uncletopia | New York City | 4 | Community | STV","players":null},{"server_id":142,"name":"Uncletopia | S√£o Paulo | 1 | All Maps","name_short":"sao-1","host":"sao-1.br.uncletopia.com","port":27015,"enabled":true,"region":"sa","cc":"br","latitude":-23.533773,"longitude":-46.62529,"reserved":0,"last_update":"0001-01-01T00:00:00Z","name_a2s":"Uncletopia | S√£o Paulo | 1 | All Maps","protocol":17,"map":"pl_swiftwater_final1","folder":"tf","game":"Team Fortress","app_id":440,"player_count":0,"max_players":24,"Bots":0,"server_type":"Dedicated","server_os":"Linux","password":true,"vac":true,"version":"7882260","steam_id":85568392924469996,"keywords":["nocrits","nodmgspread","payload","uncletopia"],"game_id":440,"stv_port":27016,"stv_name":"Uncletopia | S√£o Paulo | 1 | All Maps | STV","players":null},{"server_id":143,"name":"Uncletopia | S√£o Paulo | 2 | All Maps","name_short":"sao-2","host":"sao-2.br.uncletopia.com","port":27015,"enabled":true,"region":"sa","cc":"br","latitude":-23.533773,"longitude":-46.62529,"reserved":0,"last_update":"0001-01-01T00:00:00Z","name_a2s":"Uncletopia | S√£o Paulo | 2 | All Maps","protocol":17,"map":"pl_pier","folder":"tf","game":"Team Fortress","app_id":440,"player_count":2,"max_players":24,"Bots":0,"server_type":"Dedicated","server_os":"Linux","password":true,"vac":true,"version":"7882260","steam_id":85568392924485349,"keywords":["nocrits","nodmgspread","payload","uncletopia"],"game_id":440,"stv_port":27016,"stv_name":"Uncletopia | S√£o Paulo | 2 | All Maps | STV","players":[{"user_id":4,"name":"florianoxande21","steam_id":76561199484691894,"connected_time":219000000000,"state":"active","ping":90},{"user_id":5,"name":"Aisforlike","steam_id":76561199482110668,"connected_time":102000000000,"state":"active","ping":174}]},{"server_id":7,"name":"Uncletopia | Seattle | 1 | All Maps","name_short":"sea-1","host":"sea-1.us.uncletopia.com","port":27015,"enabled":true,"region":"us-west","cc":"us","latitude":47.608013,"longitude":-122.33517,"reserved":0,"last_update":"0001-01-01T00:00:00Z","name_a2s":"Uncletopia | Seattle | 1 | All Maps","protocol":17,"map":"pl_pier","folder":"tf","game":"Team Fortress","app_id":440,"player_count":24,"max_players":24,"Bots":0,"server_type":"Dedicated","server_os":"Linux","password":true,"vac":true,"version":"7882260","steam_id":85568392924469997,"keywords":["nocrits","nodmgspread","payload","uncletopia"],"game_id":440,"stv_port":27016,"stv_name":"Uncletopia | Seattle | 1 | All Maps | STV","players":[{"user_id":197,"name":"Drakon","steam_id":76561198078210822,"connected_time":1612000000000,"state":"active","ping":88},{"user_id":199,"name":"lil Froag","steam_id":76561198072722879,"connected_time":1527000000000,"state":"active","ping":97},{"user_id":153,"name":"SibilantSerpent","steam_id":76561198154488754,"connected_time":5749000000000,"state":"active","ping":58},{"user_id":200,"name":"ORANGE","steam_id":76561198000401769,"connected_time":1522000000000,"state":"active","ping":45},{"user_id":210,"name":"DeadMeme","steam_id":76561198269707793,"connected_time":477000000000,"state":"active","ping":104},{"user_id":154,"name":"spider_murphy","steam_id":76561198079057101,"connected_time":5747000000000,"state":"active","ping":58},{"user_id":187,"name":"4logan","steam_id":76561198835163155,"connected_time":3125000000000,"state":"active","ping":43},{"user_id":206,"name":"fart","steam_id":76561198206922028,"connected_time":1123000000000,"state":"active","ping":77},{"user_id":194,"name":"INeverFold","steam_id":76561198285482224,"connected_time":1707000000000,"state":"active","ping":97},{"user_id":178,"name":"evilOlive","steam_id":76561198106222025,"connected_time":3665000000000,"state":"active","ping":77},{"user_id":172,"name":"Level 99 Mudcrab","steam_id":76561198077452771,"connected_time":4583000000000,"state":"active","ping":57},{"user_id":160,"name":"Mythical Lag","steam_id":76561198347031281,"connected_time":5624000000000,"state":"active","ping":116},{"user_id":208,"name":"Teddy","steam_id":76561198048106221,"connected_time":654000000000,"state":"active","ping":60},{"user_id":152,"name":"my monitor is off","steam_id":76561198074499537,"connected_time":5758000000000,"state":"active","ping":76},{"user_id":190,"name":"Mr.Frundles","steam_id":76561198134559026,"connected_time":2875000000000,"state":"active","ping":61},{"user_id":202,"name":"BluBear","steam_id":76561198068768319,"connected_time":1417000000000,"state":"active","ping":121},{"user_id":203,"name":"Hi I'm Dom","steam_id":76561197977920457,"connected_time":1404000000000,"state":"active","ping":127},{"user_id":204,"name":"DanceBunny","steam_id":76561198243610560,"connected_time":1370000000000,"state":"active","ping":72},{"user_id":212,"name":"Pinky","steam_id":76561198084685841,"connected_time":151000000000,"state":"active","ping":54},{"user_id":141,"name":"lil uzi vert","steam_id":76561198326466375,"connected_time":7267000000000,"state":"active","ping":82},{"user_id":209,"name":"fw00v","steam_id":76561198129166260,"connected_time":595000000000,"state":"active","ping":75},{"user_id":191,"name":"HiFivr","steam_id":76561198285190162,"connected_time":2872000000000,"state":"active","ping":64},{"user_id":205,"name":"‚ô•ur :3 medic gf‚ô• (51ref/hr)","steam_id":76561198816778484,"connected_time":1343000000000,"state":"active","ping":144},{"user_id":211,"name":"Drapph","steam_id":76561199384213314,"connected_time":274000000000,"state":"active","ping":101}]},{"server_id":119,"name":"Uncletopia | Seattle | 2 | All Maps","name_short":"sea-2","host":"sea-1.us.uncletopia.com","port":27025,"enabled":true,"region":"us-west","cc":"us","latitude":47.608013,"longitude":-122.33517,"reserved":0,"last_update":"0001-01-01T00:00:00Z","name_a2s":"Uncletopia | Seattle | 2 | All Maps","protocol":17,"map":"pl_snowycoast","folder":"tf","game":"Team Fortress","app_id":440,"player_count":18,"max_players":24,"Bots":0,"server_type":"Dedicated","server_os":"Linux","password":true,"vac":true,"version":"7882260","steam_id":85568392924469998,"keywords":["nocrits","nodmgspread","payload","uncletopia"],"game_id":440,"stv_port":27026,"stv_name":"Uncletopia | Seattle | 2 | All Maps | STV","players":[{"user_id":106,"name":"Mystikkal","steam_id":76561198003949147,"connected_time":561000000000,"state":"active","ping":95},{"user_id":49,"name":"YouCantSpellNutritionW/OutNUT","steam_id":76561198060588059,"connected_time":3734000000000,"state":"active","ping":79},{"user_id":101,"name":"LABRAT","steam_id":76561199226732110,"connected_time":696000000000,"state":"active","ping":116},{"user_id":96,"name":"Chrisscar","steam_id":76561198086298130,"connected_time":934000000000,"state":"active","ping":74},{"user_id":83,"name":"Ryshy02","steam_id":76561198055425447,"connected_time":2159000000000,"state":"active","ping":97},{"user_id":20,"name":"Anyar","steam_id":76561198160174097,"connected_time":4430000000000,"state":"active","ping":87},{"user_id":97,"name":"leafs fan eternal suffering","steam_id":76561198011329825,"connected_time":893000000000,"state":"active","ping":74},{"user_id":102,"name":"pp","steam_id":76561198057158117,"connected_time":685000000000,"state":"active","ping":79},{"user_id":79,"name":"PheebsyDeebsy","steam_id":76561198101509436,"connected_time":2273000000000,"state":"active","ping":70},{"user_id":52,"name":"Reverie","steam_id":76561198987005784,"connected_time":3657000000000,"state":"active","ping":106},{"user_id":70,"name":"Trash Rummager","steam_id":76561198085388962,"connected_time":2473000000000,"state":"active","ping":143},{"user_id":115,"name":"hatsune miku","steam_id":76561199445009981,"connected_time":50000000000,"state":"active","ping":47},{"user_id":112,"name":"Limbo","steam_id":76561198028148931,"connected_time":257000000000,"state":"active","ping":131},{"user_id":113,"name":"Fat Fur Gaming","steam_id":76561198072774915,"connected_time":212000000000,"state":"active","ping":96},{"user_id":114,"name":"Zalthair","steam_id":76561198052698533,"connected_time":186000000000,"state":"active","ping":200},{"user_id":81,"name":"Cob","steam_id":76561198042518365,"connected_time":2269000000000,"state":"active","ping":60},{"user_id":105,"name":"Games Dean","steam_id":76561198870018009,"connected_time":584000000000,"state":"active","ping":116},{"user_id":108,"name":"paradise","steam_id":76561198044192429,"connected_time":494000000000,"state":"active","ping":115}]},{"server_id":406,"name":"Uncletopia | Seattle | 3 | Stopwatch Beta","name_short":"sea-3","host":"sea-1.us.uncletopia.com","port":27035,"enabled":true,"region":"us-west","cc":"us","latitude":47.608013,"longitude":-122.33517,"reserved":0,"last_update":"0001-01-01T00:00:00Z","name_a2s":"Uncletopia | Seattle | 3 | Stopwatch Beta","protocol":17,"map":"cp_mountainlab","folder":"tf","game":"Team Fortress","app_id":440,"player_count":0,"max_players":24,"Bots":0,"server_type":"Dedicated","server_os":"Linux","password":true,"vac":true,"version":"7882260","steam_id":85568392924515217,"keywords":["cp","nocrits","nodmgspread","uncletopia"],"game_id":440,"stv_port":27036,"stv_name":"Uncletopia | Seattle | 3 | Stopwatch Beta | STV","players":null},{"server_id":17,"name":"Uncletopia | San Francisco | 1 | All Maps","name_short":"sfo-1","host":"sfo-1.us.uncletopia.com","port":27015,"enabled":true,"region":"us-west","cc":"us","latitude":37.77397,"longitude":-122.4313,"reserved":0,"last_update":"0001-01-01T00:00:00Z","name_a2s":"Uncletopia | San Francisco | 1 | All Maps","protocol":17,"map":"cp_process_final","folder":"tf","game":"Team Fortress","app_id":440,"player_count":0,"max_players":24,"Bots":0,"server_type":"Dedicated","server_os":"Linux","password":true,"vac":true,"version":"7757534","steam_id":85568392924469999,"keywords":["cp","nocrits","nodmgspread","uncletopia"],"game_id":440,"stv_port":27016,"stv_name":"Uncletopia | San Francisco | 1 | All Maps | STV","players":null},{"server_id":18,"name":"Uncletopia | San Francisco | 2 | All Maps","name_short":"sfo-2","host":"sfo-1.us.uncletopia.com","port":27025,"enabled":true,"region":"us-west","cc":"us","latitude":37.77397,"longitude":-122.4313,"reserved":0,"last_update":"0001-01-01T00:00:00Z","name_a2s":"Uncletopia | San Francisco | 2 | All Maps","protocol":17,"map":"koth_highpass","folder":"tf","game":"Team Fortress","app_id":440,"player_count":0,"max_players":24,"Bots":0,"server_type":"Dedicated","server_os":"Linux","password":true,"vac":true,"version":"7757534","steam_id":85568392924470000,"keywords":["cp","nocrits","nodmgspread","uncletopia"],"game_id":440,"stv_port":27026,"stv_name":"Uncletopia | San Francisco | 2 | All Maps | STV","players":null},{"server_id":19,"name":"Uncletopia | San Francisco | 3 | Stopwatch Beta","name_short":"sfo-3","host":"sfo-1.us.uncletopia.com","port":27035,"enabled":true,"region":"us-west","cc":"us","latitude":37.77397,"longitude":-122.4313,"reserved":0,"last_update":"0001-01-01T00:00:00Z","name_a2s":"Uncletopia | San Francisco | 3 | Stopwatch Beta","protocol":17,"map":"koth_lakeside_final","folder":"tf","game":"Team Fortress","app_id":440,"player_count":0,"max_players":24,"Bots":0,"server_type":"Dedicated","server_os":"Linux","password":true,"vac":true,"version":"7757534","steam_id":85568392924742824,"keywords":["cp","nocrits","nodmgspread","uncletopia"],"game_id":440,"stv_port":27036,"stv_name":"Uncletopia | San Francisco | 3 | Stopwatch Beta | STV","players":null},{"server_id":20,"name":"Uncletopia | San Francisco | 4 | Community","name_short":"sfo-4","host":"sfo-1.us.uncletopia.com","port":27045,"enabled":true,"region":"us-west","cc":"us","latitude":37.77397,"longitude":-122.4313,"reserved":0,"last_update":"0001-01-01T00:00:00Z","name_a2s":"Uncletopia | San Francisco | 4 | Community","protocol":17,"map":"cp_altitude","folder":"tf","game":"Team Fortress","app_id":440,"player_count":0,"max_players":24,"Bots":0,"server_type":"Dedicated","server_os":"Linux","password":true,"vac":true,"version":"7757534","steam_id":85568392924742826,"keywords":["cp","nocrits","nodmgspread","uncletopia"],"game_id":440,"stv_port":27046,"stv_name":"Uncletopia | San Francisco | 4 | Community | STV","players":null},{"server_id":141,"name":"Uncletopia | Sydney | 1 | All Maps","name_short":"syd-1","host":"syd-1.au.uncletopia.com","port":27015,"enabled":true,"region":"au","cc":"au","latitude":-33.865143,"longitude":151.2099,"reserved":0,"last_update":"0001-01-01T00:00:00Z","name_a2s":"Uncletopia | Sydney | 1 | All Maps","protocol":17,"map":"koth_viaduct","folder":"tf","game":"Team Fortress","app_id":440,"player_count":0,"max_players":24,"Bots":0,"server_type":"Dedicated","server_os":"Linux","password":true,"vac":true,"version":"7882260","steam_id":85568392924470001,"keywords":["cp","nocrits","nodmgspread","uncletopia"],"game_id":440,"stv_port":27016,"stv_name":"Uncletopia | Sydney | 1 | All Maps | STV","players":null},{"server_id":123,"name":"Uncletopia | Sydney | 2 | All Maps","name_short":"syd-2","host":"syd-1.au.uncletopia.com","port":27025,"enabled":true,"region":"au","cc":"au","latitude":-33.865143,"longitude":151.2099,"reserved":0,"last_update":"0001-01-01T00:00:00Z","name_a2s":"Uncletopia | Sydney | 2 | All Maps","protocol":17,"map":"cp_mountainlab","folder":"tf","game":"Team Fortress","app_id":440,"player_count":0,"max_players":24,"Bots":0,"server_type":"Dedicated","server_os":"Linux","password":true,"vac":true,"version":"7882260","steam_id":85568392924470002,"keywords":["cp","nocrits","nodmgspread","uncletopia"],"game_id":440,"stv_port":27026,"stv_name":"Uncletopia | Sydney | 2 | All Maps | STV","players":null},{"server_id":395,"name":"Uncletopia | Sydney | 3 | All Maps","name_short":"syd-3","host":"syd-1.au.uncletopia.com","port":27035,"enabled":true,"region":"au","cc":"au","latitude":-33.865143,"longitude":151.2099,"reserved":0,"last_update":"0001-01-01T00:00:00Z","name_a2s":"Uncletopia | Sydney | 3 | All Maps","protocol":17,"map":"koth_highpass","folder":"tf","game":"Team Fortress","app_id":440,"player_count":0,"max_players":24,"Bots":0,"server_type":"Dedicated","server_os":"Linux","password":true,"vac":true,"version":"7882260","steam_id":85568392925194467,"keywords":["cp","nocrits","nodmgspread","uncletopia"],"game_id":440,"stv_port":27036,"stv_name":"Uncletopia | Sydney | 3 | All Maps | STV","players":null},{"server_id":396,"name":"Uncletopia | Sydney | 4 | All Maps","name_short":"syd-4","host":"syd-1.au.uncletopia.com","port":27045,"enabled":true,"region":"au","cc":"au","latitude":-33.865143,"longitude":151.2099,"reserved":0,"last_update":"0001-01-01T00:00:00Z","name_a2s":"Uncletopia | Sydney | 4 | All Maps","protocol":17,"map":"koth_cascade","folder":"tf","game":"Team Fortress","app_id":440,"player_count":0,"max_players":24,"Bots":0,"server_type":"Dedicated","server_os":"Linux","password":true,"vac":true,"version":"7882260","steam_id":85568392925397958,"keywords":["cp","nocrits","nodmgspread","uncletopia"],"game_id":440,"stv_port":27046,"stv_name":"Uncletopia | Sydney | 4 | All Maps | STV","players":null},{"server_id":58,"name":"Uncletopia | Sydney | 5 | Stopwatch Beta","name_short":"syd-5","host":"syd-1.au.uncletopia.com","port":27055,"enabled":true,"region":"au","cc":"au","latitude":-33.865143,"longitude":151.2099,"reserved":0,"last_update":"0001-01-01T00:00:00Z","name_a2s":"Uncletopia | Sydney | 5 | Stopwatch Beta","protocol":17,"map":"koth_lakeside_final","folder":"tf","game":"Team Fortress","app_id":440,"player_count":0,"max_players":24,"Bots":0,"server_type":"Dedicated","server_os":"Linux","password":true,"vac":true,"version":"7882260","steam_id":85568392925397959,"keywords":["cp","nocrits","nodmgspread","uncletopia"],"game_id":440,"stv_port":27056,"stv_name":"Uncletopia | Sydney | 5 | Stopwatch Beta | STV","players":null},{"server_id":59,"name":"Uncletopia | Sydney | 6 | Community","name_short":"syd-6","host":"syd-1.au.uncletopia.com","port":27065,"enabled":true,"region":"au","cc":"au","latitude":-33.865143,"longitude":151.2099,"reserved":0,"last_update":"0001-01-01T00:00:00Z","name_a2s":"Uncletopia | Sydney | 6 | Community","protocol":17,"map":"workshop/rd_asteroid_redux_b1.ugc2154902912","folder":"tf","game":"Team Fortress","app_id":440,"player_count":0,"max_players":24,"Bots":0,"server_type":"Dedicated","server_os":"Linux","password":true,"vac":true,"version":"7882260","steam_id":85568392925397960,"keywords":["beta","nocrits","nodmgspread","rd","uncletopia"],"game_id":440,"stv_port":27066,"stv_name":"Uncletopia | Sydney | 6 | Community | STV","players":null},{"server_id":49,"name":"Uncletopia | Warsaw | 1 | All Maps","name_short":"waw-1","host":"waw-1.pl.uncletopia.com","port":27015,"enabled":true,"region":"eu","cc":"pl","latitude":52.2297,"longitude":21.017532,"reserved":0,"last_update":"0001-01-01T00:00:00Z","name_a2s":"","protocol":0,"map":"","folder":"","game":"","app_id":0,"player_count":0,"max_players":0,"Bots":0,"server_type":"","server_os":"","password":false,"vac":false,"version":"","steam_id":0,"keywords":null,"game_id":0,"stv_port":0,"stv_name":"","players":null},{"server_id":50,"name":"Uncletopia | Warsaw | 2 | All Maps","name_short":"waw-2","host":"waw-1.pl.uncletopia.com","port":27025,"enabled":true,"region":"eu","cc":"pl","latitude":52.2297,"longitude":21.017532,"reserved":0,"last_update":"0001-01-01T00:00:00Z","name_a2s":"Uncletopia | Warsaw | 2 | All Maps","protocol":17,"map":"koth_cascade","folder":"tf","game":"Team Fortress","app_id":440,"player_count":0,"max_players":24,"Bots":0,"server_type":"Dedicated","server_os":"Linux","password":true,"vac":true,"version":"7882260","steam_id":85568392925397851,"keywords":["cp","nocrits","nodmgspread","uncletopia"],"game_id":440,"stv_port":27026,"stv_name":"Uncletopia | Warsaw | 2 | All Maps | STV","players":null},{"server_id":51,"name":"Uncletopia | Warsaw | 3 | All Maps","name_short":"waw-3","host":"waw-1.pl.uncletopia.com","port":27035,"enabled":true,"region":"eu","cc":"pl","latitude":52.2297,"longitude":21.017532,"reserved":0,"last_update":"0001-01-01T00:00:00Z","name_a2s":"Uncletopia | Warsaw | 3 | All Maps","protocol":17,"map":"cp_dustbowl","folder":"tf","game":"Team Fortress","app_id":440,"player_count":24,"max_players":24,"Bots":0,"server_type":"Dedicated","server_os":"Linux","password":true,"vac":true,"version":"7882260","steam_id":85568392925397852,"keywords":["cp","nocrits","nodmgspread","uncletopia"],"game_id":440,"stv_port":27036,"stv_name":"Uncletopia | Warsaw | 3 | All Maps | STV","players":[{"user_id":189,"name":"Augiz","steam_id":76561198332529555,"connected_time":34000000000,"state":"active","ping":78},{"user_id":190,"name":"Aeglos","steam_id":76561198248698294,"connected_time":27000000000,"state":"active","ping":76},{"user_id":180,"name":"Cactus","steam_id":76561198048639239,"connected_time":838000000000,"state":"active","ping":43},{"user_id":181,"name":"Angry Andrew","steam_id":76561197989996830,"connected_time":835000000000,"state":"active","ping":129},{"user_id":173,"name":"Doughy","steam_id":76561198044084210,"connected_time":1178000000000,"state":"active","ping":107},{"user_id":152,"name":"–†–∏–¥–¥–∏–∫","steam_id":76561199019105314,"connected_time":2874000000000,"state":"active","ping":106},{"user_id":183,"name":"przksk","steam_id":76561198450284221,"connected_time":793000000000,"state":"active","ping":49},{"user_id":179,"name":"dispenser (vibegoose)","steam_id":76561199065362078,"connected_time":958000000000,"state":"active","ping":62},{"user_id":176,"name":"Mr. Mundy","steam_id":76561198132008918,"connected_time":1133000000000,"state":"active","ping":86},{"user_id":86,"name":"Galex","steam_id":76561198045637579,"connected_time":6930000000000,"state":"active","ping":65},{"user_id":87,"name":"Themoonisacheese","steam_id":76561198025594173,"connected_time":6848000000000,"state":"active","ping":76},{"user_id":184,"name":"Cirmicica","steam_id":76561198331970012,"connected_time":789000000000,"state":"active","ping":77},{"user_id":121,"name":"the_gambler","steam_id":76561198026052716,"connected_time":5139000000000,"state":"active","ping":87},{"user_id":138,"name":"the chocolate crapper","steam_id":76561198057722639,"connected_time":3768000000000,"state":"active","ping":74},{"user_id":185,"name":"B-Sneaky Star","steam_id":76561198061046711,"connected_time":684000000000,"state":"active","ping":80},{"user_id":162,"name":"znunney","steam_id":76561199438501613,"connected_time":2225000000000,"state":"active","ping":89},{"user_id":141,"name":"Merc","steam_id":76561199012274799,"connected_time":3579000000000,"state":"active","ping":78},{"user_id":153,"name":"BigTastyBread","steam_id":76561198364203486,"connected_time":2872000000000,"state":"active","ping":75},{"user_id":168,"name":"LOBZIK","steam_id":76561198114830120,"connected_time":1468000000000,"state":"active","ping":55},{"user_id":118,"name":"fartnite","steam_id":76561198049312442,"connected_time":5383000000000,"state":"active","ping":87},{"user_id":178,"name":"EternalChicken (Soldier Gaming)","steam_id":76561199080012040,"connected_time":992000000000,"state":"active","ping":77},{"user_id":186,"name":"tqla","steam_id":76561198073092585,"connected_time":634000000000,"state":"active","ping":72},{"user_id":167,"name":"2003 Volkswagen passat 1.6 tdi","steam_id":76561199148666369,"connected_time":1672000000000,"state":"active","ping":68},{"user_id":188,"name":"usia","steam_id":76561198120406679,"connected_time":466000000000,"state":"active","ping":79}]},{"server_id":52,"name":"Uncletopia | Warsaw | 4 | All Maps","name_short":"waw-4","host":"waw-1.pl.uncletopia.com","port":27045,"enabled":true,"region":"eu","cc":"pl","latitude":52.2297,"longitude":21.017532,"reserved":0,"last_update":"0001-01-01T00:00:00Z","name_a2s":"Uncletopia | Warsaw | 4 | All Maps","protocol":17,"map":"koth_highpass","folder":"tf","game":"Team Fortress","app_id":440,"player_count":0,"max_players":24,"Bots":0,"server_type":"Dedicated","server_os":"Linux","password":true,"vac":true,"version":"7882260","steam_id":85568392925397853,"keywords":["cp","nocrits","nodmgspread","uncletopia"],"game_id":440,"stv_port":27046,"stv_name":"Uncletopia | Warsaw | 4 | All Maps | STV","players":null},{"server_id":53,"name":"Uncletopia | Warsaw | 5 | Stopwatch Beta","name_short":"waw-5","host":"waw-1.pl.uncletopia.com","port":27055,"enabled":true,"region":"eu","cc":"pl","latitude":52.2297,"longitude":21.017532,"reserved":0,"last_update":"0001-01-01T00:00:00Z","name_a2s":"Uncletopia | Warsaw | 5 | Stopwatch Beta","protocol":17,"map":"cp_mountainlab","folder":"tf","game":"Team Fortress","app_id":440,"player_count":0,"max_players":24,"Bots":0,"server_type":"Dedicated","server_os":"Linux","password":true,"vac":true,"version":"7882260","steam_id":85568392925397854,"keywords":["cp","nocrits","nodmgspread","uncletopia"],"game_id":440,"stv_port":27056,"stv_name":"Uncletopia | Warsaw | 5 | Stopwatch Beta | STV","players":null},{"server_id":54,"name":"Uncletopia | Warsaw | 6 | Community","name_short":"waw-6","host":"waw-1.pl.uncletopia.com","port":27065,"enabled":true,"region":"eu","cc":"pl","latitude":52.2297,"longitude":21.017532,"reserved":0,"last_update":"0001-01-01T00:00:00Z","name_a2s":"Uncletopia | Warsaw | 6 | Community","protocol":17,"map":"workshop/cp_indulge.ugc528106646","folder":"tf","game":"Team Fortress","app_id":440,"player_count":0,"max_players":24,"Bots":0,"server_type":"Dedicated","server_os":"Linux","password":true,"vac":true,"version":"7882260","steam_id":85568392925397856,"keywords":["cp","nocrits","nodmgspread","uncletopia"],"game_id":440,"stv_port":27066,"stv_name":"Uncletopia | Warsaw | 6 | Community | STV","players":null}]}