{"status":true,"message":"","result":[{"server_id":9,"name":"Uncletopia | Atlanta | 1 | All Maps","name_short":"atl-1","host":"atl-1.us.uncletopia.com","port":27015,"enabled":true,"region":"us-east","cc":"us","latitude":33.753746,"longitude":-84.38633,"reserved":0,"last_update":"0001-01-01T00:00:00Z","name_a2s":"Uncletopia | Atlanta | 1 | All Maps","protocol":17,"map":"pl_snowycoast","folder":"tf","game":"Team Fortress","app_id":440,"player_count":24,"max_players":24,"Bots":0,"server_type":"Dedicated","server_os":"Linux","password":true,"vac":true,"version":"7961495","steam_id":85568392924469982,"keywords":["nocrits","nodmgspread","payload","uncletopia"],"game_id":440,"stv_port":27016,"stv_name":"Uncletopia | Atlanta | 1 | All Maps | STV","players":[{"user_id":177,"name":"BlueMew","steam_id":76561198060454348,"connected_time":3189000000000,"state":"active","ping":60},{"user_id":211,"name":"lu","steam_id":76561198080731872,"connected_time":224000000000,"state":"active","ping":75},{"user_id":209,"name":"trobin120","steam_id":76561199122420273,"connected_time":330000000000,"state":"active","ping":76},{"user_id":172,"name":"Portal2Player","steam_id":76561198062870114,"connected_time":3455000000000,"state":"active","ping":71},{"user_id":196,"name":"lynt","steam_id":76561198988333976,"connected_time":1076000000000,"state":"active","ping":44},{"user_id":190,"name":"(∩'-´)⊃ Sapphic Lesbian Yu","steam_id":76561199500664171,"connected_time":2193000000000,"state":"active","ping":60},{"user_id":195,"name":"Immoral Boi","steam_id":76561198069551646,"connected_time":1489000000000,"state":"active","ping":62},{"user_id":192,"name":"adapt","steam_id":76561198156181017,"connected_time":2135000000000,"state":"active","ping":104},{"user_id":184,"name":"blackkwater","steam_id":76561198105923697,"connected_time":2645000000000,"state":"active","ping":78},{"user_id":171,"name":"Tobo","steam_id":76561198085846393,"connected_time":3512000000000,"state":"active","ping":75},{"user_id":204,"name":"Java_Siege_","steam_id":76561199090000728,"connected_time":435000000000,"state":"active","ping":65},{"user_id":205,"name":"dicksnip","steam_id":76561198356515396,"connected_time":418000000000,"state":"active","ping":104},{"user_id":197,"name":"Professional Medic GF","steam_id":76561199174621620,"connected_time":1058000000000,"state":"active","ping":64},{"user_id":202,"name":"Tmiracle","steam_id":76561198052375275,"connected_time":491000000000,"state":"active","ping":103},{"user_id":206,"name":"TheDwarfKing","steam_id":76561198128269919,"connected_time":397000000000,"state":"active","ping":58},{"user_id":174,"name":"JustADuck","steam_id":76561198311260943,"connected_time":3445000000000,"state":"active","ping":58},{"user_id":120,"name":"je4nned4rc","steam_id":76561199489797367,"connected_time":6017000000000,"state":"active","ping":79},{"user_id":188,"name":"Corbeau","steam_id":76561198096433372,"connected_time":2306000000000,"state":"active","ping":80},{"user_id":203,"name":"Motreir","steam_id":76561198151717946,"connected_time":482000000000,"state":"active","ping":74},{"user_id":210,"name":"unfrigginbelievable","steam_id":76561198835673715,"connected_time":274000000000,"state":"active","ping":74},{"user_id":208,"name":"Mr Happy","steam_id":76561198067689328,"connected_time":393000000000,"state":"active","ping":62},{"user_id":176,"name":"doop","steam_id":76561198370487545,"connected_time":3404000000000,"state":"active","ping":71},{"user_id":155,"name":"Thotimus Begonimus","steam_id":76561197970275938,"connected_time":4294000000000,"state":"active","ping":47},{"user_id":201,"name":"Frost ♥","steam_id":76561198168870617,"connected_time":642000000000,"state":"active","ping":76}]},{"server_id":104,"name":"Uncletopia | Atlanta | 2 | All Maps","name_short":"atl-2","host":"atl-1.us.uncletopia.com","port":27025,"enabled":true,"region":"us-east","cc":"us","latitude":33.753746,"longitude":-84.38633,"reserved":0,"last_update":"0001-01-01T00:00:00Z","name_a2s":"Uncletopia | Atlanta | 2 | All Maps","protocol":17,"map":"cp_altitude","folder":"tf","game":"Team Fortress","app_id":440,"player_count":19,"max_players":24,"Bots":0,"server_type":"Dedicated","server_os":"Linux","password":true,"vac":true,"version":"7961495","steam_id":85568392924469983,"keywords":["cp","nocrits","nodmgspread","uncletopia"],"game_id":440,"stv_port":27026,"stv_name":"Uncletopia | Atlanta | 2 | All Maps | STV","players":[{"user_id":33,"name":"Peengus","steam_id":76561199091953940,"connected_time":1422000000000,"state":"active","ping":53},{"user_id":35,"name":"TheForgotenFaun","steam_id":76561199004700412,"connected_time":1127000000000,"state":"active","ping":73},{"user_id":36,"name":"abom","steam_id":76561198167974713,"connected_time":1122000000000,"state":"active","ping":55},{"user_id":37,"name":"Imune_matrix","steam_id":76561199387628544,"connected_time":873000000000,"state":"active","ping":68},{"user_id":38,"name":"LizardMilk_19","steam_id":76561199435002235,"connected_time":857000000000,"state":"active","ping":163},{"user_id":44,"name":"Varie","steam_id":76561199454930210,"connected_time":352000000000,"state":"active","ping":76},{"user_id":41,"name":"AzTech72","steam_id":76561198352245829,"connected_time":428000000000,"state":"active","ping":51},{"user_id":49,"name":"Steel Chair","steam_id":76561199121525654,"connected_time":175000000000,"state":"active","ping":41},{"user_id":43,"name":"meep merp","steam_id":76561198012843005,"connected_time":379000000000,"state":"active","ping":92},{"user_id":46,"name":"Jeramosa","steam_id":76561198811000094,"connected_time":229000000000,"state":"active","ping":93},{"user_id":47,"name":"Limerumpus","steam_id":76561198138113676,"connected_time":225000000000,"state":"active","ping":77},{"user_id":48,"name":"SirNomegusta","steam_id":76561198108929789,"connected_time":218000000000,"state":"active","ping":60},{"user_id":50,"name":"average british male","steam_id":76561198326083509,"connected_time":165000000000,"state":"active","ping":81},{"user_id":51,"name":"Ulrich Stern","steam_id":76561198101739682,"connected_time":159000000000,"state":"active","ping":78},{"user_id":52,"name":"Gnaash","steam_id":76561198940657194,"connected_time":125000000000,"state":"active","ping":87},{"user_id":59,"name":"Mr.Bubbles","steam_id":76561198091843238,"connected_time":18000000000,"state":"active","ping":82},{"user_id":55,"name":"HOG         RIDER","steam_id":76561198040787741,"connected_time":92000000000,"state":"active","ping":71},{"user_id":56,"name":"lucin","steam_id":76561198258062078,"connected_time":74000000000,"state":"active","ping":62},{"user_id":60,"name":"King","steam_id":76561198039763676,"connected_time":1000000000,"state":"spawning","ping":107}]},{"server_id":400,"name":"Uncletopia | Atlanta | 3 | Stopwatch","name_short":"atl-3","host":"atl-1.us.uncletopia.com","port":27035,"enabled":true,"region":"us-east","cc":"us","latitude":33.753746,"longitude":-84.38633,"reserved":0,"last_update":"0001-01-01T00:00:00Z","name_a2s":"Uncletopia | Atlanta | 3 | Stopwatch","protocol":17,"map":"workshop/koth_product_final.ugc454272353","folder":"tf","game":"Team Fortress","app_id":440,"player_count":0,"max_players":24,"Bots":0,"server_type":"Dedicated","server_os":"Linux","password":true,"vac":true,"version":"7961495","steam_id":85568392924515187,"keywords":["cp","nocrits","nodmgspread","uncletopia"],"game_id":440,"stv_port":27036,"stv_name":"Uncletopia | Atlanta | 3 | Stopwatch | STV","players":null},{"server_id":401,"name":"Uncletopia | Atlanta | 4 | Community","name_short":"atl-4","host":"atl-1.us.uncletopia.com","port":27045,"enabled":true,"region":"us-east","cc":"us","latitude":33.753746,"longitude":-84.38633,"reserved":0,"last_update":"0001-01-01T00:00:00Z","name_a2s":"Uncletopia | Atlanta | 4 | Community","protocol":17,"map":"workshop/cp_glassworks_rc7a.ugc454118349","folder":"tf","game":"Team Fortress","app_id":440,"player_count":0,"max_players":24,"Bots":0,"server_type":"Dedicated","server_os":"Linux","password":true,"vac":true,"version":"7961495","steam_id":85568392924515188,"keywords":["cp","nocrits","nodmgspread","uncletopia"],"game_id":440,"stv_port":27046,"stv_name":"Uncletopia | Atlanta | 4 | Community | STV","players":null},{"server_id":2,"name":"Uncletopia | Chicago | 1 | All Maps","name_short":"chi-1","host":"chi-1.us.uncletopia.com","port":27015,"enabled":true,"region":"us-central","cc":"us","latitude":41.881832,"longitude":-87.62318,"reserved":0,"last_update":"0001-01-01T00:00:00Z","name_a2s":"Uncletopia | Chicago | 1 | All Maps","protocol":17,"map":"koth_highpass","folder":"tf","game":"Team Fortress","app_id":440,"player_count":24,"max_players":24,"Bots":0,"server_type":"Dedicated","server_os":"Linux","password":true,"vac":true,"version":"7961495","steam_id":85568392924469984,"keywords":["cp","nocrits","nodmgspread","uncletopia"],"game_id":440,"stv_port":27016,"stv_name":"Uncletopia | Chicago | 1 | All Maps | STV","players":[{"user_id":247,"name":"krd","steam_id":76561198347660282,"connected_time":147000000000,"state":"active","ping":103},{"user_id":243,"name":"Ickly","steam_id":76561198130225025,"connected_time":511000000000,"state":"active","ping":105},{"user_id":244,"name":"Vorco","steam_id":76561197996937734,"connected_time":475000000000,"state":"active","ping":62},{"user_id":219,"name":"OH BOY","steam_id":76561199052273428,"connected_time":1753000000000,"state":"active","ping":50},{"user_id":242,"name":"TallBit","steam_id":76561199059748976,"connected_time":563000000000,"state":"active","ping":51},{"user_id":236,"name":"Dirtbike rider","steam_id":76561198030457066,"connected_time":781000000000,"state":"active","ping":75},{"user_id":231,"name":"Stacks63bs","steam_id":76561198067797130,"connected_time":966000000000,"state":"active","ping":72},{"user_id":248,"name":"Carl Brutananadilewski","steam_id":76561198004884267,"connected_time":122000000000,"state":"active","ping":45},{"user_id":233,"name":"Plasic74x","steam_id":76561199058981206,"connected_time":848000000000,"state":"active","ping":69},{"user_id":245,"name":"✧.*i kiss boys✧.*","steam_id":76561199239412094,"connected_time":442000000000,"state":"active","ping":143},{"user_id":237,"name":"crushy spike ceiling","steam_id":76561198241793002,"connected_time":707000000000,"state":"active","ping":51},{"user_id":224,"name":"Gamut","steam_id":76561199185822800,"connected_time":1279000000000,"state":"active","ping":110},{"user_id":184,"name":"I'm a Fungi","steam_id":76561198061507741,"connected_time":4095000000000,"state":"active","ping":51},{"user_id":239,"name":"chen","steam_id":76561198064872330,"connected_time":666000000000,"state":"active","ping":77},{"user_id":187,"name":"Mixomin","steam_id":76561198295061570,"connected_time":3987000000000,"state":"active","ping":53},{"user_id":235,"name":"inshallah","steam_id":76561198165212575,"connected_time":807000000000,"state":"active","ping":68},{"user_id":227,"name":"everything is a lie (wake up)","steam_id":76561198144436132,"connected_time":1203000000000,"state":"active","ping":54},{"user_id":203,"name":"MaDeuce","steam_id":76561198110732835,"connected_time":2830000000000,"state":"active","ping":134},{"user_id":210,"name":"Officer Chef","steam_id":76561198310658990,"connected_time":2424000000000,"state":"active","ping":75},{"user_id":246,"name":".aoiia","steam_id":76561198167411287,"connected_time":223000000000,"state":"active","ping":49},{"user_id":78,"name":"pea ttv/peabeanz","steam_id":76561198119551968,"connected_time":12245000000000,"state":"active","ping":66},{"user_id":222,"name":"Applesauce (she/her)","steam_id":76561198049642811,"connected_time":1354000000000,"state":"active","ping":62},{"user_id":230,"name":"fear_the-penguins","steam_id":76561199013292217,"connected_time":1078000000000,"state":"active","ping":61}]},{"server_id":106,"name":"Uncletopia | Chicago | 2 | All Maps","name_short":"chi-2","host":"chi-1.us.uncletopia.com","port":27025,"enabled":true,"region":"us-central","cc":"us","latitude":41.881832,"longitude":-87.62318,"reserved":0,"last_update":"0001-01-01T00:00:00Z","name_a2s":"Uncletopia | Chicago | 2 | All Maps","protocol":17,"map":"cp_powerhouse","folder":"tf","game":"Team Fortress","app_id":440,"player_count":24,"max_players":24,"Bots":0,"server_type":"Dedicated","server_os":"Linux","password":true,"vac":true,"version":"7961495","steam_id":85568392924469985,"keywords":["cp","nocrits","nodmgspread","uncletopia"],"game_id":440,"stv_port":27026,"stv_name":"Uncletopia | Chicago | 2 | All Maps | STV","players":[{"user_id":82,"name":"Petty and Cheap","steam_id":76561199039249396,"connected_time":4872000000000,"state":"active","ping":65},{"user_id":114,"name":"Acehay14","steam_id":76561198052373291,"connected_time":752000000000,"state":"active","ping":47},{"user_id":93,"name":"VisciousPotato","steam_id":76561198992859414,"connected_time":4101000000000,"state":"active","ping":100},{"user_id":109,"name":"♥ Tomboy ♥","steam_id":76561198069881436,"connected_time":2432000000000,"state":"active","ping":70},{"user_id":101,"name":"The CEO of cement","steam_id":76561199107177460,"connected_time":3219000000000,"state":"active","ping":88},{"user_id":83,"name":"ruyon","steam_id":76561198376916657,"connected_time":4679000000000,"state":"active","ping":114},{"user_id":112,"name":"genavi","steam_id":76561198442960243,"connected_time":1732000000000,"state":"active","ping":61},{"user_id":106,"name":"Nine-Tails Delsin","steam_id":76561198149825187,"connected_time":2562000000000,"state":"active","ping":164},{"user_id":116,"name":"dingding2","steam_id":76561198278895127,"connected_time":423000000000,"state":"active","ping":50},{"user_id":117,"name":"Ratlympics Gold Medalist","steam_id":76561198064981004,"connected_time":419000000000,"state":"active","ping":45},{"user_id":103,"name":"ahem?","steam_id":76561198420227358,"connected_time":2978000000000,"state":"active","ping":76},{"user_id":120,"name":"Shrebbie","steam_id":76561198875230824,"connected_time":369000000000,"state":"active","ping":56},{"user_id":84,"name":"cavelife","steam_id":76561198091369097,"connected_time":4676000000000,"state":"active","ping":60},{"user_id":102,"name":"FungusBreeder","steam_id":76561198818724472,"connected_time":3207000000000,"state":"active","ping":62},{"user_id":121,"name":"Draekonik","steam_id":76561198327492856,"connected_time":369000000000,"state":"active","ping":65},{"user_id":94,"name":"Jerk Tryhard (roleplay)","steam_id":76561199470538309,"connected_time":3997000000000,"state":"active","ping":53},{"user_id":55,"name":"namesaretoohard","steam_id":76561198070837837,"connected_time":5604000000000,"state":"active","ping":46},{"user_id":105,"name":"brisky","steam_id":76561198869675719,"connected_time":2574000000000,"state":"active","ping":66},{"user_id":96,"name":"Riandox","steam_id":76561198130577326,"connected_time":3973000000000,"state":"active","ping":60},{"user_id":122,"name":"TheBrocklobster","steam_id":76561198039682984,"connected_time":110000000000,"state":"active","ping":95},{"user_id":118,"name":"Natsuki the Scunt","steam_id":76561199175922684,"connected_time":396000000000,"state":"active","ping":120},{"user_id":110,"name":"Transgender Guy Fieri","steam_id":76561198801467075,"connected_time":2395000000000,"state":"active","ping":69},{"user_id":59,"name":"Lia_Rein","steam_id":76561198151569597,"connected_time":5509000000000,"state":"active","ping":148},{"user_id":113,"name":"Lovedaddy","steam_id":76561198006569710,"connected_time":1085000000000,"state":"active","ping":72}]},{"server_id":402,"name":"Uncletopia | Chicago | 3 | All Maps","name_short":"chi-3","host":"chi-1.us.uncletopia.com","port":27035,"enabled":true,"region":"us-central","cc":"us","latitude":41.881832,"longitude":-87.62318,"reserved":0,"last_update":"0001-01-01T00:00:00Z","name_a2s":"Uncletopia | Chicago | 3 | All Maps","protocol":17,"map":"pl_barnblitz","folder":"tf","game":"Team Fortress","app_id":440,"player_count":24,"max_players":24,"Bots":0,"server_type":"Dedicated","server_os":"Linux","password":true,"vac":true,"version":"7961495","steam_id":85568392924515191,"keywords":["nocrits","nodmgspread","payload","uncletopia"],"game_id":440,"stv_port":27036,"stv_name":"Uncletopia | Chicago | 3 | All Maps | STV","players":[{"user_id":72,"name":"∞ 8 ∞","steam_id":76561197973248859,"connected_time":1626000000000,"state":"active","ping":105},{"user_id":76,"name":"Whimsical Bruh","steam_id":76561199069973423,"connected_time":1594000000000,"state":"active","ping":51},{"user_id":73,"name":"The World's Softest Sandwich","steam_id":76561198015577707,"connected_time":1610000000000,"state":"active","ping":79},{"user_id":71,"name":"Flying Emu","steam_id":76561198121632924,"connected_time":1681000000000,"state":"active","ping":66},{"user_id":75,"name":"MangoMaster7834","steam_id":76561199231165397,"connected_time":1601000000000,"state":"active","ping":80},{"user_id":90,"name":"Lost CS2 player","steam_id":76561198892387723,"connected_time":469000000000,"state":"active","ping":60},{"user_id":89,"name":"Ice Spice #1 Fan","steam_id":76561198142370229,"connected_time":527000000000,"state":"active","ping":60},{"user_id":66,"name":"Skab E²r","steam_id":76561199126112357,"connected_time":2141000000000,"state":"active","ping":78},{"user_id":77,"name":"john dunce fifteen","steam_id":76561198165299077,"connected_time":1572000000000,"state":"active","ping":75},{"user_id":57,"name":"Sagoogoo","steam_id":76561198176061614,"connected_time":2674000000000,"state":"active","ping":81},{"user_id":67,"name":"non_ai","steam_id":76561198270951938,"connected_time":1960000000000,"state":"active","ping":61},{"user_id":86,"name":"Poppet","steam_id":76561198012301951,"connected_time":590000000000,"state":"active","ping":69},{"user_id":59,"name":"Mint Jelly","steam_id":76561197991286751,"connected_time":2642000000000,"state":"active","ping":46},{"user_id":34,"name":"Peluche Marisa","steam_id":76561199011452659,"connected_time":3369000000000,"state":"active","ping":108},{"user_id":91,"name":"pastry","steam_id":76561198038999341,"connected_time":329000000000,"state":"active","ping":94},{"user_id":93,"name":"Daehypeels","steam_id":76561198268981599,"connected_time":198000000000,"state":"active","ping":62},{"user_id":42,"name":"RollingCow","steam_id":76561198067114237,"connected_time":3223000000000,"state":"active","ping":79},{"user_id":63,"name":"PTR","steam_id":76561198237253772,"connected_time":2301000000000,"state":"active","ping":67},{"user_id":84,"name":"ZBaldTop","steam_id":76561199396318132,"connected_time":662000000000,"state":"active","ping":51},{"user_id":81,"name":"The Greendale Human Beings","steam_id":76561198055433422,"connected_time":1202000000000,"state":"active","ping":73},{"user_id":46,"name":"Spyfall","steam_id":76561198081729993,"connected_time":3175000000000,"state":"active","ping":60},{"user_id":52,"name":"opamojab","steam_id":76561198284988954,"connected_time":2939000000000,"state":"active","ping":57},{"user_id":94,"name":"Fio4","steam_id":76561199221171536,"connected_time":119000000000,"state":"active","ping":70},{"user_id":82,"name":"Fresh Lychee","steam_id":76561198045399559,"connected_time":1201000000000,"state":"active","ping":60}]},{"server_id":403,"name":"Uncletopia | Chicago | 4 | All Maps","name_short":"chi-4","host":"chi-1.us.uncletopia.com","port":27045,"enabled":true,"region":"us-central","cc":"us","latitude":41.881832,"longitude":-87.62318,"reserved":0,"last_update":"0001-01-01T00:00:00Z","name_a2s":"Uncletopia | Chicago | 4 | All Maps","protocol":17,"map":"pl_pier","folder":"tf","game":"Team Fortress","app_id":440,"player_count":0,"max_players":24,"Bots":0,"server_type":"Dedicated","server_os":"Linux","password":true,"vac":true,"version":"7961495","steam_id":85568392924515193,"keywords":["nocrits","nodmgspread","payload","uncletopia"],"game_id":440,"stv_port":27046,"stv_name":"Uncletopia | Chicago | 4 | All Maps | STV","players":null},{"server_id":36,"name":"Uncletopia | Chicago | 5 | All Maps","name_short":"chi-5","host":"chi-2.us.uncletopia.com","port":27015,"enabled":true,"region":"us-central","cc":"us","latitude":41.881832,"longitude":-87.62318,"reserved":0,"last_update":"0001-01-01T00:00:00Z","name_a2s":"Uncletopia | Chicago | 5 | All Maps","protocol":17,"map":"pl_barnblitz","folder":"tf","game":"Team Fortress","app_id":440,"player_count":24,"max_players":24,"Bots":0,"server_type":"Dedicated","server_os":"Linux","password":true,"vac":true,"version":"7961495","steam_id":85568392924866362,"keywords":["nocrits","nodmgspread","payload","uncletopia"],"game_id":440,"stv_port":27016,"stv_name":"Uncletopia | Chicago | 5 | All Maps | STV","players":[{"user_id":205,"name":"Jared","steam_id":76561198027210228,"connected_time":1843000000000,"state":"active","ping":170},{"user_id":183,"name":"rynz500","steam_id":76561198043872361,"connected_time":3092000000000,"state":"active","ping":86},{"user_id":226,"name":"feenman","steam_id":76561199383834799,"connected_time":810000000000,"state":"active","ping":79},{"user_id":217,"name":"Gamer Princess","steam_id":76561198048205270,"connected_time":1373000000000,"state":"active","ping":63},{"user_id":163,"name":"gaming elliptical","steam_id":76561198013456569,"connected_time":4554000000000,"state":"active","ping":45},{"user_id":227,"name":"caleb","steam_id":76561198119306966,"connected_time":796000000000,"state":"active","ping":112},{"user_id":201,"name":"Anor","steam_id":76561198356139775,"connected_time":2058000000000,"state":"active","ping":72},{"user_id":233,"name":"dadgummit","steam_id":76561198005806915,"connected_time":503000000000,"state":"active","ping":60},{"user_id":186,"name":"Mista Boombastic","steam_id":76561197973121212,"connected_time":3061000000000,"state":"active","ping":36},{"user_id":229,"name":"MjrMovnTARGET","steam_id":76561199125908849,"connected_time":731000000000,"state":"active","ping":64},{"user_id":234,"name":"Olly","steam_id":76561198054273611,"connected_time":341000000000,"state":"active","ping":64},{"user_id":195,"name":"Stick O' Feesh","steam_id":76561198208394397,"connected_time":2368000000000,"state":"active","ping":82},{"user_id":224,"name":"josh","steam_id":76561198092176972,"connected_time":928000000000,"state":"active","ping":73},{"user_id":208,"name":"sleebysyd","steam_id":76561198146749756,"connected_time":1796000000000,"state":"active","ping":90},{"user_id":221,"name":"DiegoVal12","steam_id":76561198408509079,"connected_time":1187000000000,"state":"active","ping":105},{"user_id":218,"name":"pHsHy","steam_id":76561198013195018,"connected_time":1370000000000,"state":"active","ping":78},{"user_id":235,"name":"War on Drugs Fighter","steam_id":76561198103211035,"connected_time":130000000000,"state":"active","ping":55},{"user_id":230,"name":"Dr. Nefario Gaming","steam_id":76561199013431182,"connected_time":718000000000,"state":"active","ping":68},{"user_id":222,"name":"CoolOpossum77","steam_id":76561198085047501,"connected_time":1078000000000,"state":"active","ping":76},{"user_id":197,"name":"Gliglamesh","steam_id":76561198058221449,"connected_time":2272000000000,"state":"active","ping":59},{"user_id":220,"name":"Triforce/Tri","steam_id":76561199126323966,"connected_time":1352000000000,"state":"active","ping":55},{"user_id":232,"name":"Master Of Whales","steam_id":76561198349104889,"connected_time":676000000000,"state":"active","ping":105},{"user_id":219,"name":"ilMoose","steam_id":76561198827275420,"connected_time":1364000000000,"state":"active","ping":74},{"user_id":192,"name":"SINEPLLAMS","steam_id":76561198316993833,"connected_time":2967000000000,"state":"active","ping":60}]},{"server_id":37,"name":"Uncletopia | Chicago | 6 | All Maps","name_short":"chi-6","host":"chi-2.us.uncletopia.com","port":27025,"enabled":true,"region":"us-central","cc":"us","latitude":41.881832,"longitude":-87.62318,"reserved":0,"last_update":"0001-01-01T00:00:00Z","name_a2s":"Uncletopia | Chicago | 6 | All Maps","protocol":17,"map":"cp_dustbowl","folder":"tf","game":"Team Fortress","app_id":440,"player_count":10,"max_players":24,"Bots":0,"server_type":"Dedicated","server_os":"Linux","password":true,"vac":true,"version":"7961495","steam_id":85568392924866363,"keywords":["cp","nocrits","nodmgspread","uncletopia"],"game_id":440,"stv_port":27026,"stv_name":"Uncletopia | Chicago | 6 | All Maps | STV","players":[{"user_id":350,"name":"Slab civilnetworks.net","steam_id":76561198968032452,"connected_time":15000000000,"state":"active","ping":50},{"user_id":343,"name":"carrot cake","steam_id":76561198055174915,"connected_time":341000000000,"state":"active","ping":61},{"user_id":344,"name":"BonesJohnson","steam_id":76561198799169951,"connected_time":334000000000,"state":"active","ping":129},{"user_id":339,"name":"Major_Pippy","steam_id":76561198004482878,"connected_time":602000000000,"state":"active","ping":90},{"user_id":330,"name":"Genius Meme","steam_id":76561198162911254,"connected_time":1200000000000,"state":"active","ping":91},{"user_id":348,"name":"Knockonwood0","steam_id":76561198062635137,"connected_time":136000000000,"state":"active","ping":60},{"user_id":329,"name":"NGsterson","steam_id":76561198162108154,"connected_time":1229000000000,"state":"active","ping":85},{"user_id":336,"name":"Rowen.exe","steam_id":76561198085114230,"connected_time":783000000000,"state":"active","ping":71},{"user_id":331,"name":"gregor","steam_id":76561198057076267,"connected_time":1171000000000,"state":"active","ping":91},{"user_id":332,"name":"hoOmIN","steam_id":76561198334947079,"connected_time":1170000000000,"state":"active","ping":90}]},{"server_id":38,"name":"Uncletopia | Chicago | 7 | Stopwatch","name_short":"chi-7","host":"chi-2.us.uncletopia.com","port":27035,"enabled":true,"region":"us-central","cc":"us","latitude":41.881832,"longitude":-87.62318,"reserved":0,"last_update":"0001-01-01T00:00:00Z","name_a2s":"Uncletopia | Chicago | 7 | Stopwatch","protocol":17,"map":"pl_borneo","folder":"tf","game":"Team Fortress","app_id":440,"player_count":0,"max_players":24,"Bots":0,"server_type":"Dedicated","server_os":"Linux","password":true,"vac":true,"version":"7961495","steam_id":85568392924866364,"keywords":["nocrits","nodmgspread","payload","uncletopia"],"game_id":440,"stv_port":27036,"stv_name":"Uncletopia | Chicago | 7 | Stopwatch | STV","players":null},{"server_id":39,"name":"Uncletopia | Chicago | 8 | Community","name_short":"chi-8","host":"chi-2.us.uncletopia.com","port":27045,"enabled":true,"region":"us-central","cc":"us","latitude":41.881832,"longitude":-87.62318,"reserved":0,"last_update":"0001-01-01T00:00:00Z","name_a2s":"Uncletopia | Chicago | 8 | Community","protocol":17,"map":"workshop/koth_slaughter_rc1.ugc1712845210","folder":"tf","game":"Team Fortress","app_id":440,"player_count":0,"max_players":24,"Bots":0,"server_type":"Dedicated","server_os":"Linux","password":true,"vac":true,"version":"7961495","steam_id":85568392924866365,"keywords":["cp","nocrits","nodmgspread","uncletopia"],"game_id":440,"stv_port":27046,"stv_name":"Uncletopia | Chicago | 8 | Community | STV","players":null},{"server_id":8,"name":"Uncletopia | Dallas | 1 | All Maps","name_short":"dal-1","host":"dal-1.us.uncletopia.com","port":27015,"enabled":true,"region":"us-central","cc":"us","latitude":32.779167,"longitude":-96.80889,"reserved":0,"last_update":"0001-01-01T00:00:00Z","name_a2s":"Uncletopia | Dallas | 1 | All Maps","protocol":17,"map":"cp_dustbowl","folder":"tf","game":"Team Fortress","app_id":440,"player_count":2,"max_players":24,"Bots":0,"server_type":"Dedicated","server_os":"Linux","password":true,"vac":true,"version":"7961495","steam_id":85568392924469986,"keywords":["cp","nocrits","nodmgspread","uncletopia"],"game_id":440,"stv_port":27016,"stv_name":"Uncletopia | Dallas | 1 | All Maps | STV","players":[{"user_id":12,"name":"DoctorZer0","steam_id":76561199109330187,"connected_time":374000000000,"state":"active","ping":72},{"user_id":13,"name":"Dot-JASON","steam_id":76561198990298757,"connected_time":349000000000,"state":"active","ping":68}]},{"server_id":108,"name":"Uncletopia | Dallas | 2 | All Maps","name_short":"dal-2","host":"dal-1.us.uncletopia.com","port":27025,"enabled":true,"region":"us-central","cc":"us","latitude":32.779167,"longitude":-96.80889,"reserved":0,"last_update":"0001-01-01T00:00:00Z","name_a2s":"Uncletopia | Dallas | 2 | All Maps","protocol":17,"map":"cp_steel","folder":"tf","game":"Team Fortress","app_id":440,"player_count":24,"max_players":24,"Bots":0,"server_type":"Dedicated","server_os":"Linux","password":true,"vac":true,"version":"7961495","steam_id":85568392924469988,"keywords":["cp","nocrits","nodmgspread","uncletopia"],"game_id":440,"stv_port":27026,"stv_name":"Uncletopia | Dallas | 2 | All Maps | STV","players":[{"user_id":6,"name":"Colonel Knacker","steam_id":76561198151578423,"connected_time":3106000000000,"state":"active","ping":59},{"user_id":50,"name":"Joshy","steam_id":76561198061405421,"connected_time":180000000000,"state":"active","ping":90},{"user_id":11,"name":"cumgoblin","steam_id":76561198113270138,"connected_time":2291000000000,"state":"active","ping":43},{"user_id":54,"name":"wrldwide","steam_id":76561198841016072,"connected_time":80000000000,"state":"active","ping":102},{"user_id":55,"name":"The Sydney Sleeper Itself","steam_id":76561198180251763,"connected_time":58000000000,"state":"active","ping":46},{"user_id":52,"name":"La()VaJ()86","steam_id":76561198247547042,"connected_time":155000000000,"state":"active","ping":81},{"user_id":46,"name":"oncologist","steam_id":76561197997321386,"connected_time":302000000000,"state":"active","ping":53},{"user_id":21,"name":"DeftlyDyl","steam_id":76561198098986187,"connected_time":1352000000000,"state":"active","ping":86},{"user_id":17,"name":"BlueKirbvii","steam_id":76561199021459412,"connected_time":1585000000000,"state":"active","ping":86},{"user_id":19,"name":"Weegee","steam_id":76561198140095755,"connected_time":1515000000000,"state":"active","ping":81},{"user_id":20,"name":"\u003c3","steam_id":76561198196829267,"connected_time":1502000000000,"state":"active","ping":88},{"user_id":43,"name":"Friendly Neighborhood Engineer","steam_id":76561199074181200,"connected_time":448000000000,"state":"active","ping":135},{"user_id":26,"name":"uzr_n3m","steam_id":76561198799343084,"connected_time":1069000000000,"state":"active","ping":90},{"user_id":27,"name":"The creator(made twitter)","steam_id":76561198870900265,"connected_time":1052000000000,"state":"active","ping":76},{"user_id":28,"name":"Major Woody","steam_id":76561198835541533,"connected_time":1041000000000,"state":"active","ping":60},{"user_id":53,"name":"pok","steam_id":76561198811854523,"connected_time":113000000000,"state":"active","ping":67},{"user_id":30,"name":"Spring Beans","steam_id":76561197978546259,"connected_time":944000000000,"state":"active","ping":44},{"user_id":39,"name":"Decapitation Station","steam_id":76561198201796098,"connected_time":763000000000,"state":"active","ping":75},{"user_id":47,"name":"Yayboo Bear","steam_id":76561197990770266,"connected_time":242000000000,"state":"active","ping":48},{"user_id":34,"name":"ChebJeb","steam_id":76561198981377081,"connected_time":880000000000,"state":"active","ping":89},{"user_id":56,"name":"dog","steam_id":76561198263873491,"connected_time":43000000000,"state":"active","ping":69},{"user_id":40,"name":"Vanillex","steam_id":76561199125632814,"connected_time":761000000000,"state":"active","ping":51},{"user_id":49,"name":"Auggy","steam_id":76561197972349969,"connected_time":220000000000,"state":"active","ping":61},{"user_id":41,"name":"inax","steam_id":76561198398677744,"connected_time":755000000000,"state":"active","ping":121}]},{"server_id":404,"name":"Uncletopia | Dallas | 3 | All Maps","name_short":"dal-3","host":"dal-1.us.uncletopia.com","port":27035,"enabled":true,"region":"us-central","cc":"us","latitude":32.779167,"longitude":-96.80889,"reserved":0,"last_update":"0001-01-01T00:00:00Z","name_a2s":"Uncletopia | Dallas | 3 | All Maps","protocol":17,"map":"cp_coldfront","folder":"tf","game":"Team Fortress","app_id":440,"player_count":0,"max_players":24,"Bots":0,"server_type":"Dedicated","server_os":"Linux","password":true,"vac":true,"version":"7961495","steam_id":85568392924515219,"keywords":["cp","nocrits","nodmgspread","uncletopia"],"game_id":440,"stv_port":27036,"stv_name":"Uncletopia | Dallas | 3 | All Maps | STV","players":null},{"server_id":405,"name":"Uncletopia | Dallas | 4 | Community","name_short":"dal-4","host":"dal-1.us.uncletopia.com","port":27045,"enabled":true,"region":"us-central","cc":"us","latitude":32.779167,"longitude":-96.80889,"reserved":0,"last_update":"0001-01-01T00:00:00Z","name_a2s":"Uncletopia | Dallas | 4 | Community","protocol":17,"map":"workshop/koth_synthetic_rc6a.ugc1549817316","folder":"tf","game":"Team Fortress","app_id":440,"player_count":0,"max_players":24,"Bots":0,"server_type":"Dedicated","server_os":"Linux","password":true,"vac":true,"version":"7961495","steam_id":85568392924515220,"keywords":["cp","nocrits","nodmgspread","uncletopia"],"game_id":440,"stv_port":27046,"stv_name":"Uncletopia | Dallas | 4 | Community | STV","players":null},{"server_id":5,"name":"Uncletopia | Frankfurt | 1 | All Maps","name_short":"frk-1","host":"frk-1.de.uncletopia.com","port":27015,"enabled":true,"region":"eu","cc":"de","latitude":50.110924,"longitude":8.682127,"reserved":0,"last_update":"0001-01-01T00:00:00Z","name_a2s":"Uncletopia | Frankfurt | 1 | All Maps","protocol":17,"map":"koth_viaduct","folder":"tf","game":"Team Fortress","app_id":440,"player_count":24,"max_players":24,"Bots":0,"server_type":"Dedicated","server_os":"Linux","password":true,"vac":true,"version":"7961495","steam_id":85568392924469989,"keywords":["cp","nocrits","nodmgspread","uncletopia"],"game_id":440,"stv_port":27016,"stv_name":"Uncletopia | Frankfurt | 1 | All Maps | STV","players":[{"user_id":399,"name":"le big mac","steam_id":76561199026378253,"connected_time":11327000000000,"state":"active","ping":50},{"user_id":521,"name":"pS","steam_id":76561198142526103,"connected_time":2085000000000,"state":"active","ping":60},{"user_id":487,"name":"Marukuso","steam_id":76561198154229845,"connected_time":4897000000000,"state":"active","ping":58},{"user_id":539,"name":"usmanov.inc","steam_id":76561198263734652,"connected_time":946000000000,"state":"active","ping":92},{"user_id":450,"name":"Sham!","steam_id":76561198050434275,"connected_time":6950000000000,"state":"active","ping":49},{"user_id":542,"name":"Danilka","steam_id":76561199222725839,"connected_time":904000000000,"state":"active","ping":108},{"user_id":546,"name":"Endi","steam_id":76561198914938199,"connected_time":444000000000,"state":"active","ping":77},{"user_id":452,"name":"El_Kommadante","steam_id":76561198079551685,"connected_time":6944000000000,"state":"active","ping":56},{"user_id":540,"name":"Marty™","steam_id":76561198060073673,"connected_time":931000000000,"state":"active","ping":61},{"user_id":548,"name":"Laitse","steam_id":76561198073247480,"connected_time":403000000000,"state":"active","ping":88},{"user_id":528,"name":"Thomas Sowell","steam_id":76561198027738546,"connected_time":1674000000000,"state":"active","ping":54},{"user_id":541,"name":"Leviticus Cornwall","steam_id":76561197993702685,"connected_time":925000000000,"state":"active","ping":64},{"user_id":523,"name":"OG Mamba Lekouye","steam_id":76561198115594594,"connected_time":2072000000000,"state":"active","ping":53},{"user_id":535,"name":"KOTONIX_767676","steam_id":76561199113358644,"connected_time":1368000000000,"state":"active","ping":59},{"user_id":544,"name":"dred_PL","steam_id":76561198246419102,"connected_time":808000000000,"state":"active","ping":69},{"user_id":504,"name":"5tv^","steam_id":76561198063129586,"connected_time":3815000000000,"state":"active","ping":99},{"user_id":515,"name":"3L","steam_id":76561198007208996,"connected_time":2727000000000,"state":"active","ping":42},{"user_id":463,"name":"crit hit!","steam_id":76561198112693639,"connected_time":6327000000000,"state":"active","ping":61},{"user_id":545,"name":"Mr_Joergen","steam_id":76561198364713702,"connected_time":524000000000,"state":"active","ping":55},{"user_id":518,"name":"Z.","steam_id":76561198838692532,"connected_time":2512000000000,"state":"active","ping":106},{"user_id":550,"name":"Reljadin","steam_id":76561198054997553,"connected_time":127000000000,"state":"active","ping":75},{"user_id":547,"name":"God is serb","steam_id":76561198966246028,"connected_time":428000000000,"state":"active","ping":75},{"user_id":526,"name":"hondjo","steam_id":76561198119324108,"connected_time":2066000000000,"state":"active","ping":55},{"user_id":509,"name":"爱若","steam_id":76561198025077239,"connected_time":3123000000000,"state":"active","ping":55}]},{"server_id":110,"name":"Uncletopia | Frankfurt | 2 | All Maps","name_short":"frk-2","host":"frk-1.de.uncletopia.com","port":27025,"enabled":true,"region":"eu","cc":"de","latitude":50.110924,"longitude":8.682127,"reserved":0,"last_update":"0001-01-01T00:00:00Z","name_a2s":"Uncletopia | Frankfurt | 2 | All Maps","protocol":17,"map":"koth_harvest_final","folder":"tf","game":"Team Fortress","app_id":440,"player_count":23,"max_players":24,"Bots":0,"server_type":"Dedicated","server_os":"Linux","password":true,"vac":true,"version":"7961495","steam_id":85568392924469990,"keywords":["cp","nocrits","nodmgspread","uncletopia"],"game_id":440,"stv_port":27026,"stv_name":"Uncletopia | Frankfurt | 2 | All Maps | STV","players":[{"user_id":480,"name":"M4tt_Four","steam_id":76561198261887595,"connected_time":172000000000,"state":"active","ping":75},{"user_id":455,"name":"MGE BROTHER","steam_id":76561198796600155,"connected_time":1475000000000,"state":"active","ping":75},{"user_id":381,"name":"Maske","steam_id":76561198078100812,"connected_time":5730000000000,"state":"active","ping":45},{"user_id":424,"name":"antlionguard","steam_id":76561198072747143,"connected_time":3878000000000,"state":"active","ping":111},{"user_id":399,"name":"LordTrap.exe","steam_id":76561198318089716,"connected_time":5077000000000,"state":"active","ping":60},{"user_id":456,"name":"Mayor Wank from Wanker Town","steam_id":76561197998253588,"connected_time":1437000000000,"state":"active","ping":45},{"user_id":462,"name":"KeithStone","steam_id":76561197986083582,"connected_time":1364000000000,"state":"active","ping":180},{"user_id":464,"name":"JohnTraveltime","steam_id":76561199244281754,"connected_time":1305000000000,"state":"active","ping":50},{"user_id":439,"name":"Jone","steam_id":76561198955248352,"connected_time":2949000000000,"state":"active","ping":65},{"user_id":454,"name":"Aku+","steam_id":76561198813782795,"connected_time":1501000000000,"state":"active","ping":75},{"user_id":479,"name":"✪Beer☭","steam_id":76561198129884760,"connected_time":186000000000,"state":"active","ping":72},{"user_id":485,"name":"Angcam420","steam_id":76561198019429936,"connected_time":10000000000,"state":"active","ping":68},{"user_id":482,"name":"'Poli","steam_id":76561198058710244,"connected_time":160000000000,"state":"active","ping":80},{"user_id":459,"name":"capslocked","steam_id":76561198095960796,"connected_time":1398000000000,"state":"active","ping":59},{"user_id":469,"name":"Shogg","steam_id":76561198056382237,"connected_time":1102000000000,"state":"active","ping":73},{"user_id":421,"name":"lillunya ♡","steam_id":76561198330418866,"connected_time":4165000000000,"state":"active","ping":45},{"user_id":475,"name":"Laki","steam_id":76561198126078953,"connected_time":404000000000,"state":"active","ping":97},{"user_id":476,"name":"HayLeX","steam_id":76561198130997343,"connected_time":251000000000,"state":"active","ping":75},{"user_id":483,"name":"b3rry","steam_id":76561198335302319,"connected_time":157000000000,"state":"active","ping":99},{"user_id":463,"name":"Edsuedi","steam_id":76561198074722832,"connected_time":1342000000000,"state":"active","ping":52},{"user_id":386,"name":"orange","steam_id":76561198153181940,"connected_time":5611000000000,"state":"active","ping":68},{"user_id":444,"name":"TreatFly","steam_id":76561198069707362,"connected_time":2411000000000,"state":"active","ping":50},{"user_id":484,"name":"Ve stylu","steam_id":76561198218257120,"connected_time":124000000000,"state":"active","ping":61}]},{"server_id":308,"name":"Uncletopia | Frankfurt | 3 | All Maps","name_short":"frk-3","host":"frk-1.de.uncletopia.com","port":27035,"enabled":true,"region":"eu","cc":"de","latitude":50.110924,"longitude":8.682127,"reserved":0,"last_update":"0001-01-01T00:00:00Z","name_a2s":"Uncletopia | Frankfurt | 3 | All Maps","protocol":17,"map":"cp_sunshine","folder":"tf","game":"Team Fortress","app_id":440,"player_count":24,"max_players":24,"Bots":0,"server_type":"Dedicated","server_os":"Linux","password":true,"vac":true,"version":"7961495","steam_id":85568392924504274,"keywords":["cp","nocrits","nodmgspread","uncletopia"],"game_id":440,"stv_port":27036,"stv_name":"Uncletopia | Frankfurt | 3 | All Maps | STV","players":[{"user_id":255,"name":"skeleton_archer_1","steam_id":76561198407636430,"connected_time":41000000000,"state":"spawning","ping":100},{"user_id":248,"name":"glyph","steam_id":76561197980736364,"connected_time":248000000000,"state":"active","ping":75},{"user_id":217,"name":"ALARM","steam_id":76561198120686521,"connected_time":2685000000000,"state":"active","ping":53},{"user_id":251,"name":"Mega Man Legends 3","steam_id":76561198014110199,"connected_time":149000000000,"state":"active","ping":45},{"user_id":230,"name":"HOI","steam_id":76561198061182117,"connected_time":2037000000000,"state":"active","ping":60},{"user_id":252,"name":"Javier dorsaless","steam_id":76561198179324075,"connected_time":125000000000,"state":"active","ping":70},{"user_id":240,"name":"Efeca","steam_id":76561198018923829,"connected_time":1736000000000,"state":"active","ping":62},{"user_id":239,"name":"EEEEEH","steam_id":76561198126717413,"connected_time":1801000000000,"state":"active","ping":74},{"user_id":177,"name":"Mr. Mundy","steam_id":76561198132008918,"connected_time":4954000000000,"state":"active","ping":74},{"user_id":225,"name":"ok","steam_id":76561198320042443,"connected_time":2206000000000,"state":"active","ping":91},{"user_id":247,"name":"night.s","steam_id":76561198326287823,"connected_time":923000000000,"state":"active","ping":87},{"user_id":256,"name":"aisu","steam_id":76561198043768507,"connected_time":40000000000,"state":"active","ping":180},{"user_id":174,"name":"Hexagon","steam_id":76561198151205758,"connected_time":5418000000000,"state":"active","ping":55},{"user_id":243,"name":"Avocado1262","steam_id":76561199077413016,"connected_time":1115000000000,"state":"active","ping":56},{"user_id":244,"name":"Udinese Dion","steam_id":76561198067931573,"connected_time":1115000000000,"state":"active","ping":48},{"user_id":242,"name":"ThatOneMedic","steam_id":76561199044419505,"connected_time":1339000000000,"state":"active","ping":59},{"user_id":257,"name":"[F2P] MalCo","steam_id":76561197994930440,"connected_time":30000000000,"state":"active","ping":57},{"user_id":249,"name":"Paciùg remover","steam_id":76561198035928111,"connected_time":180000000000,"state":"active","ping":64},{"user_id":253,"name":"Rad","steam_id":76561199001560866,"connected_time":124000000000,"state":"active","ping":57},{"user_id":232,"name":"Steen","steam_id":76561198122992510,"connected_time":2024000000000,"state":"active","ping":45},{"user_id":219,"name":"ⓅⓁⓈ | Pink Panther","steam_id":76561198046434381,"connected_time":2670000000000,"state":"active","ping":51},{"user_id":236,"name":"mespe","steam_id":76561198121530649,"connected_time":1883000000000,"state":"active","ping":60},{"user_id":246,"name":"Marky","steam_id":76561199474556920,"connected_time":1006000000000,"state":"active","ping":106},{"user_id":254,"name":"The Storm That Is Approaching","steam_id":76561198982155864,"connected_time":97000000000,"state":"active","ping":60}]},{"server_id":309,"name":"Uncletopia | Frankfurt | 4 | All Maps","name_short":"frk-4","host":"frk-1.de.uncletopia.com","port":27045,"enabled":true,"region":"eu","cc":"de","latitude":50.110924,"longitude":8.682127,"reserved":0,"last_update":"0001-01-01T00:00:00Z","name_a2s":"Uncletopia | Frankfurt | 4 | All Maps","protocol":17,"map":"cp_process_final","folder":"tf","game":"Team Fortress","app_id":440,"player_count":24,"max_players":24,"Bots":0,"server_type":"Dedicated","server_os":"Linux","password":true,"vac":true,"version":"7961495","steam_id":85568392924504275,"keywords":["cp","nocrits","nodmgspread","uncletopia"],"game_id":440,"stv_port":27046,"stv_name":"Uncletopia | Frankfurt | 4 | All Maps | STV","players":[{"user_id":282,"name":"WIZARD","steam_id":76561198199570742,"connected_time":7441000000000,"state":"active","ping":95},{"user_id":381,"name":"Gui","steam_id":76561198072054467,"connected_time":2996000000000,"state":"active","ping":78},{"user_id":283,"name":"k.","steam_id":76561198258197649,"connected_time":7432000000000,"state":"active","ping":75},{"user_id":377,"name":"sHIFTINGvORTEX","steam_id":76561198231648332,"connected_time":3462000000000,"state":"active","ping":75},{"user_id":398,"name":"soupalognionycrouton","steam_id":76561199021878433,"connected_time":1637000000000,"state":"active","ping":61},{"user_id":366,"name":"oof","steam_id":76561198249210016,"connected_time":3992000000000,"state":"active","ping":82},{"user_id":408,"name":"Zerfesh","steam_id":76561198117534358,"connected_time":315000000000,"state":"active","ping":83},{"user_id":365,"name":"Stinkyeseses","steam_id":76561198402218127,"connected_time":4142000000000,"state":"active","ping":94},{"user_id":391,"name":"reko","steam_id":76561198803326971,"connected_time":2123000000000,"state":"active","ping":72},{"user_id":404,"name":"PENGUN","steam_id":76561199015156956,"connected_time":1285000000000,"state":"active","ping":97},{"user_id":353,"name":"TheKerhard","steam_id":76561198086772002,"connected_time":4808000000000,"state":"active","ping":120},{"user_id":410,"name":"kenzou","steam_id":76561199180054996,"connected_time":124000000000,"state":"active","ping":42},{"user_id":387,"name":"Local Moldovan Farmer","steam_id":76561198066109166,"connected_time":2789000000000,"state":"active","ping":75},{"user_id":403,"name":"full paranoia","steam_id":76561198070450646,"connected_time":1330000000000,"state":"active","ping":93},{"user_id":359,"name":"HuHD3я_B_Ad1dAsE","steam_id":76561198110470565,"connected_time":4385000000000,"state":"active","ping":92},{"user_id":378,"name":"Icarus300","steam_id":76561198015125766,"connected_time":3457000000000,"state":"active","ping":84},{"user_id":409,"name":"Dakeyras","steam_id":76561198057069564,"connected_time":312000000000,"state":"active","ping":103},{"user_id":392,"name":"big lady","steam_id":76561197971716998,"connected_time":2101000000000,"state":"active","ping":50},{"user_id":389,"name":"Shadowgical","steam_id":76561198071133453,"connected_time":2555000000000,"state":"active","ping":53},{"user_id":395,"name":"Michael","steam_id":76561198003146906,"connected_time":1771000000000,"state":"active","ping":59},{"user_id":407,"name":"Tiad","steam_id":76561198283421457,"connected_time":346000000000,"state":"active","ping":60},{"user_id":397,"name":"Demo Sharpe","steam_id":76561198261001389,"connected_time":1640000000000,"state":"active","ping":60},{"user_id":394,"name":"robbie","steam_id":76561198798195287,"connected_time":1951000000000,"state":"active","ping":61},{"user_id":413,"name":"Autumn","steam_id":76561198288382452,"connected_time":96000000000,"state":"active","ping":75}]},{"server_id":310,"name":"Uncletopia | Frankfurt | 5 | All Maps","name_short":"frk-5","host":"frk-1.de.uncletopia.com","port":27055,"enabled":true,"region":"eu","cc":"de","latitude":50.110924,"longitude":8.682127,"reserved":0,"last_update":"0001-01-01T00:00:00Z","name_a2s":"Uncletopia | Frankfurt | 5 | All Maps","protocol":17,"map":"pl_snowycoast","folder":"tf","game":"Team Fortress","app_id":440,"player_count":24,"max_players":24,"Bots":0,"server_type":"Dedicated","server_os":"Linux","password":true,"vac":true,"version":"7961495","steam_id":85568392924504277,"keywords":["nocrits","nodmgspread","payload","uncletopia"],"game_id":440,"stv_port":27056,"stv_name":"Uncletopia | Frankfurt | 5 | All Maps | STV","players":[{"user_id":385,"name":"Sholunan","steam_id":76561198062435739,"connected_time":420000000000,"state":"active","ping":54},{"user_id":371,"name":"The One (and only)","steam_id":76561198827193499,"connected_time":1567000000000,"state":"active","ping":53},{"user_id":365,"name":"pizzaboob","steam_id":76561198097507847,"connected_time":1922000000000,"state":"active","ping":72},{"user_id":363,"name":"demoman_laughlong02.wav","steam_id":76561198257158275,"connected_time":1986000000000,"state":"active","ping":144},{"user_id":367,"name":"Nejt","steam_id":76561199264515158,"connected_time":1687000000000,"state":"active","ping":58},{"user_id":384,"name":"Quatschton","steam_id":76561198095125489,"connected_time":1018000000000,"state":"active","ping":44},{"user_id":346,"name":"creepy_computer_repair_person","steam_id":76561198090481990,"connected_time":2725000000000,"state":"active","ping":75},{"user_id":329,"name":"gamerkiddo","steam_id":76561198047380360,"connected_time":4098000000000,"state":"active","ping":45},{"user_id":375,"name":"Maxmen","steam_id":76561198188541510,"connected_time":1475000000000,"state":"active","ping":135},{"user_id":370,"name":"Destinys","steam_id":76561198056132894,"connected_time":1592000000000,"state":"active","ping":45},{"user_id":310,"name":"Gbus","steam_id":76561198072335838,"connected_time":5958000000000,"state":"active","ping":55},{"user_id":390,"name":"General Grievous","steam_id":76561198087800030,"connected_time":165000000000,"state":"active","ping":54},{"user_id":389,"name":"Cheshireycat","steam_id":76561198067204908,"connected_time":289000000000,"state":"active","ping":67},{"user_id":380,"name":"geef me een klap","steam_id":76561198170609049,"connected_time":1079000000000,"state":"active","ping":47},{"user_id":314,"name":"vurtun","steam_id":76561198857395274,"connected_time":4789000000000,"state":"active","ping":38},{"user_id":356,"name":"lugi","steam_id":76561198026903673,"connected_time":2376000000000,"state":"active","ping":50},{"user_id":382,"name":"Ecton","steam_id":76561198025103720,"connected_time":1071000000000,"state":"active","ping":62},{"user_id":386,"name":"Filin_Fill","steam_id":76561198044037139,"connected_time":398000000000,"state":"active","ping":80},{"user_id":332,"name":"LivEssense","steam_id":76561198052476979,"connected_time":3722000000000,"state":"active","ping":76},{"user_id":376,"name":"tired","steam_id":76561198046838168,"connected_time":1475000000000,"state":"active","ping":44},{"user_id":374,"name":"LOBZIK","steam_id":76561198114830120,"connected_time":1489000000000,"state":"active","ping":77},{"user_id":301,"name":"Optimist 50","steam_id":76561198039631442,"connected_time":6395000000000,"state":"active","ping":83},{"user_id":379,"name":"Štěpán","steam_id":76561198275742101,"connected_time":1425000000000,"state":"active","ping":53},{"user_id":366,"name":"PP_master69420","steam_id":76561199019913910,"connected_time":1850000000000,"state":"active","ping":83}]},{"server_id":311,"name":"Uncletopia | Frankfurt | 6 | All Maps","name_short":"frk-6","host":"frk-1.de.uncletopia.com","port":27065,"enabled":true,"region":"eu","cc":"de","latitude":50.110924,"longitude":8.682127,"reserved":0,"last_update":"0001-01-01T00:00:00Z","name_a2s":"Uncletopia | Frankfurt | 6 | All Maps","protocol":17,"map":"koth_lakeside_final","folder":"tf","game":"Team Fortress","app_id":440,"player_count":15,"max_players":24,"Bots":0,"server_type":"Dedicated","server_os":"Linux","password":true,"vac":true,"version":"7961495","steam_id":85568392924504278,"keywords":["cp","nocrits","nodmgspread","uncletopia"],"game_id":440,"stv_port":27066,"stv_name":"Uncletopia | Frankfurt | 6 | All Maps | STV","players":[{"user_id":68,"name":"mokau","steam_id":76561199150622722,"connected_time":740000000000,"state":"active","ping":60},{"user_id":71,"name":"nero","steam_id":76561199104782664,"connected_time":472000000000,"state":"active","ping":53},{"user_id":74,"name":"shadow39344","steam_id":76561198090639618,"connected_time":391000000000,"state":"active","ping":45},{"user_id":73,"name":"Ink in veins","steam_id":76561199082262091,"connected_time":441000000000,"state":"active","ping":61},{"user_id":75,"name":"Flavia ♥","steam_id":76561198108360671,"connected_time":377000000000,"state":"active","ping":104},{"user_id":76,"name":"Scrooge Mc Clunk","steam_id":76561198885945084,"connected_time":347000000000,"state":"active","ping":44},{"user_id":77,"name":"dwarf man","steam_id":76561199501952182,"connected_time":334000000000,"state":"active","ping":73},{"user_id":78,"name":"Lucky_Bambr","steam_id":76561198401330527,"connected_time":332000000000,"state":"active","ping":111},{"user_id":79,"name":"Civilian","steam_id":76561198048513736,"connected_time":310000000000,"state":"active","ping":54},{"user_id":86,"name":"zek","steam_id":76561198862763731,"connected_time":77000000000,"state":"active","ping":52},{"user_id":82,"name":"Mother","steam_id":76561198038282957,"connected_time":215000000000,"state":"active","ping":67},{"user_id":83,"name":"Sicronici","steam_id":76561199054534566,"connected_time":192000000000,"state":"active","ping":67},{"user_id":84,"name":"LukteDukte","steam_id":76561197995761277,"connected_time":188000000000,"state":"active","ping":71},{"user_id":85,"name":"Doctor Rudy G. Numpad","steam_id":76561198440881106,"connected_time":112000000000,"state":"active","ping":61},{"user_id":87,"name":"Springfield Crack","steam_id":76561198044818161,"connected_time":68000000000,"state":"active","ping":90}]},{"server_id":23,"name":"Uncletopia | Frankfurt | 7 | Stopwatch","name_short":"frk-7","host":"frk-1.de.uncletopia.com","port":27075,"enabled":true,"region":"eu","cc":"de","latitude":50.110924,"longitude":8.682127,"reserved":0,"last_update":"0001-01-01T00:00:00Z","name_a2s":"Uncletopia | Frankfurt | 7 | Stopwatch","protocol":17,"map":"cp_sunshine","folder":"tf","game":"Team Fortress","app_id":440,"player_count":0,"max_players":24,"Bots":0,"server_type":"Dedicated","server_os":"Linux","password":true,"vac":true,"version":"7961495","steam_id":85568392924742827,"keywords":["cp","nocrits","nodmgspread","uncletopia"],"game_id":440,"stv_port":27076,"stv_name":"Uncletopia | Frankfurt | 7 | Stopwatch | STV","players":null},{"server_id":24,"name":"Uncletopia | Frankfurt | 8 | Community","name_short":"frk-8","host":"frk-1.de.uncletopia.com","port":27085,"enabled":true,"region":"eu","cc":"de","latitude":50.110924,"longitude":8.682127,"reserved":0,"last_update":"0001-01-01T00:00:00Z","name_a2s":"Uncletopia | Frankfurt | 8 | Community","protocol":17,"map":"workshop/koth_synthetic_rc6a.ugc1549817316","folder":"tf","game":"Team Fortress","app_id":440,"player_count":0,"max_players":24,"Bots":0,"server_type":"Dedicated","server_os":"Linux","password":true,"vac":true,"version":"7961495","steam_id":85568392924742828,"keywords":["cp","nocrits","nodmgspread","uncletopia"],"game_id":440,"stv_port":27086,"stv_name":"Uncletopia | Frankfurt | 8 | Community | STV","players":null},{"server_id":202,"name":"Uncletopia | Hong Kong | 1 | All Maps","name_short":"hgk-1","host":"hgk-1.hk.uncletopia.com","port":27015,"enabled":true,"region":"asia","cc":"hk","latitude":22.302711,"longitude":114.177216,"reserved":0,"last_update":"0001-01-01T00:00:00Z","name_a2s":"Uncletopia | Hong Kong | 1 | All Maps","protocol":17,"map":"pl_pier","folder":"tf","game":"Team Fortress","app_id":440,"player_count":12,"max_players":24,"Bots":0,"server_type":"Dedicated","server_os":"Linux","password":true,"vac":true,"version":"7961495","steam_id":85568392924494504,"keywords":["nocrits","nodmgspread","payload","uncletopia"],"game_id":440,"stv_port":27016,"stv_name":"Uncletopia | Hong Kong | 1 | All Maps | STV","players":[{"user_id":542,"name":"Kumaz","steam_id":76561199062190085,"connected_time":2446000000000,"state":"active","ping":103},{"user_id":547,"name":"Bad at Demoman","steam_id":76561198970511576,"connected_time":2147000000000,"state":"active","ping":84},{"user_id":517,"name":"Bill","steam_id":76561198044762968,"connected_time":4279000000000,"state":"active","ping":79},{"user_id":568,"name":"THE J!!!","steam_id":76561198320668609,"connected_time":465000000000,"state":"active","ping":88},{"user_id":571,"name":"capetanunito","steam_id":76561199364524852,"connected_time":28000000000,"state":"spawning","ping":258},{"user_id":570,"name":"bombastik062","steam_id":76561199384080480,"connected_time":32000000000,"state":"active","ping":308},{"user_id":532,"name":"蠢脸骑士脸不蠢","steam_id":76561198422372840,"connected_time":3717000000000,"state":"active","ping":44},{"user_id":506,"name":"Pulsar（中指星）","steam_id":76561198201338439,"connected_time":5336000000000,"state":"active","ping":42},{"user_id":549,"name":"Battery","steam_id":76561198004583032,"connected_time":2058000000000,"state":"active","ping":95},{"user_id":512,"name":"Gab","steam_id":76561198863909723,"connected_time":4788000000000,"state":"active","ping":62},{"user_id":545,"name":"✦","steam_id":76561198047871418,"connected_time":2173000000000,"state":"active","ping":43},{"user_id":540,"name":"FunkyRye","steam_id":76561199093938803,"connected_time":2806000000000,"state":"active","ping":61}]},{"server_id":1,"name":"Uncletopia | Los Angeles | 1 | All Maps","name_short":"lax-1","host":"lax-1.us.uncletopia.com","port":27015,"enabled":true,"region":"us-west","cc":"us","latitude":33.94279,"longitude":-118.41004,"reserved":0,"last_update":"0001-01-01T00:00:00Z","name_a2s":"Uncletopia | Los Angeles | 1 | All Maps","protocol":17,"map":"cp_snakewater_final1","folder":"tf","game":"Team Fortress","app_id":440,"player_count":0,"max_players":24,"Bots":0,"server_type":"Dedicated","server_os":"Linux","password":true,"vac":true,"version":"7961495","steam_id":85568392924469991,"keywords":["cp","nocrits","nodmgspread","uncletopia"],"game_id":440,"stv_port":27016,"stv_name":"Uncletopia | Los Angeles | 1 | All Maps | STV","players":null},{"server_id":112,"name":"Uncletopia | Los Angeles | 2 | All Maps","name_short":"lax-2","host":"lax-1.us.uncletopia.com","port":27025,"enabled":true,"region":"us-west","cc":"us","latitude":33.94279,"longitude":-118.41004,"reserved":0,"last_update":"0001-01-01T00:00:00Z","name_a2s":"Uncletopia | Los Angeles | 2 | All Maps","protocol":17,"map":"cp_process_final","folder":"tf","game":"Team Fortress","app_id":440,"player_count":0,"max_players":24,"Bots":0,"server_type":"Dedicated","server_os":"Linux","password":true,"vac":true,"version":"7961495","steam_id":85568392924469992,"keywords":["cp","nocrits","nodmgspread","uncletopia"],"game_id":440,"stv_port":27026,"stv_name":"Uncletopia | Los Angeles | 2 | All Maps | STV","players":null},{"server_id":324,"name":"Uncletopia | Los Angeles | 3 | All Maps","name_short":"lax-3","host":"lax-1.us.uncletopia.com","port":27035,"enabled":true,"region":"us-west","cc":"us","latitude":33.94279,"longitude":-118.41004,"reserved":0,"last_update":"0001-01-01T00:00:00Z","name_a2s":"Uncletopia | Los Angeles | 3 | All Maps","protocol":17,"map":"pl_swiftwater_final1","folder":"tf","game":"Team Fortress","app_id":440,"player_count":0,"max_players":24,"Bots":0,"server_type":"Dedicated","server_os":"Linux","password":true,"vac":true,"version":"7961495","steam_id":85568392924510198,"keywords":["nocrits","nodmgspread","payload","uncletopia"],"game_id":440,"stv_port":27036,"stv_name":"Uncletopia | Los Angeles | 3 | All Maps | STV","players":null},{"server_id":25,"name":"Uncletopia | Los Angeles | 4 | Stopwatch","name_short":"lax-4","host":"lax-1.us.uncletopia.com","port":27045,"enabled":true,"region":"us-west","cc":"us","latitude":33.94279,"longitude":-118.41004,"reserved":0,"last_update":"0001-01-01T00:00:00Z","name_a2s":"Uncletopia | Los Angeles | 4 | Stopwatch","protocol":17,"map":"pl_upward","folder":"tf","game":"Team Fortress","app_id":440,"player_count":0,"max_players":24,"Bots":0,"server_type":"Dedicated","server_os":"Linux","password":true,"vac":true,"version":"7961495","steam_id":85568392924510199,"keywords":["nocrits","nodmgspread","payload","uncletopia"],"game_id":440,"stv_port":27046,"stv_name":"Uncletopia | Los Angeles | 4 | Stopwatch | STV","players":null},{"server_id":11,"name":"Uncletopia | London | 1 | All Maps","name_short":"lon-1","host":"lon-1.uk.uncletopia.com","port":27015,"enabled":true,"region":"eu","cc":"gb","latitude":51.509865,"longitude":-0.118092,"reserved":0,"last_update":"0001-01-01T00:00:00Z","name_a2s":"Uncletopia | London | 1 | All Maps","protocol":17,"map":"pl_badwater","folder":"tf","game":"Team Fortress","app_id":440,"player_count":24,"max_players":24,"Bots":0,"server_type":"Dedicated","server_os":"Linux","password":true,"vac":true,"version":"7961495","steam_id":85568392924367362,"keywords":["nocrits","nodmgspread","payload","uncletopia"],"game_id":440,"stv_port":27016,"stv_name":"Uncletopia | London | 1 | All Maps | STV","players":[{"user_id":337,"name":"Grim the lemon","steam_id":76561199083433988,"connected_time":5167000000000,"state":"active","ping":46},{"user_id":176,"name":"Anri Okita's Massive Milkers","steam_id":76561199186352720,"connected_time":17426000000000,"state":"active","ping":67},{"user_id":386,"name":"mag̶p̶i̶e ✿","steam_id":76561198797266244,"connected_time":1588000000000,"state":"active","ping":79},{"user_id":402,"name":"Lyra","steam_id":76561198043601838,"connected_time":170000000000,"state":"active","ping":75},{"user_id":388,"name":"odran","steam_id":76561199122931272,"connected_time":1431000000000,"state":"active","ping":57},{"user_id":341,"name":"Ozzie","steam_id":76561197992915315,"connected_time":5042000000000,"state":"active","ping":75},{"user_id":389,"name":"1 toke 4 mars bars","steam_id":76561198056460000,"connected_time":1377000000000,"state":"active","ping":47},{"user_id":362,"name":"Jam","steam_id":76561198090409013,"connected_time":2521000000000,"state":"active","ping":81},{"user_id":364,"name":"joemonster","steam_id":76561199057953617,"connected_time":2304000000000,"state":"active","ping":70},{"user_id":401,"name":"4:38","steam_id":76561198072892783,"connected_time":201000000000,"state":"active","ping":71},{"user_id":392,"name":"cactopus","steam_id":76561198837919828,"connected_time":1344000000000,"state":"active","ping":120},{"user_id":355,"name":"Kiryu Kazuma","steam_id":76561198120390292,"connected_time":3265000000000,"state":"active","ping":69},{"user_id":382,"name":"ratsnrats","steam_id":76561199187258021,"connected_time":1787000000000,"state":"active","ping":32},{"user_id":396,"name":"KnugenIV","steam_id":76561198127091993,"connected_time":688000000000,"state":"active","ping":68},{"user_id":399,"name":"jermany!","steam_id":76561198126599355,"connected_time":217000000000,"state":"active","ping":45},{"user_id":397,"name":"Dolcelatte","steam_id":76561198038501770,"connected_time":642000000000,"state":"active","ping":60},{"user_id":328,"name":"ber","steam_id":76561197993892057,"connected_time":5830000000000,"state":"active","ping":94},{"user_id":400,"name":"Milca_11","steam_id":76561198848650365,"connected_time":210000000000,"state":"active","ping":92},{"user_id":385,"name":"Interview C","steam_id":76561199012566222,"connected_time":1674000000000,"state":"active","ping":64},{"user_id":391,"name":"sword machine","steam_id":76561198895235231,"connected_time":1366000000000,"state":"active","ping":56},{"user_id":379,"name":"jüri","steam_id":76561198107460765,"connected_time":1959000000000,"state":"active","ping":45},{"user_id":344,"name":"simeswipe","steam_id":76561198188471097,"connected_time":4547000000000,"state":"active","ping":75},{"user_id":227,"name":"whimsy.","steam_id":76561198878171763,"connected_time":13830000000000,"state":"active","ping":49},{"user_id":395,"name":"GoblinGaming","steam_id":76561198360395476,"connected_time":1098000000000,"state":"active","ping":33}]},{"server_id":114,"name":"Uncletopia | London | 2 | All Maps","name_short":"lon-2","host":"lon-1.uk.uncletopia.com","port":27025,"enabled":true,"region":"eu","cc":"gb","latitude":51.509865,"longitude":-0.118092,"reserved":0,"last_update":"0001-01-01T00:00:00Z","name_a2s":"Uncletopia | London | 2 | All Maps","protocol":17,"map":"pl_barnblitz","folder":"tf","game":"Team Fortress","app_id":440,"player_count":24,"max_players":24,"Bots":0,"server_type":"Dedicated","server_os":"Linux","password":true,"vac":true,"version":"7961495","steam_id":85568392924470941,"keywords":["nocrits","nodmgspread","payload","uncletopia"],"game_id":440,"stv_port":27026,"stv_name":"Uncletopia | London | 2 | All Maps | STV","players":[{"user_id":344,"name":"pablo","steam_id":76561199009805208,"connected_time":3308000000000,"state":"active","ping":106},{"user_id":382,"name":"Haha?","steam_id":76561198056882245,"connected_time":1138000000000,"state":"active","ping":30},{"user_id":350,"name":"шнавг думает","steam_id":76561199051285912,"connected_time":2904000000000,"state":"active","ping":85},{"user_id":387,"name":"bowchika wowa #SlavaUkraine","steam_id":76561198159564550,"connected_time":524000000000,"state":"active","ping":58},{"user_id":370,"name":"free back real estate","steam_id":76561197999437155,"connected_time":1905000000000,"state":"active","ping":42},{"user_id":241,"name":"Zel","steam_id":76561198284520120,"connected_time":9452000000000,"state":"active","ping":49},{"user_id":381,"name":"yeahfam","steam_id":76561198330481190,"connected_time":1221000000000,"state":"active","ping":48},{"user_id":388,"name":"Ephix","steam_id":76561197977164055,"connected_time":461000000000,"state":"active","ping":54},{"user_id":361,"name":"Ville","steam_id":76561198137424821,"connected_time":2359000000000,"state":"active","ping":63},{"user_id":317,"name":"worgeral","steam_id":76561198050781898,"connected_time":4868000000000,"state":"active","ping":63},{"user_id":352,"name":"Sigma Gregory","steam_id":76561199040010283,"connected_time":2702000000000,"state":"active","ping":87},{"user_id":386,"name":"ඞbominasus 2137  #SaveTF2","steam_id":76561198030062981,"connected_time":529000000000,"state":"active","ping":60},{"user_id":362,"name":"maniac-baker","steam_id":76561198076966730,"connected_time":2282000000000,"state":"active","ping":44},{"user_id":380,"name":"WASD","steam_id":76561198278640702,"connected_time":1228000000000,"state":"active","ping":75},{"user_id":390,"name":"tomydjoh","steam_id":76561198077421906,"connected_time":212000000000,"state":"active","ping":55},{"user_id":356,"name":"Faxter","steam_id":76561198011771605,"connected_time":2642000000000,"state":"active","ping":69},{"user_id":369,"name":"Carrot Arc","steam_id":76561198164957006,"connected_time":1917000000000,"state":"active","ping":75},{"user_id":366,"name":"Dogii46_","steam_id":76561198798788069,"connected_time":2042000000000,"state":"active","ping":43},{"user_id":377,"name":"DocTwoEight","steam_id":76561198153488940,"connected_time":1351000000000,"state":"active","ping":79},{"user_id":360,"name":"Curls","steam_id":76561198079039937,"connected_time":2364000000000,"state":"active","ping":53},{"user_id":347,"name":"блуд думает","steam_id":76561199149307190,"connected_time":3086000000000,"state":"active","ping":89},{"user_id":385,"name":"(All Muted) Visphiric","steam_id":76561198071938027,"connected_time":716000000000,"state":"active","ping":40},{"user_id":348,"name":"ChesseKnight","steam_id":76561198102476339,"connected_time":3085000000000,"state":"active","ping":77},{"user_id":365,"name":"Stefman","steam_id":76561199025104038,"connected_time":2204000000000,"state":"active","ping":44}]},{"server_id":320,"name":"Uncletopia | London | 3 | All Maps","name_short":"lon-3","host":"lon-1.uk.uncletopia.com","port":27035,"enabled":true,"region":"eu","cc":"gb","latitude":51.509865,"longitude":-0.118092,"reserved":0,"last_update":"0001-01-01T00:00:00Z","name_a2s":"Uncletopia | London | 3 | All Maps","protocol":17,"map":"pl_borneo","folder":"tf","game":"Team Fortress","app_id":440,"player_count":23,"max_players":24,"Bots":0,"server_type":"Dedicated","server_os":"Linux","password":true,"vac":true,"version":"7961495","steam_id":85568392924510192,"keywords":["nocrits","nodmgspread","payload","uncletopia"],"game_id":440,"stv_port":27036,"stv_name":"Uncletopia | London | 3 | All Maps | STV","players":[{"user_id":364,"name":"Cöffee","steam_id":76561198115131952,"connected_time":1913000000000,"state":"active","ping":95},{"user_id":349,"name":"stefanbejenari","steam_id":76561199466718294,"connected_time":3950000000000,"state":"active","ping":74},{"user_id":137,"name":"Ｍａｃｉｎｔｏｓｈ","steam_id":76561198074294565,"connected_time":16087000000000,"state":"active","ping":71},{"user_id":361,"name":"Jack O'Neill","steam_id":76561198024268584,"connected_time":2452000000000,"state":"active","ping":62},{"user_id":345,"name":"The Subway Scientist","steam_id":76561198193757646,"connected_time":4171000000000,"state":"active","ping":46},{"user_id":339,"name":"MRLOLENO","steam_id":76561198450911838,"connected_time":4361000000000,"state":"active","ping":79},{"user_id":352,"name":"niunom","steam_id":76561198263158492,"connected_time":3880000000000,"state":"active","ping":34},{"user_id":369,"name":"Durin sein Vater","steam_id":76561198021246713,"connected_time":1717000000000,"state":"active","ping":51},{"user_id":368,"name":"ThatWeiss","steam_id":76561199012300202,"connected_time":1723000000000,"state":"active","ping":90},{"user_id":354,"name":"Jessica","steam_id":76561198040354215,"connected_time":3613000000000,"state":"active","ping":57},{"user_id":372,"name":"Mike","steam_id":76561198228455736,"connected_time":624000000000,"state":"active","ping":60},{"user_id":342,"name":"Ríkìn","steam_id":76561198045221806,"connected_time":4277000000000,"state":"active","ping":75},{"user_id":379,"name":"Unemployed Gaming","steam_id":76561198982674420,"connected_time":109000000000,"state":"active","ping":56},{"user_id":332,"name":"Hurans","steam_id":76561198064853199,"connected_time":4868000000000,"state":"active","ping":62},{"user_id":380,"name":"Vista","steam_id":76561199091524536,"connected_time":43000000000,"state":"active","ping":142},{"user_id":373,"name":"Neeeiks","steam_id":76561198009156801,"connected_time":582000000000,"state":"active","ping":62},{"user_id":374,"name":"japjao","steam_id":76561199230386527,"connected_time":534000000000,"state":"active","ping":38},{"user_id":381,"name":"Maximilian1359","steam_id":76561198152439608,"connected_time":39000000000,"state":"active","ping":50},{"user_id":375,"name":"mr.resetti","steam_id":76561198974520642,"connected_time":375000000000,"state":"active","ping":60},{"user_id":359,"name":"Panzerwaffle","steam_id":76561198030382800,"connected_time":2828000000000,"state":"active","ping":46},{"user_id":382,"name":"Saucisse","steam_id":76561198119955969,"connected_time":38000000000,"state":"active","ping":45},{"user_id":348,"name":"𐂃","steam_id":76561198874987906,"connected_time":4057000000000,"state":"active","ping":62},{"user_id":366,"name":"TSM Garp","steam_id":76561198261795972,"connected_time":1887000000000,"state":"active","ping":49}]},{"server_id":321,"name":"Uncletopia | London | 4 | All Maps","name_short":"lon-4","host":"lon-1.uk.uncletopia.com","port":27045,"enabled":true,"region":"eu","cc":"gb","latitude":51.509865,"longitude":-0.118092,"reserved":0,"last_update":"0001-01-01T00:00:00Z","name_a2s":"Uncletopia | London | 4 | All Maps","protocol":17,"map":"cp_mountainlab","folder":"tf","game":"Team Fortress","app_id":440,"player_count":23,"max_players":24,"Bots":0,"server_type":"Dedicated","server_os":"Linux","password":true,"vac":true,"version":"7961495","steam_id":85568392924510193,"keywords":["cp","nocrits","nodmgspread","uncletopia"],"game_id":440,"stv_port":27046,"stv_name":"Uncletopia | London | 4 | All Maps | STV","players":[{"user_id":571,"name":"Sergeant Gunnery WhiteCock","steam_id":76561199508067959,"connected_time":2610000000000,"state":"active","ping":108},{"user_id":586,"name":"sv_MrGibbs","steam_id":76561198114071972,"connected_time":1117000000000,"state":"active","ping":44},{"user_id":597,"name":"-Garen-","steam_id":76561198398674026,"connected_time":903000000000,"state":"active","ping":101},{"user_id":578,"name":"Foeder","steam_id":76561198237439456,"connected_time":2259000000000,"state":"active","ping":66},{"user_id":588,"name":"Imperial City Guard","steam_id":76561198083355845,"connected_time":1086000000000,"state":"active","ping":53},{"user_id":596,"name":"Femboy -UwU-","steam_id":76561198083425408,"connected_time":943000000000,"state":"active","ping":45},{"user_id":579,"name":"majesticballs85","steam_id":76561199190697529,"connected_time":2124000000000,"state":"active","ping":65},{"user_id":612,"name":"Nyoom","steam_id":76561198054585002,"connected_time":16000000000,"state":"spawning","ping":57},{"user_id":550,"name":"bbc cockfilth","steam_id":76561199502059898,"connected_time":4163000000000,"state":"active","ping":82},{"user_id":551,"name":"squog","steam_id":76561198399996680,"connected_time":4049000000000,"state":"active","ping":80},{"user_id":603,"name":"Ujin","steam_id":76561197995386642,"connected_time":592000000000,"state":"active","ping":78},{"user_id":609,"name":"Machine Elf","steam_id":76561198274465755,"connected_time":82000000000,"state":"spawning","ping":104},{"user_id":589,"name":"RiX","steam_id":76561197969053733,"connected_time":1084000000000,"state":"active","ping":54},{"user_id":610,"name":"BOB","steam_id":76561199204446495,"connected_time":80000000000,"state":"active","ping":73},{"user_id":607,"name":"G_raff","steam_id":76561199048512726,"connected_time":228000000000,"state":"active","ping":87},{"user_id":604,"name":"Church","steam_id":76561198254324824,"connected_time":480000000000,"state":"active","ping":46},{"user_id":614,"name":"Solid Snake holding a pepsi","steam_id":76561198348396493,"connected_time":2000000000,"state":"spawning","ping":41},{"user_id":554,"name":"Fukuro","steam_id":76561198254167267,"connected_time":3907000000000,"state":"active","ping":74},{"user_id":547,"name":"Burnout6010","steam_id":76561198029867543,"connected_time":4526000000000,"state":"active","ping":64},{"user_id":611,"name":"Luna","steam_id":76561198387921070,"connected_time":65000000000,"state":"active","ping":44},{"user_id":600,"name":"Warlord428","steam_id":76561198377117895,"connected_time":885000000000,"state":"active","ping":53},{"user_id":583,"name":"ETphoneHOME88","steam_id":76561199500944459,"connected_time":1843000000000,"state":"active","ping":170},{"user_id":593,"name":"nefarious criminal","steam_id":76561198077506415,"connected_time":1016000000000,"state":"active","ping":118}]},{"server_id":21,"name":"Uncletopia | London | 5 | All Maps","name_short":"lon-5","host":"lon-1.uk.uncletopia.com","port":27055,"enabled":true,"region":"eu","cc":"gb","latitude":51.509865,"longitude":-0.118092,"reserved":0,"last_update":"0001-01-01T00:00:00Z","name_a2s":"Uncletopia | London | 5 | All Maps","protocol":17,"map":"pl_frontier_final","folder":"tf","game":"Team Fortress","app_id":440,"player_count":24,"max_players":24,"Bots":0,"server_type":"Dedicated","server_os":"Linux","password":true,"vac":true,"version":"7961495","steam_id":85568392924742829,"keywords":["nocrits","nodmgspread","payload","uncletopia"],"game_id":440,"stv_port":27056,"stv_name":"Uncletopia | London | 5 | All Maps | STV","players":[{"user_id":116,"name":"JayKey","steam_id":76561198008847925,"connected_time":1673000000000,"state":"active","ping":57},{"user_id":93,"name":"Josip Broz Tito","steam_id":76561198418747701,"connected_time":2978000000000,"state":"active","ping":62},{"user_id":143,"name":"SuperBob103","steam_id":76561199175360012,"connected_time":221000000000,"state":"active","ping":60},{"user_id":146,"name":"System","steam_id":76561199442503973,"connected_time":97000000000,"state":"active","ping":48},{"user_id":135,"name":"Anus01","steam_id":76561198101884780,"connected_time":297000000000,"state":"active","ping":66},{"user_id":138,"name":"swag messiah","steam_id":76561199171950648,"connected_time":268000000000,"state":"active","ping":96},{"user_id":94,"name":"HetNet","steam_id":76561198207584963,"connected_time":2967000000000,"state":"active","ping":66},{"user_id":95,"name":"Tin","steam_id":76561198022201818,"connected_time":2967000000000,"state":"active","ping":45},{"user_id":139,"name":"brtaba","steam_id":76561198796334790,"connected_time":258000000000,"state":"active","ping":60},{"user_id":133,"name":"一龙马","steam_id":76561198364121077,"connected_time":688000000000,"state":"active","ping":81},{"user_id":102,"name":"honzajspv","steam_id":76561198434476343,"connected_time":2649000000000,"state":"active","ping":59},{"user_id":109,"name":"Lubi Animal","steam_id":76561199041620433,"connected_time":2143000000000,"state":"active","ping":61},{"user_id":125,"name":"Milk","steam_id":76561198125876588,"connected_time":1209000000000,"state":"active","ping":41},{"user_id":140,"name":"habibi69","steam_id":76561198141989573,"connected_time":237000000000,"state":"active","ping":65},{"user_id":74,"name":"Nag","steam_id":76561197970488206,"connected_time":4070000000000,"state":"active","ping":71},{"user_id":141,"name":"Surrealistic_Ganerson","steam_id":76561198029591931,"connected_time":235000000000,"state":"active","ping":87},{"user_id":123,"name":"just a cat","steam_id":76561198328023740,"connected_time":1268000000000,"state":"active","ping":52},{"user_id":142,"name":"Sissel GT","steam_id":76561198798757458,"connected_time":224000000000,"state":"active","ping":57},{"user_id":144,"name":"Duke Fishlord","steam_id":76561198079928327,"connected_time":208000000000,"state":"active","ping":61},{"user_id":130,"name":"TheOxideGamer","steam_id":76561199445897326,"connected_time":905000000000,"state":"active","ping":89},{"user_id":132,"name":"James.M.Mcgill","steam_id":76561198265428460,"connected_time":767000000000,"state":"active","ping":86},{"user_id":119,"name":"K","steam_id":76561199508033804,"connected_time":1453000000000,"state":"active","ping":90},{"user_id":145,"name":"Niyaah","steam_id":76561198110209191,"connected_time":207000000000,"state":"active","ping":62},{"user_id":103,"name":"Greg","steam_id":76561198014131702,"connected_time":2614000000000,"state":"active","ping":122}]},{"server_id":22,"name":"Uncletopia | London | 6 | All Maps","name_short":"lon-6","host":"lon-1.uk.uncletopia.com","port":27065,"enabled":true,"region":"eu","cc":"gb","latitude":51.509865,"longitude":-0.118092,"reserved":0,"last_update":"0001-01-01T00:00:00Z","name_a2s":"Uncletopia | London | 6 | All Maps","protocol":17,"map":"cp_snakewater_final1","folder":"tf","game":"Team Fortress","app_id":440,"player_count":0,"max_players":24,"Bots":0,"server_type":"Dedicated","server_os":"Linux","password":true,"vac":true,"version":"7961495","steam_id":85568392924742830,"keywords":["cp","nocrits","nodmgspread","uncletopia"],"game_id":440,"stv_port":27066,"stv_name":"Uncletopia | London | 6 | All Maps | STV","players":null},{"server_id":40,"name":"Uncletopia | London | 7 | Stopwatch","name_short":"lon-7","host":"lon-1.uk.uncletopia.com","port":27075,"enabled":true,"region":"eu","cc":"gb","latitude":51.509865,"longitude":-0.118092,"reserved":0,"last_update":"0001-01-01T00:00:00Z","name_a2s":"Uncletopia | London | 7 | Stopwatch","protocol":17,"map":"cp_metalworks","folder":"tf","game":"Team Fortress","app_id":440,"player_count":0,"max_players":24,"Bots":0,"server_type":"Dedicated","server_os":"Linux","password":true,"vac":true,"version":"7961495","steam_id":85568392924964314,"keywords":["cp","nocrits","nodmgspread","uncletopia"],"game_id":440,"stv_port":27076,"stv_name":"Uncletopia | London | 7 | Stopwatch | STV","players":null},{"server_id":41,"name":"Uncletopia | London | 8 | Community","name_short":"lon-8","host":"lon-1.uk.uncletopia.com","port":27085,"enabled":true,"region":"eu","cc":"gb","latitude":51.509865,"longitude":-0.118092,"reserved":0,"last_update":"0001-01-01T00:00:00Z","name_a2s":"Uncletopia | London | 8 | Community","protocol":17,"map":"workshop/cp_villa_b19.ugc2113052569","folder":"tf","game":"Team Fortress","app_id":440,"player_count":0,"max_players":24,"Bots":0,"server_type":"Dedicated","server_os":"Linux","password":true,"vac":true,"version":"7961495","steam_id":85568392924964315,"keywords":["cp","nocrits","nodmgspread","uncletopia"],"game_id":440,"stv_port":27086,"stv_name":"Uncletopia | London | 8 | Community | STV","players":null},{"server_id":300,"name":"Uncletopia | Montréal | 1 | One Thousand Uncles","name_short":"mtl-1","host":"mtl-1.ca.uncletopia.com","port":27015,"enabled":true,"region":"us-east","cc":"ca","latitude":45.50889,"longitude":-73.56167,"reserved":0,"last_update":"0001-01-01T00:00:00Z","name_a2s":"Uncletopia | Montréal | 1 | One Thousand Uncles","protocol":17,"map":"pl_swiftwater_final1","folder":"tf","game":"Team Fortress","app_id":440,"player_count":17,"max_players":32,"Bots":16,"server_type":"Dedicated","server_os":"Linux","password":true,"vac":true,"version":"7961495","steam_id":85568392924500087,"keywords":["alltalk","bots","danepve","increased_maxplayers","norespawntime","payload","uncletopia"],"game_id":440,"stv_port":0,"stv_name":"","players":[{"user_id":103,"name":"Grand Wizard","steam_id":76561199382783363,"connected_time":260000000000,"state":"active","ping":74}]},{"server_id":301,"name":"Uncletopia | Montréal | 2 | One Thousand Uncles","name_short":"mtl-2","host":"mtl-1.ca.uncletopia.com","port":27025,"enabled":true,"region":"us-east","cc":"ca","latitude":45.50889,"longitude":-73.56167,"reserved":0,"last_update":"0001-01-01T00:00:00Z","name_a2s":"Uncletopia | Montréal | 2 | One Thousand Uncles","protocol":17,"map":"pl_chilly","folder":"tf","game":"Team Fortress","app_id":440,"player_count":0,"max_players":32,"Bots":0,"server_type":"Dedicated","server_os":"Linux","password":true,"vac":true,"version":"7961495","steam_id":85568392924500088,"keywords":["alltalk","danepve","increased_maxplayers","norespawntime","payload","uncletopia"],"game_id":440,"stv_port":0,"stv_name":"","players":null},{"server_id":302,"name":"Uncletopia | Montréal | 3 | One Thousand Uncles","name_short":"mtl-3","host":"mtl-1.ca.uncletopia.com","port":27035,"enabled":true,"region":"us-east","cc":"ca","latitude":45.50889,"longitude":-73.56167,"reserved":0,"last_update":"0001-01-01T00:00:00Z","name_a2s":"Uncletopia | Montréal | 3 | One Thousand Uncles","protocol":17,"map":"pl_upward","folder":"tf","game":"Team Fortress","app_id":440,"player_count":0,"max_players":32,"Bots":0,"server_type":"Dedicated","server_os":"Linux","password":true,"vac":true,"version":"7961495","steam_id":85568392924500089,"keywords":["alltalk","danepve","increased_maxplayers","norespawntime","payload","uncletopia"],"game_id":440,"stv_port":0,"stv_name":"","players":null},{"server_id":13,"name":"Uncletopia | New York City | 1 | All Maps","name_short":"nyc-1","host":"nyc-1.us.uncletopia.com","port":27015,"enabled":true,"region":"us-east","cc":"us","latitude":40.73061,"longitude":-73.93524,"reserved":0,"last_update":"0001-01-01T00:00:00Z","name_a2s":"Uncletopia | New York City | 1 | All Maps","protocol":17,"map":"pl_pier","folder":"tf","game":"Team Fortress","app_id":440,"player_count":24,"max_players":24,"Bots":0,"server_type":"Dedicated","server_os":"Linux","password":true,"vac":true,"version":"7961495","steam_id":85568392924469993,"keywords":["nocrits","nodmgspread","payload","uncletopia"],"game_id":440,"stv_port":27016,"stv_name":"Uncletopia | New York City | 1 | All Maps | STV","players":[{"user_id":165,"name":"Xavi","steam_id":76561198337783795,"connected_time":735000000000,"state":"active","ping":50},{"user_id":164,"name":"A damien","steam_id":76561198174767478,"connected_time":797000000000,"state":"active","ping":73},{"user_id":166,"name":"ottergauze","steam_id":76561198050523315,"connected_time":712000000000,"state":"active","ping":123},{"user_id":167,"name":"Gotta Move That Gear Up","steam_id":76561197993467034,"connected_time":691000000000,"state":"active","ping":65},{"user_id":169,"name":"__Creed__","steam_id":76561198138564169,"connected_time":643000000000,"state":"active","ping":58},{"user_id":187,"name":"Voski Vosgi","steam_id":76561198120781830,"connected_time":184000000000,"state":"active","ping":52},{"user_id":170,"name":"Musicbloc","steam_id":76561199244959710,"connected_time":626000000000,"state":"active","ping":58},{"user_id":171,"name":"Teamfortressfunnymomments#5","steam_id":76561198971629959,"connected_time":618000000000,"state":"active","ping":136},{"user_id":140,"name":"Leftovers","steam_id":76561198046041079,"connected_time":1991000000000,"state":"active","ping":57},{"user_id":126,"name":"Aokuma","steam_id":76561198808387179,"connected_time":3111000000000,"state":"active","ping":46},{"user_id":123,"name":"Thaw, Freeze, Thaw","steam_id":76561198141700569,"connected_time":3175000000000,"state":"active","ping":59},{"user_id":182,"name":"Unfortunate Son","steam_id":76561199123285878,"connected_time":460000000000,"state":"active","ping":66},{"user_id":161,"name":"Warzard","steam_id":76561199154051413,"connected_time":978000000000,"state":"active","ping":59},{"user_id":180,"name":"Jackiese","steam_id":76561199445100850,"connected_time":492000000000,"state":"active","ping":113},{"user_id":172,"name":"Mawdern","steam_id":76561198042131709,"connected_time":606000000000,"state":"active","ping":61},{"user_id":173,"name":"Aristotle Voulton","steam_id":76561198100174923,"connected_time":576000000000,"state":"active","ping":119},{"user_id":184,"name":"♩Karmism♩","steam_id":76561199453410299,"connected_time":350000000000,"state":"active","ping":71},{"user_id":176,"name":"GuyGoom","steam_id":76561198254522178,"connected_time":558000000000,"state":"active","ping":72},{"user_id":190,"name":"Terry Crews from Brooklyn 99","steam_id":76561198357806819,"connected_time":17000000000,"state":"active","ping":65},{"user_id":100,"name":"Communist Killing Candy Cactus\ufffd","steam_id":76561198074980635,"connected_time":4321000000000,"state":"active","ping":132},{"user_id":150,"name":"Eowunder777","steam_id":76561198186204375,"connected_time":1330000000000,"state":"active","ping":69},{"user_id":133,"name":"Stonks","steam_id":76561199490085068,"connected_time":2957000000000,"state":"active","ping":54},{"user_id":152,"name":"Fuzzele","steam_id":76561199199532696,"connected_time":1242000000000,"state":"active","ping":74},{"user_id":183,"name":"xX$VV@G_R3@P3R_$3X_$1\u0026Y3R_2008X","steam_id":76561198207215752,"connected_time":438000000000,"state":"active","ping":69}]},{"server_id":14,"name":"Uncletopia | New York City | 2 | All Maps","name_short":"nyc-2","host":"nyc-1.us.uncletopia.com","port":27025,"enabled":true,"region":"us-east","cc":"us","latitude":40.73061,"longitude":-73.93524,"reserved":0,"last_update":"0001-01-01T00:00:00Z","name_a2s":"Uncletopia | New York City | 2 | All Maps","protocol":17,"map":"cp_dustbowl","folder":"tf","game":"Team Fortress","app_id":440,"player_count":24,"max_players":24,"Bots":0,"server_type":"Dedicated","server_os":"Linux","password":true,"vac":true,"version":"7961495","steam_id":85568392924469994,"keywords":["cp","nocrits","nodmgspread","uncletopia"],"game_id":440,"stv_port":27026,"stv_name":"Uncletopia | New York City | 2 | All Maps | STV","players":[{"user_id":273,"name":"sofa king","steam_id":76561198353638591,"connected_time":2403000000000,"state":"active","ping":77},{"user_id":227,"name":"I shovel mayonnaise in mouth","steam_id":76561199123118241,"connected_time":6055000000000,"state":"active","ping":109},{"user_id":291,"name":"chilis baby back ribs","steam_id":76561198813516435,"connected_time":202000000000,"state":"active","ping":105},{"user_id":289,"name":"STONEWALL JACKSON","steam_id":76561199500876333,"connected_time":646000000000,"state":"active","ping":61},{"user_id":276,"name":"Burnside Special","steam_id":76561198822221762,"connected_time":2175000000000,"state":"active","ping":75},{"user_id":257,"name":"Bigsumoslammer","steam_id":76561198044505076,"connected_time":4342000000000,"state":"active","ping":40},{"user_id":241,"name":"Peepster","steam_id":76561198297854733,"connected_time":5054000000000,"state":"active","ping":75},{"user_id":248,"name":"VioletSpecs (She/Her)","steam_id":76561198089366466,"connected_time":4772000000000,"state":"active","ping":45},{"user_id":288,"name":"turnkeyson","steam_id":76561199168848749,"connected_time":957000000000,"state":"active","ping":72},{"user_id":271,"name":"Erm... Krill Issue?","steam_id":76561198859118263,"connected_time":2988000000000,"state":"active","ping":63},{"user_id":283,"name":"brit76","steam_id":76561198032541553,"connected_time":1898000000000,"state":"active","ping":69},{"user_id":19,"name":"Boofenshmirtz","steam_id":76561198071649858,"connected_time":11005000000000,"state":"active","ping":74},{"user_id":268,"name":"gmaay","steam_id":76561199104911185,"connected_time":3171000000000,"state":"active","ping":58},{"user_id":250,"name":"DiscoTraveler","steam_id":76561199240168088,"connected_time":4740000000000,"state":"active","ping":56},{"user_id":290,"name":"SPYCHECK ME","steam_id":76561198980994364,"connected_time":473000000000,"state":"active","ping":82},{"user_id":262,"name":"Captain Mackerel","steam_id":76561198231944272,"connected_time":3962000000000,"state":"active","ping":63},{"user_id":279,"name":"hayes","steam_id":76561198057101042,"connected_time":2000000000000,"state":"active","ping":80},{"user_id":280,"name":"nitori","steam_id":76561198143018098,"connected_time":1990000000000,"state":"active","ping":52},{"user_id":287,"name":"SkarloeyFell","steam_id":76561199183127174,"connected_time":1032000000000,"state":"active","ping":46},{"user_id":269,"name":"emotional suppport e-cigarette","steam_id":76561198172120615,"connected_time":3162000000000,"state":"active","ping":42},{"user_id":254,"name":"Nic0","steam_id":76561198305690218,"connected_time":4557000000000,"state":"active","ping":56},{"user_id":292,"name":"BigGuy4x4","steam_id":76561198394787859,"connected_time":198000000000,"state":"active","ping":76},{"user_id":264,"name":"Owtk","steam_id":76561198362380245,"connected_time":3725000000000,"state":"active","ping":138},{"user_id":286,"name":"woof","steam_id":76561198016562343,"connected_time":1067000000000,"state":"active","ping":66}]},{"server_id":15,"name":"Uncletopia | New York City | 3 | Stopwatch","name_short":"nyc-3","host":"nyc-1.us.uncletopia.com","port":27035,"enabled":true,"region":"us-east","cc":"us","latitude":40.73061,"longitude":-73.93524,"reserved":0,"last_update":"0001-01-01T00:00:00Z","name_a2s":"Uncletopia | New York City | 3 | Stopwatch","protocol":17,"map":"cp_granary","folder":"tf","game":"Team Fortress","app_id":440,"player_count":0,"max_players":24,"Bots":0,"server_type":"Dedicated","server_os":"Linux","password":true,"vac":true,"version":"7961495","steam_id":85568392924742820,"keywords":["cp","nocrits","nodmgspread","uncletopia"],"game_id":440,"stv_port":27036,"stv_name":"Uncletopia | New York City | 3 | Stopwatch | STV","players":null},{"server_id":16,"name":"Uncletopia | New York City | 4 | Community","name_short":"nyc-4","host":"nyc-1.us.uncletopia.com","port":27045,"enabled":true,"region":"us-east","cc":"us","latitude":40.73061,"longitude":-73.93524,"reserved":0,"last_update":"0001-01-01T00:00:00Z","name_a2s":"Uncletopia | New York City | 4 | Community","protocol":17,"map":"workshop/cp_propaganda_b18.ugc1603743849","folder":"tf","game":"Team Fortress","app_id":440,"player_count":0,"max_players":24,"Bots":0,"server_type":"Dedicated","server_os":"Linux","password":true,"vac":true,"version":"7961495","steam_id":85568392924742821,"keywords":["cp","nocrits","nodmgspread","uncletopia"],"game_id":440,"stv_port":27046,"stv_name":"Uncletopia | New York City | 4 | Community | STV","players":null},{"server_id":142,"name":"Uncletopia | São Paulo | 1 | All Maps","name_short":"sao-1","host":"sao-1.br.uncletopia.com","port":27015,"enabled":true,"region":"sa","cc":"br","latitude":-23.533773,"longitude":-46.62529,"reserved":0,"last_update":"0001-01-01T00:00:00Z","name_a2s":"Uncletopia | São Paulo | 1 | All Maps","protocol":17,"map":"koth_cascade","folder":"tf","game":"Team Fortress","app_id":440,"player_count":0,"max_players":24,"Bots":0,"server_type":"Dedicated","server_os":"Linux","password":true,"vac":true,"version":"7961495","steam_id":85568392924469996,"keywords":["cp","nocrits","nodmgspread","uncletopia"],"game_id":440,"stv_port":27016,"stv_name":"Uncletopia | São Paulo | 1 | All Maps | STV","players":null},{"server_id":143,"name":"Uncletopia | São Paulo | 2 | Community","name_short":"sao-2","host":"sao-2.br.uncletopia.com","port":27015,"enabled":true,"region":"sa","cc":"br","latitude":-23.533773,"longitude":-46.62529,"reserved":0,"last_update":"0001-01-01T00:00:00Z","name_a2s":"Uncletopia | São Paulo | 2 | Community","protocol":17,"map":"workshop/cp_croissant_final.ugc458840209","folder":"tf","game":"Team Fortress","app_id":440,"player_count":0,"max_players":24,"Bots":0,"server_type":"Dedicated","server_os":"Linux","password":true,"vac":true,"version":"7961495","steam_id":85568392924485349,"keywords":["cp","nocrits","nodmgspread","uncletopia"],"game_id":440,"stv_port":27016,"stv_name":"Uncletopia | São Paulo | 2 | Community | STV","players":null},{"server_id":7,"name":"Uncletopia | Seattle | 1 | All Maps","name_short":"sea-1","host":"sea-1.us.uncletopia.com","port":27015,"enabled":true,"region":"us-west","cc":"us","latitude":47.608013,"longitude":-122.33517,"reserved":0,"last_update":"0001-01-01T00:00:00Z","name_a2s":"Uncletopia | Seattle | 1 | All Maps","protocol":17,"map":"pl_pier","folder":"tf","game":"Team Fortress","app_id":440,"player_count":24,"max_players":24,"Bots":0,"server_type":"Dedicated","server_os":"Linux","password":true,"vac":true,"version":"7961495","steam_id":85568392924469997,"keywords":["nocrits","nodmgspread","payload","uncletopia"],"game_id":440,"stv_port":27016,"stv_name":"Uncletopia | Seattle | 1 | All Maps | STV","players":[{"user_id":165,"name":"Kasmk","steam_id":76561198826977394,"connected_time":71000000000,"state":"active","ping":75},{"user_id":141,"name":"jdm","steam_id":76561199497603020,"connected_time":1870000000000,"state":"active","ping":75},{"user_id":142,"name":"MegaBitmap","steam_id":76561198086027059,"connected_time":1852000000000,"state":"active","ping":74},{"user_id":135,"name":"goofy goober","steam_id":76561199024079388,"connected_time":2787000000000,"state":"active","ping":45},{"user_id":155,"name":"dimmy","steam_id":76561198401788526,"connected_time":719000000000,"state":"active","ping":45},{"user_id":160,"name":"Eraser cat","steam_id":76561199045570463,"connected_time":318000000000,"state":"active","ping":44},{"user_id":132,"name":"Furry Femboy Hooters (CEO)","steam_id":76561198097745857,"connected_time":3069000000000,"state":"active","ping":54},{"user_id":162,"name":"tiny chimp","steam_id":76561199009589097,"connected_time":293000000000,"state":"active","ping":75},{"user_id":163,"name":"PiolaCat","steam_id":76561199100535345,"connected_time":274000000000,"state":"active","ping":95},{"user_id":72,"name":"AuraBraixen_4412","steam_id":76561198120668769,"connected_time":7026000000000,"state":"active","ping":99},{"user_id":138,"name":"Mr8bittripper","steam_id":76561198133894229,"connected_time":2346000000000,"state":"active","ping":44},{"user_id":159,"name":"Spazmatic Dingus","steam_id":76561198117514263,"connected_time":409000000000,"state":"active","ping":133},{"user_id":63,"name":"Hazel (Medical)","steam_id":76561199247095754,"connected_time":7806000000000,"state":"active","ping":60},{"user_id":158,"name":"choi","steam_id":76561198053669887,"connected_time":501000000000,"state":"active","ping":88},{"user_id":120,"name":"Lemonade Juice","steam_id":76561198402892608,"connected_time":3924000000000,"state":"active","ping":74},{"user_id":148,"name":"HOG RIDER","steam_id":76561198298589502,"connected_time":1223000000000,"state":"active","ping":83},{"user_id":161,"name":"Dallas","steam_id":76561198066542919,"connected_time":318000000000,"state":"active","ping":59},{"user_id":154,"name":"bcizzo","steam_id":76561197994399953,"connected_time":963000000000,"state":"active","ping":64},{"user_id":149,"name":"❤To Lazy❤","steam_id":76561198164211904,"connected_time":1152000000000,"state":"active","ping":80},{"user_id":65,"name":"@   人   @","steam_id":76561198043684960,"connected_time":7512000000000,"state":"active","ping":120},{"user_id":145,"name":"DrD","steam_id":76561198067266383,"connected_time":1718000000000,"state":"active","ping":40},{"user_id":146,"name":"Dim","steam_id":76561198061411324,"connected_time":1648000000000,"state":"active","ping":117},{"user_id":166,"name":"auto accident","steam_id":76561198353460257,"connected_time":51000000000,"state":"active","ping":57},{"user_id":139,"name":"[bbbc] Dimple","steam_id":76561198980324190,"connected_time":2346000000000,"state":"active","ping":51}]},{"server_id":119,"name":"Uncletopia | Seattle | 2 | All Maps","name_short":"sea-2","host":"sea-1.us.uncletopia.com","port":27025,"enabled":true,"region":"us-west","cc":"us","latitude":47.608013,"longitude":-122.33517,"reserved":0,"last_update":"0001-01-01T00:00:00Z","name_a2s":"Uncletopia | Seattle | 2 | All Maps","protocol":17,"map":"koth_lakeside_final","folder":"tf","game":"Team Fortress","app_id":440,"player_count":0,"max_players":24,"Bots":0,"server_type":"Dedicated","server_os":"Linux","password":true,"vac":true,"version":"7961495","steam_id":85568392924469998,"keywords":["cp","nocrits","nodmgspread","uncletopia"],"game_id":440,"stv_port":27026,"stv_name":"Uncletopia | Seattle | 2 | All Maps | STV","players":null},{"server_id":406,"name":"Uncletopia | Seattle | 3 | Stopwatch","name_short":"sea-3","host":"sea-1.us.uncletopia.com","port":27035,"enabled":true,"region":"us-west","cc":"us","latitude":47.608013,"longitude":-122.33517,"reserved":0,"last_update":"0001-01-01T00:00:00Z","name_a2s":"Uncletopia | Seattle | 3 | Stopwatch","protocol":17,"map":"cp_gullywash_final1","folder":"tf","game":"Team Fortress","app_id":440,"player_count":0,"max_players":24,"Bots":0,"server_type":"Dedicated","server_os":"Linux","password":true,"vac":true,"version":"7961495","steam_id":85568392924515217,"keywords":["cp","nocrits","nodmgspread","uncletopia"],"game_id":440,"stv_port":27036,"stv_name":"Uncletopia | Seattle | 3 | Stopwatch | STV","players":null},{"server_id":17,"name":"Uncletopia | San Francisco | 1 | All Maps","name_short":"sfo-1","host":"sfo-1.us.uncletopia.com","port":27015,"enabled":true,"region":"us-west","cc":"us","latitude":37.77397,"longitude":-122.4313,"reserved":0,"last_update":"0001-01-01T00:00:00Z","name_a2s":"Uncletopia | San Francisco | 1 | All Maps","protocol":17,"map":"koth_highpass","folder":"tf","game":"Team Fortress","app_id":440,"player_count":0,"max_players":24,"Bots":0,"server_type":"Dedicated","server_os":"Linux","password":true,"vac":true,"version":"7961495","steam_id":85568392924469999,"keywords":["cp","nocrits","nodmgspread","uncletopia"],"game_id":440,"stv_port":27016,"stv_name":"Uncletopia | San Francisco | 1 | All Maps | STV","players":null},{"server_id":18,"name":"Uncletopia | San Francisco | 2 | All Maps","name_short":"sfo-2","host":"sfo-1.us.uncletopia.com","port":27025,"enabled":true,"region":"us-west","cc":"us","latitude":37.77397,"longitude":-122.4313,"reserved":0,"last_update":"0001-01-01T00:00:00Z","name_a2s":"Uncletopia | San Francisco | 2 | All Maps","protocol":17,"map":"cp_freight_final1","folder":"tf","game":"Team Fortress","app_id":440,"player_count":0,"max_players":24,"Bots":0,"server_type":"Dedicated","server_os":"Linux","password":true,"vac":true,"version":"7961495","steam_id":85568392924470000,"keywords":["cp","nocrits","nodmgspread","uncletopia"],"game_id":440,"stv_port":27026,"stv_name":"Uncletopia | San Francisco | 2 | All Maps | STV","players":null},{"server_id":19,"name":"Uncletopia | San Francisco | 3 | Stopwatch","name_short":"sfo-3","host":"sfo-1.us.uncletopia.com","port":27035,"enabled":true,"region":"us-west","cc":"us","latitude":37.77397,"longitude":-122.4313,"reserved":0,"last_update":"0001-01-01T00:00:00Z","name_a2s":"Uncletopia | San Francisco | 3 | Stopwatch","protocol":17,"map":"workshop/koth_product_final.ugc454272353","folder":"tf","game":"Team Fortress","app_id":440,"player_count":0,"max_players":24,"Bots":0,"server_type":"Dedicated","server_os":"Linux","password":true,"vac":true,"version":"7961495","steam_id":85568392924742824,"keywords":["cp","nocrits","nodmgspread","uncletopia"],"game_id":440,"stv_port":27036,"stv_name":"Uncletopia | San Francisco | 3 | Stopwatch | STV","players":null},{"server_id":20,"name":"Uncletopia | San Francisco | 4 | Community","name_short":"sfo-4","host":"sfo-1.us.uncletopia.com","port":27045,"enabled":true,"region":"us-west","cc":"us","latitude":37.77397,"longitude":-122.4313,"reserved":0,"last_update":"0001-01-01T00:00:00Z","name_a2s":"Uncletopia | San Francisco | 4 | Community","protocol":17,"map":"workshop/pl_cactuscanyon_redux_final2.ugc2579644293","folder":"tf","game":"Team Fortress","app_id":440,"player_count":0,"max_players":24,"Bots":0,"server_type":"Dedicated","server_os":"Linux","password":true,"vac":true,"version":"7961495","steam_id":85568392924742826,"keywords":["nocrits","nodmgspread","payload","uncletopia"],"game_id":440,"stv_port":27046,"stv_name":"Uncletopia | San Francisco | 4 | Community | STV","players":null},{"server_id":141,"name":"Uncletopia | Sydney | 1 | All Maps","name_short":"syd-1","host":"syd-1.au.uncletopia.com","port":27015,"enabled":true,"region":"au","cc":"au","latitude":-33.865143,"longitude":151.2099,"reserved":0,"last_update":"0001-01-01T00:00:00Z","name_a2s":"Uncletopia | Sydney | 1 | All Maps","protocol":17,"map":"pl_borneo","folder":"tf","game":"Team Fortress","app_id":440,"player_count":0,"max_players":24,"Bots":0,"server_type":"Dedicated","server_os":"Linux","password":true,"vac":true,"version":"7961495","steam_id":85568392924470001,"keywords":["nocrits","nodmgspread","payload","uncletopia"],"game_id":440,"stv_port":27016,"stv_name":"Uncletopia | Sydney | 1 | All Maps | STV","players":null},{"server_id":123,"name":"Uncletopia | Sydney | 2 | All Maps","name_short":"syd-2","host":"syd-1.au.uncletopia.com","port":27025,"enabled":true,"region":"au","cc":"au","latitude":-33.865143,"longitude":151.2099,"reserved":0,"last_update":"0001-01-01T00:00:00Z","name_a2s":"Uncletopia | Sydney | 2 | All Maps","protocol":17,"map":"cp_sunshine","folder":"tf","game":"Team Fortress","app_id":440,"player_count":0,"max_players":24,"Bots":0,"server_type":"Dedicated","server_os":"Linux","password":true,"vac":true,"version":"7961495","steam_id":85568392924470002,"keywords":["cp","nocrits","nodmgspread","uncletopia"],"game_id":440,"stv_port":27026,"stv_name":"Uncletopia | Sydney | 2 | All Maps | STV","players":null},{"server_id":395,"name":"Uncletopia | Sydney | 3 | All Maps","name_short":"syd-3","host":"syd-1.au.uncletopia.com","port":27035,"enabled":true,"region":"au","cc":"au","latitude":-33.865143,"longitude":151.2099,"reserved":0,"last_update":"0001-01-01T00:00:00Z","name_a2s":"Uncletopia | Sydney | 3 | All Maps","protocol":17,"map":"pl_swiftwater_final1","folder":"tf","game":"Team Fortress","app_id":440,"player_count":0,"max_players":24,"Bots":0,"server_type":"Dedicated","server_os":"Linux","password":true,"vac":true,"version":"7961495","steam_id":85568392925194467,"keywords":["nocrits","nodmgspread","payload","uncletopia"],"game_id":440,"stv_port":27036,"stv_name":"Uncletopia | Sydney | 3 | All Maps | STV","players":null},{"server_id":396,"name":"Uncletopia | Sydney | 4 | All Maps","name_short":"syd-4","host":"syd-1.au.uncletopia.com","port":27045,"enabled":true,"region":"au","cc":"au","latitude":-33.865143,"longitude":151.2099,"reserved":0,"last_update":"0001-01-01T00:00:00Z","name_a2s":"Uncletopia | Sydney | 4 | All Maps","protocol":17,"map":"cp_sunshine","folder":"tf","game":"Team Fortress","app_id":440,"player_count":0,"max_players":24,"Bots":0,"server_type":"Dedicated","server_os":"Linux","password":true,"vac":true,"version":"7961495","steam_id":85568392925397958,"keywords":["cp","nocrits","nodmgspread","uncletopia"],"game_id":440,"stv_port":27046,"stv_name":"Uncletopia | Sydney | 4 | All Maps | STV","players":null},{"server_id":58,"name":"Uncletopia | Sydney | 5 | Stopwatch","name_short":"syd-5","host":"syd-1.au.uncletopia.com","port":27055,"enabled":true,"region":"au","cc":"au","latitude":-33.865143,"longitude":151.2099,"reserved":0,"last_update":"0001-01-01T00:00:00Z","name_a2s":"Uncletopia | Sydney | 5 | Stopwatch","protocol":17,"map":"pl_swiftwater_final1","folder":"tf","game":"Team Fortress","app_id":440,"player_count":0,"max_players":24,"Bots":0,"server_type":"Dedicated","server_os":"Linux","password":true,"vac":true,"version":"7961495","steam_id":85568392925397959,"keywords":["nocrits","nodmgspread","payload","uncletopia"],"game_id":440,"stv_port":27056,"stv_name":"Uncletopia | Sydney | 5 | Stopwatch | STV","players":null},{"server_id":59,"name":"Uncletopia | Sydney | 6 | Community","name_short":"syd-6","host":"syd-1.au.uncletopia.com","port":27065,"enabled":true,"region":"au","cc":"au","latitude":-33.865143,"longitude":151.2099,"reserved":0,"last_update":"0001-01-01T00:00:00Z","name_a2s":"Uncletopia | Sydney | 6 | Community","protocol":17,"map":"workshop/koth_trenchfoot_ab1.ugc731436616","folder":"tf","game":"Team Fortress","app_id":440,"player_count":0,"max_players":24,"Bots":0,"server_type":"Dedicated","server_os":"Linux","password":true,"vac":true,"version":"7961495","steam_id":85568392925397960,"keywords":["cp","nocrits","nodmgspread","uncletopia"],"game_id":440,"stv_port":27066,"stv_name":"Uncletopia | Sydney | 6 | Community | STV","players":null},{"server_id":49,"name":"Uncletopia | Warsaw | 1 | One Thousand Uncles","name_short":"waw-1","host":"waw-1.pl.uncletopia.com","port":27015,"enabled":true,"region":"eu","cc":"pl","latitude":52.2297,"longitude":21.017532,"reserved":0,"last_update":"0001-01-01T00:00:00Z","name_a2s":"Uncletopia | Warsaw | 1 | One Thousand Uncles","protocol":17,"map":"cp_dustbowl","folder":"tf","game":"Team Fortress","app_id":440,"player_count":26,"max_players":32,"Bots":16,"server_type":"Dedicated","server_os":"Linux","password":true,"vac":true,"version":"7961495","steam_id":85568392925397850,"keywords":["alltalk","bots","cp","danepve","increased_maxplayers","norespawntime","uncletopia"],"game_id":440,"stv_port":0,"stv_name":"","players":[{"user_id":474,"name":"kopacki","steam_id":76561198935650306,"connected_time":2590000000000,"state":"active","ping":49},{"user_id":489,"name":"lord-carlos","steam_id":76561198025150761,"connected_time":783000000000,"state":"active","ping":71},{"user_id":512,"name":"Smykson","steam_id":76561198214228224,"connected_time":231000000000,"state":"active","ping":49},{"user_id":483,"name":"Whelchur","steam_id":76561199442895952,"connected_time":1506000000000,"state":"active","ping":90},{"user_id":513,"name":"PuPuruPuruPumPu","steam_id":76561198391950490,"connected_time":90000000000,"state":"active","ping":100},{"user_id":493,"name":"jik_98","steam_id":76561198436927961,"connected_time":645000000000,"state":"active","ping":61},{"user_id":494,"name":"SLB055","steam_id":76561198320511977,"connected_time":602000000000,"state":"active","ping":44},{"user_id":485,"name":"Yuxues","steam_id":76561199218188958,"connected_time":1447000000000,"state":"active","ping":86},{"user_id":488,"name":"digilith","steam_id":76561199106966802,"connected_time":932000000000,"state":"active","ping":50},{"user_id":495,"name":"SirBathis","steam_id":76561198414981896,"connected_time":579000000000,"state":"active","ping":58}]},{"server_id":50,"name":"Uncletopia | Warsaw | 2 | One Thousand Uncles","name_short":"waw-2","host":"waw-1.pl.uncletopia.com","port":27025,"enabled":true,"region":"eu","cc":"pl","latitude":52.2297,"longitude":21.017532,"reserved":0,"last_update":"0001-01-01T00:00:00Z","name_a2s":"Uncletopia | Warsaw | 2 | One Thousand Uncles","protocol":17,"map":"cp_egypt_final","folder":"tf","game":"Team Fortress","app_id":440,"player_count":30,"max_players":32,"Bots":16,"server_type":"Dedicated","server_os":"Linux","password":true,"vac":true,"version":"7961495","steam_id":85568392925397851,"keywords":["alltalk","bots","cp","danepve","increased_maxplayers","norespawntime","uncletopia"],"game_id":440,"stv_port":0,"stv_name":"","players":[{"user_id":567,"name":"SODA!!!!!!!","steam_id":76561198107362485,"connected_time":1264000000000,"state":"active","ping":72},{"user_id":575,"name":"I shit upside down","steam_id":76561198986575215,"connected_time":510000000000,"state":"active","ping":60},{"user_id":503,"name":"MrHenry","steam_id":76561199249662743,"connected_time":8504000000000,"state":"active","ping":151},{"user_id":565,"name":"What?","steam_id":76561198121960984,"connected_time":1523000000000,"state":"active","ping":51},{"user_id":563,"name":"joachym","steam_id":76561198428579761,"connected_time":1782000000000,"state":"active","ping":72},{"user_id":568,"name":"Norn30","steam_id":76561198136196465,"connected_time":1213000000000,"state":"active","ping":38},{"user_id":576,"name":"Sphynx Cat","steam_id":76561198367800260,"connected_time":374000000000,"state":"active","ping":41},{"user_id":571,"name":"The Water Drinker","steam_id":76561198083467004,"connected_time":786000000000,"state":"active","ping":188},{"user_id":572,"name":"popez","steam_id":76561198051880474,"connected_time":687000000000,"state":"active","ping":88},{"user_id":573,"name":"Oreo Principle","steam_id":76561198063929217,"connected_time":605000000000,"state":"active","ping":45},{"user_id":574,"name":"pa1n","steam_id":76561197984094104,"connected_time":561000000000,"state":"active","ping":45},{"user_id":577,"name":"Phisor","steam_id":76561198233450952,"connected_time":320000000000,"state":"active","ping":71},{"user_id":579,"name":"LTRambo22","steam_id":76561198850909550,"connected_time":114000000000,"state":"active","ping":178},{"user_id":580,"name":"Muwa 43","steam_id":76561198277511472,"connected_time":28000000000,"state":"active","ping":83}]},{"server_id":51,"name":"Uncletopia | Warsaw | 3 | All Maps","name_short":"waw-3","host":"waw-1.pl.uncletopia.com","port":27035,"enabled":true,"region":"eu","cc":"pl","latitude":52.2297,"longitude":21.017532,"reserved":0,"last_update":"0001-01-01T00:00:00Z","name_a2s":"Uncletopia | Warsaw | 3 | All Maps","protocol":17,"map":"koth_highpass","folder":"tf","game":"Team Fortress","app_id":440,"player_count":0,"max_players":24,"Bots":0,"server_type":"Dedicated","server_os":"Linux","password":true,"vac":true,"version":"7961495","steam_id":85568392925397852,"keywords":["cp","nocrits","nodmgspread","uncletopia"],"game_id":440,"stv_port":27036,"stv_name":"Uncletopia | Warsaw | 3 | All Maps | STV","players":null},{"server_id":52,"name":"Uncletopia | Warsaw | 4 | All Maps","name_short":"waw-4","host":"waw-1.pl.uncletopia.com","port":27045,"enabled":true,"region":"eu","cc":"pl","latitude":52.2297,"longitude":21.017532,"reserved":0,"last_update":"0001-01-01T00:00:00Z","name_a2s":"Uncletopia | Warsaw | 4 | All Maps","protocol":17,"map":"koth_highpass","folder":"tf","game":"Team Fortress","app_id":440,"player_count":1,"max_players":24,"Bots":0,"server_type":"Dedicated","server_os":"Linux","password":true,"vac":true,"version":"7961495","steam_id":85568392925397853,"keywords":["cp","nocrits","nodmgspread","uncletopia"],"game_id":440,"stv_port":27046,"stv_name":"Uncletopia | Warsaw | 4 | All Maps | STV","players":[{"user_id":243,"name":"TheFox.tf","steam_id":76561197996851702,"connected_time":255000000000,"state":"active","ping":74}]},{"server_id":53,"name":"Uncletopia | Warsaw | 5 | Stopwatch","name_short":"waw-5","host":"waw-1.pl.uncletopia.com","port":27055,"enabled":true,"region":"eu","cc":"pl","latitude":52.2297,"longitude":21.017532,"reserved":0,"last_update":"0001-01-01T00:00:00Z","name_a2s":"Uncletopia | Warsaw | 5 | Stopwatch","protocol":17,"map":"workshop/koth_clearcut_b15.ugc2107050255","folder":"tf","game":"Team Fortress","app_id":440,"player_count":0,"max_players":24,"Bots":0,"server_type":"Dedicated","server_os":"Linux","password":true,"vac":true,"version":"7961495","steam_id":85568392925397854,"keywords":["cp","nocrits","nodmgspread","uncletopia"],"game_id":440,"stv_port":27056,"stv_name":"Uncletopia | Warsaw | 5 | Stopwatch | STV","players":null},{"server_id":54,"name":"Uncletopia | Warsaw | 6 | Community","name_short":"waw-6","host":"waw-1.pl.uncletopia.com","port":27065,"enabled":true,"region":"eu","cc":"pl","latitude":52.2297,"longitude":21.017532,"reserved":0,"last_update":"0001-01-01T00:00:00Z","name_a2s":"Uncletopia | Warsaw | 6 | Community","protocol":17,"map":"workshop/cp_coilblaze_rc7.ugc1272700588","folder":"tf","game":"Team Fortress","app_id":440,"player_count":0,"max_players":24,"Bots":0,"server_type":"Dedicated","server_os":"Linux","password":true,"vac":true,"version":"7961495","steam_id":85568392925397856,"keywords":["cp","nocrits","nodmgspread","uncletopia"],"game_id":440,"stv_port":27066,"stv_name":"Uncletopia | Warsaw | 6 | Community | STV","players":null}]}