{"status":true,"message":"","result":[{"server_id":9,"name":"Uncletopia | Atlanta | 1 | All Maps","name_short":"atl-1","host":"atl-1.us.uncletopia.com","port":27015,"enabled":true,"region":"us-east","cc":"us","latitude":33.753746,"longitude":-84.38633,"reserved":0,"last_update":"0001-01-01T00:00:00Z","name_a2s":"Uncletopia | Atlanta | 1 | All Maps","protocol":17,"map":"pl_upward","folder":"tf","game":"Team Fortress","app_id":440,"player_count":24,"max_players":24,"Bots":0,"server_type":"Dedicated","server_os":"Linux","password":true,"vac":true,"version":"7757534","steam_id":85568392924469982,"keywords":["nocrits","nodmgspread","payload","uncletopia"],"game_id":440,"stv_port":27016,"stv_name":"Uncletopia | Atlanta | 1 | All Maps | STV","players":[{"user_id":442,"name":"ChUngUster","steam_id":76561199191964937,"connected_time":81000000000,"state":"active","ping":71},{"user_id":430,"name":"Motorol¬™","steam_id":76561198358119669,"connected_time":656000000000,"state":"active","ping":122},{"user_id":441,"name":"yvko","steam_id":76561198165724991,"connected_time":217000000000,"state":"active","ping":56},{"user_id":422,"name":"Bali","steam_id":76561198038693845,"connected_time":1318000000000,"state":"active","ping":64},{"user_id":432,"name":"Broadsword","steam_id":76561198011160411,"connected_time":620000000000,"state":"active","ping":338},{"user_id":431,"name":"Wingm4n","steam_id":76561198064127012,"connected_time":629000000000,"state":"active","ping":47},{"user_id":433,"name":"Neighbor_Fake.psk","steam_id":76561199177974308,"connected_time":608000000000,"state":"active","ping":70},{"user_id":404,"name":"HOG1 | Moderate Hog","steam_id":76561198299175965,"connected_time":1955000000000,"state":"active","ping":56},{"user_id":444,"name":"BIG HOG","steam_id":76561198079923652,"connected_time":70000000000,"state":"active","ping":64},{"user_id":373,"name":"6,000,000 merged Chihuahuas","steam_id":76561198130772096,"connected_time":4450000000000,"state":"active","ping":47},{"user_id":419,"name":"Falleax","steam_id":76561198021154908,"connected_time":1516000000000,"state":"active","ping":60},{"user_id":418,"name":"Oddball","steam_id":76561198040440984,"connected_time":1550000000000,"state":"active","ping":86},{"user_id":389,"name":"Jin","steam_id":76561198119873148,"connected_time":2886000000000,"state":"active","ping":71},{"user_id":436,"name":"butterbutt!","steam_id":76561198038160740,"connected_time":528000000000,"state":"active","ping":47},{"user_id":437,"name":"J The Jounin","steam_id":76561198034583622,"connected_time":475000000000,"state":"active","ping":56},{"user_id":401,"name":"üé£ I'd Rather Be Gooning","steam_id":76561198062410522,"connected_time":2156000000000,"state":"active","ping":57},{"user_id":412,"name":"Deltaco","steam_id":76561198094572694,"connected_time":1723000000000,"state":"active","ping":105},{"user_id":446,"name":"moose","steam_id":76561199002615533,"connected_time":43000000000,"state":"active","ping":93},{"user_id":405,"name":"cola","steam_id":76561198374390458,"connected_time":1952000000000,"state":"active","ping":51},{"user_id":443,"name":"floofy","steam_id":76561198389769098,"connected_time":81000000000,"state":"spawning","ping":77},{"user_id":398,"name":"Karma","steam_id":76561198030565234,"connected_time":2310000000000,"state":"active","ping":77},{"user_id":416,"name":"Sergeant Joker #savetf2","steam_id":76561198854616604,"connected_time":1634000000000,"state":"active","ping":85},{"user_id":429,"name":"CAPT Splashclaw","steam_id":76561198110019410,"connected_time":755000000000,"state":"active","ping":82},{"user_id":402,"name":"lil hog","steam_id":76561199230929836,"connected_time":2156000000000,"state":"active","ping":84}]},{"server_id":400,"name":"Uncletopia | Atlanta | 3 | Community","name_short":"atl-3","host":"atl-1.us.uncletopia.com","port":27035,"enabled":true,"region":"us-east","cc":"us","latitude":33.753746,"longitude":-84.38633,"reserved":0,"last_update":"0001-01-01T00:00:00Z","name_a2s":"Uncletopia | Atlanta | 3 | Community","protocol":17,"map":"workshop/cp_glassworks_rc6a.ugc454118349","folder":"tf","game":"Team Fortress","app_id":440,"player_count":0,"max_players":24,"Bots":0,"server_type":"Dedicated","server_os":"Linux","password":true,"vac":true,"version":"7757534","steam_id":85568392924515187,"keywords":["cp","nocrits","nodmgspread","uncletopia"],"game_id":440,"stv_port":27036,"stv_name":"Uncletopia | Atlanta | 3 | Community | STV","players":null},{"server_id":401,"name":"Uncletopia | Atlanta | 4 | No Payload","name_short":"atl-4","host":"atl-1.us.uncletopia.com","port":27045,"enabled":true,"region":"us-east","cc":"us","latitude":33.753746,"longitude":-84.38633,"reserved":0,"last_update":"0001-01-01T00:00:00Z","name_a2s":"","protocol":0,"map":"","folder":"","game":"","app_id":0,"player_count":0,"max_players":0,"Bots":0,"server_type":"","server_os":"","password":false,"vac":false,"version":"","steam_id":0,"keywords":null,"game_id":0,"stv_port":0,"stv_name":"","players":null},{"server_id":2,"name":"Uncletopia | Chicago | 1 | All Maps","name_short":"chi-1","host":"chi-1.us.uncletopia.com","port":27015,"enabled":true,"region":"us-central","cc":"us","latitude":41.881832,"longitude":-87.62318,"reserved":0,"last_update":"0001-01-01T00:00:00Z","name_a2s":"Uncletopia | Chicago | 1 | All Maps","protocol":17,"map":"pl_badwater","folder":"tf","game":"Team Fortress","app_id":440,"player_count":24,"max_players":24,"Bots":0,"server_type":"Dedicated","server_os":"Linux","password":true,"vac":true,"version":"7757534","steam_id":85568392924469984,"keywords":["nocrits","nodmgspread","payload","uncletopia"],"game_id":440,"stv_port":27016,"stv_name":"Uncletopia | Chicago | 1 | All Maps | STV","players":[{"user_id":248,"name":"smellyloser86","steam_id":76561199198703435,"connected_time":1172000000000,"state":"active","ping":71},{"user_id":257,"name":"momb","steam_id":76561198142234038,"connected_time":434000000000,"state":"active","ping":85},{"user_id":237,"name":"SCATTER","steam_id":76561198405168492,"connected_time":2794000000000,"state":"active","ping":80},{"user_id":228,"name":"augustus gloop","steam_id":76561198233984300,"connected_time":3124000000000,"state":"active","ping":46},{"user_id":255,"name":"AX0L_","steam_id":76561199008960175,"connected_time":807000000000,"state":"active","ping":47},{"user_id":230,"name":"[PEED] real jewish space lasers","steam_id":76561198119536224,"connected_time":3085000000000,"state":"active","ping":76},{"user_id":246,"name":"GoofyAhGamingGuy","steam_id":76561199331315881,"connected_time":1831000000000,"state":"active","ping":86},{"user_id":247,"name":"oasu","steam_id":76561198077797135,"connected_time":1182000000000,"state":"active","ping":74},{"user_id":249,"name":"bruiseraaron","steam_id":76561198020092380,"connected_time":1160000000000,"state":"active","ping":49},{"user_id":161,"name":"[DEEP] Danmar33","steam_id":76561198056453091,"connected_time":8094000000000,"state":"active","ping":49},{"user_id":242,"name":"[DEEP] don't, say, s-swears","steam_id":76561198042209721,"connected_time":1949000000000,"state":"active","ping":44},{"user_id":258,"name":"Bilgecrank","steam_id":76561197967191751,"connected_time":391000000000,"state":"active","ping":84},{"user_id":243,"name":"DJ Sheeve","steam_id":76561198095910139,"connected_time":1937000000000,"state":"active","ping":57},{"user_id":251,"name":"dansal","steam_id":76561197997042510,"connected_time":1131000000000,"state":"active","ping":86},{"user_id":253,"name":"Zoawsome","steam_id":76561198018758753,"connected_time":1057000000000,"state":"active","ping":50},{"user_id":241,"name":"[DEEP] Roz257","steam_id":76561198842844532,"connected_time":2069000000000,"state":"active","ping":97},{"user_id":238,"name":"Ingo","steam_id":76561198053932416,"connected_time":2741000000000,"state":"active","ping":61},{"user_id":218,"name":"Mr.Kevin120","steam_id":76561199186919096,"connected_time":4042000000000,"state":"active","ping":76},{"user_id":259,"name":"kite","steam_id":76561198346516392,"connected_time":288000000000,"state":"active","ping":67},{"user_id":252,"name":"wokstar77","steam_id":76561198265200834,"connected_time":1131000000000,"state":"active","ping":75},{"user_id":240,"name":"man of the hour","steam_id":76561198264601809,"connected_time":2280000000000,"state":"active","ping":75},{"user_id":245,"name":"[ŸäŸáŸàÿØŸä] Bill Clinton [◊ê◊ú","steam_id":76561198163291190,"connected_time":1863000000000,"state":"active","ping":88},{"user_id":236,"name":"[DEEPest]The-Schizo-Furry-Gamer","steam_id":76561198094990358,"connected_time":2873000000000,"state":"active","ping":102},{"user_id":235,"name":"[DEEP_er] real zingers","steam_id":76561198097160898,"connected_time":3005000000000,"state":"active","ping":45}]},{"server_id":106,"name":"Uncletopia | Chicago | 2 | All Maps","name_short":"chi-2","host":"chi-1.us.uncletopia.com","port":27025,"enabled":true,"region":"us-central","cc":"us","latitude":41.881832,"longitude":-87.62318,"reserved":0,"last_update":"0001-01-01T00:00:00Z","name_a2s":"Uncletopia | Chicago | 2 | All Maps","protocol":17,"map":"pl_snowycoast","folder":"tf","game":"Team Fortress","app_id":440,"player_count":0,"max_players":24,"Bots":0,"server_type":"Dedicated","server_os":"Linux","password":true,"vac":true,"version":"7757534","steam_id":85568392924469985,"keywords":["nocrits","nodmgspread","payload","uncletopia"],"game_id":440,"stv_port":27026,"stv_name":"Uncletopia | Chicago | 2 | All Maps | STV","players":null},{"server_id":402,"name":"Uncletopia | Chicago | 3 | All Maps","name_short":"chi-3","host":"chi-1.us.uncletopia.com","port":27035,"enabled":true,"region":"us-central","cc":"us","latitude":41.881832,"longitude":-87.62318,"reserved":0,"last_update":"0001-01-01T00:00:00Z","name_a2s":"Uncletopia | Chicago | 3 | All Maps","protocol":17,"map":"pl_borneo","folder":"tf","game":"Team Fortress","app_id":440,"player_count":24,"max_players":24,"Bots":0,"server_type":"Dedicated","server_os":"Linux","password":true,"vac":true,"version":"7757534","steam_id":85568392924515191,"keywords":["nocrits","nodmgspread","payload","uncletopia"],"game_id":440,"stv_port":27036,"stv_name":"Uncletopia | Chicago | 3 | All Maps | STV","players":[{"user_id":212,"name":"Nephs","steam_id":76561198136763403,"connected_time":3568000000000,"state":"active","ping":83},{"user_id":127,"name":"Dot.","steam_id":76561198149463984,"connected_time":10006000000000,"state":"active","ping":51},{"user_id":244,"name":"Johnny Lawrence #JohnnyMaxxing","steam_id":76561199367141671,"connected_time":409000000000,"state":"active","ping":60},{"user_id":209,"name":"Eurocyon","steam_id":76561199465863937,"connected_time":3762000000000,"state":"active","ping":82},{"user_id":199,"name":"Donkski","steam_id":76561198406895347,"connected_time":4893000000000,"state":"active","ping":69},{"user_id":235,"name":"Polar","steam_id":76561198271964253,"connected_time":753000000000,"state":"active","ping":79},{"user_id":218,"name":"john","steam_id":76561198850447852,"connected_time":2757000000000,"state":"active","ping":74},{"user_id":245,"name":"hard dancing","steam_id":76561198868600487,"connected_time":309000000000,"state":"active","ping":116},{"user_id":224,"name":"Doubting Dave","steam_id":76561198066410749,"connected_time":2110000000000,"state":"active","ping":74},{"user_id":248,"name":"alolan duntski","steam_id":76561198038826744,"connected_time":73000000000,"state":"active","ping":60},{"user_id":234,"name":"tulpa","steam_id":76561198013253513,"connected_time":783000000000,"state":"active","ping":76},{"user_id":173,"name":"NovaSc6ut","steam_id":76561198277163301,"connected_time":6636000000000,"state":"active","ping":65},{"user_id":232,"name":"jade","steam_id":76561198055611029,"connected_time":1299000000000,"state":"active","ping":59},{"user_id":239,"name":"Jill the Owl","steam_id":76561197999210583,"connected_time":522000000000,"state":"active","ping":76},{"user_id":219,"name":"CrazySquirrel","steam_id":76561198206338200,"connected_time":2749000000000,"state":"active","ping":65},{"user_id":240,"name":"Bobby Jenkins","steam_id":76561198408773228,"connected_time":514000000000,"state":"active","ping":93},{"user_id":241,"name":"doctor large","steam_id":76561199195836752,"connected_time":508000000000,"state":"active","ping":77},{"user_id":231,"name":"Sea raider","steam_id":76561198123982355,"connected_time":1303000000000,"state":"active","ping":105},{"user_id":225,"name":"monqueer","steam_id":76561199125615716,"connected_time":2101000000000,"state":"active","ping":96},{"user_id":220,"name":"Kaky≈çin Noriaki","steam_id":76561198123809642,"connected_time":2579000000000,"state":"active","ping":67},{"user_id":236,"name":"sl0th","steam_id":76561198101146070,"connected_time":713000000000,"state":"active","ping":75},{"user_id":233,"name":"Romo","steam_id":76561198243101572,"connected_time":1259000000000,"state":"active","ping":85},{"user_id":242,"name":"Kitt(eh) ‚àë:3","steam_id":76561198110858518,"connected_time":488000000000,"state":"active","ping":60},{"user_id":243,"name":"Walter White","steam_id":76561198875469297,"connected_time":465000000000,"state":"active","ping":64}]},{"server_id":403,"name":"Uncletopia | Chicago | 4 | All Maps","name_short":"chi-4","host":"chi-1.us.uncletopia.com","port":27045,"enabled":true,"region":"us-central","cc":"us","latitude":41.881832,"longitude":-87.62318,"reserved":0,"last_update":"0001-01-01T00:00:00Z","name_a2s":"Uncletopia | Chicago | 4 | All Maps","protocol":17,"map":"pl_upward","folder":"tf","game":"Team Fortress","app_id":440,"player_count":21,"max_players":24,"Bots":0,"server_type":"Dedicated","server_os":"Linux","password":true,"vac":true,"version":"7757534","steam_id":85568392924515193,"keywords":["nocrits","nodmgspread","payload","uncletopia"],"game_id":440,"stv_port":27046,"stv_name":"Uncletopia | Chicago | 4 | All Maps | STV","players":[{"user_id":667,"name":"Dallas","steam_id":76561198066542919,"connected_time":56000000000,"state":"active","ping":94},{"user_id":661,"name":"theancientnut","steam_id":76561199396708880,"connected_time":339000000000,"state":"active","ping":57},{"user_id":662,"name":"small dick big dreams","steam_id":76561198926635142,"connected_time":313000000000,"state":"active","ping":102},{"user_id":658,"name":"jibby","steam_id":76561198046872382,"connected_time":422000000000,"state":"active","ping":46},{"user_id":647,"name":"AkimboAoki","steam_id":76561198158323058,"connected_time":928000000000,"state":"active","ping":84},{"user_id":602,"name":"I am a mooshroom","steam_id":76561198104198295,"connected_time":3544000000000,"state":"active","ping":81},{"user_id":655,"name":"Masotan","steam_id":76561199047187302,"connected_time":477000000000,"state":"active","ping":50},{"user_id":634,"name":"Thequirka","steam_id":76561198968058652,"connected_time":1724000000000,"state":"active","ping":96},{"user_id":646,"name":"Dr. Marvello","steam_id":76561198107573800,"connected_time":976000000000,"state":"active","ping":75},{"user_id":653,"name":"wake up","steam_id":76561198072179483,"connected_time":672000000000,"state":"active","ping":85},{"user_id":664,"name":"Dr_Spek","steam_id":76561198128667701,"connected_time":201000000000,"state":"active","ping":54},{"user_id":593,"name":"6t26j","steam_id":76561198278282836,"connected_time":4530000000000,"state":"active","ping":54},{"user_id":657,"name":"'LaxAttack","steam_id":76561198044129346,"connected_time":438000000000,"state":"active","ping":74},{"user_id":644,"name":"Voodo133","steam_id":76561198042670351,"connected_time":1147000000000,"state":"active","ping":89},{"user_id":628,"name":"Temujin","steam_id":76561198030936583,"connected_time":1867000000000,"state":"active","ping":45},{"user_id":663,"name":"the man behind the slaughter","steam_id":76561198861436861,"connected_time":299000000000,"state":"active","ping":92},{"user_id":640,"name":"WhoIsFrosty","steam_id":76561198880588117,"connected_time":1622000000000,"state":"active","ping":58},{"user_id":639,"name":"Remzy","steam_id":76561198272401170,"connected_time":1671000000000,"state":"active","ping":115},{"user_id":660,"name":"Stew Eater","steam_id":76561198978307159,"connected_time":378000000000,"state":"active","ping":66},{"user_id":645,"name":"Syynth","steam_id":76561198161328298,"connected_time":1084000000000,"state":"active","ping":73},{"user_id":659,"name":"Walter White","steam_id":76561199030987614,"connected_time":401000000000,"state":"active","ping":86}]},{"server_id":36,"name":"Uncletopia | Chicago | 5 | All Maps","name_short":"chi-5","host":"chi-2.us.uncletopia.com","port":27015,"enabled":true,"region":"us-central","cc":"us","latitude":41.881832,"longitude":-87.62318,"reserved":0,"last_update":"0001-01-01T00:00:00Z","name_a2s":"Uncletopia | Chicago | 5 | All Maps","protocol":17,"map":"pl_swiftwater_final1","folder":"tf","game":"Team Fortress","app_id":440,"player_count":0,"max_players":24,"Bots":0,"server_type":"Dedicated","server_os":"Linux","password":true,"vac":true,"version":"7757534","steam_id":85568392924866362,"keywords":["nocrits","nodmgspread","payload","uncletopia"],"game_id":440,"stv_port":27016,"stv_name":"Uncletopia | Chicago | 5 | All Maps | STV","players":null},{"server_id":37,"name":"Uncletopia | Chicago | 6 | All Maps","name_short":"chi-6","host":"chi-2.us.uncletopia.com","port":27025,"enabled":true,"region":"us-central","cc":"us","latitude":41.881832,"longitude":-87.62318,"reserved":0,"last_update":"0001-01-01T00:00:00Z","name_a2s":"Uncletopia | Chicago | 6 | All Maps","protocol":17,"map":"pl_barnblitz","folder":"tf","game":"Team Fortress","app_id":440,"player_count":22,"max_players":24,"Bots":0,"server_type":"Dedicated","server_os":"Linux","password":true,"vac":true,"version":"7757534","steam_id":85568392924866363,"keywords":["nocrits","nodmgspread","payload","uncletopia"],"game_id":440,"stv_port":27026,"stv_name":"Uncletopia | Chicago | 6 | All Maps | STV","players":[{"user_id":12,"name":"The Dead Weight","steam_id":76561198056694098,"connected_time":7889000000000,"state":"active","ping":62},{"user_id":10,"name":"James","steam_id":76561198081313916,"connected_time":8046000000000,"state":"active","ping":69},{"user_id":56,"name":"-W3E- grim10465","steam_id":76561198045698581,"connected_time":4322000000000,"state":"active","ping":60},{"user_id":46,"name":"Rockgraham101","steam_id":76561198171740458,"connected_time":5593000000000,"state":"active","ping":67},{"user_id":96,"name":"Lost Blade","steam_id":76561198399102599,"connected_time":1766000000000,"state":"active","ping":102},{"user_id":75,"name":"his flatulence","steam_id":76561198799404824,"connected_time":2871000000000,"state":"active","ping":67},{"user_id":103,"name":"WasabiBoi‚Ñ¢","steam_id":76561198214845908,"connected_time":1066000000000,"state":"active","ping":77},{"user_id":118,"name":"Billybob7712","steam_id":76561199000291076,"connected_time":339000000000,"state":"active","ping":104},{"user_id":82,"name":"magotago","steam_id":76561198013650292,"connected_time":2246000000000,"state":"active","ping":112},{"user_id":87,"name":"Visions","steam_id":76561199095900888,"connected_time":2078000000000,"state":"active","ping":63},{"user_id":116,"name":"Enron Hubbard","steam_id":76561198012951411,"connected_time":612000000000,"state":"active","ping":57},{"user_id":107,"name":"jorjor wells","steam_id":76561199073429082,"connected_time":1006000000000,"state":"active","ping":68},{"user_id":119,"name":"Penrose42","steam_id":76561198288577396,"connected_time":304000000000,"state":"active","ping":90},{"user_id":115,"name":"Glory","steam_id":76561198013975080,"connected_time":735000000000,"state":"active","ping":76},{"user_id":120,"name":"BigBubble42","steam_id":76561198136286123,"connected_time":296000000000,"state":"active","ping":53},{"user_id":88,"name":"any ladies keeping it hairy?","steam_id":76561198081220016,"connected_time":2027000000000,"state":"active","ping":49},{"user_id":121,"name":"relay","steam_id":76561198314662811,"connected_time":294000000000,"state":"active","ping":93},{"user_id":102,"name":"plaiddd (needs friends)","steam_id":76561198353053169,"connected_time":1111000000000,"state":"active","ping":87},{"user_id":41,"name":"xiphoidar","steam_id":76561198146044049,"connected_time":5914000000000,"state":"active","ping":74},{"user_id":117,"name":"fussy bussy (Hammer Map newbie)","steam_id":76561198983932730,"connected_time":543000000000,"state":"active","ping":87},{"user_id":123,"name":"[chef] iron","steam_id":76561197970888616,"connected_time":283000000000,"state":"active","ping":46}]},{"server_id":38,"name":"Uncletopia | Chicago | 7 | Stopwatch Beta","name_short":"chi-7","host":"chi-2.us.uncletopia.com","port":27035,"enabled":true,"region":"us-central","cc":"us","latitude":41.881832,"longitude":-87.62318,"reserved":0,"last_update":"0001-01-01T00:00:00Z","name_a2s":"Uncletopia | Chicago | 7 | Stopwatch Beta","protocol":17,"map":"koth_viaduct","folder":"tf","game":"Team Fortress","app_id":440,"player_count":0,"max_players":24,"Bots":0,"server_type":"Dedicated","server_os":"Linux","password":true,"vac":true,"version":"7757534","steam_id":85568392924866364,"keywords":["cp","nocrits","nodmgspread","uncletopia"],"game_id":440,"stv_port":27036,"stv_name":"Uncletopia | Chicago | 7 | Stopwatch Beta | STV","players":null},{"server_id":39,"name":"Uncletopia | Chicago | 8 | Community","name_short":"chi-8","host":"chi-2.us.uncletopia.com","port":27045,"enabled":true,"region":"us-central","cc":"us","latitude":41.881832,"longitude":-87.62318,"reserved":0,"last_update":"0001-01-01T00:00:00Z","name_a2s":"Uncletopia | Chicago | 8 | Community","protocol":17,"map":"koth_lakeside_final","folder":"tf","game":"Team Fortress","app_id":440,"player_count":3,"max_players":24,"Bots":0,"server_type":"Dedicated","server_os":"Linux","password":true,"vac":true,"version":"7757534","steam_id":85568392924866365,"keywords":["cp","nocrits","nodmgspread","uncletopia"],"game_id":440,"stv_port":27046,"stv_name":"Uncletopia | Chicago | 8 | Community | STV","players":[{"user_id":6,"name":"MCHolden","steam_id":76561199142512034,"connected_time":423000000000,"state":"active","ping":69},{"user_id":7,"name":"Turtlin'","steam_id":76561198885096042,"connected_time":268000000000,"state":"active","ping":54},{"user_id":8,"name":"BurR","steam_id":76561198055431367,"connected_time":144000000000,"state":"active","ping":55}]},{"server_id":8,"name":"Uncletopia | Dallas | 1 | All Maps","name_short":"dal-1","host":"dal-1.us.uncletopia.com","port":27015,"enabled":true,"region":"us-central","cc":"us","latitude":32.779167,"longitude":-96.80889,"reserved":0,"last_update":"0001-01-01T00:00:00Z","name_a2s":"Uncletopia | Dallas | 1 | All Maps","protocol":17,"map":"pl_badwater","folder":"tf","game":"Team Fortress","app_id":440,"player_count":24,"max_players":24,"Bots":0,"server_type":"Dedicated","server_os":"Linux","password":true,"vac":true,"version":"7757534","steam_id":85568392924469986,"keywords":["nocrits","nodmgspread","payload","uncletopia"],"game_id":440,"stv_port":27016,"stv_name":"Uncletopia | Dallas | 1 | All Maps | STV","players":[{"user_id":343,"name":"upgrade9000","steam_id":76561198443060751,"connected_time":1260000000000,"state":"active","ping":79},{"user_id":360,"name":"bodi","steam_id":76561199062396598,"connected_time":864000000000,"state":"active","ping":89},{"user_id":347,"name":"The Lasagna Hunter","steam_id":76561199222602638,"connected_time":1169000000000,"state":"active","ping":60},{"user_id":344,"name":"Six Popsicle Jake","steam_id":76561198024757122,"connected_time":1259000000000,"state":"active","ping":74},{"user_id":385,"name":"Queen Frau the Round","steam_id":76561197999942134,"connected_time":127000000000,"state":"active","ping":66},{"user_id":384,"name":"Estetrius","steam_id":76561198016993850,"connected_time":194000000000,"state":"active","ping":57},{"user_id":386,"name":"scrapheap","steam_id":76561198202407087,"connected_time":27000000000,"state":"active","ping":91},{"user_id":345,"name":"Flubdy_","steam_id":76561198073338521,"connected_time":1255000000000,"state":"active","ping":58},{"user_id":346,"name":"Spoi","steam_id":76561198203134675,"connected_time":1185000000000,"state":"active","ping":99},{"user_id":376,"name":"|WS| Don't_Taze_Me_Bro","steam_id":76561198043289495,"connected_time":331000000000,"state":"active","ping":75},{"user_id":387,"name":"Mongoose","steam_id":76561198073801510,"connected_time":2000000000,"state":"spawning","ping":92},{"user_id":356,"name":"Effie","steam_id":76561198261842068,"connected_time":881000000000,"state":"active","ping":106},{"user_id":380,"name":"ya boi","steam_id":76561198420218460,"connected_time":289000000000,"state":"active","ping":51},{"user_id":350,"name":"Metbol","steam_id":76561198001362410,"connected_time":999000000000,"state":"active","ping":51},{"user_id":369,"name":"Shuryken","steam_id":76561199085754214,"connected_time":638000000000,"state":"active","ping":100},{"user_id":372,"name":"JelloMotion","steam_id":76561198045892038,"connected_time":499000000000,"state":"active","ping":62},{"user_id":374,"name":"Nidus | IFN.GG","steam_id":76561198886277516,"connected_time":397000000000,"state":"active","ping":59},{"user_id":325,"name":"Ganondork","steam_id":76561198114972080,"connected_time":2624000000000,"state":"active","ping":53},{"user_id":367,"name":"Known","steam_id":76561198069842586,"connected_time":706000000000,"state":"active","ping":68},{"user_id":382,"name":"turd ferguson","steam_id":76561198071620782,"connected_time":273000000000,"state":"active","ping":97},{"user_id":365,"name":"CashBin","steam_id":76561199382865598,"connected_time":779000000000,"state":"active","ping":62},{"user_id":368,"name":"Talented","steam_id":76561198800259660,"connected_time":676000000000,"state":"active","ping":73},{"user_id":364,"name":"Voids","steam_id":76561198128386726,"connected_time":791000000000,"state":"active","ping":86},{"user_id":383,"name":"Special","steam_id":76561198070380404,"connected_time":268000000000,"state":"active","ping":87}]},{"server_id":108,"name":"Uncletopia | Dallas | 2 | All Maps","name_short":"dal-2","host":"dal-1.us.uncletopia.com","port":27025,"enabled":true,"region":"us-central","cc":"us","latitude":32.779167,"longitude":-96.80889,"reserved":0,"last_update":"0001-01-01T00:00:00Z","name_a2s":"Uncletopia | Dallas | 2 | All Maps","protocol":17,"map":"koth_lakeside_final","folder":"tf","game":"Team Fortress","app_id":440,"player_count":20,"max_players":24,"Bots":0,"server_type":"Dedicated","server_os":"Linux","password":true,"vac":true,"version":"7757534","steam_id":85568392924469988,"keywords":["cp","nocrits","nodmgspread","uncletopia"],"game_id":440,"stv_port":27026,"stv_name":"Uncletopia | Dallas | 2 | All Maps | STV","players":[{"user_id":97,"name":"sweppy","steam_id":76561198035457667,"connected_time":2099000000000,"state":"active","ping":61},{"user_id":103,"name":"George the polar bear gaming","steam_id":76561199379152580,"connected_time":1825000000000,"state":"active","ping":98},{"user_id":84,"name":"Aerris","steam_id":76561199178877456,"connected_time":2753000000000,"state":"active","ping":58},{"user_id":137,"name":"IPlayGamez","steam_id":76561198041387508,"connected_time":18000000000,"state":"active","ping":78},{"user_id":138,"name":"minesneakeyes","steam_id":76561198171211725,"connected_time":0,"state":"spawning","ping":35},{"user_id":121,"name":"Liquid","steam_id":76561198405710861,"connected_time":803000000000,"state":"active","ping":118},{"user_id":111,"name":"Rocker895","steam_id":76561198001070647,"connected_time":1711000000000,"state":"active","ping":95},{"user_id":123,"name":"moe5x","steam_id":76561198316877833,"connected_time":795000000000,"state":"active","ping":77},{"user_id":41,"name":"The Ultimate Coomer","steam_id":76561199128833757,"connected_time":5672000000000,"state":"active","ping":50},{"user_id":132,"name":"Doctor Ichor","steam_id":76561198123815761,"connected_time":513000000000,"state":"active","ping":87},{"user_id":134,"name":"Muse","steam_id":76561198177715869,"connected_time":442000000000,"state":"active","ping":57},{"user_id":126,"name":"Portal2Player","steam_id":76561198062870114,"connected_time":758000000000,"state":"active","ping":99},{"user_id":133,"name":"Mr.YoYo","steam_id":76561198988717854,"connected_time":469000000000,"state":"active","ping":79},{"user_id":136,"name":"poiuytrewqwqwqwqwqwqwqwqwqwqwqw","steam_id":76561199105253001,"connected_time":48000000000,"state":"active","ping":87},{"user_id":128,"name":"Hi, I'm Jesus","steam_id":76561198015327152,"connected_time":711000000000,"state":"active","ping":84},{"user_id":135,"name":"Cresant Ape","steam_id":76561198127425559,"connected_time":132000000000,"state":"active","ping":45},{"user_id":119,"name":"Megaxonic","steam_id":76561198996548641,"connected_time":1254000000000,"state":"active","ping":38},{"user_id":101,"name":"Boom Spy \u003c3","steam_id":76561198126796502,"connected_time":2048000000000,"state":"active","ping":84},{"user_id":129,"name":"beans","steam_id":76561198061673313,"connected_time":706000000000,"state":"active","ping":61},{"user_id":74,"name":"SOLDIER BELMONT","steam_id":76561198313947393,"connected_time":4129000000000,"state":"active","ping":90}]},{"server_id":5,"name":"Uncletopia | Frankfurt | 1 | All Maps","name_short":"frk-1","host":"frk-1.de.uncletopia.com","port":27015,"enabled":true,"region":"eu","cc":"de","latitude":50.110924,"longitude":8.682127,"reserved":0,"last_update":"0001-01-01T00:00:00Z","name_a2s":"Uncletopia | Frankfurt | 1 | All Maps","protocol":17,"map":"koth_viaduct","folder":"tf","game":"Team Fortress","app_id":440,"player_count":0,"max_players":24,"Bots":0,"server_type":"Dedicated","server_os":"Linux","password":true,"vac":true,"version":"7757534","steam_id":85568392924469989,"keywords":["cp","nocrits","nodmgspread","uncletopia"],"game_id":440,"stv_port":27016,"stv_name":"Uncletopia | Frankfurt | 1 | All Maps | STV","players":null},{"server_id":110,"name":"Uncletopia | Frankfurt | 2 | All Maps","name_short":"frk-2","host":"frk-1.de.uncletopia.com","port":27025,"enabled":true,"region":"eu","cc":"de","latitude":50.110924,"longitude":8.682127,"reserved":0,"last_update":"0001-01-01T00:00:00Z","name_a2s":"Uncletopia | Frankfurt | 2 | All Maps","protocol":17,"map":"cp_altitude","folder":"tf","game":"Team Fortress","app_id":440,"player_count":0,"max_players":24,"Bots":0,"server_type":"Dedicated","server_os":"Linux","password":true,"vac":true,"version":"7757534","steam_id":85568392924469990,"keywords":["cp","nocrits","nodmgspread","uncletopia"],"game_id":440,"stv_port":27026,"stv_name":"Uncletopia | Frankfurt | 2 | All Maps | STV","players":null},{"server_id":308,"name":"Uncletopia | Frankfurt | 3 | All Maps","name_short":"frk-3","host":"frk-1.de.uncletopia.com","port":27035,"enabled":true,"region":"eu","cc":"de","latitude":50.110924,"longitude":8.682127,"reserved":0,"last_update":"0001-01-01T00:00:00Z","name_a2s":"Uncletopia | Frankfurt | 3 | All Maps","protocol":17,"map":"pl_badwater","folder":"tf","game":"Team Fortress","app_id":440,"player_count":19,"max_players":24,"Bots":0,"server_type":"Dedicated","server_os":"Linux","password":true,"vac":true,"version":"7757534","steam_id":85568392924504274,"keywords":["nocrits","nodmgspread","payload","uncletopia"],"game_id":440,"stv_port":27036,"stv_name":"Uncletopia | Frankfurt | 3 | All Maps | STV","players":[{"user_id":536,"name":"ma≈Çy #tf2pickup.pl","steam_id":76561198074409147,"connected_time":4424000000000,"state":"active","ping":65},{"user_id":601,"name":"Rolloden","steam_id":76561198069414404,"connected_time":77000000000,"state":"active","ping":51},{"user_id":590,"name":"Podlecki inwazja super parch√≥w","steam_id":76561198417117297,"connected_time":887000000000,"state":"active","ping":62},{"user_id":597,"name":"Proto-arc","steam_id":76561198012776747,"connected_time":184000000000,"state":"active","ping":58},{"user_id":598,"name":"Piellino","steam_id":76561198156873276,"connected_time":181000000000,"state":"active","ping":92},{"user_id":565,"name":"Dewotter","steam_id":76561198007653168,"connected_time":3486000000000,"state":"active","ping":73},{"user_id":595,"name":"Baron Afanas","steam_id":76561197996619572,"connected_time":463000000000,"state":"active","ping":59},{"user_id":575,"name":"less than tryhard more than bot","steam_id":76561198051852765,"connected_time":2693000000000,"state":"active","ping":60},{"user_id":599,"name":"Sippie","steam_id":76561198130393388,"connected_time":119000000000,"state":"active","ping":68},{"user_id":600,"name":"XfarisGamerX","steam_id":76561198367579380,"connected_time":92000000000,"state":"active","ping":131},{"user_id":540,"name":"R","steam_id":76561199379233899,"connected_time":4362000000000,"state":"active","ping":90},{"user_id":585,"name":"cuboidbird741","steam_id":76561198174823322,"connected_time":1976000000000,"state":"active","ping":61},{"user_id":602,"name":"pond","steam_id":76561198214849363,"connected_time":74000000000,"state":"active","ping":77},{"user_id":589,"name":"Bobirulez","steam_id":76561198009125458,"connected_time":1282000000000,"state":"active","ping":75},{"user_id":569,"name":"_Shkoot","steam_id":76561198318170398,"connected_time":2984000000000,"state":"active","ping":50},{"user_id":556,"name":"Bodhi","steam_id":76561198000606642,"connected_time":3994000000000,"state":"active","ping":72},{"user_id":571,"name":"Bgm_","steam_id":76561198056452044,"connected_time":2844000000000,"state":"active","ping":51},{"user_id":594,"name":"wiitabix(kevin durant)","steam_id":76561198123238801,"connected_time":731000000000,"state":"active","ping":68},{"user_id":554,"name":"minespweper","steam_id":76561199096919345,"connected_time":4142000000000,"state":"active","ping":76}]},{"server_id":309,"name":"Uncletopia | Frankfurt | 4 | All Maps","name_short":"frk-4","host":"frk-1.de.uncletopia.com","port":27045,"enabled":true,"region":"eu","cc":"de","latitude":50.110924,"longitude":8.682127,"reserved":0,"last_update":"0001-01-01T00:00:00Z","name_a2s":"Uncletopia | Frankfurt | 4 | All Maps","protocol":17,"map":"pl_barnblitz","folder":"tf","game":"Team Fortress","app_id":440,"player_count":24,"max_players":24,"Bots":0,"server_type":"Dedicated","server_os":"Linux","password":true,"vac":true,"version":"7757534","steam_id":85568392924504275,"keywords":["nocrits","nodmgspread","payload","uncletopia"],"game_id":440,"stv_port":27046,"stv_name":"Uncletopia | Frankfurt | 4 | All Maps | STV","players":[{"user_id":392,"name":"RevoNine","steam_id":76561198163866206,"connected_time":5509000000000,"state":"active","ping":65},{"user_id":456,"name":"Kumquat","steam_id":76561198200490386,"connected_time":824000000000,"state":"active","ping":77},{"user_id":385,"name":"hud_saytext_time 0","steam_id":76561198010327228,"connected_time":5625000000000,"state":"active","ping":60},{"user_id":449,"name":"waffle toaster","steam_id":76561198799089628,"connected_time":1282000000000,"state":"active","ping":62},{"user_id":432,"name":"scarecrowshelper","steam_id":76561198072260553,"connected_time":2295000000000,"state":"active","ping":52},{"user_id":445,"name":"paguro","steam_id":76561198119560871,"connected_time":1389000000000,"state":"active","ping":68},{"user_id":444,"name":"usia","steam_id":76561198120406679,"connected_time":1406000000000,"state":"active","ping":92},{"user_id":425,"name":"Syd","steam_id":76561198020515027,"connected_time":2813000000000,"state":"active","ping":78},{"user_id":450,"name":"torn","steam_id":76561198223003236,"connected_time":1274000000000,"state":"active","ping":56},{"user_id":443,"name":"eduardo","steam_id":76561198014491925,"connected_time":1413000000000,"state":"active","ping":73},{"user_id":460,"name":"Hildreth","steam_id":76561197995254867,"connected_time":313000000000,"state":"active","ping":62},{"user_id":442,"name":"Nouth","steam_id":76561198027054119,"connected_time":1424000000000,"state":"active","ping":69},{"user_id":439,"name":".bRdyyy","steam_id":76561198057256978,"connected_time":1973000000000,"state":"active","ping":47},{"user_id":451,"name":"GuSkand","steam_id":76561198043775605,"connected_time":1260000000000,"state":"active","ping":80},{"user_id":431,"name":"Gnaisse","steam_id":76561198010560642,"connected_time":2405000000000,"state":"active","ping":89},{"user_id":435,"name":"Paddy","steam_id":76561198081025602,"connected_time":2149000000000,"state":"active","ping":54},{"user_id":457,"name":"Svilar","steam_id":76561198828348612,"connected_time":617000000000,"state":"active","ping":85},{"user_id":452,"name":"CrashyPlay","steam_id":76561198106125298,"connected_time":1189000000000,"state":"active","ping":65},{"user_id":428,"name":"engie?","steam_id":76561198331852832,"connected_time":2785000000000,"state":"active","ping":61},{"user_id":378,"name":"hey kid, wanna see my Octagon?","steam_id":76561198066287297,"connected_time":6527000000000,"state":"active","ping":45},{"user_id":461,"name":"lofimonkeyjazz","steam_id":76561198117059662,"connected_time":294000000000,"state":"active","ping":85},{"user_id":430,"name":"Marquis de Hoto","steam_id":76561198080687708,"connected_time":2553000000000,"state":"active","ping":66},{"user_id":459,"name":"Trolldier 76","steam_id":76561198036504161,"connected_time":399000000000,"state":"active","ping":182},{"user_id":453,"name":"brainrot","steam_id":76561199414716848,"connected_time":1179000000000,"state":"active","ping":74}]},{"server_id":310,"name":"Uncletopia | Frankfurt | 5 | All Maps","name_short":"frk-5","host":"frk-1.de.uncletopia.com","port":27055,"enabled":true,"region":"eu","cc":"de","latitude":50.110924,"longitude":8.682127,"reserved":0,"last_update":"0001-01-01T00:00:00Z","name_a2s":"Uncletopia | Frankfurt | 5 | All Maps","protocol":17,"map":"pl_pier","folder":"tf","game":"Team Fortress","app_id":440,"player_count":24,"max_players":24,"Bots":0,"server_type":"Dedicated","server_os":"Linux","password":true,"vac":true,"version":"7757534","steam_id":85568392924504277,"keywords":["nocrits","nodmgspread","payload","uncletopia"],"game_id":440,"stv_port":27056,"stv_name":"Uncletopia | Frankfurt | 5 | All Maps | STV","players":[{"user_id":420,"name":"Athomix","steam_id":76561198170108402,"connected_time":711000000000,"state":"active","ping":82},{"user_id":391,"name":"bert","steam_id":76561198156318293,"connected_time":3347000000000,"state":"active","ping":58},{"user_id":422,"name":"lelecobi324","steam_id":76561198878030367,"connected_time":688000000000,"state":"active","ping":97},{"user_id":426,"name":"Tyrone","steam_id":76561198005050459,"connected_time":276000000000,"state":"active","ping":64},{"user_id":417,"name":"Miolen","steam_id":76561198083366424,"connected_time":897000000000,"state":"active","ping":106},{"user_id":376,"name":"Grand Piano Tuna","steam_id":76561198135137213,"connected_time":4107000000000,"state":"active","ping":180},{"user_id":402,"name":"Cheshireycat","steam_id":76561198067204908,"connected_time":2569000000000,"state":"active","ping":66},{"user_id":412,"name":"Udinese Dion","steam_id":76561198067931573,"connected_time":1388000000000,"state":"active","ping":38},{"user_id":419,"name":"steakman10","steam_id":76561198152584691,"connected_time":750000000000,"state":"active","ping":76},{"user_id":429,"name":"RADIOACTIVE JEW","steam_id":76561198059635136,"connected_time":11000000000,"state":"spawning","ping":65},{"user_id":416,"name":"$n√òw","steam_id":76561198238781028,"connected_time":1166000000000,"state":"active","ping":108},{"user_id":392,"name":"avenje","steam_id":76561198155824845,"connected_time":3327000000000,"state":"active","ping":60},{"user_id":379,"name":"Archos","steam_id":76561198181820631,"connected_time":4012000000000,"state":"active","ping":69},{"user_id":411,"name":"Yachox","steam_id":76561198158259745,"connected_time":1764000000000,"state":"active","ping":90},{"user_id":380,"name":"BIGGERDANGO","steam_id":76561198247876394,"connected_time":4006000000000,"state":"active","ping":63},{"user_id":381,"name":"Pingutaro","steam_id":76561198112803718,"connected_time":3996000000000,"state":"active","ping":68},{"user_id":424,"name":"lowcostfish.co.uk","steam_id":76561198126022039,"connected_time":665000000000,"state":"active","ping":73},{"user_id":427,"name":"Piteras","steam_id":76561198858532207,"connected_time":226000000000,"state":"active","ping":90},{"user_id":405,"name":"Benzo Fury","steam_id":76561198025259336,"connected_time":2521000000000,"state":"active","ping":60},{"user_id":409,"name":"Baki ‡∂û","steam_id":76561198193615529,"connected_time":2323000000000,"state":"active","ping":54},{"user_id":383,"name":"Explosive_kink","steam_id":76561198998702838,"connected_time":3989000000000,"state":"active","ping":73},{"user_id":415,"name":"fish","steam_id":76561198205475839,"connected_time":1280000000000,"state":"active","ping":102},{"user_id":384,"name":"KittyKate ‚ù§","steam_id":76561198116340817,"connected_time":3986000000000,"state":"active","ping":68},{"user_id":401,"name":"BuzzBees ‚ù§","steam_id":76561198101502273,"connected_time":2710000000000,"state":"active","ping":65}]},{"server_id":311,"name":"Uncletopia | Frankfurt | 6 | All Maps","name_short":"frk-6","host":"frk-1.de.uncletopia.com","port":27065,"enabled":true,"region":"eu","cc":"de","latitude":50.110924,"longitude":8.682127,"reserved":0,"last_update":"0001-01-01T00:00:00Z","name_a2s":"Uncletopia | Frankfurt | 6 | All Maps","protocol":17,"map":"koth_cascade","folder":"tf","game":"Team Fortress","app_id":440,"player_count":0,"max_players":24,"Bots":0,"server_type":"Dedicated","server_os":"Linux","password":true,"vac":true,"version":"7757534","steam_id":85568392924504278,"keywords":["cp","nocrits","nodmgspread","uncletopia"],"game_id":440,"stv_port":27066,"stv_name":"Uncletopia | Frankfurt | 6 | All Maps | STV","players":null},{"server_id":23,"name":"Uncletopia | Frankfurt | 7 | Stopwatch Beta","name_short":"frk-7","host":"frk-1.de.uncletopia.com","port":27075,"enabled":true,"region":"eu","cc":"de","latitude":50.110924,"longitude":8.682127,"reserved":0,"last_update":"0001-01-01T00:00:00Z","name_a2s":"Uncletopia | Frankfurt | 7 | Stopwatch Beta","protocol":17,"map":"pl_borneo","folder":"tf","game":"Team Fortress","app_id":440,"player_count":0,"max_players":24,"Bots":0,"server_type":"Dedicated","server_os":"Linux","password":true,"vac":true,"version":"7757534","steam_id":85568392924742827,"keywords":["nocrits","nodmgspread","payload","uncletopia"],"game_id":440,"stv_port":27076,"stv_name":"Uncletopia | Frankfurt | 7 | Stopwatch Beta | STV","players":null},{"server_id":24,"name":"Uncletopia | Frankfurt | 8 | Community","name_short":"frk-8","host":"frk-1.de.uncletopia.com","port":27085,"enabled":true,"region":"eu","cc":"de","latitude":50.110924,"longitude":8.682127,"reserved":0,"last_update":"0001-01-01T00:00:00Z","name_a2s":"Uncletopia | Frankfurt | 8 | Community","protocol":17,"map":"workshop/koth_ashville_final.ugc2130459942","folder":"tf","game":"Team Fortress","app_id":440,"player_count":0,"max_players":24,"Bots":0,"server_type":"Dedicated","server_os":"Linux","password":true,"vac":true,"version":"7757534","steam_id":85568392924742828,"keywords":["cp","nocrits","nodmgspread","uncletopia"],"game_id":440,"stv_port":27086,"stv_name":"Uncletopia | Frankfurt | 8 | Community | STV","players":null},{"server_id":202,"name":"Uncletopia | Hong Kong | 1 | All Maps","name_short":"hgk-1","host":"hgk-1.hk.uncletopia.com","port":27015,"enabled":true,"region":"asia","cc":"hk","latitude":22.302711,"longitude":114.177216,"reserved":0,"last_update":"0001-01-01T00:00:00Z","name_a2s":"Uncletopia | Hong Kong | 1 | All Maps","protocol":17,"map":"cp_sunshine","folder":"tf","game":"Team Fortress","app_id":440,"player_count":0,"max_players":24,"Bots":0,"server_type":"Dedicated","server_os":"Linux","password":true,"vac":true,"version":"7757534","steam_id":85568392924494504,"keywords":["cp","nocrits","nodmgspread","uncletopia"],"game_id":440,"stv_port":27016,"stv_name":"Uncletopia | Hong Kong | 1 | All Maps | STV","players":null},{"server_id":1,"name":"Uncletopia | Los Angeles | 1 | All Maps","name_short":"lax-1","host":"lax-1.us.uncletopia.com","port":27015,"enabled":true,"region":"us-west","cc":"us","latitude":33.94279,"longitude":-118.41004,"reserved":0,"last_update":"0001-01-01T00:00:00Z","name_a2s":"Uncletopia | Los Angeles | 1 | All Maps","protocol":17,"map":"pl_upward","folder":"tf","game":"Team Fortress","app_id":440,"player_count":0,"max_players":24,"Bots":0,"server_type":"Dedicated","server_os":"Linux","password":true,"vac":true,"version":"7757534","steam_id":85568392924469991,"keywords":["nocrits","nodmgspread","payload","uncletopia"],"game_id":440,"stv_port":27016,"stv_name":"Uncletopia | Los Angeles | 1 | All Maps | STV","players":null},{"server_id":112,"name":"Uncletopia | Los Angeles | 2 | All Maps","name_short":"lax-2","host":"lax-1.us.uncletopia.com","port":27025,"enabled":true,"region":"us-west","cc":"us","latitude":33.94279,"longitude":-118.41004,"reserved":0,"last_update":"0001-01-01T00:00:00Z","name_a2s":"Uncletopia | Los Angeles | 2 | All Maps","protocol":17,"map":"koth_viaduct","folder":"tf","game":"Team Fortress","app_id":440,"player_count":0,"max_players":24,"Bots":0,"server_type":"Dedicated","server_os":"Linux","password":true,"vac":true,"version":"7757534","steam_id":85568392924469992,"keywords":["cp","nocrits","nodmgspread","uncletopia"],"game_id":440,"stv_port":27026,"stv_name":"Uncletopia | Los Angeles | 2 | All Maps | STV","players":null},{"server_id":324,"name":"Uncletopia | Los Angeles | 3 | All Maps","name_short":"lax-3","host":"lax-1.us.uncletopia.com","port":27035,"enabled":true,"region":"us-west","cc":"us","latitude":33.94279,"longitude":-118.41004,"reserved":0,"last_update":"0001-01-01T00:00:00Z","name_a2s":"Uncletopia | Los Angeles | 3 | All Maps","protocol":17,"map":"pl_swiftwater_final1","folder":"tf","game":"Team Fortress","app_id":440,"player_count":0,"max_players":24,"Bots":0,"server_type":"Dedicated","server_os":"Linux","password":true,"vac":true,"version":"7757534","steam_id":85568392924510198,"keywords":["nocrits","nodmgspread","payload","uncletopia"],"game_id":440,"stv_port":27036,"stv_name":"Uncletopia | Los Angeles | 3 | All Maps | STV","players":null},{"server_id":25,"name":"Uncletopia | Los Angeles | 4 | Stopwatch Beta","name_short":"lax-4","host":"lax-1.us.uncletopia.com","port":27045,"enabled":true,"region":"us-west","cc":"us","latitude":33.94279,"longitude":-118.41004,"reserved":0,"last_update":"0001-01-01T00:00:00Z","name_a2s":"Uncletopia | Los Angeles | 4 | Stopwatch Beta","protocol":17,"map":"workshop/koth_product_final.ugc454272353","folder":"tf","game":"Team Fortress","app_id":440,"player_count":0,"max_players":24,"Bots":0,"server_type":"Dedicated","server_os":"Linux","password":true,"vac":true,"version":"7757534","steam_id":85568392924510199,"keywords":["cp","nocrits","nodmgspread","uncletopia"],"game_id":440,"stv_port":27046,"stv_name":"Uncletopia | Los Angeles | 4 | Stopwatch Beta | STV","players":null},{"server_id":11,"name":"Uncletopia | London | 1 | All Maps","name_short":"lon-1","host":"lon-1.uk.uncletopia.com","port":27015,"enabled":true,"region":"eu","cc":"gb","latitude":51.509865,"longitude":-0.118092,"reserved":0,"last_update":"0001-01-01T00:00:00Z","name_a2s":"Uncletopia | London | 1 | All Maps","protocol":17,"map":"pl_barnblitz","folder":"tf","game":"Team Fortress","app_id":440,"player_count":22,"max_players":24,"Bots":0,"server_type":"Dedicated","server_os":"Linux","password":true,"vac":true,"version":"7757534","steam_id":85568392924367362,"keywords":["nocrits","nodmgspread","payload","uncletopia"],"game_id":440,"stv_port":27016,"stv_name":"Uncletopia | London | 1 | All Maps | STV","players":[{"user_id":580,"name":"Aaron","steam_id":76561197990046953,"connected_time":842000000000,"state":"active","ping":60},{"user_id":582,"name":"beebo","steam_id":76561199120277007,"connected_time":93000000000,"state":"active","ping":48},{"user_id":583,"name":"Wedgeridoo","steam_id":76561198082813907,"connected_time":36000000000,"state":"active","ping":153},{"user_id":525,"name":"CumbustiblePunda","steam_id":76561197974274677,"connected_time":5691000000000,"state":"active","ping":62},{"user_id":543,"name":"Sauce","steam_id":76561198307339689,"connected_time":3396000000000,"state":"active","ping":55},{"user_id":564,"name":"george B","steam_id":76561198104933135,"connected_time":1985000000000,"state":"active","ping":63},{"user_id":576,"name":"Norbert Hallelujah","steam_id":76561198137876982,"connected_time":1214000000000,"state":"active","ping":83},{"user_id":581,"name":"Soph","steam_id":76561198131688853,"connected_time":362000000000,"state":"active","ping":51},{"user_id":552,"name":"BreadBubbles","steam_id":76561198174332826,"connected_time":2897000000000,"state":"active","ping":55},{"user_id":537,"name":"R A S M U S","steam_id":76561198279799226,"connected_time":3534000000000,"state":"active","ping":65},{"user_id":560,"name":"Lubrsi","steam_id":76561198040208195,"connected_time":2429000000000,"state":"active","ping":49},{"user_id":584,"name":"Vince","steam_id":76561199103000131,"connected_time":27000000000,"state":"active","ping":46},{"user_id":574,"name":"nudjura","steam_id":76561198281986139,"connected_time":1337000000000,"state":"active","ping":34},{"user_id":585,"name":"BunkerBoy","steam_id":76561198859439313,"connected_time":15000000000,"state":"spawning","ping":83},{"user_id":534,"name":"SuperBob103","steam_id":76561199175360012,"connected_time":4423000000000,"state":"active","ping":47},{"user_id":557,"name":"Bonca","steam_id":76561198137503531,"connected_time":2688000000000,"state":"active","ping":71},{"user_id":570,"name":"Tort","steam_id":76561198329646769,"connected_time":1902000000000,"state":"active","ping":54},{"user_id":571,"name":"Nick42","steam_id":76561198167564291,"connected_time":1884000000000,"state":"active","ping":77},{"user_id":559,"name":"Joxaren","steam_id":76561198049407893,"connected_time":2626000000000,"state":"active","ping":61},{"user_id":538,"name":"Ziltoid","steam_id":76561198020753675,"connected_time":3527000000000,"state":"active","ping":78},{"user_id":485,"name":"SOPHIIEE","steam_id":76561198443798981,"connected_time":8245000000000,"state":"active","ping":53},{"user_id":572,"name":"etc","steam_id":76561197998394797,"connected_time":1805000000000,"state":"active","ping":61}]},{"server_id":114,"name":"Uncletopia | London | 2 | All Maps","name_short":"lon-2","host":"lon-1.uk.uncletopia.com","port":27025,"enabled":true,"region":"eu","cc":"gb","latitude":51.509865,"longitude":-0.118092,"reserved":0,"last_update":"0001-01-01T00:00:00Z","name_a2s":"Uncletopia | London | 2 | All Maps","protocol":17,"map":"cp_sunshine","folder":"tf","game":"Team Fortress","app_id":440,"player_count":16,"max_players":24,"Bots":0,"server_type":"Dedicated","server_os":"Linux","password":true,"vac":true,"version":"7757534","steam_id":85568392924470941,"keywords":["cp","nocrits","nodmgspread","uncletopia"],"game_id":440,"stv_port":27026,"stv_name":"Uncletopia | London | 2 | All Maps | STV","players":[{"user_id":492,"name":"aGryphoN","steam_id":76561198245175308,"connected_time":560000000000,"state":"active","ping":49},{"user_id":494,"name":"jonbob","steam_id":76561197963506620,"connected_time":398000000000,"state":"active","ping":51},{"user_id":496,"name":"Superiumentarius","steam_id":76561198081642249,"connected_time":183000000000,"state":"active","ping":59},{"user_id":466,"name":"Joy","steam_id":76561198155314925,"connected_time":2523000000000,"state":"active","ping":50},{"user_id":455,"name":"pansexual","steam_id":76561198047778351,"connected_time":3281000000000,"state":"active","ping":44},{"user_id":500,"name":"Edited Atom","steam_id":76561198210844957,"connected_time":65000000000,"state":"active","ping":119},{"user_id":488,"name":"Sophvis","steam_id":76561198143786834,"connected_time":910000000000,"state":"active","ping":60},{"user_id":501,"name":"Hank J Wimbleton","steam_id":76561198408623293,"connected_time":35000000000,"state":"active","ping":60},{"user_id":473,"name":"gRocc0","steam_id":76561198283840637,"connected_time":2309000000000,"state":"active","ping":107},{"user_id":474,"name":"EGTRU","steam_id":76561198101430783,"connected_time":2307000000000,"state":"active","ping":88},{"user_id":475,"name":"Pineapple Okan„Å§ ‚óï_‚óï ‡ºΩ\ufffd\ufffd","steam_id":76561198069199449,"connected_time":2305000000000,"state":"active","ping":107},{"user_id":485,"name":"nedilya","steam_id":76561198039692077,"connected_time":1510000000000,"state":"active","ping":64},{"user_id":438,"name":"Stretch","steam_id":76561198200856614,"connected_time":4434000000000,"state":"active","ping":157},{"user_id":489,"name":"Christmas Ham","steam_id":76561198119601623,"connected_time":731000000000,"state":"active","ping":57},{"user_id":487,"name":"f√©nix","steam_id":76561198083199151,"connected_time":1069000000000,"state":"active","ping":59},{"user_id":481,"name":"Yelowchy","steam_id":76561198199416121,"connected_time":2014000000000,"state":"active","ping":65}]},{"server_id":320,"name":"Uncletopia | London | 3 | All Maps","name_short":"lon-3","host":"lon-1.uk.uncletopia.com","port":27035,"enabled":true,"region":"eu","cc":"gb","latitude":51.509865,"longitude":-0.118092,"reserved":0,"last_update":"0001-01-01T00:00:00Z","name_a2s":"Uncletopia | London | 3 | All Maps","protocol":17,"map":"pl_barnblitz","folder":"tf","game":"Team Fortress","app_id":440,"player_count":19,"max_players":24,"Bots":0,"server_type":"Dedicated","server_os":"Linux","password":true,"vac":true,"version":"7757534","steam_id":85568392924510192,"keywords":["nocrits","nodmgspread","payload","uncletopia"],"game_id":440,"stv_port":27036,"stv_name":"Uncletopia | London | 3 | All Maps | STV","players":[{"user_id":889,"name":".vic","steam_id":76561198283606917,"connected_time":2736000000000,"state":"active","ping":59},{"user_id":917,"name":"Andi Sheep","steam_id":76561197981149859,"connected_time":524000000000,"state":"active","ping":99},{"user_id":919,"name":"Bat in a thousand","steam_id":76561198320506848,"connected_time":399000000000,"state":"active","ping":37},{"user_id":890,"name":"Fatass","steam_id":76561198143115077,"connected_time":2686000000000,"state":"active","ping":96},{"user_id":923,"name":"PRMA","steam_id":76561198836584874,"connected_time":50000000000,"state":"active","ping":139},{"user_id":894,"name":"Fish","steam_id":76561199000716080,"connected_time":2369000000000,"state":"active","ping":56},{"user_id":885,"name":"T1mmy","steam_id":76561198133288715,"connected_time":2815000000000,"state":"active","ping":81},{"user_id":920,"name":"Big Mac Gaming","steam_id":76561198158209651,"connected_time":374000000000,"state":"active","ping":49},{"user_id":907,"name":"reisen","steam_id":76561198353720982,"connected_time":1580000000000,"state":"active","ping":74},{"user_id":921,"name":"Russenluster","steam_id":76561198118016220,"connected_time":304000000000,"state":"active","ping":71},{"user_id":922,"name":"Juiceydough","steam_id":76561197997323419,"connected_time":176000000000,"state":"active","ping":85},{"user_id":896,"name":"s–™rbog–™z","steam_id":76561198973921054,"connected_time":2092000000000,"state":"active","ping":63},{"user_id":897,"name":"Vitun vittu","steam_id":76561198110679463,"connected_time":2079000000000,"state":"active","ping":60},{"user_id":899,"name":"Dim","steam_id":76561198141549249,"connected_time":1921000000000,"state":"active","ping":123},{"user_id":882,"name":"superpenguin999","steam_id":76561198816398742,"connected_time":2895000000000,"state":"active","ping":168},{"user_id":913,"name":"Dad","steam_id":76561198048551680,"connected_time":993000000000,"state":"active","ping":55},{"user_id":904,"name":"Volcyy","steam_id":76561198063979124,"connected_time":1704000000000,"state":"active","ping":54},{"user_id":915,"name":"JohnnyRakieta","steam_id":76561198855789287,"connected_time":912000000000,"state":"active","ping":69},{"user_id":906,"name":"Vander","steam_id":76561198213669807,"connected_time":1610000000000,"state":"active","ping":77}]},{"server_id":321,"name":"Uncletopia | London | 4 | All Maps","name_short":"lon-4","host":"lon-1.uk.uncletopia.com","port":27045,"enabled":true,"region":"eu","cc":"gb","latitude":51.509865,"longitude":-0.118092,"reserved":0,"last_update":"0001-01-01T00:00:00Z","name_a2s":"Uncletopia | London | 4 | All Maps","protocol":17,"map":"pl_frontier_final","folder":"tf","game":"Team Fortress","app_id":440,"player_count":0,"max_players":24,"Bots":0,"server_type":"Dedicated","server_os":"Linux","password":true,"vac":true,"version":"7757534","steam_id":85568392924510193,"keywords":["nocrits","nodmgspread","payload","uncletopia"],"game_id":440,"stv_port":27046,"stv_name":"Uncletopia | London | 4 | All Maps | STV","players":null},{"server_id":21,"name":"Uncletopia | London | 5 | All Maps","name_short":"lon-5","host":"lon-1.uk.uncletopia.com","port":27055,"enabled":true,"region":"eu","cc":"gb","latitude":51.509865,"longitude":-0.118092,"reserved":0,"last_update":"0001-01-01T00:00:00Z","name_a2s":"Uncletopia | London | 5 | All Maps","protocol":17,"map":"cp_snakewater_final1","folder":"tf","game":"Team Fortress","app_id":440,"player_count":21,"max_players":24,"Bots":0,"server_type":"Dedicated","server_os":"Linux","password":true,"vac":true,"version":"7757534","steam_id":85568392924742829,"keywords":["cp","nocrits","nodmgspread","uncletopia"],"game_id":440,"stv_port":27056,"stv_name":"Uncletopia | London | 5 | All Maps | STV","players":[{"user_id":188,"name":"ChPerette","steam_id":76561198060004887,"connected_time":257000000000,"state":"active","ping":42},{"user_id":184,"name":"dorikin","steam_id":76561198076853047,"connected_time":476000000000,"state":"active","ping":85},{"user_id":140,"name":"Ecton","steam_id":76561198025103720,"connected_time":4174000000000,"state":"active","ping":55},{"user_id":60,"name":"Fat Pigeon","steam_id":76561198817940142,"connected_time":9593000000000,"state":"active","ping":46},{"user_id":127,"name":"not so yahoo","steam_id":76561198037550223,"connected_time":5058000000000,"state":"active","ping":92},{"user_id":191,"name":"John Noob","steam_id":76561197999170026,"connected_time":218000000000,"state":"active","ping":107},{"user_id":159,"name":"A Pigeon","steam_id":76561198114090555,"connected_time":1764000000000,"state":"active","ping":77},{"user_id":168,"name":"balls","steam_id":76561198058461401,"connected_time":1482000000000,"state":"active","ping":58},{"user_id":130,"name":"Mussolini","steam_id":76561198218384865,"connected_time":4962000000000,"state":"active","ping":107},{"user_id":118,"name":"Kraftlos","steam_id":76561198074350350,"connected_time":5687000000000,"state":"active","ping":126},{"user_id":192,"name":"Economic crisis","steam_id":76561198063562843,"connected_time":88000000000,"state":"active","ping":66},{"user_id":90,"name":"wouris","steam_id":76561198876188003,"connected_time":7302000000000,"state":"active","ping":74},{"user_id":165,"name":"dotdotdot","steam_id":76561198057628751,"connected_time":1592000000000,"state":"active","ping":61},{"user_id":161,"name":"Renard pos4","steam_id":76561197998908594,"connected_time":1671000000000,"state":"active","ping":63},{"user_id":171,"name":"deva uor","steam_id":76561198168251125,"connected_time":1291000000000,"state":"active","ping":73},{"user_id":162,"name":"atonto","steam_id":76561198424363858,"connected_time":1659000000000,"state":"active","ping":81},{"user_id":187,"name":"Laru","steam_id":76561197998838438,"connected_time":272000000000,"state":"active","ping":90},{"user_id":180,"name":"SPONGE","steam_id":76561198040933472,"connected_time":995000000000,"state":"active","ping":63},{"user_id":93,"name":"PizzaPete123","steam_id":76561198089478290,"connected_time":6669000000000,"state":"active","ping":37},{"user_id":154,"name":"TOG II*","steam_id":76561197993906091,"connected_time":2660000000000,"state":"active","ping":48},{"user_id":167,"name":"Heimerdinger","steam_id":76561198008653022,"connected_time":1552000000000,"state":"active","ping":46}]},{"server_id":22,"name":"Uncletopia | London | 6 | All Maps","name_short":"lon-6","host":"lon-1.uk.uncletopia.com","port":27065,"enabled":true,"region":"eu","cc":"gb","latitude":51.509865,"longitude":-0.118092,"reserved":0,"last_update":"0001-01-01T00:00:00Z","name_a2s":"Uncletopia | London | 6 | All Maps","protocol":17,"map":"koth_highpass","folder":"tf","game":"Team Fortress","app_id":440,"player_count":0,"max_players":24,"Bots":0,"server_type":"Dedicated","server_os":"Linux","password":true,"vac":true,"version":"7757534","steam_id":85568392924742830,"keywords":["cp","nocrits","nodmgspread","uncletopia"],"game_id":440,"stv_port":27066,"stv_name":"Uncletopia | London | 6 | All Maps | STV","players":null},{"server_id":40,"name":"Uncletopia | London | 7 | No Payload","name_short":"lon-7","host":"lon-1.uk.uncletopia.com","port":27075,"enabled":true,"region":"eu","cc":"gb","latitude":51.509865,"longitude":-0.118092,"reserved":0,"last_update":"0001-01-01T00:00:00Z","name_a2s":"Uncletopia | London | 7 | No Payload","protocol":17,"map":"cp_vanguard","folder":"tf","game":"Team Fortress","app_id":440,"player_count":0,"max_players":24,"Bots":0,"server_type":"Dedicated","server_os":"Linux","password":true,"vac":true,"version":"7757534","steam_id":85568392924964314,"keywords":["cp","nocrits","nodmgspread","uncletopia"],"game_id":440,"stv_port":27076,"stv_name":"Uncletopia | London | 7 | No Payload | STV","players":null},{"server_id":41,"name":"Uncletopia | London | 8 | Community","name_short":"lon-8","host":"lon-1.uk.uncletopia.com","port":27085,"enabled":true,"region":"eu","cc":"gb","latitude":51.509865,"longitude":-0.118092,"reserved":0,"last_update":"0001-01-01T00:00:00Z","name_a2s":"Uncletopia | London | 8 | Community","protocol":17,"map":"workshop/cp_kalinka_rc6a.ugc1272700588","folder":"tf","game":"Team Fortress","app_id":440,"player_count":0,"max_players":24,"Bots":0,"server_type":"Dedicated","server_os":"Linux","password":true,"vac":true,"version":"7757534","steam_id":85568392924964315,"keywords":["cp","nocrits","nodmgspread","uncletopia"],"game_id":440,"stv_port":27086,"stv_name":"Uncletopia | London | 8 | Community | STV","players":null},{"server_id":300,"name":"Uncletopia | Montr√©al | 1 | All Maps","name_short":"mtl-1","host":"mtl-1.ca.uncletopia.com","port":27015,"enabled":true,"region":"us-east","cc":"ca","latitude":45.50889,"longitude":-73.56167,"reserved":0,"last_update":"0001-01-01T00:00:00Z","name_a2s":"Uncletopia | Montr√©al | 1 | All Maps","protocol":17,"map":"pl_goldrush","folder":"tf","game":"Team Fortress","app_id":440,"player_count":16,"max_players":24,"Bots":0,"server_type":"Dedicated","server_os":"Linux","password":true,"vac":true,"version":"7757534","steam_id":85568392924500087,"keywords":["nocrits","nodmgspread","payload","uncletopia"],"game_id":440,"stv_port":27016,"stv_name":"Uncletopia | Montr√©al | 1 | All Maps | STV","players":[{"user_id":382,"name":"Mr.Friendly Reminders","steam_id":76561199067294491,"connected_time":92000000000,"state":"active","ping":48},{"user_id":372,"name":"V_V","steam_id":76561198236031182,"connected_time":1408000000000,"state":"active","ping":190},{"user_id":341,"name":"Sharper Spoon","steam_id":76561198877130687,"connected_time":3341000000000,"state":"active","ping":82},{"user_id":373,"name":"hehe","steam_id":76561198125913580,"connected_time":1143000000000,"state":"active","ping":46},{"user_id":371,"name":"hotline bling","steam_id":76561198984131011,"connected_time":1566000000000,"state":"active","ping":50},{"user_id":374,"name":"Spraxinator","steam_id":76561199083563607,"connected_time":1116000000000,"state":"active","ping":121},{"user_id":375,"name":"neptune","steam_id":76561198383404869,"connected_time":663000000000,"state":"active","ping":138},{"user_id":376,"name":"GoldtoothFour","steam_id":76561198055529332,"connected_time":419000000000,"state":"active","ping":71},{"user_id":384,"name":"BIGGEST MAC","steam_id":76561198847517098,"connected_time":55000000000,"state":"active","ping":302},{"user_id":378,"name":"Futureguy33","steam_id":76561198101336564,"connected_time":243000000000,"state":"active","ping":65},{"user_id":379,"name":"Pot Head Pixie","steam_id":76561198083024504,"connected_time":158000000000,"state":"active","ping":64},{"user_id":380,"name":"Ceiling Man","steam_id":76561198003959902,"connected_time":151000000000,"state":"active","ping":49},{"user_id":327,"name":"„ÇØ„É¨„Ç™„É©","steam_id":76561198000830794,"connected_time":5046000000000,"state":"active","ping":114},{"user_id":381,"name":"creamgravy573","steam_id":76561198093308746,"connected_time":131000000000,"state":"active","ping":64},{"user_id":344,"name":"denzy_","steam_id":76561198873788683,"connected_time":3265000000000,"state":"active","ping":73},{"user_id":345,"name":"garry","steam_id":76561199091007559,"connected_time":3242000000000,"state":"active","ping":144}]},{"server_id":301,"name":"Uncletopia | Montr√©al | 2 | All Maps","name_short":"mtl-2","host":"mtl-1.ca.uncletopia.com","port":27025,"enabled":true,"region":"us-east","cc":"ca","latitude":45.50889,"longitude":-73.56167,"reserved":0,"last_update":"0001-01-01T00:00:00Z","name_a2s":"Uncletopia | Montr√©al | 2 | All Maps","protocol":17,"map":"pl_barnblitz","folder":"tf","game":"Team Fortress","app_id":440,"player_count":0,"max_players":24,"Bots":0,"server_type":"Dedicated","server_os":"Linux","password":true,"vac":true,"version":"7757534","steam_id":85568392924500088,"keywords":["nocrits","nodmgspread","payload","uncletopia"],"game_id":440,"stv_port":27026,"stv_name":"Uncletopia | Montr√©al | 2 | All Maps | STV","players":null},{"server_id":302,"name":"Uncletopia | Montr√©al | 3 | All Maps","name_short":"mtl-3","host":"mtl-1.ca.uncletopia.com","port":27035,"enabled":true,"region":"us-east","cc":"ca","latitude":45.50889,"longitude":-73.56167,"reserved":0,"last_update":"0001-01-01T00:00:00Z","name_a2s":"Uncletopia | Montr√©al | 3 | All Maps","protocol":17,"map":"pl_pier","folder":"tf","game":"Team Fortress","app_id":440,"player_count":18,"max_players":24,"Bots":0,"server_type":"Dedicated","server_os":"Linux","password":true,"vac":true,"version":"7757534","steam_id":85568392924500089,"keywords":["nocrits","nodmgspread","payload","uncletopia"],"game_id":440,"stv_port":27036,"stv_name":"Uncletopia | Montr√©al | 3 | All Maps | STV","players":[{"user_id":56,"name":"adamo","steam_id":76561198050241554,"connected_time":1546000000000,"state":"active","ping":60},{"user_id":57,"name":"Recursive Gamer","steam_id":76561198042102952,"connected_time":1521000000000,"state":"active","ping":75},{"user_id":46,"name":"[BBW] Justario","steam_id":76561198016095410,"connected_time":2501000000000,"state":"active","ping":50},{"user_id":74,"name":"BLACK MAN FROM JOJO","steam_id":76561198272948471,"connected_time":191000000000,"state":"spawning","ping":53},{"user_id":72,"name":"nat","steam_id":76561198865090309,"connected_time":669000000000,"state":"spawning","ping":68},{"user_id":29,"name":"Dad","steam_id":76561198040532757,"connected_time":5793000000000,"state":"spawning","ping":77},{"user_id":33,"name":"badbobdooley","steam_id":76561199092672434,"connected_time":4629000000000,"state":"spawning","ping":263},{"user_id":53,"name":"Jackthan","steam_id":76561198062056544,"connected_time":2221000000000,"state":"spawning","ping":310},{"user_id":75,"name":"Slashes","steam_id":76561197968573499,"connected_time":47000000000,"state":"spawning","ping":25},{"user_id":73,"name":"that fat croc from donkey kong","steam_id":76561198159172495,"connected_time":492000000000,"state":"active","ping":151},{"user_id":50,"name":"Hifu","steam_id":76561198088930552,"connected_time":2462000000000,"state":"active","ping":62},{"user_id":52,"name":"Nohablo96","steam_id":76561198011206189,"connected_time":2359000000000,"state":"active","ping":130},{"user_id":70,"name":"an inebriated newt fancier","steam_id":76561197985428155,"connected_time":843000000000,"state":"active","ping":343},{"user_id":71,"name":"DukeOfHazzard","steam_id":76561198021486476,"connected_time":842000000000,"state":"active","ping":101},{"user_id":62,"name":"frizzle fried","steam_id":76561198062991744,"connected_time":1432000000000,"state":"active","ping":229},{"user_id":65,"name":"Tempo","steam_id":76561198228927752,"connected_time":1387000000000,"state":"active","ping":86},{"user_id":66,"name":"Zenabie","steam_id":76561198088372680,"connected_time":1273000000000,"state":"spawning","ping":76},{"user_id":67,"name":"ur gaslighting bf","steam_id":76561198190323610,"connected_time":1252000000000,"state":"spawning","ping":238}]},{"server_id":303,"name":"Uncletopia | Montr√©al | 4 | No Payload","name_short":"mtl-4","host":"mtl-1.ca.uncletopia.com","port":27045,"enabled":true,"region":"us-east","cc":"ca","latitude":45.50889,"longitude":-73.56167,"reserved":0,"last_update":"0001-01-01T00:00:00Z","name_a2s":"Uncletopia | Montr√©al | 4 | No Payload","protocol":17,"map":"pl_pier","folder":"tf","game":"Team Fortress","app_id":440,"player_count":0,"max_players":24,"Bots":0,"server_type":"Dedicated","server_os":"Linux","password":true,"vac":true,"version":"7757534","steam_id":85568392924500090,"keywords":["nocrits","nodmgspread","payload","uncletopia"],"game_id":440,"stv_port":27046,"stv_name":"Uncletopia | Montr√©al | 4 | No Payload | STV","players":null},{"server_id":13,"name":"Uncletopia | New York City | 1 | All Maps","name_short":"nyc-1","host":"nyc-1.us.uncletopia.com","port":27015,"enabled":true,"region":"us-east","cc":"us","latitude":40.73061,"longitude":-73.93524,"reserved":0,"last_update":"0001-01-01T00:00:00Z","name_a2s":"Uncletopia | New York City | 1 | All Maps","protocol":17,"map":"pl_swiftwater_final1","folder":"tf","game":"Team Fortress","app_id":440,"player_count":24,"max_players":24,"Bots":0,"server_type":"Dedicated","server_os":"Linux","password":true,"vac":true,"version":"7757534","steam_id":85568392924469993,"keywords":["nocrits","nodmgspread","payload","uncletopia"],"game_id":440,"stv_port":27016,"stv_name":"Uncletopia | New York City | 1 | All Maps | STV","players":[{"user_id":105,"name":"Seal of Approval","steam_id":76561198108880110,"connected_time":209000000000,"state":"active","ping":83},{"user_id":102,"name":"ePun","steam_id":76561198271891295,"connected_time":229000000000,"state":"active","ping":61},{"user_id":103,"name":"Training Arc","steam_id":76561198038832034,"connected_time":227000000000,"state":"active","ping":120},{"user_id":96,"name":"dan","steam_id":76561197984998426,"connected_time":597000000000,"state":"active","ping":109},{"user_id":89,"name":"Medic Gaming","steam_id":76561199275406250,"connected_time":1002000000000,"state":"active","ping":61},{"user_id":54,"name":"YoshaBoss","steam_id":76561198449656454,"connected_time":2412000000000,"state":"active","ping":55},{"user_id":109,"name":"Radioactive Mexican Ape Shit","steam_id":76561198347012088,"connected_time":90000000000,"state":"active","ping":74},{"user_id":106,"name":"Icaruss","steam_id":76561199087157705,"connected_time":187000000000,"state":"active","ping":114},{"user_id":55,"name":"Convict Police Officers","steam_id":76561197993527275,"connected_time":2398000000000,"state":"active","ping":60},{"user_id":23,"name":"Smile Always","steam_id":76561198298416058,"connected_time":3638000000000,"state":"active","ping":66},{"user_id":97,"name":"Rakk","steam_id":76561198855176174,"connected_time":463000000000,"state":"active","ping":106},{"user_id":98,"name":"Ninty","steam_id":76561199364725776,"connected_time":395000000000,"state":"active","ping":158},{"user_id":90,"name":"Wiggly","steam_id":76561198015077201,"connected_time":936000000000,"state":"active","ping":54},{"user_id":94,"name":"Chin","steam_id":76561198247426906,"connected_time":699000000000,"state":"active","ping":63},{"user_id":32,"name":"papa guacamole","steam_id":76561198167665608,"connected_time":3263000000000,"state":"active","ping":73},{"user_id":108,"name":"Shmebulock","steam_id":76561198046941925,"connected_time":133000000000,"state":"active","ping":73},{"user_id":51,"name":"Lilith","steam_id":76561198125102885,"connected_time":2534000000000,"state":"active","ping":50},{"user_id":91,"name":"Scooter O'Boyl","steam_id":76561197971687069,"connected_time":837000000000,"state":"active","ping":58},{"user_id":93,"name":"Dark Saturday","steam_id":76561198152056777,"connected_time":728000000000,"state":"active","ping":63},{"user_id":107,"name":"UnforgettableLuncheon","steam_id":76561198811611182,"connected_time":172000000000,"state":"active","ping":81},{"user_id":71,"name":"Orange Triangle","steam_id":76561198320498182,"connected_time":1742000000000,"state":"active","ping":121},{"user_id":72,"name":"Xavibite","steam_id":76561198209380493,"connected_time":1666000000000,"state":"active","ping":44},{"user_id":62,"name":"Comfy Monkey","steam_id":76561197998434936,"connected_time":2140000000000,"state":"active","ping":44},{"user_id":87,"name":"Larry from Pokemon SV","steam_id":76561198095245223,"connected_time":1045000000000,"state":"active","ping":49}]},{"server_id":14,"name":"Uncletopia | New York City | 2 | All Maps","name_short":"nyc-2","host":"nyc-1.us.uncletopia.com","port":27025,"enabled":true,"region":"us-east","cc":"us","latitude":40.73061,"longitude":-73.93524,"reserved":0,"last_update":"0001-01-01T00:00:00Z","name_a2s":"Uncletopia | New York City | 2 | All Maps","protocol":17,"map":"koth_cascade","folder":"tf","game":"Team Fortress","app_id":440,"player_count":0,"max_players":24,"Bots":0,"server_type":"Dedicated","server_os":"Linux","password":true,"vac":true,"version":"7757534","steam_id":85568392924469994,"keywords":["cp","nocrits","nodmgspread","uncletopia"],"game_id":440,"stv_port":27026,"stv_name":"Uncletopia | New York City | 2 | All Maps | STV","players":null},{"server_id":15,"name":"Uncletopia | New York City | 3 | Stopwatch Beta","name_short":"nyc-3","host":"nyc-1.us.uncletopia.com","port":27035,"enabled":true,"region":"us-east","cc":"us","latitude":40.73061,"longitude":-73.93524,"reserved":0,"last_update":"0001-01-01T00:00:00Z","name_a2s":"Uncletopia | New York City | 3 | Stopwatch Beta","protocol":17,"map":"workshop/pl_barnblitz_pro7.ugc582280235","folder":"tf","game":"Team Fortress","app_id":440,"player_count":0,"max_players":24,"Bots":0,"server_type":"Dedicated","server_os":"Linux","password":true,"vac":true,"version":"7757534","steam_id":85568392924742820,"keywords":["nocrits","nodmgspread","payload","uncletopia"],"game_id":440,"stv_port":27036,"stv_name":"Uncletopia | New York City | 3 | Stopwatch Beta | STV","players":null},{"server_id":16,"name":"Uncletopia | New York City | 4 | Community","name_short":"nyc-4","host":"nyc-1.us.uncletopia.com","port":27045,"enabled":true,"region":"us-east","cc":"us","latitude":40.73061,"longitude":-73.93524,"reserved":0,"last_update":"0001-01-01T00:00:00Z","name_a2s":"Uncletopia | New York City | 4 | Community","protocol":17,"map":"workshop/koth_ashville_final.ugc2130459942","folder":"tf","game":"Team Fortress","app_id":440,"player_count":0,"max_players":24,"Bots":0,"server_type":"Dedicated","server_os":"Linux","password":true,"vac":true,"version":"7757534","steam_id":85568392924742821,"keywords":["cp","nocrits","nodmgspread","uncletopia"],"game_id":440,"stv_port":27046,"stv_name":"Uncletopia | New York City | 4 | Community | STV","players":null},{"server_id":142,"name":"Uncletopia | S√£o Paulo | 1 | All Maps","name_short":"sao-1","host":"sao-1.br.uncletopia.com","port":27015,"enabled":true,"region":"sa","cc":"br","latitude":-23.533773,"longitude":-46.62529,"reserved":0,"last_update":"0001-01-01T00:00:00Z","name_a2s":"Uncletopia | S√£o Paulo | 1 | All Maps","protocol":17,"map":"koth_lakeside_final","folder":"tf","game":"Team Fortress","app_id":440,"player_count":0,"max_players":24,"Bots":0,"server_type":"Dedicated","server_os":"Linux","password":true,"vac":true,"version":"7757534","steam_id":85568392924469996,"keywords":["cp","nocrits","nodmgspread","uncletopia"],"game_id":440,"stv_port":27016,"stv_name":"Uncletopia | S√£o Paulo | 1 | All Maps | STV","players":null},{"server_id":143,"name":"Uncletopia | S√£o Paulo | 2 | All Maps","name_short":"sao-2","host":"sao-2.br.uncletopia.com","port":27015,"enabled":true,"region":"sa","cc":"br","latitude":-23.533773,"longitude":-46.62529,"reserved":0,"last_update":"0001-01-01T00:00:00Z","name_a2s":"Uncletopia | S√£o Paulo | 2 | All Maps","protocol":17,"map":"pl_snowycoast","folder":"tf","game":"Team Fortress","app_id":440,"player_count":0,"max_players":24,"Bots":0,"server_type":"Dedicated","server_os":"Linux","password":true,"vac":true,"version":"7757534","steam_id":85568392924485349,"keywords":["nocrits","nodmgspread","payload","uncletopia"],"game_id":440,"stv_port":27016,"stv_name":"Uncletopia | S√£o Paulo | 2 | All Maps | STV","players":null},{"server_id":7,"name":"Uncletopia | Seattle | 1 | All Maps","name_short":"sea-1","host":"sea-1.us.uncletopia.com","port":27015,"enabled":true,"region":"us-west","cc":"us","latitude":47.608013,"longitude":-122.33517,"reserved":0,"last_update":"0001-01-01T00:00:00Z","name_a2s":"Uncletopia | Seattle | 1 | All Maps","protocol":17,"map":"pl_swiftwater_final1","folder":"tf","game":"Team Fortress","app_id":440,"player_count":24,"max_players":24,"Bots":0,"server_type":"Dedicated","server_os":"Linux","password":true,"vac":true,"version":"7757534","steam_id":85568392924469997,"keywords":["nocrits","nodmgspread","payload","uncletopia"],"game_id":440,"stv_port":27016,"stv_name":"Uncletopia | Seattle | 1 | All Maps | STV","players":[{"user_id":468,"name":"Zero","steam_id":76561199383267408,"connected_time":204000000000,"state":"active","ping":142},{"user_id":452,"name":"robertJMP","steam_id":76561199066260919,"connected_time":1285000000000,"state":"active","ping":156},{"user_id":341,"name":"merkure","steam_id":76561198213385439,"connected_time":10244000000000,"state":"active","ping":70},{"user_id":466,"name":"https://en.wikipedia.org/","steam_id":76561198261326806,"connected_time":233000000000,"state":"active","ping":69},{"user_id":407,"name":"Meowmers","steam_id":76561197994170810,"connected_time":4463000000000,"state":"active","ping":110},{"user_id":442,"name":"Van","steam_id":76561198073518712,"connected_time":1877000000000,"state":"active","ping":113},{"user_id":460,"name":"Joseph Stalin","steam_id":76561198126234142,"connected_time":952000000000,"state":"active","ping":72},{"user_id":454,"name":"Shuu","steam_id":76561199199180558,"connected_time":1254000000000,"state":"active","ping":116},{"user_id":432,"name":"smile possession","steam_id":76561198110152060,"connected_time":2441000000000,"state":"active","ping":45},{"user_id":406,"name":"AmyPercent","steam_id":76561198071896932,"connected_time":4533000000000,"state":"active","ping":77},{"user_id":462,"name":"PianoDeep","steam_id":76561199182813963,"connected_time":746000000000,"state":"active","ping":99},{"user_id":464,"name":"M4 Sherman","steam_id":76561198126990820,"connected_time":432000000000,"state":"active","ping":102},{"user_id":463,"name":"dirty30","steam_id":76561198021226566,"connected_time":571000000000,"state":"active","ping":46},{"user_id":443,"name":"4 life","steam_id":76561198175961598,"connected_time":1873000000000,"state":"active","ping":89},{"user_id":436,"name":"corbenis","steam_id":76561199012442511,"connected_time":2257000000000,"state":"active","ping":105},{"user_id":446,"name":"JayJayMed320 (She/Her)","steam_id":76561198286568264,"connected_time":1321000000000,"state":"active","ping":50},{"user_id":461,"name":"Keamy","steam_id":76561199471434875,"connected_time":765000000000,"state":"active","ping":38},{"user_id":451,"name":"Nibotshooter","steam_id":76561199284825579,"connected_time":1301000000000,"state":"active","ping":92},{"user_id":424,"name":"Fermenting Kiwi","steam_id":76561198253303497,"connected_time":3626000000000,"state":"active","ping":78},{"user_id":467,"name":"flange","steam_id":76561198040182692,"connected_time":223000000000,"state":"active","ping":178},{"user_id":447,"name":"Mico (ENA Enthusiast)","steam_id":76561198125462953,"connected_time":1319000000000,"state":"active","ping":46},{"user_id":465,"name":"Icy","steam_id":76561198125015366,"connected_time":284000000000,"state":"active","ping":113},{"user_id":404,"name":"Clean your room","steam_id":76561198011617388,"connected_time":5040000000000,"state":"active","ping":62},{"user_id":469,"name":"IHave2000HoursButPlayLikeIHave1","steam_id":76561198295280927,"connected_time":171000000000,"state":"active","ping":77}]},{"server_id":119,"name":"Uncletopia | Seattle | 2 | All Maps","name_short":"sea-2","host":"sea-1.us.uncletopia.com","port":27025,"enabled":true,"region":"us-west","cc":"us","latitude":47.608013,"longitude":-122.33517,"reserved":0,"last_update":"0001-01-01T00:00:00Z","name_a2s":"Uncletopia | Seattle | 2 | All Maps","protocol":17,"map":"cp_sunshine","folder":"tf","game":"Team Fortress","app_id":440,"player_count":24,"max_players":24,"Bots":0,"server_type":"Dedicated","server_os":"Linux","password":true,"vac":true,"version":"7757534","steam_id":85568392924469998,"keywords":["cp","nocrits","nodmgspread","uncletopia"],"game_id":440,"stv_port":27026,"stv_name":"Uncletopia | Seattle | 2 | All Maps | STV","players":[{"user_id":277,"name":"Hero Smasher","steam_id":76561198150681669,"connected_time":3410000000000,"state":"active","ping":67},{"user_id":9,"name":"Spoilt Pudding","steam_id":76561198001195423,"connected_time":16319000000000,"state":"active","ping":100},{"user_id":303,"name":"Lord Scrubling","steam_id":76561198263744445,"connected_time":1302000000000,"state":"active","ping":98},{"user_id":304,"name":"Pourpel","steam_id":76561198059125470,"connected_time":1278000000000,"state":"active","ping":131},{"user_id":306,"name":"jordanddean2016","steam_id":76561198323772677,"connected_time":1090000000000,"state":"active","ping":60},{"user_id":271,"name":"Reiidaya","steam_id":76561198325306660,"connected_time":3564000000000,"state":"active","ping":52},{"user_id":260,"name":"COOL master_9","steam_id":76561198073041151,"connected_time":3835000000000,"state":"active","ping":99},{"user_id":312,"name":"Navigatxr","steam_id":76561199185153789,"connected_time":579000000000,"state":"active","ping":60},{"user_id":302,"name":"Aeront","steam_id":76561198072032723,"connected_time":1526000000000,"state":"active","ping":138},{"user_id":296,"name":"trackpad gaming | f2p","steam_id":76561198840414371,"connected_time":1957000000000,"state":"active","ping":50},{"user_id":229,"name":"lili.winters","steam_id":76561199391478575,"connected_time":6082000000000,"state":"active","ping":74},{"user_id":313,"name":"Superman123389","steam_id":76561198267472539,"connected_time":138000000000,"state":"active","ping":94},{"user_id":279,"name":"Boop Oop A Doop","steam_id":76561198036370174,"connected_time":3406000000000,"state":"active","ping":89},{"user_id":311,"name":"Path To Victory","steam_id":76561198026958898,"connected_time":878000000000,"state":"active","ping":120},{"user_id":305,"name":"oil","steam_id":76561198099980149,"connected_time":1230000000000,"state":"active","ping":78},{"user_id":292,"name":"üé´Wooteryüé´","steam_id":76561199237356695,"connected_time":2380000000000,"state":"active","ping":68},{"user_id":257,"name":"all men are pigs","steam_id":76561198080301085,"connected_time":4041000000000,"state":"active","ping":61},{"user_id":309,"name":"EL Heddo","steam_id":76561199239477515,"connected_time":1011000000000,"state":"active","ping":117},{"user_id":284,"name":"420 Shrek It","steam_id":76561198399854981,"connected_time":2871000000000,"state":"active","ping":95},{"user_id":300,"name":"Furious George","steam_id":76561198405111646,"connected_time":1616000000000,"state":"active","ping":72},{"user_id":297,"name":"Scrux","steam_id":76561198129763115,"connected_time":1943000000000,"state":"active","ping":88},{"user_id":298,"name":"Villchip","steam_id":76561198198599982,"connected_time":1915000000000,"state":"active","ping":59},{"user_id":274,"name":"Boyaredeen","steam_id":76561198880492636,"connected_time":3503000000000,"state":"active","ping":57},{"user_id":310,"name":"Cpt. Dingle","steam_id":76561198025720199,"connected_time":994000000000,"state":"active","ping":69}]},{"server_id":406,"name":"Uncletopia | Seattle | 3 | Stopwatch Beta","name_short":"sea-3","host":"sea-1.us.uncletopia.com","port":27035,"enabled":true,"region":"us-west","cc":"us","latitude":47.608013,"longitude":-122.33517,"reserved":0,"last_update":"0001-01-01T00:00:00Z","name_a2s":"Uncletopia | Seattle | 3 | Stopwatch Beta","protocol":17,"map":"workshop/koth_ashville_final.ugc2130459942","folder":"tf","game":"Team Fortress","app_id":440,"player_count":0,"max_players":24,"Bots":0,"server_type":"Dedicated","server_os":"Linux","password":true,"vac":true,"version":"7757534","steam_id":85568392924515217,"keywords":["cp","nocrits","nodmgspread","uncletopia"],"game_id":440,"stv_port":27036,"stv_name":"Uncletopia | Seattle | 3 | Stopwatch Beta | STV","players":null},{"server_id":17,"name":"Uncletopia | San Francisco | 1 | All Maps","name_short":"sfo-1","host":"sfo-1.us.uncletopia.com","port":27015,"enabled":true,"region":"us-west","cc":"us","latitude":37.77397,"longitude":-122.4313,"reserved":0,"last_update":"0001-01-01T00:00:00Z","name_a2s":"Uncletopia | San Francisco | 1 | All Maps","protocol":17,"map":"cp_process_final","folder":"tf","game":"Team Fortress","app_id":440,"player_count":24,"max_players":24,"Bots":0,"server_type":"Dedicated","server_os":"Linux","password":true,"vac":true,"version":"7757534","steam_id":85568392924469999,"keywords":["cp","nocrits","nodmgspread","uncletopia"],"game_id":440,"stv_port":27016,"stv_name":"Uncletopia | San Francisco | 1 | All Maps | STV","players":[{"user_id":139,"name":"Serene Salamander","steam_id":76561198001094770,"connected_time":2353000000000,"state":"active","ping":69},{"user_id":152,"name":"berserker_tf2 yt","steam_id":76561198303464488,"connected_time":1330000000000,"state":"active","ping":62},{"user_id":165,"name":"obese farts","steam_id":76561198206922028,"connected_time":755000000000,"state":"active","ping":60},{"user_id":162,"name":"7billion","steam_id":76561198274476276,"connected_time":795000000000,"state":"active","ping":90},{"user_id":180,"name":"FluffyPugs101|Ham Mafia|","steam_id":76561199096413234,"connected_time":95000000000,"state":"active","ping":151},{"user_id":14,"name":"Grammaring","steam_id":76561198867366139,"connected_time":10059000000000,"state":"active","ping":69},{"user_id":156,"name":"Tybalt","steam_id":76561198142464684,"connected_time":1107000000000,"state":"active","ping":92},{"user_id":159,"name":"Jango","steam_id":76561198121922413,"connected_time":964000000000,"state":"active","ping":52},{"user_id":150,"name":"Wacks","steam_id":76561198079476100,"connected_time":1446000000000,"state":"active","ping":55},{"user_id":157,"name":"SomeFuckingGuy #SAVETF2","steam_id":76561199239165015,"connected_time":1104000000000,"state":"active","ping":81},{"user_id":163,"name":"DREAMVXIIILE","steam_id":76561199268197009,"connected_time":779000000000,"state":"active","ping":67},{"user_id":166,"name":"kebo","steam_id":76561198237159430,"connected_time":697000000000,"state":"active","ping":69},{"user_id":167,"name":"Clownegade","steam_id":76561198136641954,"connected_time":684000000000,"state":"active","ping":56},{"user_id":172,"name":"Darakrish","steam_id":76561198133126686,"connected_time":566000000000,"state":"active","ping":115},{"user_id":131,"name":"Blitzy","steam_id":76561198149472890,"connected_time":2940000000000,"state":"active","ping":77},{"user_id":105,"name":"Assassin","steam_id":76561198321410235,"connected_time":4935000000000,"state":"active","ping":58},{"user_id":132,"name":"ratie","steam_id":76561198059399661,"connected_time":2934000000000,"state":"active","ping":83},{"user_id":169,"name":"!! BRO IS FLABBERGASTED !!","steam_id":76561198135036396,"connected_time":672000000000,"state":"active","ping":104},{"user_id":179,"name":"Dr. Underscore","steam_id":76561198097430579,"connected_time":129000000000,"state":"active","ping":117},{"user_id":171,"name":"DaimosZ","steam_id":76561198427670710,"connected_time":636000000000,"state":"active","ping":105},{"user_id":141,"name":"Bad Namesman","steam_id":76561198027205470,"connected_time":2319000000000,"state":"active","ping":70},{"user_id":176,"name":"Professor Peppermint","steam_id":76561198184017082,"connected_time":337000000000,"state":"active","ping":75},{"user_id":181,"name":"Gooner Witch","steam_id":76561198305488625,"connected_time":64000000000,"state":"active","ping":85},{"user_id":178,"name":"Matte :)","steam_id":76561198070631073,"connected_time":310000000000,"state":"active","ping":45}]},{"server_id":18,"name":"Uncletopia | San Francisco | 2 | All Maps","name_short":"sfo-2","host":"sfo-1.us.uncletopia.com","port":27025,"enabled":true,"region":"us-west","cc":"us","latitude":37.77397,"longitude":-122.4313,"reserved":0,"last_update":"0001-01-01T00:00:00Z","name_a2s":"Uncletopia | San Francisco | 2 | All Maps","protocol":17,"map":"koth_viaduct","folder":"tf","game":"Team Fortress","app_id":440,"player_count":0,"max_players":24,"Bots":0,"server_type":"Dedicated","server_os":"Linux","password":true,"vac":true,"version":"7757534","steam_id":85568392924470000,"keywords":["cp","nocrits","nodmgspread","uncletopia"],"game_id":440,"stv_port":27026,"stv_name":"Uncletopia | San Francisco | 2 | All Maps | STV","players":null},{"server_id":19,"name":"Uncletopia | San Francisco | 3 | Stopwatch Beta","name_short":"sfo-3","host":"sfo-1.us.uncletopia.com","port":27035,"enabled":true,"region":"us-west","cc":"us","latitude":37.77397,"longitude":-122.4313,"reserved":0,"last_update":"0001-01-01T00:00:00Z","name_a2s":"Uncletopia | San Francisco | 3 | Stopwatch Beta","protocol":17,"map":"pl_swiftwater_final1","folder":"tf","game":"Team Fortress","app_id":440,"player_count":0,"max_players":24,"Bots":0,"server_type":"Dedicated","server_os":"Linux","password":true,"vac":true,"version":"7757534","steam_id":85568392924742824,"keywords":["nocrits","nodmgspread","payload","uncletopia"],"game_id":440,"stv_port":27036,"stv_name":"Uncletopia | San Francisco | 3 | Stopwatch Beta | STV","players":null},{"server_id":20,"name":"Uncletopia | San Francisco | 4 | Community","name_short":"sfo-4","host":"sfo-1.us.uncletopia.com","port":27045,"enabled":true,"region":"us-west","cc":"us","latitude":37.77397,"longitude":-122.4313,"reserved":0,"last_update":"0001-01-01T00:00:00Z","name_a2s":"Uncletopia | San Francisco | 4 | Community","protocol":17,"map":"workshop/koth_kemptown_rc1.ugc767410655","folder":"tf","game":"Team Fortress","app_id":440,"player_count":0,"max_players":24,"Bots":0,"server_type":"Dedicated","server_os":"Linux","password":true,"vac":true,"version":"7757534","steam_id":85568392924742826,"keywords":["cp","nocrits","nodmgspread","uncletopia"],"game_id":440,"stv_port":27046,"stv_name":"Uncletopia | San Francisco | 4 | Community | STV","players":null},{"server_id":141,"name":"Uncletopia | Sydney | 1 | All Maps","name_short":"syd-1","host":"syd-1.au.uncletopia.com","port":27015,"enabled":true,"region":"au","cc":"au","latitude":-33.865143,"longitude":151.2099,"reserved":0,"last_update":"0001-01-01T00:00:00Z","name_a2s":"Uncletopia | Sydney | 1 | All Maps","protocol":17,"map":"pl_pier","folder":"tf","game":"Team Fortress","app_id":440,"player_count":0,"max_players":24,"Bots":0,"server_type":"Dedicated","server_os":"Linux","password":true,"vac":true,"version":"7757534","steam_id":85568392924470001,"keywords":["nocrits","nodmgspread","payload","uncletopia"],"game_id":440,"stv_port":27016,"stv_name":"Uncletopia | Sydney | 1 | All Maps | STV","players":null},{"server_id":123,"name":"Uncletopia | Sydney | 2 | All Maps","name_short":"syd-2","host":"syd-1.au.uncletopia.com","port":27025,"enabled":true,"region":"au","cc":"au","latitude":-33.865143,"longitude":151.2099,"reserved":0,"last_update":"0001-01-01T00:00:00Z","name_a2s":"Uncletopia | Sydney | 2 | All Maps","protocol":17,"map":"cp_snakewater_final1","folder":"tf","game":"Team Fortress","app_id":440,"player_count":0,"max_players":24,"Bots":0,"server_type":"Dedicated","server_os":"Linux","password":true,"vac":true,"version":"7757534","steam_id":85568392924470002,"keywords":["cp","nocrits","nodmgspread","uncletopia"],"game_id":440,"stv_port":27026,"stv_name":"Uncletopia | Sydney | 2 | All Maps | STV","players":null},{"server_id":395,"name":"Uncletopia | Sydney | 3 | All Maps","name_short":"syd-3","host":"syd-1.au.uncletopia.com","port":27035,"enabled":true,"region":"au","cc":"au","latitude":-33.865143,"longitude":151.2099,"reserved":0,"last_update":"0001-01-01T00:00:00Z","name_a2s":"Uncletopia | Sydney | 3 | All Maps","protocol":17,"map":"pl_borneo","folder":"tf","game":"Team Fortress","app_id":440,"player_count":0,"max_players":24,"Bots":0,"server_type":"Dedicated","server_os":"Linux","password":true,"vac":true,"version":"7757534","steam_id":85568392925194467,"keywords":["nocrits","nodmgspread","payload","uncletopia"],"game_id":440,"stv_port":27036,"stv_name":"Uncletopia | Sydney | 3 | All Maps | STV","players":null},{"server_id":396,"name":"Uncletopia | Sydney | 4 | All Maps","name_short":"syd-4","host":"syd-1.au.uncletopia.com","port":27045,"enabled":true,"region":"au","cc":"au","latitude":-33.865143,"longitude":151.2099,"reserved":0,"last_update":"0001-01-01T00:00:00Z","name_a2s":"Uncletopia | Sydney | 4 | All Maps","protocol":17,"map":"cp_process_final","folder":"tf","game":"Team Fortress","app_id":440,"player_count":0,"max_players":24,"Bots":0,"server_type":"Dedicated","server_os":"Linux","password":true,"vac":true,"version":"7757534","steam_id":85568392925397958,"keywords":["cp","nocrits","nodmgspread","uncletopia"],"game_id":440,"stv_port":27046,"stv_name":"Uncletopia | Sydney | 4 | All Maps | STV","players":null},{"server_id":58,"name":"Uncletopia | Sydney | 5 | Stopwatch Beta","name_short":"syd-5","host":"syd-1.au.uncletopia.com","port":27055,"enabled":true,"region":"au","cc":"au","latitude":-33.865143,"longitude":151.2099,"reserved":0,"last_update":"0001-01-01T00:00:00Z","name_a2s":"Uncletopia | Sydney | 5 | Stopwatch Beta","protocol":17,"map":"koth_cascade","folder":"tf","game":"Team Fortress","app_id":440,"player_count":0,"max_players":24,"Bots":0,"server_type":"Dedicated","server_os":"Linux","password":true,"vac":true,"version":"7757534","steam_id":85568392925397959,"keywords":["cp","nocrits","nodmgspread","uncletopia"],"game_id":440,"stv_port":27056,"stv_name":"Uncletopia | Sydney | 5 | Stopwatch Beta | STV","players":null},{"server_id":59,"name":"Uncletopia | Sydney | 6 | Community","name_short":"syd-6","host":"syd-1.au.uncletopia.com","port":27065,"enabled":true,"region":"au","cc":"au","latitude":-33.865143,"longitude":151.2099,"reserved":0,"last_update":"0001-01-01T00:00:00Z","name_a2s":"Uncletopia | Sydney | 6 | Community","protocol":17,"map":"pl_badwater","folder":"tf","game":"Team Fortress","app_id":440,"player_count":0,"max_players":24,"Bots":0,"server_type":"Dedicated","server_os":"Linux","password":true,"vac":true,"version":"7757534","steam_id":85568392925397960,"keywords":["nocrits","nodmgspread","payload","uncletopia"],"game_id":440,"stv_port":27066,"stv_name":"Uncletopia | Sydney | 6 | Community | STV","players":null},{"server_id":49,"name":"Uncletopia | Warsaw | 1 | All Maps","name_short":"waw-1","host":"waw-1.pl.uncletopia.com","port":27015,"enabled":true,"region":"eu","cc":"pl","latitude":52.2297,"longitude":21.017532,"reserved":0,"last_update":"0001-01-01T00:00:00Z","name_a2s":"","protocol":0,"map":"","folder":"","game":"","app_id":0,"player_count":0,"max_players":0,"Bots":0,"server_type":"","server_os":"","password":false,"vac":false,"version":"","steam_id":0,"keywords":null,"game_id":0,"stv_port":0,"stv_name":"","players":null},{"server_id":50,"name":"Uncletopia | Warsaw | 2 | All Maps","name_short":"waw-2","host":"waw-1.pl.uncletopia.com","port":27025,"enabled":true,"region":"eu","cc":"pl","latitude":52.2297,"longitude":21.017532,"reserved":0,"last_update":"0001-01-01T00:00:00Z","name_a2s":"Uncletopia | Warsaw | 2 | All Maps","protocol":17,"map":"pl_borneo","folder":"tf","game":"Team Fortress","app_id":440,"player_count":0,"max_players":24,"Bots":0,"server_type":"Dedicated","server_os":"Linux","password":true,"vac":true,"version":"7757534","steam_id":85568392925397851,"keywords":["nocrits","nodmgspread","payload","uncletopia"],"game_id":440,"stv_port":27026,"stv_name":"Uncletopia | Warsaw | 2 | All Maps | STV","players":null},{"server_id":51,"name":"Uncletopia | Warsaw | 3 | All Maps","name_short":"waw-3","host":"waw-1.pl.uncletopia.com","port":27035,"enabled":true,"region":"eu","cc":"pl","latitude":52.2297,"longitude":21.017532,"reserved":0,"last_update":"0001-01-01T00:00:00Z","name_a2s":"Uncletopia | Warsaw | 3 | All Maps","protocol":17,"map":"pl_barnblitz","folder":"tf","game":"Team Fortress","app_id":440,"player_count":0,"max_players":24,"Bots":0,"server_type":"Dedicated","server_os":"Linux","password":true,"vac":true,"version":"7757534","steam_id":85568392925397852,"keywords":["nocrits","nodmgspread","payload","uncletopia"],"game_id":440,"stv_port":27036,"stv_name":"Uncletopia | Warsaw | 3 | All Maps | STV","players":null},{"server_id":52,"name":"Uncletopia | Warsaw | 4 | All Maps","name_short":"waw-4","host":"waw-1.pl.uncletopia.com","port":27045,"enabled":true,"region":"eu","cc":"pl","latitude":52.2297,"longitude":21.017532,"reserved":0,"last_update":"0001-01-01T00:00:00Z","name_a2s":"Uncletopia | Warsaw | 4 | All Maps","protocol":17,"map":"pl_swiftwater_final1","folder":"tf","game":"Team Fortress","app_id":440,"player_count":0,"max_players":24,"Bots":0,"server_type":"Dedicated","server_os":"Linux","password":true,"vac":true,"version":"7757534","steam_id":85568392925397853,"keywords":["nocrits","nodmgspread","payload","uncletopia"],"game_id":440,"stv_port":27046,"stv_name":"Uncletopia | Warsaw | 4 | All Maps | STV","players":null},{"server_id":53,"name":"Uncletopia | Warsaw | 5 | Stopwatch Beta","name_short":"waw-5","host":"waw-1.pl.uncletopia.com","port":27055,"enabled":true,"region":"eu","cc":"pl","latitude":52.2297,"longitude":21.017532,"reserved":0,"last_update":"0001-01-01T00:00:00Z","name_a2s":"Uncletopia | Warsaw | 5 | Stopwatch Beta","protocol":17,"map":"pl_pier","folder":"tf","game":"Team Fortress","app_id":440,"player_count":0,"max_players":24,"Bots":0,"server_type":"Dedicated","server_os":"Linux","password":true,"vac":true,"version":"7757534","steam_id":85568392925397854,"keywords":["nocrits","nodmgspread","payload","uncletopia"],"game_id":440,"stv_port":27056,"stv_name":"Uncletopia | Warsaw | 5 | Stopwatch Beta | STV","players":null},{"server_id":54,"name":"Uncletopia | Warsaw | 6 | Community","name_short":"waw-6","host":"waw-1.pl.uncletopia.com","port":27065,"enabled":true,"region":"eu","cc":"pl","latitude":52.2297,"longitude":21.017532,"reserved":0,"last_update":"0001-01-01T00:00:00Z","name_a2s":"Uncletopia | Warsaw | 6 | Community","protocol":17,"map":"koth_highpass","folder":"tf","game":"Team Fortress","app_id":440,"player_count":0,"max_players":24,"Bots":0,"server_type":"Dedicated","server_os":"Linux","password":true,"vac":true,"version":"7757534","steam_id":85568392925397856,"keywords":["cp","nocrits","nodmgspread","uncletopia"],"game_id":440,"stv_port":27066,"stv_name":"Uncletopia | Warsaw | 6 | Community | STV","players":null}]}