{"status":true,"message":"","result":[{"server_id":9,"name":"Uncletopia | Atlanta | 1 | All Maps","name_short":"atl-1","host":"atl-1.us.uncletopia.com","port":27015,"enabled":true,"region":"us-east","cc":"us","latitude":33.753746,"longitude":-84.38633,"reserved":0,"last_update":"0001-01-01T00:00:00Z","name_a2s":"Uncletopia | Atlanta | 1 | All Maps","protocol":17,"map":"pl_borneo","folder":"tf","game":"Team Fortress","app_id":440,"player_count":24,"max_players":24,"Bots":0,"server_type":"Dedicated","server_os":"Linux","password":true,"vac":true,"version":"7742253","steam_id":85568392924469982,"keywords":["nocrits","nodmgspread","payload","uncletopia"],"game_id":440,"stv_port":27016,"stv_name":"Uncletopia | Atlanta | 1 | All Maps | STV","players":[{"user_id":671,"name":"pinglefingle","steam_id":76561198216580197,"connected_time":1526000000000,"state":"active","ping":81},{"user_id":649,"name":"basil","steam_id":76561198075758026,"connected_time":4117000000000,"state":"active","ping":78},{"user_id":676,"name":"new years hooters","steam_id":76561198068022595,"connected_time":1145000000000,"state":"active","ping":63},{"user_id":684,"name":"ATL1 | to4st","steam_id":76561198981009008,"connected_time":324000000000,"state":"active","ping":65},{"user_id":685,"name":"NERDBOBS | Lavie","steam_id":76561198825997674,"connected_time":310000000000,"state":"active","ping":48},{"user_id":668,"name":"lzrdzz","steam_id":76561198116676192,"connected_time":1564000000000,"state":"active","ping":207},{"user_id":657,"name":"cron/zefir (real)","steam_id":76561198041348890,"connected_time":3088000000000,"state":"active","ping":62},{"user_id":686,"name":"ุ","steam_id":76561198170624701,"connected_time":189000000000,"state":"active","ping":55},{"user_id":688,"name":"FATHER","steam_id":76561198041308977,"connected_time":30000000000,"state":"active","ping":60},{"user_id":672,"name":"Bunt","steam_id":76561198124477567,"connected_time":1497000000000,"state":"active","ping":37},{"user_id":651,"name":"tree of destiny","steam_id":76561198092135570,"connected_time":3990000000000,"state":"active","ping":60},{"user_id":665,"name":"lker","steam_id":76561197976975075,"connected_time":1576000000000,"state":"active","ping":36},{"user_id":666,"name":"♡Alyx♡","steam_id":76561198024303978,"connected_time":1575000000000,"state":"active","ping":56},{"user_id":650,"name":"fragr","steam_id":76561198120440587,"connected_time":4009000000000,"state":"active","ping":50},{"user_id":550,"name":"schizophrenic with a gun","steam_id":76561198016121536,"connected_time":15042000000000,"state":"active","ping":66},{"user_id":636,"name":"Bottom Trans Cowgirl","steam_id":76561198304239680,"connected_time":6441000000000,"state":"active","ping":71},{"user_id":689,"name":"CheeseCake488","steam_id":76561199407617942,"connected_time":5000000000,"state":"spawning","ping":171},{"user_id":660,"name":"☙ Corrupt ❧","steam_id":76561197977631915,"connected_time":2193000000000,"state":"active","ping":64},{"user_id":652,"name":"Miramar","steam_id":76561198022057653,"connected_time":3935000000000,"state":"active","ping":72},{"user_id":659,"name":"NEW AP NO TIMEX","steam_id":76561198904898274,"connected_time":3075000000000,"state":"active","ping":55},{"user_id":631,"name":"Shmoopy","steam_id":76561198030459152,"connected_time":6486000000000,"state":"active","ping":61},{"user_id":673,"name":"awaken","steam_id":76561198086900781,"connected_time":1494000000000,"state":"active","ping":84},{"user_id":667,"name":"Throckmorton627","steam_id":76561199147734259,"connected_time":1575000000000,"state":"active","ping":77},{"user_id":678,"name":"yomokha","steam_id":76561198063175935,"connected_time":1130000000000,"state":"active","ping":57}]},{"server_id":400,"name":"Uncletopia | Atlanta | 3 | Stopwatch Beta","name_short":"atl-3","host":"atl-1.us.uncletopia.com","port":27035,"enabled":true,"region":"us-east","cc":"us","latitude":33.753746,"longitude":-84.38633,"reserved":0,"last_update":"0001-01-01T00:00:00Z","name_a2s":"Uncletopia | Atlanta | 3 | Stopwatch Beta","protocol":17,"map":"pl_pier","folder":"tf","game":"Team Fortress","app_id":440,"player_count":0,"max_players":24,"Bots":0,"server_type":"Dedicated","server_os":"Linux","password":true,"vac":true,"version":"7742253","steam_id":85568392924515187,"keywords":["nocrits","nodmgspread","payload","uncletopia"],"game_id":440,"stv_port":27036,"stv_name":"Uncletopia | Atlanta | 3 | Stopwatch Beta | STV","players":null},{"server_id":401,"name":"Uncletopia | Atlanta | 4 | No Payload","name_short":"atl-4","host":"atl-1.us.uncletopia.com","port":27045,"enabled":true,"region":"us-east","cc":"us","latitude":33.753746,"longitude":-84.38633,"reserved":0,"last_update":"0001-01-01T00:00:00Z","name_a2s":"Uncletopia | Atlanta | 4 | No Payload","protocol":17,"map":"pl_pier","folder":"tf","game":"Team Fortress","app_id":440,"player_count":0,"max_players":24,"Bots":0,"server_type":"Dedicated","server_os":"Linux","password":true,"vac":true,"version":"7723704","steam_id":85568392924515188,"keywords":["nocrits","nodmgspread","payload","uncletopia"],"game_id":440,"stv_port":27046,"stv_name":"Uncletopia | Atlanta | 4 | No Payload | STV","players":null},{"server_id":2,"name":"Uncletopia | Chicago | 1 | All Maps","name_short":"chi-1","host":"chi-1.us.uncletopia.com","port":27015,"enabled":true,"region":"us-central","cc":"us","latitude":41.881832,"longitude":-87.62318,"reserved":0,"last_update":"0001-01-01T00:00:00Z","name_a2s":"Uncletopia | Chicago | 1 | All Maps","protocol":17,"map":"pl_swiftwater_final1","folder":"tf","game":"Team Fortress","app_id":440,"player_count":1,"max_players":24,"Bots":0,"server_type":"Dedicated","server_os":"Linux","password":true,"vac":true,"version":"7742253","steam_id":85568392924469984,"keywords":["nocrits","nodmgspread","payload","uncletopia"],"game_id":440,"stv_port":27016,"stv_name":"Uncletopia | Chicago | 1 | All Maps | STV","players":[{"user_id":680,"name":"Bootstrap","steam_id":76561199110353614,"connected_time":19000000000,"state":"spawning","ping":89}]},{"server_id":106,"name":"Uncletopia | Chicago | 2 | All Maps","name_short":"chi-2","host":"chi-1.us.uncletopia.com","port":27025,"enabled":true,"region":"us-central","cc":"us","latitude":41.881832,"longitude":-87.62318,"reserved":0,"last_update":"0001-01-01T00:00:00Z","name_a2s":"Uncletopia | Chicago | 2 | All Maps","protocol":17,"map":"pl_swiftwater_final1","folder":"tf","game":"Team Fortress","app_id":440,"player_count":18,"max_players":24,"Bots":0,"server_type":"Dedicated","server_os":"Linux","password":true,"vac":true,"version":"7742253","steam_id":85568392924469985,"keywords":["nocrits","nodmgspread","payload","uncletopia"],"game_id":440,"stv_port":27026,"stv_name":"Uncletopia | Chicago | 2 | All Maps | STV","players":[{"user_id":555,"name":"KingSteve42","steam_id":76561198409455888,"connected_time":582000000000,"state":"active","ping":96},{"user_id":510,"name":"Why I decided to turn 12","steam_id":76561198363948501,"connected_time":3389000000000,"state":"active","ping":82},{"user_id":554,"name":"rudy","steam_id":76561198088712799,"connected_time":623000000000,"state":"active","ping":77},{"user_id":556,"name":"p 2","steam_id":76561198081556349,"connected_time":568000000000,"state":"active","ping":92},{"user_id":567,"name":"a crazy hobo","steam_id":76561198289650060,"connected_time":193000000000,"state":"active","ping":78},{"user_id":550,"name":"Morb + Ref","steam_id":76561199013410944,"connected_time":1100000000000,"state":"active","ping":105},{"user_id":568,"name":"jt","steam_id":76561198059575962,"connected_time":188000000000,"state":"active","ping":59},{"user_id":514,"name":"later aligater","steam_id":76561198021609442,"connected_time":3219000000000,"state":"active","ping":61},{"user_id":570,"name":"ShitsandGiggles™","steam_id":76561198058708019,"connected_time":54000000000,"state":"active","ping":46},{"user_id":489,"name":"Catass (cause why not)","steam_id":76561198255802361,"connected_time":6261000000000,"state":"active","ping":65},{"user_id":553,"name":"Luffy","steam_id":76561198120914343,"connected_time":729000000000,"state":"active","ping":61},{"user_id":530,"name":"too funky ᗜˬᗜ","steam_id":76561199120399776,"connected_time":2585000000000,"state":"active","ping":69},{"user_id":564,"name":"double screen shed tail","steam_id":76561198102868313,"connected_time":438000000000,"state":"active","ping":80},{"user_id":494,"name":"Nightingale","steam_id":76561198067851381,"connected_time":6217000000000,"state":"active","ping":53},{"user_id":565,"name":"ahab","steam_id":76561198211780469,"connected_time":327000000000,"state":"active","ping":36},{"user_id":546,"name":"dave strider","steam_id":76561198065112186,"connected_time":1245000000000,"state":"active","ping":71},{"user_id":563,"name":"I Exist","steam_id":76561199152359023,"connected_time":474000000000,"state":"active","ping":60},{"user_id":566,"name":"Biskit","steam_id":76561198103168540,"connected_time":261000000000,"state":"active","ping":70}]},{"server_id":402,"name":"Uncletopia | Chicago | 3 | All Maps","name_short":"chi-3","host":"chi-1.us.uncletopia.com","port":27035,"enabled":true,"region":"us-central","cc":"us","latitude":41.881832,"longitude":-87.62318,"reserved":0,"last_update":"0001-01-01T00:00:00Z","name_a2s":"Uncletopia | Chicago | 3 | All Maps","protocol":17,"map":"pl_borneo","folder":"tf","game":"Team Fortress","app_id":440,"player_count":19,"max_players":24,"Bots":0,"server_type":"Dedicated","server_os":"Linux","password":true,"vac":true,"version":"7742253","steam_id":85568392924515191,"keywords":["nocrits","nodmgspread","payload","uncletopia"],"game_id":440,"stv_port":27036,"stv_name":"Uncletopia | Chicago | 3 | All Maps | STV","players":[{"user_id":588,"name":"xZackAttack27x","steam_id":76561198035446639,"connected_time":58000000000,"state":"active","ping":62},{"user_id":575,"name":"FemboyNate","steam_id":76561198146636410,"connected_time":1588000000000,"state":"active","ping":92},{"user_id":543,"name":"Kaluka","steam_id":76561198036861445,"connected_time":3957000000000,"state":"active","ping":61},{"user_id":573,"name":"hyperledz","steam_id":76561198807917808,"connected_time":1946000000000,"state":"active","ping":76},{"user_id":557,"name":"Wario Booty Hole","steam_id":76561198072595326,"connected_time":3076000000000,"state":"active","ping":72},{"user_id":556,"name":"ThisBeeSparta18","steam_id":76561198174023582,"connected_time":3144000000000,"state":"active","ping":46},{"user_id":579,"name":"177013","steam_id":76561198072303290,"connected_time":1311000000000,"state":"active","ping":61},{"user_id":559,"name":"pathways","steam_id":76561198054832333,"connected_time":2852000000000,"state":"active","ping":55},{"user_id":544,"name":"Big kahuna","steam_id":76561198142024812,"connected_time":3945000000000,"state":"active","ping":72},{"user_id":542,"name":"High Quality Ice","steam_id":76561198969178047,"connected_time":4038000000000,"state":"active","ping":55},{"user_id":578,"name":":)","steam_id":76561198093921290,"connected_time":1362000000000,"state":"active","ping":50},{"user_id":587,"name":"brorr","steam_id":76561198146138827,"connected_time":119000000000,"state":"active","ping":56},{"user_id":584,"name":"MissedSheTeachesMeMythsMistold","steam_id":76561198071905992,"connected_time":229000000000,"state":"active","ping":62},{"user_id":540,"name":"Detective Parks","steam_id":76561198153415500,"connected_time":4069000000000,"state":"active","ping":71},{"user_id":586,"name":"FROYO donovin","steam_id":76561198045679387,"connected_time":179000000000,"state":"active","ping":45},{"user_id":589,"name":"Do Moose go Moo?","steam_id":76561198073550620,"connected_time":49000000000,"state":"active","ping":45},{"user_id":590,"name":"Shmish","steam_id":76561197966078491,"connected_time":30000000000,"state":"active","ping":70},{"user_id":591,"name":"Coosnut","steam_id":76561198061106216,"connected_time":28000000000,"state":"active","ping":70},{"user_id":555,"name":"Purple brain","steam_id":76561198103924707,"connected_time":3242000000000,"state":"active","ping":51}]},{"server_id":403,"name":"Uncletopia | Chicago | 4 | All Maps","name_short":"chi-4","host":"chi-1.us.uncletopia.com","port":27045,"enabled":true,"region":"us-central","cc":"us","latitude":41.881832,"longitude":-87.62318,"reserved":0,"last_update":"0001-01-01T00:00:00Z","name_a2s":"Uncletopia | Chicago | 4 | All Maps","protocol":17,"map":"koth_viaduct","folder":"tf","game":"Team Fortress","app_id":440,"player_count":24,"max_players":24,"Bots":0,"server_type":"Dedicated","server_os":"Linux","password":true,"vac":true,"version":"7742253","steam_id":85568392924515193,"keywords":["cp","nocrits","nodmgspread","uncletopia"],"game_id":440,"stv_port":27046,"stv_name":"Uncletopia | Chicago | 4 | All Maps | STV","players":[{"user_id":421,"name":"weed lesbian","steam_id":76561198042263805,"connected_time":753000000000,"state":"active","ping":75},{"user_id":382,"name":"System","steam_id":76561198148087137,"connected_time":4023000000000,"state":"active","ping":83},{"user_id":410,"name":"Twan (no vibes plz)","steam_id":76561197991064908,"connected_time":1912000000000,"state":"active","ping":63},{"user_id":422,"name":"Candy Sparkles","steam_id":76561198126871264,"connected_time":734000000000,"state":"active","ping":70},{"user_id":427,"name":"Kalaner","steam_id":76561198041088708,"connected_time":686000000000,"state":"active","ping":46},{"user_id":425,"name":"Smuggs","steam_id":76561197999456003,"connected_time":715000000000,"state":"active","ping":132},{"user_id":412,"name":"Karma's Camera","steam_id":76561198059385185,"connected_time":1903000000000,"state":"active","ping":75},{"user_id":395,"name":"DementiaGaming","steam_id":76561199195205705,"connected_time":3139000000000,"state":"active","ping":79},{"user_id":378,"name":"Ediot","steam_id":76561199349494096,"connected_time":4304000000000,"state":"active","ping":85},{"user_id":423,"name":"SpeccyChicken","steam_id":76561198023361567,"connected_time":727000000000,"state":"active","ping":75},{"user_id":420,"name":"gista","steam_id":76561198120225915,"connected_time":805000000000,"state":"active","ping":73},{"user_id":431,"name":"Neat","steam_id":76561198140451429,"connected_time":450000000000,"state":"active","ping":46},{"user_id":399,"name":"Sugercrash","steam_id":76561199187685119,"connected_time":2906000000000,"state":"active","ping":92},{"user_id":424,"name":"Punch Man!!","steam_id":76561198046014031,"connected_time":723000000000,"state":"active","ping":37},{"user_id":370,"name":"Dang","steam_id":76561198288874083,"connected_time":4570000000000,"state":"active","ping":100},{"user_id":426,"name":"DS8U","steam_id":76561198151554321,"connected_time":702000000000,"state":"active","ping":54},{"user_id":432,"name":"hi","steam_id":76561198809577048,"connected_time":97000000000,"state":"active","ping":98},{"user_id":428,"name":"Anime_Ori","steam_id":76561198082715890,"connected_time":667000000000,"state":"active","ping":70},{"user_id":401,"name":"pan fortress 2","steam_id":76561199112200183,"connected_time":2782000000000,"state":"active","ping":143},{"user_id":416,"name":"Sad German","steam_id":76561198178100797,"connected_time":1810000000000,"state":"active","ping":69},{"user_id":429,"name":"sweaterfan","steam_id":76561199389567214,"connected_time":636000000000,"state":"active","ping":66},{"user_id":404,"name":"armageddon","steam_id":76561198354473513,"connected_time":2457000000000,"state":"active","ping":55},{"user_id":405,"name":"the one and only","steam_id":76561198139421218,"connected_time":2400000000000,"state":"active","ping":80},{"user_id":407,"name":"CornBoy","steam_id":76561198079109260,"connected_time":2222000000000,"state":"active","ping":58}]},{"server_id":36,"name":"Uncletopia | Chicago | 5 | All Maps","name_short":"chi-5","host":"chi-2.us.uncletopia.com","port":27015,"enabled":true,"region":"us-central","cc":"us","latitude":41.881832,"longitude":-87.62318,"reserved":0,"last_update":"0001-01-01T00:00:00Z","name_a2s":"Uncletopia | Chicago | 5 | All Maps","protocol":17,"map":"koth_cascade","folder":"tf","game":"Team Fortress","app_id":440,"player_count":0,"max_players":24,"Bots":0,"server_type":"Dedicated","server_os":"Linux","password":true,"vac":true,"version":"7742253","steam_id":85568392924866362,"keywords":["cp","nocrits","nodmgspread","uncletopia"],"game_id":440,"stv_port":27016,"stv_name":"Uncletopia | Chicago | 5 | All Maps | STV","players":null},{"server_id":37,"name":"Uncletopia | Chicago | 6 | All Maps","name_short":"chi-6","host":"chi-2.us.uncletopia.com","port":27025,"enabled":true,"region":"us-central","cc":"us","latitude":41.881832,"longitude":-87.62318,"reserved":0,"last_update":"0001-01-01T00:00:00Z","name_a2s":"Uncletopia | Chicago | 6 | All Maps","protocol":17,"map":"cp_sunshine","folder":"tf","game":"Team Fortress","app_id":440,"player_count":0,"max_players":24,"Bots":0,"server_type":"Dedicated","server_os":"Linux","password":true,"vac":true,"version":"7742253","steam_id":85568392924866363,"keywords":["cp","nocrits","nodmgspread","uncletopia"],"game_id":440,"stv_port":27026,"stv_name":"Uncletopia | Chicago | 6 | All Maps | STV","players":null},{"server_id":38,"name":"Uncletopia | Chicago | 7 | Stopwatch Beta","name_short":"chi-7","host":"chi-2.us.uncletopia.com","port":27035,"enabled":true,"region":"us-central","cc":"us","latitude":41.881832,"longitude":-87.62318,"reserved":0,"last_update":"0001-01-01T00:00:00Z","name_a2s":"Uncletopia | Chicago | 7 | Stopwatch Beta","protocol":17,"map":"workshop/koth_clearcut_b15.ugc2107050255","folder":"tf","game":"Team Fortress","app_id":440,"player_count":0,"max_players":24,"Bots":0,"server_type":"Dedicated","server_os":"Linux","password":true,"vac":true,"version":"7742253","steam_id":85568392924866364,"keywords":["cp","nocrits","nodmgspread","uncletopia"],"game_id":440,"stv_port":27036,"stv_name":"Uncletopia | Chicago | 7 | Stopwatch Beta | STV","players":null},{"server_id":39,"name":"Uncletopia | Chicago | 8 | Community","name_short":"chi-8","host":"chi-2.us.uncletopia.com","port":27045,"enabled":true,"region":"us-central","cc":"us","latitude":41.881832,"longitude":-87.62318,"reserved":0,"last_update":"0001-01-01T00:00:00Z","name_a2s":"Uncletopia | Chicago | 8 | Community","protocol":17,"map":"workshop/koth_bagel_rc5.ugc2514036946","folder":"tf","game":"Team Fortress","app_id":440,"player_count":0,"max_players":24,"Bots":0,"server_type":"Dedicated","server_os":"Linux","password":true,"vac":true,"version":"7742253","steam_id":85568392924866365,"keywords":["cp","nocrits","nodmgspread","uncletopia"],"game_id":440,"stv_port":27046,"stv_name":"Uncletopia | Chicago | 8 | Community | STV","players":null},{"server_id":8,"name":"Uncletopia | Dallas | 1 | All Maps","name_short":"dal-1","host":"dal-1.us.uncletopia.com","port":27015,"enabled":true,"region":"us-central","cc":"us","latitude":32.779167,"longitude":-96.80889,"reserved":0,"last_update":"0001-01-01T00:00:00Z","name_a2s":"Uncletopia | Dallas | 1 | All Maps","protocol":17,"map":"pl_upward","folder":"tf","game":"Team Fortress","app_id":440,"player_count":24,"max_players":24,"Bots":0,"server_type":"Dedicated","server_os":"Linux","password":true,"vac":true,"version":"7742253","steam_id":85568392924469986,"keywords":["nocrits","nodmgspread","payload","uncletopia"],"game_id":440,"stv_port":27016,"stv_name":"Uncletopia | Dallas | 1 | All Maps | STV","players":[{"user_id":546,"name":"DrLeckon","steam_id":76561198091204223,"connected_time":850000000000,"state":"active","ping":100},{"user_id":540,"name":"totsuya","steam_id":76561198040490423,"connected_time":1127000000000,"state":"active","ping":85},{"user_id":547,"name":"bushy","steam_id":76561198138088830,"connected_time":841000000000,"state":"active","ping":49},{"user_id":543,"name":"Fraggin","steam_id":76561198007281378,"connected_time":944000000000,"state":"active","ping":108},{"user_id":515,"name":"Milk T34","steam_id":76561198116115227,"connected_time":2107000000000,"state":"active","ping":73},{"user_id":528,"name":"YungKeet","steam_id":76561198293854963,"connected_time":1827000000000,"state":"active","ping":60},{"user_id":560,"name":"mr detective","steam_id":76561198079892116,"connected_time":480000000000,"state":"active","ping":72},{"user_id":559,"name":"Astronomytwin","steam_id":76561198125431386,"connected_time":494000000000,"state":"active","ping":55},{"user_id":533,"name":"Punished Shitster","steam_id":76561198150452857,"connected_time":1590000000000,"state":"active","ping":58},{"user_id":544,"name":"SKINGRAPH","steam_id":76561198082933650,"connected_time":944000000000,"state":"active","ping":80},{"user_id":503,"name":"Sixrow","steam_id":76561198269289716,"connected_time":2426000000000,"state":"active","ping":32},{"user_id":328,"name":"bo scrungulus","steam_id":76561198038036122,"connected_time":16041000000000,"state":"active","ping":74},{"user_id":510,"name":"Batso","steam_id":76561198106589452,"connected_time":2181000000000,"state":"active","ping":80},{"user_id":549,"name":"Im feeling it now.","steam_id":76561198034785475,"connected_time":828000000000,"state":"active","ping":144},{"user_id":555,"name":"swoos1am","steam_id":76561198106575730,"connected_time":652000000000,"state":"active","ping":72},{"user_id":562,"name":"flu walrus","steam_id":76561198207940136,"connected_time":179000000000,"state":"active","ping":62},{"user_id":550,"name":"Box","steam_id":76561198121444097,"connected_time":818000000000,"state":"active","ping":93},{"user_id":557,"name":"Twivis","steam_id":76561198127761178,"connected_time":588000000000,"state":"active","ping":60},{"user_id":561,"name":"Lord Foog the 2st","steam_id":76561198073106278,"connected_time":448000000000,"state":"active","ping":66},{"user_id":539,"name":"Pütii SpenepS","steam_id":76561198029318657,"connected_time":1239000000000,"state":"active","ping":42},{"user_id":558,"name":"Suited","steam_id":76561198068797313,"connected_time":571000000000,"state":"active","ping":54},{"user_id":522,"name":"brain capacity","steam_id":76561199215821942,"connected_time":1984000000000,"state":"active","ping":61},{"user_id":527,"name":"JZ","steam_id":76561198377029198,"connected_time":1914000000000,"state":"active","ping":108},{"user_id":537,"name":"Frank Fortain","steam_id":76561198953613972,"connected_time":1316000000000,"state":"active","ping":46}]},{"server_id":108,"name":"Uncletopia | Dallas | 2 | All Maps","name_short":"dal-2","host":"dal-1.us.uncletopia.com","port":27025,"enabled":true,"region":"us-central","cc":"us","latitude":32.779167,"longitude":-96.80889,"reserved":0,"last_update":"0001-01-01T00:00:00Z","name_a2s":"Uncletopia | Dallas | 2 | All Maps","protocol":17,"map":"cp_dustbowl","folder":"tf","game":"Team Fortress","app_id":440,"player_count":0,"max_players":24,"Bots":0,"server_type":"Dedicated","server_os":"Linux","password":true,"vac":true,"version":"7742253","steam_id":85568392924469988,"keywords":["cp","nocrits","nodmgspread","uncletopia"],"game_id":440,"stv_port":27026,"stv_name":"Uncletopia | Dallas | 2 | All Maps | STV","players":null},{"server_id":5,"name":"Uncletopia | Frankfurt | 1 | All Maps","name_short":"frk-1","host":"frk-1.de.uncletopia.com","port":27015,"enabled":true,"region":"eu","cc":"de","latitude":50.110924,"longitude":8.682127,"reserved":0,"last_update":"0001-01-01T00:00:00Z","name_a2s":"Uncletopia | Frankfurt | 1 | All Maps","protocol":17,"map":"pl_borneo","folder":"tf","game":"Team Fortress","app_id":440,"player_count":1,"max_players":24,"Bots":0,"server_type":"Dedicated","server_os":"Linux","password":true,"vac":true,"version":"7742253","steam_id":85568392924469989,"keywords":["nocrits","nodmgspread","payload","uncletopia"],"game_id":440,"stv_port":27016,"stv_name":"Uncletopia | Frankfurt | 1 | All Maps | STV","players":[{"user_id":5,"name":"Никита Красношта","steam_id":76561199211930445,"connected_time":31000000000,"state":"active","ping":215}]},{"server_id":110,"name":"Uncletopia | Frankfurt | 2 | All Maps","name_short":"frk-2","host":"frk-1.de.uncletopia.com","port":27025,"enabled":true,"region":"eu","cc":"de","latitude":50.110924,"longitude":8.682127,"reserved":0,"last_update":"0001-01-01T00:00:00Z","name_a2s":"Uncletopia | Frankfurt | 2 | All Maps","protocol":17,"map":"pl_barnblitz","folder":"tf","game":"Team Fortress","app_id":440,"player_count":0,"max_players":24,"Bots":0,"server_type":"Dedicated","server_os":"Linux","password":true,"vac":true,"version":"7742253","steam_id":85568392924469990,"keywords":["nocrits","nodmgspread","payload","uncletopia"],"game_id":440,"stv_port":27026,"stv_name":"Uncletopia | Frankfurt | 2 | All Maps | STV","players":null},{"server_id":308,"name":"Uncletopia | Frankfurt | 3 | All Maps","name_short":"frk-3","host":"frk-1.de.uncletopia.com","port":27035,"enabled":true,"region":"eu","cc":"de","latitude":50.110924,"longitude":8.682127,"reserved":0,"last_update":"0001-01-01T00:00:00Z","name_a2s":"Uncletopia | Frankfurt | 3 | All Maps","protocol":17,"map":"pl_coal_event","folder":"tf","game":"Team Fortress","app_id":440,"player_count":24,"max_players":24,"Bots":0,"server_type":"Dedicated","server_os":"Linux","password":true,"vac":true,"version":"7742253","steam_id":85568392924504274,"keywords":["nocrits","nodmgspread","payload","uncletopia"],"game_id":440,"stv_port":27036,"stv_name":"Uncletopia | Frankfurt | 3 | All Maps | STV","players":[{"user_id":55,"name":"Franku","steam_id":76561199192707266,"connected_time":74000000000,"state":"active","ping":53},{"user_id":43,"name":"Chris","steam_id":76561198313494507,"connected_time":1983000000000,"state":"active","ping":72},{"user_id":36,"name":"Gort˚✧₊","steam_id":76561198085248515,"connected_time":3006000000000,"state":"active","ping":120},{"user_id":35,"name":"Dr.Sticky","steam_id":76561198041140857,"connected_time":3138000000000,"state":"active","ping":76},{"user_id":32,"name":"Ian","steam_id":76561198159334435,"connected_time":3269000000000,"state":"active","ping":184},{"user_id":56,"name":"Rambi","steam_id":76561199058078505,"connected_time":73000000000,"state":"active","ping":167},{"user_id":57,"name":"JGV","steam_id":76561198094654971,"connected_time":60000000000,"state":"active","ping":65},{"user_id":10,"name":"snowi","steam_id":76561198006502679,"connected_time":4580000000000,"state":"active","ping":61},{"user_id":11,"name":"duster cat","steam_id":76561198832231975,"connected_time":4579000000000,"state":"active","ping":81},{"user_id":12,"name":"Noodle","steam_id":76561197997208006,"connected_time":4578000000000,"state":"active","ping":39},{"user_id":58,"name":"nobody","steam_id":76561198180637374,"connected_time":57000000000,"state":"spawning","ping":86},{"user_id":51,"name":"bANji","steam_id":76561198108898161,"connected_time":1325000000000,"state":"active","ping":44},{"user_id":52,"name":"blue","steam_id":76561198216200092,"connected_time":1231000000000,"state":"active","ping":60},{"user_id":16,"name":"catboy trickster","steam_id":76561198075665211,"connected_time":4573000000000,"state":"active","ping":27},{"user_id":17,"name":"Asmadeus","steam_id":76561198073428194,"connected_time":4569000000000,"state":"active","ping":80},{"user_id":44,"name":"Шапка #TF2Center","steam_id":76561198368792603,"connected_time":1981000000000,"state":"active","ping":61},{"user_id":24,"name":"BONK","steam_id":76561199120275042,"connected_time":4542000000000,"state":"active","ping":57},{"user_id":53,"name":"CouchPotato","steam_id":76561198849369915,"connected_time":1170000000000,"state":"active","ping":56},{"user_id":59,"name":"beni bi sal","steam_id":76561199102390086,"connected_time":3000000000,"state":"spawning","ping":85},{"user_id":54,"name":"Pip Boy","steam_id":76561197960530280,"connected_time":274000000000,"state":"active","ping":60},{"user_id":48,"name":"alleopold","steam_id":76561199055478676,"connected_time":1850000000000,"state":"active","ping":141},{"user_id":25,"name":"stoppen","steam_id":76561197960281482,"connected_time":4539000000000,"state":"active","ping":63},{"user_id":26,"name":"Melon","steam_id":76561198150893860,"connected_time":4533000000000,"state":"active","ping":75},{"user_id":34,"name":"Heavy like a Brinks truck","steam_id":76561198197304886,"connected_time":3195000000000,"state":"active","ping":105}]},{"server_id":309,"name":"Uncletopia | Frankfurt | 4 | All Maps","name_short":"frk-4","host":"frk-1.de.uncletopia.com","port":27045,"enabled":true,"region":"eu","cc":"de","latitude":50.110924,"longitude":8.682127,"reserved":0,"last_update":"0001-01-01T00:00:00Z","name_a2s":"Uncletopia | Frankfurt | 4 | All Maps","protocol":17,"map":"cp_sunshine","folder":"tf","game":"Team Fortress","app_id":440,"player_count":0,"max_players":24,"Bots":0,"server_type":"Dedicated","server_os":"Linux","password":true,"vac":true,"version":"7742253","steam_id":85568392924504275,"keywords":["cp","nocrits","nodmgspread","uncletopia"],"game_id":440,"stv_port":27046,"stv_name":"Uncletopia | Frankfurt | 4 | All Maps | STV","players":null},{"server_id":310,"name":"Uncletopia | Frankfurt | 5 | All Maps","name_short":"frk-5","host":"frk-1.de.uncletopia.com","port":27055,"enabled":true,"region":"eu","cc":"de","latitude":50.110924,"longitude":8.682127,"reserved":0,"last_update":"0001-01-01T00:00:00Z","name_a2s":"Uncletopia | Frankfurt | 5 | All Maps","protocol":17,"map":"cp_snakewater_final1","folder":"tf","game":"Team Fortress","app_id":440,"player_count":0,"max_players":24,"Bots":0,"server_type":"Dedicated","server_os":"Linux","password":true,"vac":true,"version":"7742253","steam_id":85568392924504277,"keywords":["cp","nocrits","nodmgspread","uncletopia"],"game_id":440,"stv_port":27056,"stv_name":"Uncletopia | Frankfurt | 5 | All Maps | STV","players":null},{"server_id":311,"name":"Uncletopia | Frankfurt | 6 | All Maps","name_short":"frk-6","host":"frk-1.de.uncletopia.com","port":27065,"enabled":true,"region":"eu","cc":"de","latitude":50.110924,"longitude":8.682127,"reserved":0,"last_update":"0001-01-01T00:00:00Z","name_a2s":"Uncletopia | Frankfurt | 6 | All Maps","protocol":17,"map":"koth_lakeside_final","folder":"tf","game":"Team Fortress","app_id":440,"player_count":0,"max_players":24,"Bots":0,"server_type":"Dedicated","server_os":"Linux","password":true,"vac":true,"version":"7742253","steam_id":85568392924504278,"keywords":["cp","nocrits","nodmgspread","uncletopia"],"game_id":440,"stv_port":27066,"stv_name":"Uncletopia | Frankfurt | 6 | All Maps | STV","players":null},{"server_id":23,"name":"Uncletopia | Frankfurt | 7 | Stopwatch Beta","name_short":"frk-7","host":"frk-1.de.uncletopia.com","port":27075,"enabled":true,"region":"eu","cc":"de","latitude":50.110924,"longitude":8.682127,"reserved":0,"last_update":"0001-01-01T00:00:00Z","name_a2s":"Uncletopia | Frankfurt | 7 | Stopwatch Beta","protocol":17,"map":"workshop/koth_clearcut_b15.ugc2107050255","folder":"tf","game":"Team Fortress","app_id":440,"player_count":0,"max_players":24,"Bots":0,"server_type":"Dedicated","server_os":"Linux","password":true,"vac":true,"version":"7742253","steam_id":85568392924742827,"keywords":["cp","nocrits","nodmgspread","uncletopia"],"game_id":440,"stv_port":27076,"stv_name":"Uncletopia | Frankfurt | 7 | Stopwatch Beta | STV","players":null},{"server_id":24,"name":"Uncletopia | Frankfurt | 8 | Community","name_short":"frk-8","host":"frk-1.de.uncletopia.com","port":27085,"enabled":true,"region":"eu","cc":"de","latitude":50.110924,"longitude":8.682127,"reserved":0,"last_update":"0001-01-01T00:00:00Z","name_a2s":"Uncletopia | Frankfurt | 8 | Community","protocol":17,"map":"koth_cascade","folder":"tf","game":"Team Fortress","app_id":440,"player_count":0,"max_players":24,"Bots":0,"server_type":"Dedicated","server_os":"Linux","password":true,"vac":true,"version":"7742253","steam_id":85568392924742828,"keywords":["cp","nocrits","nodmgspread","uncletopia"],"game_id":440,"stv_port":27086,"stv_name":"Uncletopia | Frankfurt | 8 | Community | STV","players":null},{"server_id":202,"name":"Uncletopia | Hong Kong | 1 | All Maps","name_short":"hgk-1","host":"hgk-1.hk.uncletopia.com","port":27015,"enabled":true,"region":"asia","cc":"hk","latitude":22.302711,"longitude":114.177216,"reserved":0,"last_update":"0001-01-01T00:00:00Z","name_a2s":"Uncletopia | Hong Kong | 1 | All Maps","protocol":17,"map":"plr_hightower","folder":"tf","game":"Team Fortress","app_id":440,"player_count":17,"max_players":24,"Bots":0,"server_type":"Dedicated","server_os":"Linux","password":true,"vac":true,"version":"7742253","steam_id":85568392924494504,"keywords":["nocrits","nodmgspread","payload","uncletopia"],"game_id":440,"stv_port":27016,"stv_name":"Uncletopia | Hong Kong | 1 | All Maps | STV","players":[{"user_id":46,"name":"genji","steam_id":76561199181238062,"connected_time":2321000000000,"state":"active","ping":51},{"user_id":47,"name":"Wx","steam_id":76561199217780897,"connected_time":2025000000000,"state":"active","ping":115},{"user_id":45,"name":"bags in store","steam_id":76561199021893939,"connected_time":2755000000000,"state":"active","ping":87},{"user_id":48,"name":"atu","steam_id":76561199205989406,"connected_time":1920000000000,"state":"active","ping":90},{"user_id":52,"name":"VaporeonSimp69","steam_id":76561198823521095,"connected_time":1020000000000,"state":"active","ping":42},{"user_id":65,"name":"Marika","steam_id":76561198212649929,"connected_time":106000000000,"state":"active","ping":121},{"user_id":55,"name":"Talkk More","steam_id":76561198305424433,"connected_time":860000000000,"state":"active","ping":103},{"user_id":68,"name":"Khdeet","steam_id":76561198839542511,"connected_time":9000000000,"state":"active","ping":95},{"user_id":57,"name":"Mao Ling Dong","steam_id":76561198963382881,"connected_time":640000000000,"state":"active","ping":119},{"user_id":58,"name":"ɔuᗡඞ ɟƨuᒐ","steam_id":76561199031283970,"connected_time":576000000000,"state":"active","ping":74},{"user_id":59,"name":"wota bota","steam_id":76561198173345911,"connected_time":542000000000,"state":"active","ping":83},{"user_id":60,"name":"UZ","steam_id":76561198179320563,"connected_time":484000000000,"state":"active","ping":123},{"user_id":62,"name":"ae nhà Pomson, đm nó:)))","steam_id":76561199223689992,"connected_time":318000000000,"state":"active","ping":73},{"user_id":63,"name":"\u003e:FrozenDragon:\u003c","steam_id":76561198227960928,"connected_time":194000000000,"state":"active","ping":134},{"user_id":64,"name":"T.","steam_id":76561198337887896,"connected_time":158000000000,"state":"active","ping":75},{"user_id":66,"name":"the_voices_are_getting_louder","steam_id":76561199142112854,"connected_time":83000000000,"state":"active","ping":88},{"user_id":67,"name":"dxcls","steam_id":76561198240627872,"connected_time":39000000000,"state":"active","ping":45}]},{"server_id":1,"name":"Uncletopia | Los Angeles | 1 | All Maps","name_short":"lax-1","host":"lax-1.us.uncletopia.com","port":27015,"enabled":true,"region":"us-west","cc":"us","latitude":33.94279,"longitude":-118.41004,"reserved":0,"last_update":"0001-01-01T00:00:00Z","name_a2s":"Uncletopia | Los Angeles | 1 | All Maps","protocol":17,"map":"pl_upward","folder":"tf","game":"Team Fortress","app_id":440,"player_count":24,"max_players":24,"Bots":0,"server_type":"Dedicated","server_os":"Linux","password":true,"vac":true,"version":"7742253","steam_id":85568392924469991,"keywords":["nocrits","nodmgspread","payload","uncletopia"],"game_id":440,"stv_port":27016,"stv_name":"Uncletopia | Los Angeles | 1 | All Maps | STV","players":[{"user_id":136,"name":"wait no stop dont do that","steam_id":76561199117157198,"connected_time":3279000000000,"state":"active","ping":58},{"user_id":124,"name":"Luigiminer8","steam_id":76561198803438732,"connected_time":6176000000000,"state":"active","ping":74},{"user_id":125,"name":"Vegasx702s","steam_id":76561198799772874,"connected_time":6157000000000,"state":"active","ping":71},{"user_id":164,"name":"ˢˡᵉᵉᵖ","steam_id":76561198119156333,"connected_time":526000000000,"state":"active","ping":112},{"user_id":149,"name":"Ahten Xevious","steam_id":76561198075469828,"connected_time":1541000000000,"state":"active","ping":110},{"user_id":150,"name":"Willowl","steam_id":76561198074612980,"connected_time":1475000000000,"state":"active","ping":134},{"user_id":147,"name":"freyja","steam_id":76561198012480197,"connected_time":1586000000000,"state":"active","ping":49},{"user_id":163,"name":"XxChocola20xX","steam_id":76561199108579557,"connected_time":583000000000,"state":"active","ping":104},{"user_id":169,"name":"MR. MODE","steam_id":76561198046775352,"connected_time":443000000000,"state":"active","ping":56},{"user_id":142,"name":"Chalupa Jones","steam_id":76561198335855588,"connected_time":2134000000000,"state":"active","ping":51},{"user_id":152,"name":"Gamehero637","steam_id":76561198880355236,"connected_time":1441000000000,"state":"active","ping":56},{"user_id":166,"name":"Schnapsidee","steam_id":76561198855804900,"connected_time":508000000000,"state":"active","ping":108},{"user_id":145,"name":"Porytal","steam_id":76561198306101889,"connected_time":1671000000000,"state":"active","ping":81},{"user_id":165,"name":"OH JIMMY I'M HOME #SaveTf2","steam_id":76561198396658806,"connected_time":522000000000,"state":"active","ping":36},{"user_id":161,"name":"doozy","steam_id":76561198033106776,"connected_time":831000000000,"state":"active","ping":124},{"user_id":155,"name":"HOG RIDER","steam_id":76561198298589502,"connected_time":1279000000000,"state":"active","ping":60},{"user_id":157,"name":"HeroOfTime","steam_id":76561199096218001,"connected_time":1219000000000,"state":"active","ping":56},{"user_id":171,"name":"Dotshin","steam_id":76561198452926392,"connected_time":376000000000,"state":"active","ping":69},{"user_id":160,"name":"RoboticCrusader","steam_id":76561199254985002,"connected_time":835000000000,"state":"active","ping":74},{"user_id":167,"name":"KaleidoscopeOk7981","steam_id":76561198110449520,"connected_time":498000000000,"state":"active","ping":105},{"user_id":170,"name":"mostly void, partially stars","steam_id":76561197991015780,"connected_time":417000000000,"state":"active","ping":79},{"user_id":172,"name":"guy","steam_id":76561198196443262,"connected_time":367000000000,"state":"active","ping":78},{"user_id":173,"name":"a festive sooley","steam_id":76561198134500189,"connected_time":273000000000,"state":"active","ping":104},{"user_id":174,"name":"finkle","steam_id":76561198388089772,"connected_time":257000000000,"state":"active","ping":89}]},{"server_id":112,"name":"Uncletopia | Los Angeles | 2 | All Maps","name_short":"lax-2","host":"lax-1.us.uncletopia.com","port":27025,"enabled":true,"region":"us-west","cc":"us","latitude":33.94279,"longitude":-118.41004,"reserved":0,"last_update":"0001-01-01T00:00:00Z","name_a2s":"Uncletopia | Los Angeles | 2 | All Maps","protocol":17,"map":"cp_sunshine","folder":"tf","game":"Team Fortress","app_id":440,"player_count":0,"max_players":24,"Bots":0,"server_type":"Dedicated","server_os":"Linux","password":true,"vac":true,"version":"7742253","steam_id":85568392924469992,"keywords":["cp","nocrits","nodmgspread","uncletopia"],"game_id":440,"stv_port":27026,"stv_name":"Uncletopia | Los Angeles | 2 | All Maps | STV","players":null},{"server_id":324,"name":"Uncletopia | Los Angeles | 3 | All Maps","name_short":"lax-3","host":"lax-1.us.uncletopia.com","port":27035,"enabled":true,"region":"us-west","cc":"us","latitude":33.94279,"longitude":-118.41004,"reserved":0,"last_update":"0001-01-01T00:00:00Z","name_a2s":"Uncletopia | Los Angeles | 3 | All Maps","protocol":17,"map":"pl_frontier_final","folder":"tf","game":"Team Fortress","app_id":440,"player_count":17,"max_players":24,"Bots":0,"server_type":"Dedicated","server_os":"Linux","password":true,"vac":true,"version":"7742253","steam_id":85568392924510198,"keywords":["nocrits","nodmgspread","payload","uncletopia"],"game_id":440,"stv_port":27036,"stv_name":"Uncletopia | Los Angeles | 3 | All Maps | STV","players":[{"user_id":123,"name":"Nez","steam_id":76561197963109059,"connected_time":6641000000000,"state":"active","ping":61},{"user_id":168,"name":"SHADOW (he/him)","steam_id":76561198207768148,"connected_time":1538000000000,"state":"active","ping":66},{"user_id":188,"name":"Oktober","steam_id":76561198294152085,"connected_time":86000000000,"state":"active","ping":79},{"user_id":164,"name":"Shyland(Nilla)","steam_id":76561198253089092,"connected_time":1944000000000,"state":"active","ping":77},{"user_id":163,"name":"Striker","steam_id":76561198149380317,"connected_time":2000000000000,"state":"active","ping":57},{"user_id":159,"name":"machomelon","steam_id":76561198043683564,"connected_time":3177000000000,"state":"active","ping":59},{"user_id":187,"name":"Several Ducks","steam_id":76561198010667854,"connected_time":147000000000,"state":"active","ping":50},{"user_id":166,"name":"Interrobang","steam_id":76561198385044529,"connected_time":1876000000000,"state":"active","ping":96},{"user_id":44,"name":"DarthJiggles","steam_id":76561198088383875,"connected_time":11821000000000,"state":"active","ping":59},{"user_id":172,"name":"Tim Piskles","steam_id":76561198991175279,"connected_time":1344000000000,"state":"active","ping":71},{"user_id":151,"name":"ArumiKaze","steam_id":76561198026814729,"connected_time":4187000000000,"state":"active","ping":58},{"user_id":141,"name":"Dragons\u003eEverything","steam_id":76561199140784635,"connected_time":5160000000000,"state":"active","ping":65},{"user_id":178,"name":"Crom","steam_id":76561198121232183,"connected_time":1068000000000,"state":"active","ping":57},{"user_id":179,"name":"Pogpogthe3rd (F2P)","steam_id":76561198979554460,"connected_time":1031000000000,"state":"active","ping":52},{"user_id":182,"name":"facecheck","steam_id":76561198115269587,"connected_time":483000000000,"state":"active","ping":90},{"user_id":157,"name":"CumBob","steam_id":76561198168693975,"connected_time":3662000000000,"state":"active","ping":47},{"user_id":181,"name":"HanakoToast","steam_id":76561198045233131,"connected_time":973000000000,"state":"active","ping":49}]},{"server_id":25,"name":"Uncletopia | Los Angeles | 4 | Stopwatch Beta","name_short":"lax-4","host":"lax-1.us.uncletopia.com","port":27045,"enabled":true,"region":"us-west","cc":"us","latitude":33.94279,"longitude":-118.41004,"reserved":0,"last_update":"0001-01-01T00:00:00Z","name_a2s":"Uncletopia | Los Angeles | 4 | Stopwatch Beta","protocol":17,"map":"workshop/koth_clearcut_b15.ugc2107050255","folder":"tf","game":"Team Fortress","app_id":440,"player_count":0,"max_players":24,"Bots":0,"server_type":"Dedicated","server_os":"Linux","password":true,"vac":true,"version":"7742253","steam_id":85568392924510199,"keywords":["cp","nocrits","nodmgspread","uncletopia"],"game_id":440,"stv_port":27046,"stv_name":"Uncletopia | Los Angeles | 4 | Stopwatch Beta | STV","players":null},{"server_id":11,"name":"Uncletopia | London | 1 | All Maps","name_short":"lon-1","host":"lon-1.uk.uncletopia.com","port":27015,"enabled":true,"region":"eu","cc":"gb","latitude":51.509865,"longitude":-0.118092,"reserved":0,"last_update":"0001-01-01T00:00:00Z","name_a2s":"Uncletopia | London | 1 | All Maps","protocol":17,"map":"cp_altitude","folder":"tf","game":"Team Fortress","app_id":440,"player_count":0,"max_players":24,"Bots":0,"server_type":"Dedicated","server_os":"Linux","password":true,"vac":true,"version":"7742253","steam_id":85568392924367362,"keywords":["cp","nocrits","nodmgspread","uncletopia"],"game_id":440,"stv_port":27016,"stv_name":"Uncletopia | London | 1 | All Maps | STV","players":null},{"server_id":114,"name":"Uncletopia | London | 2 | All Maps","name_short":"lon-2","host":"lon-1.uk.uncletopia.com","port":27025,"enabled":true,"region":"eu","cc":"gb","latitude":51.509865,"longitude":-0.118092,"reserved":0,"last_update":"0001-01-01T00:00:00Z","name_a2s":"Uncletopia | London | 2 | All Maps","protocol":17,"map":"pl_swiftwater_final1","folder":"tf","game":"Team Fortress","app_id":440,"player_count":14,"max_players":24,"Bots":0,"server_type":"Dedicated","server_os":"Linux","password":true,"vac":true,"version":"7742253","steam_id":85568392924470941,"keywords":["nocrits","nodmgspread","payload","uncletopia"],"game_id":440,"stv_port":27026,"stv_name":"Uncletopia | London | 2 | All Maps | STV","players":[{"user_id":3,"name":"TNE","steam_id":76561198996635737,"connected_time":997000000000,"state":"active","ping":75},{"user_id":4,"name":"marsel","steam_id":76561198116168271,"connected_time":992000000000,"state":"active","ping":74},{"user_id":5,"name":"Ampley","steam_id":76561198291447088,"connected_time":977000000000,"state":"active","ping":56},{"user_id":6,"name":"hmscole09","steam_id":76561198811362788,"connected_time":967000000000,"state":"active","ping":46},{"user_id":7,"name":"gjhkgfkjfh","steam_id":76561198031181349,"connected_time":961000000000,"state":"active","ping":84},{"user_id":22,"name":"God´s Cock","steam_id":76561198058947923,"connected_time":37000000000,"state":"active","ping":63},{"user_id":10,"name":"desoo","steam_id":76561198052878585,"connected_time":753000000000,"state":"active","ping":136},{"user_id":11,"name":"k","steam_id":76561198818452217,"connected_time":747000000000,"state":"active","ping":60},{"user_id":13,"name":"nocerinostefano045","steam_id":76561199310302506,"connected_time":720000000000,"state":"active","ping":78},{"user_id":14,"name":"Funi","steam_id":76561198237603082,"connected_time":676000000000,"state":"active","ping":91},{"user_id":15,"name":"jonbob","steam_id":76561197963506620,"connected_time":620000000000,"state":"active","ping":46},{"user_id":21,"name":"delta man","steam_id":76561198204491245,"connected_time":316000000000,"state":"active","ping":145},{"user_id":17,"name":"Goblin Gaming","steam_id":76561199087406024,"connected_time":587000000000,"state":"active","ping":74},{"user_id":18,"name":"Small Mouse","steam_id":76561198286085100,"connected_time":512000000000,"state":"active","ping":89}]},{"server_id":320,"name":"Uncletopia | London | 3 | All Maps","name_short":"lon-3","host":"lon-1.uk.uncletopia.com","port":27035,"enabled":true,"region":"eu","cc":"gb","latitude":51.509865,"longitude":-0.118092,"reserved":0,"last_update":"0001-01-01T00:00:00Z","name_a2s":"Uncletopia | London | 3 | All Maps","protocol":17,"map":"pl_upward","folder":"tf","game":"Team Fortress","app_id":440,"player_count":0,"max_players":24,"Bots":0,"server_type":"Dedicated","server_os":"Linux","password":true,"vac":true,"version":"7742253","steam_id":85568392924510192,"keywords":["nocrits","nodmgspread","payload","uncletopia"],"game_id":440,"stv_port":27036,"stv_name":"Uncletopia | London | 3 | All Maps | STV","players":null},{"server_id":321,"name":"Uncletopia | London | 4 | All Maps","name_short":"lon-4","host":"lon-1.uk.uncletopia.com","port":27045,"enabled":true,"region":"eu","cc":"gb","latitude":51.509865,"longitude":-0.118092,"reserved":0,"last_update":"0001-01-01T00:00:00Z","name_a2s":"Uncletopia | London | 4 | All Maps","protocol":17,"map":"koth_highpass","folder":"tf","game":"Team Fortress","app_id":440,"player_count":0,"max_players":24,"Bots":0,"server_type":"Dedicated","server_os":"Linux","password":true,"vac":true,"version":"7742253","steam_id":85568392924510193,"keywords":["cp","nocrits","nodmgspread","uncletopia"],"game_id":440,"stv_port":27046,"stv_name":"Uncletopia | London | 4 | All Maps | STV","players":null},{"server_id":21,"name":"Uncletopia | London | 5 | All Maps","name_short":"lon-5","host":"lon-1.uk.uncletopia.com","port":27055,"enabled":true,"region":"eu","cc":"gb","latitude":51.509865,"longitude":-0.118092,"reserved":0,"last_update":"0001-01-01T00:00:00Z","name_a2s":"Uncletopia | London | 5 | All Maps","protocol":17,"map":"pl_frontier_final","folder":"tf","game":"Team Fortress","app_id":440,"player_count":0,"max_players":24,"Bots":0,"server_type":"Dedicated","server_os":"Linux","password":true,"vac":true,"version":"7742253","steam_id":85568392924742829,"keywords":["nocrits","nodmgspread","payload","uncletopia"],"game_id":440,"stv_port":27056,"stv_name":"Uncletopia | London | 5 | All Maps | STV","players":null},{"server_id":22,"name":"Uncletopia | London | 6 | All Maps","name_short":"lon-6","host":"lon-1.uk.uncletopia.com","port":27065,"enabled":true,"region":"eu","cc":"gb","latitude":51.509865,"longitude":-0.118092,"reserved":0,"last_update":"0001-01-01T00:00:00Z","name_a2s":"Uncletopia | London | 6 | All Maps","protocol":17,"map":"pl_borneo","folder":"tf","game":"Team Fortress","app_id":440,"player_count":0,"max_players":24,"Bots":0,"server_type":"Dedicated","server_os":"Linux","password":true,"vac":true,"version":"7742253","steam_id":85568392924742830,"keywords":["nocrits","nodmgspread","payload","uncletopia"],"game_id":440,"stv_port":27066,"stv_name":"Uncletopia | London | 6 | All Maps | STV","players":null},{"server_id":40,"name":"Uncletopia | London | 7 | No Payload","name_short":"lon-7","host":"lon-1.uk.uncletopia.com","port":27075,"enabled":true,"region":"eu","cc":"gb","latitude":51.509865,"longitude":-0.118092,"reserved":0,"last_update":"0001-01-01T00:00:00Z","name_a2s":"Uncletopia | London | 7 | No Payload","protocol":17,"map":"koth_viaduct","folder":"tf","game":"Team Fortress","app_id":440,"player_count":0,"max_players":24,"Bots":0,"server_type":"Dedicated","server_os":"Linux","password":true,"vac":true,"version":"7742253","steam_id":85568392924964314,"keywords":["cp","nocrits","nodmgspread","uncletopia"],"game_id":440,"stv_port":27076,"stv_name":"Uncletopia | London | 7 | No Payload | STV","players":null},{"server_id":41,"name":"Uncletopia | London | 8 | Community","name_short":"lon-8","host":"lon-1.uk.uncletopia.com","port":27085,"enabled":true,"region":"eu","cc":"gb","latitude":51.509865,"longitude":-0.118092,"reserved":0,"last_update":"0001-01-01T00:00:00Z","name_a2s":"Uncletopia | London | 8 | Community","protocol":17,"map":"cp_altitude","folder":"tf","game":"Team Fortress","app_id":440,"player_count":0,"max_players":24,"Bots":0,"server_type":"Dedicated","server_os":"Linux","password":true,"vac":true,"version":"7742253","steam_id":85568392924964315,"keywords":["cp","nocrits","nodmgspread","uncletopia"],"game_id":440,"stv_port":27086,"stv_name":"Uncletopia | London | 8 | Community | STV","players":null},{"server_id":300,"name":"Uncletopia | Montréal | 1 | All Maps","name_short":"mtl-1","host":"mtl-1.ca.uncletopia.com","port":27015,"enabled":true,"region":"us-east","cc":"ca","latitude":45.50889,"longitude":-73.56167,"reserved":0,"last_update":"0001-01-01T00:00:00Z","name_a2s":"Uncletopia | Montréal | 1 | All Maps","protocol":17,"map":"pl_snowycoast","folder":"tf","game":"Team Fortress","app_id":440,"player_count":0,"max_players":24,"Bots":0,"server_type":"Dedicated","server_os":"Linux","password":true,"vac":true,"version":"7742253","steam_id":85568392924500087,"keywords":["nocrits","nodmgspread","payload","uncletopia"],"game_id":440,"stv_port":27016,"stv_name":"Uncletopia | Montréal | 1 | All Maps | STV","players":null},{"server_id":301,"name":"Uncletopia | Montréal | 2 | All Maps","name_short":"mtl-2","host":"mtl-1.ca.uncletopia.com","port":27025,"enabled":true,"region":"us-east","cc":"ca","latitude":45.50889,"longitude":-73.56167,"reserved":0,"last_update":"0001-01-01T00:00:00Z","name_a2s":"Uncletopia | Montréal | 2 | All Maps","protocol":17,"map":"cp_altitude","folder":"tf","game":"Team Fortress","app_id":440,"player_count":0,"max_players":24,"Bots":0,"server_type":"Dedicated","server_os":"Linux","password":true,"vac":true,"version":"7742253","steam_id":85568392924500088,"keywords":["cp","nocrits","nodmgspread","uncletopia"],"game_id":440,"stv_port":27026,"stv_name":"Uncletopia | Montréal | 2 | All Maps | STV","players":null},{"server_id":302,"name":"Uncletopia | Montréal | 3 | All Maps","name_short":"mtl-3","host":"mtl-1.ca.uncletopia.com","port":27035,"enabled":true,"region":"us-east","cc":"ca","latitude":45.50889,"longitude":-73.56167,"reserved":0,"last_update":"0001-01-01T00:00:00Z","name_a2s":"Uncletopia | Montréal | 3 | All Maps","protocol":17,"map":"cp_process_final","folder":"tf","game":"Team Fortress","app_id":440,"player_count":3,"max_players":24,"Bots":0,"server_type":"Dedicated","server_os":"Linux","password":true,"vac":true,"version":"7742253","steam_id":85568392924500089,"keywords":["cp","nocrits","nodmgspread","uncletopia"],"game_id":440,"stv_port":27036,"stv_name":"Uncletopia | Montréal | 3 | All Maps | STV","players":[{"user_id":16,"name":"watchfull","steam_id":76561198433266742,"connected_time":9666000000000,"state":"active","ping":158},{"user_id":17,"name":"Elegant Ejaculation","steam_id":76561198014190878,"connected_time":9439000000000,"state":"active","ping":123},{"user_id":19,"name":"Monsterjessy","steam_id":76561198035630985,"connected_time":7346000000000,"state":"active","ping":44}]},{"server_id":303,"name":"Uncletopia | Montréal | 4 | No Payload","name_short":"mtl-4","host":"mtl-1.ca.uncletopia.com","port":27045,"enabled":true,"region":"us-east","cc":"ca","latitude":45.50889,"longitude":-73.56167,"reserved":0,"last_update":"0001-01-01T00:00:00Z","name_a2s":"Uncletopia | Montréal | 4 | No Payload","protocol":17,"map":"cp_process_final","folder":"tf","game":"Team Fortress","app_id":440,"player_count":0,"max_players":24,"Bots":0,"server_type":"Dedicated","server_os":"Linux","password":true,"vac":true,"version":"7742253","steam_id":85568392924500090,"keywords":["cp","nocrits","nodmgspread","uncletopia"],"game_id":440,"stv_port":27046,"stv_name":"Uncletopia | Montréal | 4 | No Payload | STV","players":null},{"server_id":13,"name":"Uncletopia | New York City | 1 | All Maps","name_short":"nyc-1","host":"nyc-1.us.uncletopia.com","port":27015,"enabled":true,"region":"us-east","cc":"us","latitude":40.73061,"longitude":-73.93524,"reserved":0,"last_update":"0001-01-01T00:00:00Z","name_a2s":"Uncletopia | New York City | 1 | All Maps","protocol":17,"map":"cp_snakewater_final1","folder":"tf","game":"Team Fortress","app_id":440,"player_count":24,"max_players":24,"Bots":0,"server_type":"Dedicated","server_os":"Linux","password":true,"vac":true,"version":"7742253","steam_id":85568392924469993,"keywords":["cp","nocrits","nodmgspread","uncletopia"],"game_id":440,"stv_port":27016,"stv_name":"Uncletopia | New York City | 1 | All Maps | STV","players":[{"user_id":831,"name":"lyra","steam_id":76561198200002859,"connected_time":1371000000000,"state":"active","ping":59},{"user_id":840,"name":"wepry","steam_id":76561198114091417,"connected_time":953000000000,"state":"active","ping":90},{"user_id":828,"name":"Cafe Alpha","steam_id":76561197965022076,"connected_time":1447000000000,"state":"active","ping":46},{"user_id":770,"name":"Adolf The Toast Jesus™","steam_id":76561198024553767,"connected_time":6189000000000,"state":"active","ping":90},{"user_id":819,"name":"big dog","steam_id":76561198243918128,"connected_time":1855000000000,"state":"active","ping":53},{"user_id":844,"name":"Uhonlapjontetzika","steam_id":76561199431280503,"connected_time":467000000000,"state":"active","ping":48},{"user_id":822,"name":"pab","steam_id":76561198156915999,"connected_time":1730000000000,"state":"active","ping":74},{"user_id":829,"name":"Chesh","steam_id":76561197990316722,"connected_time":1417000000000,"state":"active","ping":72},{"user_id":724,"name":"astron","steam_id":76561198058546328,"connected_time":9245000000000,"state":"active","ping":72},{"user_id":815,"name":"ExoTheFlyingFish","steam_id":76561198034388243,"connected_time":2100000000000,"state":"active","ping":44},{"user_id":847,"name":"murphy700","steam_id":76561198063107723,"connected_time":44000000000,"state":"active","ping":65},{"user_id":834,"name":"totally not a pile of beans","steam_id":76561198119851931,"connected_time":1216000000000,"state":"active","ping":64},{"user_id":804,"name":"MAXIMUS","steam_id":76561198085809453,"connected_time":3645000000000,"state":"active","ping":76},{"user_id":843,"name":"Bruce Leeroy","steam_id":76561198010708247,"connected_time":538000000000,"state":"active","ping":66},{"user_id":832,"name":"Sicko Mode (Chris Pratt Cover)","steam_id":76561198315786174,"connected_time":1363000000000,"state":"active","ping":57},{"user_id":726,"name":"spooky","steam_id":76561198122964663,"connected_time":9240000000000,"state":"active","ping":58},{"user_id":833,"name":"Box","steam_id":76561198973425038,"connected_time":1302000000000,"state":"active","ping":82},{"user_id":835,"name":"monke","steam_id":76561198035138859,"connected_time":1108000000000,"state":"active","ping":62},{"user_id":845,"name":"devamar","steam_id":76561198069115467,"connected_time":206000000000,"state":"active","ping":71},{"user_id":837,"name":"Spearmint","steam_id":76561198134215373,"connected_time":981000000000,"state":"active","ping":59},{"user_id":842,"name":"Speedcola on nuketown","steam_id":76561199013544727,"connected_time":868000000000,"state":"active","ping":77},{"user_id":839,"name":"OUTER DEAD POOL","steam_id":76561198394197414,"connected_time":975000000000,"state":"active","ping":83},{"user_id":818,"name":"bench","steam_id":76561198055339968,"connected_time":1926000000000,"state":"active","ping":52},{"user_id":846,"name":"Minion of Kain","steam_id":76561198044261656,"connected_time":204000000000,"state":"active","ping":38}]},{"server_id":14,"name":"Uncletopia | New York City | 2 | All Maps","name_short":"nyc-2","host":"nyc-1.us.uncletopia.com","port":27025,"enabled":true,"region":"us-east","cc":"us","latitude":40.73061,"longitude":-73.93524,"reserved":0,"last_update":"0001-01-01T00:00:00Z","name_a2s":"Uncletopia | New York City | 2 | All Maps","protocol":17,"map":"koth_viaduct","folder":"tf","game":"Team Fortress","app_id":440,"player_count":13,"max_players":24,"Bots":0,"server_type":"Dedicated","server_os":"Linux","password":true,"vac":true,"version":"7742253","steam_id":85568392924469994,"keywords":["cp","nocrits","nodmgspread","uncletopia"],"game_id":440,"stv_port":27026,"stv_name":"Uncletopia | New York City | 2 | All Maps | STV","players":[{"user_id":912,"name":"Effie","steam_id":76561198261842068,"connected_time":180000000000,"state":"active","ping":70},{"user_id":905,"name":"Comfy!","steam_id":76561198008818346,"connected_time":563000000000,"state":"active","ping":55},{"user_id":836,"name":"matkaster","steam_id":76561197998546486,"connected_time":5791000000000,"state":"active","ping":69},{"user_id":895,"name":"♥Я люблю ̶т̶е̶б̶","steam_id":76561199074647634,"connected_time":1850000000000,"state":"active","ping":158},{"user_id":880,"name":"alexthepenguin7","steam_id":76561198390154448,"connected_time":3179000000000,"state":"active","ping":74},{"user_id":874,"name":"mega giga payload hater!","steam_id":76561198039727616,"connected_time":3489000000000,"state":"active","ping":65},{"user_id":910,"name":"yerb *18badies","steam_id":76561198312055294,"connected_time":243000000000,"state":"active","ping":44},{"user_id":907,"name":"maArk","steam_id":76561198200380143,"connected_time":437000000000,"state":"active","ping":146},{"user_id":904,"name":"Greenbean_Casserole","steam_id":76561199059555169,"connected_time":700000000000,"state":"active","ping":77},{"user_id":908,"name":"Johnny Esports","steam_id":76561198115812405,"connected_time":427000000000,"state":"active","ping":51},{"user_id":909,"name":"Morphy_02","steam_id":76561199066220458,"connected_time":424000000000,"state":"active","ping":121},{"user_id":911,"name":"matcha ^_^ \u003c3","steam_id":76561198832230598,"connected_time":243000000000,"state":"active","ping":45},{"user_id":852,"name":"Brass beast heavy","steam_id":76561198274197623,"connected_time":5324000000000,"state":"active","ping":131}]},{"server_id":15,"name":"Uncletopia | New York City | 3 | Stopwatch Beta","name_short":"nyc-3","host":"nyc-1.us.uncletopia.com","port":27035,"enabled":true,"region":"us-east","cc":"us","latitude":40.73061,"longitude":-73.93524,"reserved":0,"last_update":"0001-01-01T00:00:00Z","name_a2s":"Uncletopia | New York City | 3 | Stopwatch Beta","protocol":17,"map":"workshop/pl_badwater_pro_v12.ugc2142942074","folder":"tf","game":"Team Fortress","app_id":440,"player_count":0,"max_players":24,"Bots":0,"server_type":"Dedicated","server_os":"Linux","password":true,"vac":true,"version":"7742253","steam_id":85568392924742820,"keywords":["nocrits","nodmgspread","payload","uncletopia"],"game_id":440,"stv_port":27036,"stv_name":"Uncletopia | New York City | 3 | Stopwatch Beta | STV","players":null},{"server_id":16,"name":"Uncletopia | New York City | 4 | Community","name_short":"nyc-4","host":"nyc-1.us.uncletopia.com","port":27045,"enabled":true,"region":"us-east","cc":"us","latitude":40.73061,"longitude":-73.93524,"reserved":0,"last_update":"0001-01-01T00:00:00Z","name_a2s":"Uncletopia | New York City | 4 | Community","protocol":17,"map":"workshop/koth_ramjam_rc1.ugc459778887","folder":"tf","game":"Team Fortress","app_id":440,"player_count":0,"max_players":24,"Bots":0,"server_type":"Dedicated","server_os":"Linux","password":true,"vac":true,"version":"7742253","steam_id":85568392924742821,"keywords":["cp","nocrits","nodmgspread","uncletopia"],"game_id":440,"stv_port":27046,"stv_name":"Uncletopia | New York City | 4 | Community | STV","players":null},{"server_id":142,"name":"Uncletopia | São Paulo | 1 | All Maps","name_short":"sao-1","host":"sao-1.br.uncletopia.com","port":27015,"enabled":true,"region":"sa","cc":"br","latitude":-23.533773,"longitude":-46.62529,"reserved":0,"last_update":"0001-01-01T00:00:00Z","name_a2s":"Uncletopia | São Paulo | 1 | All Maps","protocol":17,"map":"koth_viaduct","folder":"tf","game":"Team Fortress","app_id":440,"player_count":0,"max_players":24,"Bots":0,"server_type":"Dedicated","server_os":"Linux","password":true,"vac":true,"version":"7742253","steam_id":85568392924469996,"keywords":["cp","nocrits","nodmgspread","uncletopia"],"game_id":440,"stv_port":27016,"stv_name":"Uncletopia | São Paulo | 1 | All Maps | STV","players":null},{"server_id":143,"name":"Uncletopia | São Paulo | 2 | All Maps","name_short":"sao-2","host":"sao-2.br.uncletopia.com","port":27015,"enabled":true,"region":"sa","cc":"br","latitude":-23.533773,"longitude":-46.62529,"reserved":0,"last_update":"0001-01-01T00:00:00Z","name_a2s":"Uncletopia | São Paulo | 2 | All Maps","protocol":17,"map":"koth_highpass","folder":"tf","game":"Team Fortress","app_id":440,"player_count":0,"max_players":24,"Bots":0,"server_type":"Dedicated","server_os":"Linux","password":true,"vac":true,"version":"7742253","steam_id":85568392924485349,"keywords":["cp","nocrits","nodmgspread","uncletopia"],"game_id":440,"stv_port":27016,"stv_name":"Uncletopia | São Paulo | 2 | All Maps | STV","players":null},{"server_id":7,"name":"Uncletopia | Seattle | 1 | All Maps","name_short":"sea-1","host":"sea-1.us.uncletopia.com","port":27015,"enabled":true,"region":"us-west","cc":"us","latitude":47.608013,"longitude":-122.33517,"reserved":0,"last_update":"0001-01-01T00:00:00Z","name_a2s":"Uncletopia | Seattle | 1 | All Maps","protocol":17,"map":"pl_snowycoast","folder":"tf","game":"Team Fortress","app_id":440,"player_count":24,"max_players":24,"Bots":0,"server_type":"Dedicated","server_os":"Linux","password":true,"vac":true,"version":"7742253","steam_id":85568392924469997,"keywords":["nocrits","nodmgspread","payload","uncletopia"],"game_id":440,"stv_port":27016,"stv_name":"Uncletopia | Seattle | 1 | All Maps | STV","players":[{"user_id":771,"name":"Mr.Thirteen","steam_id":76561198047468836,"connected_time":1069000000000,"state":"active","ping":68},{"user_id":761,"name":"Luca","steam_id":76561198125087140,"connected_time":2749000000000,"state":"active","ping":48},{"user_id":770,"name":"Number28","steam_id":76561198315018819,"connected_time":1077000000000,"state":"active","ping":75},{"user_id":782,"name":"tobrehto","steam_id":76561198097544038,"connected_time":369000000000,"state":"active","ping":85},{"user_id":778,"name":"Sir Nope (TSS)","steam_id":76561198035935649,"connected_time":674000000000,"state":"active","ping":84},{"user_id":594,"name":"Level 99 Mudcrab","steam_id":76561198077452771,"connected_time":15487000000000,"state":"active","ping":66},{"user_id":749,"name":"Dorte Voloxi","steam_id":76561198118620969,"connected_time":4618000000000,"state":"active","ping":66},{"user_id":779,"name":"Julien","steam_id":76561199389584938,"connected_time":629000000000,"state":"active","ping":45},{"user_id":772,"name":"Arsonist Goose","steam_id":76561198147441830,"connected_time":1067000000000,"state":"active","ping":75},{"user_id":768,"name":"Ayayahuasca","steam_id":76561199002906056,"connected_time":1097000000000,"state":"active","ping":52},{"user_id":781,"name":"MaryJanee","steam_id":76561198072200952,"connected_time":410000000000,"state":"active","ping":80},{"user_id":762,"name":"Sailor","steam_id":76561199081983517,"connected_time":2691000000000,"state":"active","ping":95},{"user_id":784,"name":"JasonIsGold79","steam_id":76561198101441539,"connected_time":327000000000,"state":"active","ping":137},{"user_id":766,"name":"Tom","steam_id":76561198070630154,"connected_time":1323000000000,"state":"active","ping":80},{"user_id":774,"name":"just leo","steam_id":76561198094491158,"connected_time":959000000000,"state":"active","ping":71},{"user_id":752,"name":"gorlab","steam_id":76561198025089694,"connected_time":4157000000000,"state":"active","ping":62},{"user_id":780,"name":"Salmon","steam_id":76561198285883040,"connected_time":563000000000,"state":"active","ping":56},{"user_id":729,"name":"STrong Bomber","steam_id":76561198805051139,"connected_time":5796000000000,"state":"active","ping":52},{"user_id":783,"name":"John Dungus (the real one)","steam_id":76561198049191027,"connected_time":355000000000,"state":"active","ping":95},{"user_id":727,"name":"Zenyaru","steam_id":76561199128779995,"connected_time":5831000000000,"state":"active","ping":84},{"user_id":758,"name":"SvicidalBug","steam_id":76561198221390504,"connected_time":3365000000000,"state":"active","ping":70},{"user_id":711,"name":"Sweets","steam_id":76561198998446307,"connected_time":6553000000000,"state":"active","ping":72},{"user_id":769,"name":"Korey","steam_id":76561198210734407,"connected_time":1097000000000,"state":"active","ping":117}]},{"server_id":119,"name":"Uncletopia | Seattle | 2 | All Maps","name_short":"sea-2","host":"sea-1.us.uncletopia.com","port":27025,"enabled":true,"region":"us-west","cc":"us","latitude":47.608013,"longitude":-122.33517,"reserved":0,"last_update":"0001-01-01T00:00:00Z","name_a2s":"Uncletopia | Seattle | 2 | All Maps","protocol":17,"map":"pl_badwater","folder":"tf","game":"Team Fortress","app_id":440,"player_count":24,"max_players":24,"Bots":0,"server_type":"Dedicated","server_os":"Linux","password":true,"vac":true,"version":"7742253","steam_id":85568392924469998,"keywords":["nocrits","nodmgspread","payload","uncletopia"],"game_id":440,"stv_port":27026,"stv_name":"Uncletopia | Seattle | 2 | All Maps | STV","players":[{"user_id":578,"name":"Lord Pretty Flocko Jordye","steam_id":76561198962880749,"connected_time":2423000000000,"state":"active","ping":44},{"user_id":594,"name":"Groth","steam_id":76561198061888926,"connected_time":577000000000,"state":"active","ping":123},{"user_id":573,"name":"dubious little creature","steam_id":76561198113251746,"connected_time":2887000000000,"state":"active","ping":60},{"user_id":597,"name":"Standard Nerd","steam_id":76561198017962576,"connected_time":406000000000,"state":"active","ping":72},{"user_id":588,"name":"Attrition","steam_id":76561197969881916,"connected_time":1242000000000,"state":"active","ping":58},{"user_id":552,"name":"zzrat","steam_id":76561198014925415,"connected_time":4452000000000,"state":"active","ping":53},{"user_id":550,"name":"Lightworker","steam_id":76561198063949642,"connected_time":4515000000000,"state":"active","ping":33},{"user_id":587,"name":"Boobie and vagene","steam_id":76561198078464924,"connected_time":1248000000000,"state":"active","ping":45},{"user_id":572,"name":"S Q U I S H E  T H A T  C A T","steam_id":76561198293865429,"connected_time":2926000000000,"state":"active","ping":38},{"user_id":571,"name":"THAT CAT","steam_id":76561198010828625,"connected_time":3039000000000,"state":"active","ping":30},{"user_id":520,"name":"General Fisticuffs","steam_id":76561198255721392,"connected_time":6773000000000,"state":"active","ping":104},{"user_id":590,"name":"blood bitch","steam_id":76561198325306660,"connected_time":1172000000000,"state":"active","ping":48},{"user_id":591,"name":"Tough Puffin","steam_id":76561198024011010,"connected_time":966000000000,"state":"active","ping":106},{"user_id":586,"name":"PerKnuckleChuckle","steam_id":76561198023221596,"connected_time":1252000000000,"state":"active","ping":80},{"user_id":598,"name":"Bradley","steam_id":76561198157279702,"connected_time":289000000000,"state":"active","ping":104},{"user_id":540,"name":"MrNoodles","steam_id":76561197998876110,"connected_time":5036000000000,"state":"active","ping":93},{"user_id":541,"name":"Splandido ☠","steam_id":76561198062096626,"connected_time":5035000000000,"state":"active","ping":42},{"user_id":582,"name":"pudding","steam_id":76561199227001460,"connected_time":1722000000000,"state":"active","ping":134},{"user_id":543,"name":"TheCowledWiz","steam_id":76561198016735868,"connected_time":5021000000000,"state":"active","ping":54},{"user_id":548,"name":"KingTinkerer","steam_id":76561198226856548,"connected_time":4538000000000,"state":"active","ping":71},{"user_id":599,"name":"dorian.","steam_id":76561198047979957,"connected_time":27000000000,"state":"active","ping":121},{"user_id":596,"name":"Rx Auntie","steam_id":76561198051618393,"connected_time":423000000000,"state":"active","ping":68},{"user_id":575,"name":"[insert keyword here]","steam_id":76561198201421063,"connected_time":2808000000000,"state":"active","ping":124},{"user_id":570,"name":"Lily Thorn","steam_id":76561198305488625,"connected_time":3132000000000,"state":"active","ping":59}]},{"server_id":406,"name":"Uncletopia | Seattle | 3 | Stopwatch Beta","name_short":"sea-3","host":"sea-1.us.uncletopia.com","port":27035,"enabled":true,"region":"us-west","cc":"us","latitude":47.608013,"longitude":-122.33517,"reserved":0,"last_update":"0001-01-01T00:00:00Z","name_a2s":"Uncletopia | Seattle | 3 | Stopwatch Beta","protocol":17,"map":"pl_borneo","folder":"tf","game":"Team Fortress","app_id":440,"player_count":1,"max_players":24,"Bots":0,"server_type":"Dedicated","server_os":"Linux","password":true,"vac":true,"version":"7742253","steam_id":85568392924515217,"keywords":["nocrits","nodmgspread","payload","uncletopia"],"game_id":440,"stv_port":27036,"stv_name":"Uncletopia | Seattle | 3 | Stopwatch Beta | STV","players":[{"user_id":63,"name":"Cheeseoid","steam_id":76561198073836524,"connected_time":82000000000,"state":"active","ping":95}]},{"server_id":17,"name":"Uncletopia | San Francisco | 1 | All Maps","name_short":"sfo-1","host":"sfo-1.us.uncletopia.com","port":27015,"enabled":true,"region":"us-west","cc":"us","latitude":37.77397,"longitude":-122.4313,"reserved":0,"last_update":"0001-01-01T00:00:00Z","name_a2s":"Uncletopia | San Francisco | 1 | All Maps","protocol":17,"map":"pl_borneo","folder":"tf","game":"Team Fortress","app_id":440,"player_count":23,"max_players":24,"Bots":0,"server_type":"Dedicated","server_os":"Linux","password":true,"vac":true,"version":"7742253","steam_id":85568392924469999,"keywords":["nocrits","nodmgspread","payload","uncletopia"],"game_id":440,"stv_port":27016,"stv_name":"Uncletopia | San Francisco | 1 | All Maps | STV","players":[{"user_id":111,"name":"Livin' Like Larry","steam_id":76561198313360974,"connected_time":2421000000000,"state":"active","ping":35},{"user_id":87,"name":"Gabe","steam_id":76561198081153719,"connected_time":3605000000000,"state":"active","ping":64},{"user_id":96,"name":"moe","steam_id":76561198929586245,"connected_time":3219000000000,"state":"active","ping":63},{"user_id":106,"name":"SuaveFrenchman","steam_id":76561198043762683,"connected_time":2553000000000,"state":"active","ping":47},{"user_id":67,"name":"Len","steam_id":76561199141913673,"connected_time":5477000000000,"state":"active","ping":44},{"user_id":132,"name":"TurboRaspberry","steam_id":76561199215360629,"connected_time":713000000000,"state":"active","ping":61},{"user_id":72,"name":"Schnitz","steam_id":76561198265484253,"connected_time":5047000000000,"state":"active","ping":65},{"user_id":98,"name":"bad spy player","steam_id":76561198873699671,"connected_time":2975000000000,"state":"active","ping":54},{"user_id":73,"name":"Whapper","steam_id":76561198044029606,"connected_time":4989000000000,"state":"active","ping":50},{"user_id":124,"name":"Nuggies","steam_id":76561198272432592,"connected_time":1076000000000,"state":"active","ping":51},{"user_id":128,"name":"Pimastr","steam_id":76561198230996464,"connected_time":857000000000,"state":"active","ping":120},{"user_id":127,"name":"MrLeftTurn","steam_id":76561198856743969,"connected_time":952000000000,"state":"active","ping":93},{"user_id":129,"name":"xlesz","steam_id":76561199020119161,"connected_time":827000000000,"state":"active","ping":65},{"user_id":108,"name":"gamer in rehab","steam_id":76561198858328080,"connected_time":2519000000000,"state":"active","ping":50},{"user_id":99,"name":"JellyParrot","steam_id":76561199190990163,"connected_time":2917000000000,"state":"active","ping":114},{"user_id":130,"name":"mrjibjaber","steam_id":76561198025229908,"connected_time":761000000000,"state":"active","ping":72},{"user_id":123,"name":"goldhed","steam_id":76561198051751133,"connected_time":1257000000000,"state":"active","ping":77},{"user_id":64,"name":"Zobozo","steam_id":76561198028954297,"connected_time":6083000000000,"state":"active","ping":54},{"user_id":112,"name":"invb","steam_id":76561197998263914,"connected_time":2414000000000,"state":"active","ping":105},{"user_id":136,"name":"Squidna","steam_id":76561198032491706,"connected_time":69000000000,"state":"active","ping":77},{"user_id":133,"name":"Goblin64","steam_id":76561198969156830,"connected_time":710000000000,"state":"active","ping":84},{"user_id":68,"name":"Tenma","steam_id":76561198296557689,"connected_time":5277000000000,"state":"active","ping":56},{"user_id":134,"name":"Tim Duncan","steam_id":76561198010557666,"connected_time":692000000000,"state":"active","ping":89}]},{"server_id":18,"name":"Uncletopia | San Francisco | 2 | All Maps","name_short":"sfo-2","host":"sfo-1.us.uncletopia.com","port":27025,"enabled":true,"region":"us-west","cc":"us","latitude":37.77397,"longitude":-122.4313,"reserved":0,"last_update":"0001-01-01T00:00:00Z","name_a2s":"Uncletopia | San Francisco | 2 | All Maps","protocol":17,"map":"pl_borneo","folder":"tf","game":"Team Fortress","app_id":440,"player_count":24,"max_players":24,"Bots":0,"server_type":"Dedicated","server_os":"Linux","password":true,"vac":true,"version":"7742253","steam_id":85568392924470000,"keywords":["nocrits","nodmgspread","payload","uncletopia"],"game_id":440,"stv_port":27026,"stv_name":"Uncletopia | San Francisco | 2 | All Maps | STV","players":[{"user_id":193,"name":"Dezzithediscoduck","steam_id":76561198037043489,"connected_time":5370000000000,"state":"active","ping":50},{"user_id":240,"name":"Lore","steam_id":76561198098407538,"connected_time":481000000000,"state":"active","ping":104},{"user_id":233,"name":"TheVandive","steam_id":76561199014510667,"connected_time":1320000000000,"state":"active","ping":166},{"user_id":228,"name":"CaptainGold1","steam_id":76561198104967772,"connected_time":1744000000000,"state":"active","ping":70},{"user_id":213,"name":"Orson Welles Gaming","steam_id":76561198115821923,"connected_time":3209000000000,"state":"active","ping":69},{"user_id":246,"name":"Gardangle","steam_id":76561198394173831,"connected_time":135000000000,"state":"active","ping":62},{"user_id":236,"name":"Miskey","steam_id":76561198185428535,"connected_time":884000000000,"state":"active","ping":72},{"user_id":214,"name":"Life is Pain I Hate","steam_id":76561198184565718,"connected_time":3192000000000,"state":"active","ping":61},{"user_id":237,"name":"Sadodere Grimace","steam_id":76561198008332028,"connected_time":808000000000,"state":"active","ping":61},{"user_id":242,"name":"Milano","steam_id":76561198051889174,"connected_time":402000000000,"state":"active","ping":53},{"user_id":224,"name":"benhameen","steam_id":76561198446837615,"connected_time":1969000000000,"state":"active","ping":50},{"user_id":217,"name":"The Horny","steam_id":76561198863639459,"connected_time":2691000000000,"state":"active","ping":67},{"user_id":241,"name":"{ᴛʀ_ᴄᴇʀᴘ} shullers","steam_id":76561198889997809,"connected_time":474000000000,"state":"active","ping":60},{"user_id":229,"name":"Penile Provoker","steam_id":76561198082653257,"connected_time":1730000000000,"state":"active","ping":51},{"user_id":195,"name":"sly1","steam_id":76561198049014977,"connected_time":5287000000000,"state":"active","ping":73},{"user_id":243,"name":"The Bird","steam_id":76561198027102552,"connected_time":393000000000,"state":"active","ping":74},{"user_id":225,"name":"E-Spliff","steam_id":76561199093733603,"connected_time":1910000000000,"state":"active","ping":59},{"user_id":211,"name":"8core","steam_id":76561198131163454,"connected_time":3586000000000,"state":"active","ping":74},{"user_id":220,"name":"magunyamu","steam_id":76561198823083676,"connected_time":2351000000000,"state":"active","ping":64},{"user_id":230,"name":"playdough eater","steam_id":76561199045901994,"connected_time":1554000000000,"state":"active","ping":81},{"user_id":234,"name":"NewNebula12","steam_id":76561198146473719,"connected_time":1320000000000,"state":"active","ping":68},{"user_id":247,"name":"Tropsico","steam_id":76561198086195254,"connected_time":128000000000,"state":"active","ping":86},{"user_id":245,"name":"Big Time Bobby","steam_id":76561198935266162,"connected_time":232000000000,"state":"active","ping":100},{"user_id":179,"name":"Pudsla","steam_id":76561198258974036,"connected_time":6238000000000,"state":"active","ping":84}]},{"server_id":19,"name":"Uncletopia | San Francisco | 3 | Stopwatch Beta","name_short":"sfo-3","host":"sfo-1.us.uncletopia.com","port":27035,"enabled":true,"region":"us-west","cc":"us","latitude":37.77397,"longitude":-122.4313,"reserved":0,"last_update":"0001-01-01T00:00:00Z","name_a2s":"Uncletopia | San Francisco | 3 | Stopwatch Beta","protocol":17,"map":"koth_lakeside_final","folder":"tf","game":"Team Fortress","app_id":440,"player_count":2,"max_players":24,"Bots":0,"server_type":"Dedicated","server_os":"Linux","password":true,"vac":true,"version":"7742253","steam_id":85568392924742824,"keywords":["cp","nocrits","nodmgspread","uncletopia"],"game_id":440,"stv_port":27036,"stv_name":"Uncletopia | San Francisco | 3 | Stopwatch Beta | STV","players":[{"user_id":20,"name":"raymond.boyd0831","steam_id":76561199261496394,"connected_time":605000000000,"state":"active","ping":56},{"user_id":22,"name":"Fireboy1-UP","steam_id":76561199073267048,"connected_time":481000000000,"state":"active","ping":64}]},{"server_id":20,"name":"Uncletopia | San Francisco | 4 | Community","name_short":"sfo-4","host":"sfo-1.us.uncletopia.com","port":27045,"enabled":true,"region":"us-west","cc":"us","latitude":37.77397,"longitude":-122.4313,"reserved":0,"last_update":"0001-01-01T00:00:00Z","name_a2s":"Uncletopia | San Francisco | 4 | Community","protocol":17,"map":"workshop/rd_asteroid_redux_b1.ugc2154902912","folder":"tf","game":"Team Fortress","app_id":440,"player_count":0,"max_players":24,"Bots":0,"server_type":"Dedicated","server_os":"Linux","password":true,"vac":true,"version":"7742253","steam_id":85568392924742826,"keywords":["beta","nocrits","nodmgspread","rd","uncletopia"],"game_id":440,"stv_port":27046,"stv_name":"Uncletopia | San Francisco | 4 | Community | STV","players":null},{"server_id":141,"name":"Uncletopia | Sydney | 1 | All Maps","name_short":"syd-1","host":"syd-1.au.uncletopia.com","port":27015,"enabled":true,"region":"au","cc":"au","latitude":-33.865143,"longitude":151.2099,"reserved":0,"last_update":"0001-01-01T00:00:00Z","name_a2s":"Uncletopia | Sydney | 1 | All Maps","protocol":17,"map":"pl_barnblitz","folder":"tf","game":"Team Fortress","app_id":440,"player_count":21,"max_players":24,"Bots":0,"server_type":"Dedicated","server_os":"Linux","password":true,"vac":true,"version":"7742253","steam_id":85568392924470001,"keywords":["nocrits","nodmgspread","payload","uncletopia"],"game_id":440,"stv_port":27016,"stv_name":"Uncletopia | Sydney | 1 | All Maps | STV","players":[{"user_id":395,"name":"Jonny","steam_id":76561198053391732,"connected_time":164000000000,"state":"active","ping":69},{"user_id":384,"name":"SassnCheeky","steam_id":76561197993875592,"connected_time":1079000000000,"state":"active","ping":44},{"user_id":392,"name":"Pug","steam_id":76561198136794372,"connected_time":202000000000,"state":"active","ping":49},{"user_id":369,"name":"krandlez` (Any/All)","steam_id":76561198044839726,"connected_time":1545000000000,"state":"active","ping":40},{"user_id":344,"name":"dolphin","steam_id":76561198206754736,"connected_time":3779000000000,"state":"active","ping":51},{"user_id":362,"name":"☁☁ﮎσggY☁","steam_id":76561198156441727,"connected_time":1997000000000,"state":"active","ping":36},{"user_id":312,"name":"cullen","steam_id":76561198128695488,"connected_time":5815000000000,"state":"active","ping":54},{"user_id":396,"name":"hyak","steam_id":76561198175700625,"connected_time":103000000000,"state":"active","ping":89},{"user_id":364,"name":"yohooj","steam_id":76561198344513761,"connected_time":1826000000000,"state":"active","ping":40},{"user_id":378,"name":"Lobarté","steam_id":76561198090116136,"connected_time":1284000000000,"state":"active","ping":60},{"user_id":397,"name":"Jamie2Cool","steam_id":76561198155695809,"connected_time":11000000000,"state":"active","ping":106},{"user_id":348,"name":"pooparse","steam_id":76561198217959591,"connected_time":3370000000000,"state":"active","ping":74},{"user_id":389,"name":"Naked","steam_id":76561198102863042,"connected_time":815000000000,"state":"active","ping":138},{"user_id":393,"name":"Doctor Zarlo","steam_id":76561198040635388,"connected_time":191000000000,"state":"active","ping":28},{"user_id":374,"name":"TheCherry","steam_id":76561198062312012,"connected_time":1344000000000,"state":"active","ping":62},{"user_id":346,"name":"tweedie","steam_id":76561198063425523,"connected_time":3445000000000,"state":"active","ping":60},{"user_id":334,"name":"Zeal","steam_id":76561198060829393,"connected_time":4229000000000,"state":"active","ping":69},{"user_id":370,"name":"Qwertles","steam_id":76561198033779273,"connected_time":1535000000000,"state":"active","ping":50},{"user_id":371,"name":"Just Brando","steam_id":76561198914415738,"connected_time":1459000000000,"state":"active","ping":58},{"user_id":394,"name":"Maestro[FmJ]","steam_id":76561197996842734,"connected_time":189000000000,"state":"active","ping":60},{"user_id":391,"name":"perturb","steam_id":76561198085124297,"connected_time":472000000000,"state":"active","ping":55}]},{"server_id":123,"name":"Uncletopia | Sydney | 2 | All Maps","name_short":"syd-2","host":"syd-1.au.uncletopia.com","port":27025,"enabled":true,"region":"au","cc":"au","latitude":-33.865143,"longitude":151.2099,"reserved":0,"last_update":"0001-01-01T00:00:00Z","name_a2s":"Uncletopia | Sydney | 2 | All Maps","protocol":17,"map":"cp_mountainlab","folder":"tf","game":"Team Fortress","app_id":440,"player_count":24,"max_players":24,"Bots":0,"server_type":"Dedicated","server_os":"Linux","password":true,"vac":true,"version":"7742253","steam_id":85568392924470002,"keywords":["cp","nocrits","nodmgspread","uncletopia"],"game_id":440,"stv_port":27026,"stv_name":"Uncletopia | Sydney | 2 | All Maps | STV","players":[{"user_id":149,"name":"pain train tf2","steam_id":76561198059284918,"connected_time":1202000000000,"state":"active","ping":45},{"user_id":170,"name":"hobo","steam_id":76561199046481213,"connected_time":414000000000,"state":"active","ping":69},{"user_id":114,"name":"monocrumb","steam_id":76561199126588682,"connected_time":2969000000000,"state":"active","ping":76},{"user_id":172,"name":"iadlin","steam_id":76561197996215700,"connected_time":268000000000,"state":"active","ping":72},{"user_id":169,"name":"monkeyman536","steam_id":76561197997717737,"connected_time":446000000000,"state":"active","ping":179},{"user_id":105,"name":"bread","steam_id":76561199405764106,"connected_time":3786000000000,"state":"active","ping":41},{"user_id":174,"name":"what_happy","steam_id":76561198971334734,"connected_time":77000000000,"state":"active","ping":58},{"user_id":175,"name":"Bigrichard","steam_id":76561198032092945,"connected_time":55000000000,"state":"spawning","ping":89},{"user_id":151,"name":"sadgasm","steam_id":76561198008230563,"connected_time":1157000000000,"state":"active","ping":47},{"user_id":176,"name":"NightSpawn 2.0","steam_id":76561199447160011,"connected_time":47000000000,"state":"active","ping":66},{"user_id":163,"name":"cLoWn bOy Gaming","steam_id":76561198075767357,"connected_time":804000000000,"state":"active","ping":55},{"user_id":134,"name":"slow","steam_id":76561198163340833,"connected_time":2213000000000,"state":"active","ping":66},{"user_id":167,"name":"Swaggeroth","steam_id":76561198084066189,"connected_time":595000000000,"state":"active","ping":43},{"user_id":156,"name":"Sherpa","steam_id":76561198018913829,"connected_time":965000000000,"state":"active","ping":51},{"user_id":177,"name":"Greenz","steam_id":76561199067124575,"connected_time":45000000000,"state":"active","ping":50},{"user_id":117,"name":"Zakdos","steam_id":76561199206212104,"connected_time":2931000000000,"state":"active","ping":71},{"user_id":171,"name":"Im too cooked","steam_id":76561199006814024,"connected_time":400000000000,"state":"active","ping":62},{"user_id":159,"name":"Flakey","steam_id":76561198021618682,"connected_time":938000000000,"state":"active","ping":59},{"user_id":120,"name":"Poison_Kouki","steam_id":76561198150364859,"connected_time":2901000000000,"state":"active","ping":53},{"user_id":178,"name":"duff","steam_id":76561198252163844,"connected_time":32000000000,"state":"active","ping":71},{"user_id":165,"name":"Nylk","steam_id":76561198033625169,"connected_time":759000000000,"state":"active","ping":33},{"user_id":164,"name":"mar harklem","steam_id":76561198836003115,"connected_time":775000000000,"state":"active","ping":65},{"user_id":166,"name":"Cup","steam_id":76561198038485845,"connected_time":705000000000,"state":"active","ping":30},{"user_id":168,"name":"Dame Da Ne Guy","steam_id":76561198145027367,"connected_time":592000000000,"state":"active","ping":85}]},{"server_id":395,"name":"Uncletopia | Sydney | 3 | All Maps","name_short":"syd-3","host":"syd-1.au.uncletopia.com","port":27035,"enabled":true,"region":"au","cc":"au","latitude":-33.865143,"longitude":151.2099,"reserved":0,"last_update":"0001-01-01T00:00:00Z","name_a2s":"Uncletopia | Sydney | 3 | All Maps","protocol":17,"map":"pl_snowycoast","folder":"tf","game":"Team Fortress","app_id":440,"player_count":0,"max_players":24,"Bots":0,"server_type":"Dedicated","server_os":"Linux","password":true,"vac":true,"version":"7742253","steam_id":85568392925194467,"keywords":["nocrits","nodmgspread","payload","uncletopia"],"game_id":440,"stv_port":27036,"stv_name":"Uncletopia | Sydney | 3 | All Maps | STV","players":null},{"server_id":396,"name":"Uncletopia | Sydney | 4 | All Maps","name_short":"syd-4","host":"syd-1.au.uncletopia.com","port":27045,"enabled":true,"region":"au","cc":"au","latitude":-33.865143,"longitude":151.2099,"reserved":0,"last_update":"0001-01-01T00:00:00Z","name_a2s":"Uncletopia | Sydney | 4 | All Maps","protocol":17,"map":"pl_frontier_final","folder":"tf","game":"Team Fortress","app_id":440,"player_count":3,"max_players":24,"Bots":0,"server_type":"Dedicated","server_os":"Linux","password":true,"vac":true,"version":"7742253","steam_id":85568392925397958,"keywords":["nocrits","nodmgspread","payload","uncletopia"],"game_id":440,"stv_port":27046,"stv_name":"Uncletopia | Sydney | 4 | All Maps | STV","players":[{"user_id":5,"name":"INFERN0O71","steam_id":76561199230368773,"connected_time":425000000000,"state":"active","ping":48},{"user_id":6,"name":"sumdweeb","steam_id":76561199039434675,"connected_time":380000000000,"state":"active","ping":45},{"user_id":8,"name":"FlynnRain","steam_id":76561199229332018,"connected_time":223000000000,"state":"active","ping":53}]},{"server_id":58,"name":"Uncletopia | Sydney | 5 | Stopwatch Beta","name_short":"syd-5","host":"syd-1.au.uncletopia.com","port":27055,"enabled":true,"region":"au","cc":"au","latitude":-33.865143,"longitude":151.2099,"reserved":0,"last_update":"0001-01-01T00:00:00Z","name_a2s":"Uncletopia | Sydney | 5 | Stopwatch Beta","protocol":17,"map":"cp_process_final","folder":"tf","game":"Team Fortress","app_id":440,"player_count":0,"max_players":24,"Bots":0,"server_type":"Dedicated","server_os":"Linux","password":true,"vac":true,"version":"7742253","steam_id":85568392925397959,"keywords":["cp","nocrits","nodmgspread","uncletopia"],"game_id":440,"stv_port":27056,"stv_name":"Uncletopia | Sydney | 5 | Stopwatch Beta | STV","players":null},{"server_id":59,"name":"Uncletopia | Sydney | 6 | Community","name_short":"syd-6","host":"syd-1.au.uncletopia.com","port":27065,"enabled":true,"region":"au","cc":"au","latitude":-33.865143,"longitude":151.2099,"reserved":0,"last_update":"0001-01-01T00:00:00Z","name_a2s":"Uncletopia | Sydney | 6 | Community","protocol":17,"map":"workshop/pl_barnblitz_pro7.ugc582280235","folder":"tf","game":"Team Fortress","app_id":440,"player_count":0,"max_players":24,"Bots":0,"server_type":"Dedicated","server_os":"Linux","password":true,"vac":true,"version":"7742253","steam_id":85568392925397960,"keywords":["nocrits","nodmgspread","payload","uncletopia"],"game_id":440,"stv_port":27066,"stv_name":"Uncletopia | Sydney | 6 | Community | STV","players":null},{"server_id":49,"name":"Uncletopia | Warsaw | 1 | All Maps","name_short":"waw-1","host":"waw-1.pl.uncletopia.com","port":27015,"enabled":true,"region":"eu","cc":"pl","latitude":52.2297,"longitude":21.017532,"reserved":0,"last_update":"0001-01-01T00:00:00Z","name_a2s":"","protocol":0,"map":"","folder":"","game":"","app_id":0,"player_count":0,"max_players":0,"Bots":0,"server_type":"","server_os":"","password":false,"vac":false,"version":"","steam_id":0,"keywords":null,"game_id":0,"stv_port":0,"stv_name":"","players":null},{"server_id":50,"name":"Uncletopia | Warsaw | 2 | All Maps","name_short":"waw-2","host":"waw-1.pl.uncletopia.com","port":27025,"enabled":true,"region":"eu","cc":"pl","latitude":52.2297,"longitude":21.017532,"reserved":0,"last_update":"0001-01-01T00:00:00Z","name_a2s":"Uncletopia | Warsaw | 2 | All Maps","protocol":17,"map":"pl_upward","folder":"tf","game":"Team Fortress","app_id":440,"player_count":0,"max_players":24,"Bots":0,"server_type":"Dedicated","server_os":"Linux","password":true,"vac":true,"version":"7742253","steam_id":85568392925397851,"keywords":["nocrits","nodmgspread","payload","uncletopia"],"game_id":440,"stv_port":27026,"stv_name":"Uncletopia | Warsaw | 2 | All Maps | STV","players":null},{"server_id":51,"name":"Uncletopia | Warsaw | 3 | All Maps","name_short":"waw-3","host":"waw-1.pl.uncletopia.com","port":27035,"enabled":true,"region":"eu","cc":"pl","latitude":52.2297,"longitude":21.017532,"reserved":0,"last_update":"0001-01-01T00:00:00Z","name_a2s":"Uncletopia | Warsaw | 3 | All Maps","protocol":17,"map":"koth_lakeside_final","folder":"tf","game":"Team Fortress","app_id":440,"player_count":0,"max_players":24,"Bots":0,"server_type":"Dedicated","server_os":"Linux","password":true,"vac":true,"version":"7742253","steam_id":85568392925397852,"keywords":["cp","nocrits","nodmgspread","uncletopia"],"game_id":440,"stv_port":27036,"stv_name":"Uncletopia | Warsaw | 3 | All Maps | STV","players":null},{"server_id":52,"name":"Uncletopia | Warsaw | 4 | All Maps","name_short":"waw-4","host":"waw-1.pl.uncletopia.com","port":27045,"enabled":true,"region":"eu","cc":"pl","latitude":52.2297,"longitude":21.017532,"reserved":0,"last_update":"0001-01-01T00:00:00Z","name_a2s":"Uncletopia | Warsaw | 4 | All Maps","protocol":17,"map":"pl_upward","folder":"tf","game":"Team Fortress","app_id":440,"player_count":0,"max_players":24,"Bots":0,"server_type":"Dedicated","server_os":"Linux","password":true,"vac":true,"version":"7742253","steam_id":85568392925397853,"keywords":["nocrits","nodmgspread","payload","uncletopia"],"game_id":440,"stv_port":27046,"stv_name":"Uncletopia | Warsaw | 4 | All Maps | STV","players":null},{"server_id":53,"name":"Uncletopia | Warsaw | 5 | Stopwatch Beta","name_short":"waw-5","host":"waw-1.pl.uncletopia.com","port":27055,"enabled":true,"region":"eu","cc":"pl","latitude":52.2297,"longitude":21.017532,"reserved":0,"last_update":"0001-01-01T00:00:00Z","name_a2s":"Uncletopia | Warsaw | 5 | Stopwatch Beta","protocol":17,"map":"pl_swiftwater_final1","folder":"tf","game":"Team Fortress","app_id":440,"player_count":0,"max_players":24,"Bots":0,"server_type":"Dedicated","server_os":"Linux","password":true,"vac":true,"version":"7742253","steam_id":85568392925397854,"keywords":["nocrits","nodmgspread","payload","uncletopia"],"game_id":440,"stv_port":27056,"stv_name":"Uncletopia | Warsaw | 5 | Stopwatch Beta | STV","players":null},{"server_id":54,"name":"Uncletopia | Warsaw | 6 | Community","name_short":"waw-6","host":"waw-1.pl.uncletopia.com","port":27065,"enabled":true,"region":"eu","cc":"pl","latitude":52.2297,"longitude":21.017532,"reserved":0,"last_update":"0001-01-01T00:00:00Z","name_a2s":"Uncletopia | Warsaw | 6 | Community","protocol":17,"map":"koth_highpass","folder":"tf","game":"Team Fortress","app_id":440,"player_count":0,"max_players":24,"Bots":0,"server_type":"Dedicated","server_os":"Linux","password":true,"vac":true,"version":"7742253","steam_id":85568392925397856,"keywords":["cp","nocrits","nodmgspread","uncletopia"],"game_id":440,"stv_port":27066,"stv_name":"Uncletopia | Warsaw | 6 | Community | STV","players":null}]}