{"status":true,"message":"","result":[{"server_id":9,"name":"Uncletopia | Atlanta | 1 | All Maps","name_short":"atl-1","host":"atl-1.us.uncletopia.com","port":27015,"enabled":true,"region":"us-east","cc":"us","latitude":33.753746,"longitude":-84.38633,"reserved":0,"last_update":"0001-01-01T00:00:00Z","name_a2s":"Uncletopia | Atlanta | 1 | All Maps","protocol":17,"map":"cp_mountainlab","folder":"tf","game":"Team Fortress","app_id":440,"player_count":0,"max_players":24,"Bots":0,"server_type":"Dedicated","server_os":"Linux","password":true,"vac":true,"version":"7757534","steam_id":85568392924469982,"keywords":["cp","nocrits","nodmgspread","uncletopia"],"game_id":440,"stv_port":27016,"stv_name":"Uncletopia | Atlanta | 1 | All Maps | STV","players":null},{"server_id":400,"name":"Uncletopia | Atlanta | 3 | Community","name_short":"atl-3","host":"atl-1.us.uncletopia.com","port":27035,"enabled":true,"region":"us-east","cc":"us","latitude":33.753746,"longitude":-84.38633,"reserved":0,"last_update":"0001-01-01T00:00:00Z","name_a2s":"Uncletopia | Atlanta | 3 | Community","protocol":17,"map":"workshop/koth_ramjam_rc1.ugc459778887","folder":"tf","game":"Team Fortress","app_id":440,"player_count":0,"max_players":24,"Bots":0,"server_type":"Dedicated","server_os":"Linux","password":true,"vac":true,"version":"7757534","steam_id":85568392924515187,"keywords":["cp","nocrits","nodmgspread","uncletopia"],"game_id":440,"stv_port":27036,"stv_name":"Uncletopia | Atlanta | 3 | Community | STV","players":null},{"server_id":401,"name":"Uncletopia | Atlanta | 4 | No Payload","name_short":"atl-4","host":"atl-1.us.uncletopia.com","port":27045,"enabled":true,"region":"us-east","cc":"us","latitude":33.753746,"longitude":-84.38633,"reserved":0,"last_update":"0001-01-01T00:00:00Z","name_a2s":"","protocol":0,"map":"","folder":"","game":"","app_id":0,"player_count":0,"max_players":0,"Bots":0,"server_type":"","server_os":"","password":false,"vac":false,"version":"","steam_id":0,"keywords":null,"game_id":0,"stv_port":0,"stv_name":"","players":null},{"server_id":2,"name":"Uncletopia | Chicago | 1 | All Maps","name_short":"chi-1","host":"chi-1.us.uncletopia.com","port":27015,"enabled":true,"region":"us-central","cc":"us","latitude":41.881832,"longitude":-87.62318,"reserved":0,"last_update":"0001-01-01T00:00:00Z","name_a2s":"Uncletopia | Chicago | 1 | All Maps","protocol":17,"map":"pl_upward","folder":"tf","game":"Team Fortress","app_id":440,"player_count":24,"max_players":24,"Bots":0,"server_type":"Dedicated","server_os":"Linux","password":true,"vac":true,"version":"7757534","steam_id":85568392924469984,"keywords":["nocrits","nodmgspread","payload","uncletopia"],"game_id":440,"stv_port":27016,"stv_name":"Uncletopia | Chicago | 1 | All Maps | STV","players":[{"user_id":955,"name":"SIGMA [BS]","steam_id":76561197962604879,"connected_time":8033000000000,"state":"active","ping":65},{"user_id":1013,"name":"[يهودي] Bill Clinton [אל","steam_id":76561198163291190,"connected_time":3824000000000,"state":"active","ping":86},{"user_id":1052,"name":"scarfs :4","steam_id":76561198008264703,"connected_time":503000000000,"state":"active","ping":60},{"user_id":1051,"name":"man of the hour","steam_id":76561198264601809,"connected_time":508000000000,"state":"active","ping":76},{"user_id":1053,"name":"Doctor Ichor","steam_id":76561198123815761,"connected_time":494000000000,"state":"active","ping":88},{"user_id":1000,"name":"Squiliam","steam_id":76561198025278006,"connected_time":4832000000000,"state":"active","ping":94},{"user_id":1034,"name":"Shichinitzi","steam_id":76561198003833732,"connected_time":1737000000000,"state":"active","ping":51},{"user_id":1035,"name":"GhostCoffee","steam_id":76561198105228900,"connected_time":1622000000000,"state":"active","ping":60},{"user_id":1030,"name":"dn","steam_id":76561199063940848,"connected_time":1962000000000,"state":"active","ping":161},{"user_id":1036,"name":"Kritzburgh","steam_id":76561198149466938,"connected_time":1608000000000,"state":"active","ping":64},{"user_id":1054,"name":"erm categorie","steam_id":76561198272354852,"connected_time":474000000000,"state":"active","ping":42},{"user_id":1019,"name":"Mrpeagod","steam_id":76561198138985101,"connected_time":3450000000000,"state":"active","ping":75},{"user_id":1046,"name":"pea","steam_id":76561198057789647,"connected_time":1156000000000,"state":"active","ping":88},{"user_id":1055,"name":"D3TRΩR3AP3R","steam_id":76561198189423917,"connected_time":411000000000,"state":"active","ping":104},{"user_id":918,"name":"The Deders","steam_id":76561198002639950,"connected_time":11600000000000,"state":"active","ping":77},{"user_id":1048,"name":"sweaterfan","steam_id":76561199389567214,"connected_time":915000000000,"state":"active","ping":67},{"user_id":1012,"name":"Young, Hot, and Full of Grease","steam_id":76561198101092551,"connected_time":3836000000000,"state":"active","ping":77},{"user_id":1041,"name":"DrSealJr","steam_id":76561198134107936,"connected_time":1479000000000,"state":"active","ping":100},{"user_id":922,"name":"ovenfresh01","steam_id":76561199086062124,"connected_time":11568000000000,"state":"active","ping":70},{"user_id":1042,"name":"Pyrovision Enthusiast","steam_id":76561198211892779,"connected_time":1368000000000,"state":"active","ping":61},{"user_id":1044,"name":"BaDboY6996","steam_id":76561197969386201,"connected_time":1349000000000,"state":"active","ping":60},{"user_id":1047,"name":"lord bong","steam_id":76561197991387894,"connected_time":936000000000,"state":"active","ping":75},{"user_id":1056,"name":"vOMIT BOY","steam_id":76561198167279375,"connected_time":61000000000,"state":"active","ping":104},{"user_id":1045,"name":"MY RATCHET BM CALLING #DECLINED","steam_id":76561198144766439,"connected_time":1349000000000,"state":"active","ping":45}]},{"server_id":106,"name":"Uncletopia | Chicago | 2 | All Maps","name_short":"chi-2","host":"chi-1.us.uncletopia.com","port":27025,"enabled":true,"region":"us-central","cc":"us","latitude":41.881832,"longitude":-87.62318,"reserved":0,"last_update":"0001-01-01T00:00:00Z","name_a2s":"Uncletopia | Chicago | 2 | All Maps","protocol":17,"map":"pl_snowycoast","folder":"tf","game":"Team Fortress","app_id":440,"player_count":0,"max_players":24,"Bots":0,"server_type":"Dedicated","server_os":"Linux","password":true,"vac":true,"version":"7757534","steam_id":85568392924469985,"keywords":["nocrits","nodmgspread","payload","uncletopia"],"game_id":440,"stv_port":27026,"stv_name":"Uncletopia | Chicago | 2 | All Maps | STV","players":null},{"server_id":402,"name":"Uncletopia | Chicago | 3 | All Maps","name_short":"chi-3","host":"chi-1.us.uncletopia.com","port":27035,"enabled":true,"region":"us-central","cc":"us","latitude":41.881832,"longitude":-87.62318,"reserved":0,"last_update":"0001-01-01T00:00:00Z","name_a2s":"Uncletopia | Chicago | 3 | All Maps","protocol":17,"map":"cp_process_final","folder":"tf","game":"Team Fortress","app_id":440,"player_count":0,"max_players":24,"Bots":0,"server_type":"Dedicated","server_os":"Linux","password":true,"vac":true,"version":"7757534","steam_id":85568392924515191,"keywords":["cp","nocrits","nodmgspread","uncletopia"],"game_id":440,"stv_port":27036,"stv_name":"Uncletopia | Chicago | 3 | All Maps | STV","players":null},{"server_id":403,"name":"Uncletopia | Chicago | 4 | All Maps","name_short":"chi-4","host":"chi-1.us.uncletopia.com","port":27045,"enabled":true,"region":"us-central","cc":"us","latitude":41.881832,"longitude":-87.62318,"reserved":0,"last_update":"0001-01-01T00:00:00Z","name_a2s":"Uncletopia | Chicago | 4 | All Maps","protocol":17,"map":"cp_sunshine","folder":"tf","game":"Team Fortress","app_id":440,"player_count":0,"max_players":24,"Bots":0,"server_type":"Dedicated","server_os":"Linux","password":true,"vac":true,"version":"7757534","steam_id":85568392924515193,"keywords":["cp","nocrits","nodmgspread","uncletopia"],"game_id":440,"stv_port":27046,"stv_name":"Uncletopia | Chicago | 4 | All Maps | STV","players":null},{"server_id":36,"name":"Uncletopia | Chicago | 5 | All Maps","name_short":"chi-5","host":"chi-2.us.uncletopia.com","port":27015,"enabled":true,"region":"us-central","cc":"us","latitude":41.881832,"longitude":-87.62318,"reserved":0,"last_update":"0001-01-01T00:00:00Z","name_a2s":"Uncletopia | Chicago | 5 | All Maps","protocol":17,"map":"cp_sunshine","folder":"tf","game":"Team Fortress","app_id":440,"player_count":13,"max_players":24,"Bots":0,"server_type":"Dedicated","server_os":"Linux","password":true,"vac":true,"version":"7757534","steam_id":85568392924866362,"keywords":["cp","nocrits","nodmgspread","uncletopia"],"game_id":440,"stv_port":27016,"stv_name":"Uncletopia | Chicago | 5 | All Maps | STV","players":[{"user_id":786,"name":"IanTheAwsm","steam_id":76561198093031738,"connected_time":159000000000,"state":"active","ping":64},{"user_id":675,"name":"Born to shit, Forced to wipe","steam_id":76561198137880777,"connected_time":11082000000000,"state":"active","ping":78},{"user_id":745,"name":"Creyon","steam_id":76561198812104058,"connected_time":4361000000000,"state":"active","ping":50},{"user_id":787,"name":"Slashes","steam_id":76561197968573499,"connected_time":159000000000,"state":"active","ping":53},{"user_id":783,"name":"Draiyden","steam_id":76561198031050090,"connected_time":341000000000,"state":"active","ping":114},{"user_id":776,"name":"kametro4","steam_id":76561198835430429,"connected_time":1288000000000,"state":"active","ping":89},{"user_id":760,"name":"|AG| Level","steam_id":76561198063633592,"connected_time":2968000000000,"state":"active","ping":70},{"user_id":777,"name":"Major Woody","steam_id":76561198835541533,"connected_time":1269000000000,"state":"active","ping":74},{"user_id":746,"name":"Walter White","steam_id":76561199030987614,"connected_time":4319000000000,"state":"active","ping":92},{"user_id":782,"name":"brian eno enjoyer","steam_id":76561198056467179,"connected_time":530000000000,"state":"active","ping":92},{"user_id":749,"name":"not so much of a gamer","steam_id":76561198003593070,"connected_time":4202000000000,"state":"active","ping":49},{"user_id":784,"name":"ball sniffer","steam_id":76561198159339442,"connected_time":247000000000,"state":"active","ping":63},{"user_id":772,"name":"_DrunkenGibberish_","steam_id":76561199123070071,"connected_time":1783000000000,"state":"active","ping":90}]},{"server_id":37,"name":"Uncletopia | Chicago | 6 | All Maps","name_short":"chi-6","host":"chi-2.us.uncletopia.com","port":27025,"enabled":true,"region":"us-central","cc":"us","latitude":41.881832,"longitude":-87.62318,"reserved":0,"last_update":"0001-01-01T00:00:00Z","name_a2s":"Uncletopia | Chicago | 6 | All Maps","protocol":17,"map":"pl_snowycoast","folder":"tf","game":"Team Fortress","app_id":440,"player_count":0,"max_players":24,"Bots":0,"server_type":"Dedicated","server_os":"Linux","password":true,"vac":true,"version":"7757534","steam_id":85568392924866363,"keywords":["nocrits","nodmgspread","payload","uncletopia"],"game_id":440,"stv_port":27026,"stv_name":"Uncletopia | Chicago | 6 | All Maps | STV","players":null},{"server_id":38,"name":"Uncletopia | Chicago | 7 | Stopwatch Beta","name_short":"chi-7","host":"chi-2.us.uncletopia.com","port":27035,"enabled":true,"region":"us-central","cc":"us","latitude":41.881832,"longitude":-87.62318,"reserved":0,"last_update":"0001-01-01T00:00:00Z","name_a2s":"Uncletopia | Chicago | 7 | Stopwatch Beta","protocol":17,"map":"koth_viaduct","folder":"tf","game":"Team Fortress","app_id":440,"player_count":0,"max_players":24,"Bots":0,"server_type":"Dedicated","server_os":"Linux","password":true,"vac":true,"version":"7757534","steam_id":85568392924866364,"keywords":["cp","nocrits","nodmgspread","uncletopia"],"game_id":440,"stv_port":27036,"stv_name":"Uncletopia | Chicago | 7 | Stopwatch Beta | STV","players":null},{"server_id":39,"name":"Uncletopia | Chicago | 8 | Community","name_short":"chi-8","host":"chi-2.us.uncletopia.com","port":27045,"enabled":true,"region":"us-central","cc":"us","latitude":41.881832,"longitude":-87.62318,"reserved":0,"last_update":"0001-01-01T00:00:00Z","name_a2s":"Uncletopia | Chicago | 8 | Community","protocol":17,"map":"workshop/koth_ramjam_rc1.ugc459778887","folder":"tf","game":"Team Fortress","app_id":440,"player_count":0,"max_players":24,"Bots":0,"server_type":"Dedicated","server_os":"Linux","password":true,"vac":true,"version":"7757534","steam_id":85568392924866365,"keywords":["cp","nocrits","nodmgspread","uncletopia"],"game_id":440,"stv_port":27046,"stv_name":"Uncletopia | Chicago | 8 | Community | STV","players":null},{"server_id":8,"name":"Uncletopia | Dallas | 1 | All Maps","name_short":"dal-1","host":"dal-1.us.uncletopia.com","port":27015,"enabled":true,"region":"us-central","cc":"us","latitude":32.779167,"longitude":-96.80889,"reserved":0,"last_update":"0001-01-01T00:00:00Z","name_a2s":"Uncletopia | Dallas | 1 | All Maps","protocol":17,"map":"cp_snakewater_final1","folder":"tf","game":"Team Fortress","app_id":440,"player_count":0,"max_players":24,"Bots":0,"server_type":"Dedicated","server_os":"Linux","password":true,"vac":true,"version":"7757534","steam_id":85568392924469986,"keywords":["cp","nocrits","nodmgspread","uncletopia"],"game_id":440,"stv_port":27016,"stv_name":"Uncletopia | Dallas | 1 | All Maps | STV","players":null},{"server_id":108,"name":"Uncletopia | Dallas | 2 | All Maps","name_short":"dal-2","host":"dal-1.us.uncletopia.com","port":27025,"enabled":true,"region":"us-central","cc":"us","latitude":32.779167,"longitude":-96.80889,"reserved":0,"last_update":"0001-01-01T00:00:00Z","name_a2s":"Uncletopia | Dallas | 2 | All Maps","protocol":17,"map":"cp_sunshine","folder":"tf","game":"Team Fortress","app_id":440,"player_count":20,"max_players":24,"Bots":0,"server_type":"Dedicated","server_os":"Linux","password":true,"vac":true,"version":"7757534","steam_id":85568392924469988,"keywords":["cp","nocrits","nodmgspread","uncletopia"],"game_id":440,"stv_port":27026,"stv_name":"Uncletopia | Dallas | 2 | All Maps | STV","players":[{"user_id":647,"name":"I survived they/them pussy","steam_id":76561198076326029,"connected_time":3813000000000,"state":"active","ping":62},{"user_id":648,"name":"The Crooked Doctor","steam_id":76561198102008353,"connected_time":3802000000000,"state":"active","ping":75},{"user_id":683,"name":"MKUltra Victim","steam_id":76561198064777353,"connected_time":1153000000000,"state":"active","ping":90},{"user_id":687,"name":"mkl","steam_id":76561197986401685,"connected_time":680000000000,"state":"active","ping":48},{"user_id":692,"name":"Thatguy","steam_id":76561198265019348,"connected_time":467000000000,"state":"active","ping":80},{"user_id":701,"name":"seats","steam_id":76561197998756039,"connected_time":28000000000,"state":"active","ping":62},{"user_id":694,"name":"PageBoiSkull","steam_id":76561198237353578,"connected_time":318000000000,"state":"active","ping":101},{"user_id":695,"name":"Peace-Tab","steam_id":76561198162421876,"connected_time":196000000000,"state":"active","ping":87},{"user_id":642,"name":"TF3 Medic gaming","steam_id":76561199053687718,"connected_time":4695000000000,"state":"active","ping":106},{"user_id":691,"name":"[TGP] T-Virus","steam_id":76561198001963208,"connected_time":482000000000,"state":"active","ping":99},{"user_id":696,"name":"MarioManz","steam_id":76561198123454475,"connected_time":180000000000,"state":"active","ping":45},{"user_id":697,"name":"BurnN8or101","steam_id":76561198132668224,"connected_time":140000000000,"state":"active","ping":83},{"user_id":700,"name":"Arrythmia","steam_id":76561198093748123,"connected_time":36000000000,"state":"active","ping":93},{"user_id":702,"name":"Rigor10Mortis","steam_id":76561198351806472,"connected_time":21000000000,"state":"active","ping":232},{"user_id":666,"name":"BajaBlast™","steam_id":76561198366729030,"connected_time":2546000000000,"state":"active","ping":67},{"user_id":673,"name":"CreativeUsername","steam_id":76561198186045503,"connected_time":2138000000000,"state":"active","ping":71},{"user_id":703,"name":"Aradia","steam_id":76561198800087430,"connected_time":21000000000,"state":"active","ping":51},{"user_id":688,"name":"coolguy782","steam_id":76561198165212575,"connected_time":557000000000,"state":"active","ping":76},{"user_id":656,"name":"nimitz","steam_id":76561198053707335,"connected_time":3494000000000,"state":"active","ping":80},{"user_id":675,"name":"le fishe","steam_id":76561198195689961,"connected_time":1841000000000,"state":"active","ping":43}]},{"server_id":5,"name":"Uncletopia | Frankfurt | 1 | All Maps","name_short":"frk-1","host":"frk-1.de.uncletopia.com","port":27015,"enabled":true,"region":"eu","cc":"de","latitude":50.110924,"longitude":8.682127,"reserved":0,"last_update":"0001-01-01T00:00:00Z","name_a2s":"Uncletopia | Frankfurt | 1 | All Maps","protocol":17,"map":"pl_swiftwater_final1","folder":"tf","game":"Team Fortress","app_id":440,"player_count":24,"max_players":24,"Bots":0,"server_type":"Dedicated","server_os":"Linux","password":true,"vac":true,"version":"7757534","steam_id":85568392924469989,"keywords":["nocrits","nodmgspread","payload","uncletopia"],"game_id":440,"stv_port":27016,"stv_name":"Uncletopia | Frankfurt | 1 | All Maps | STV","players":[{"user_id":46,"name":"Topme","steam_id":76561198091734693,"connected_time":2878000000000,"state":"active","ping":77},{"user_id":75,"name":"shoto (beating tortelloni)","steam_id":76561199033920575,"connected_time":584000000000,"state":"active","ping":49},{"user_id":76,"name":"Kedy","steam_id":76561198308990457,"connected_time":468000000000,"state":"active","ping":98},{"user_id":77,"name":"Looking for tradwife","steam_id":76561198066287815,"connected_time":397000000000,"state":"active","ping":119},{"user_id":78,"name":"gdg","steam_id":76561198263862655,"connected_time":370000000000,"state":"active","ping":45},{"user_id":84,"name":"Quartzy","steam_id":76561198313301520,"connected_time":22000000000,"state":"active","ping":53},{"user_id":12,"name":"balanced diet","steam_id":76561198240320806,"connected_time":4429000000000,"state":"active","ping":68},{"user_id":59,"name":"baijro","steam_id":76561198061001376,"connected_time":1878000000000,"state":"active","ping":65},{"user_id":79,"name":"FUKTARD2005","steam_id":76561198839121591,"connected_time":306000000000,"state":"active","ping":64},{"user_id":56,"name":"Minecraftamere","steam_id":76561198045358081,"connected_time":2134000000000,"state":"active","ping":67},{"user_id":60,"name":"hot","steam_id":76561198324048855,"connected_time":1860000000000,"state":"active","ping":63},{"user_id":80,"name":"Pizza_Jammies1345","steam_id":76561199228950246,"connected_time":245000000000,"state":"active","ping":174},{"user_id":19,"name":"Corpus Christi","steam_id":76561198417999443,"connected_time":4184000000000,"state":"active","ping":100},{"user_id":20,"name":"oepidus","steam_id":76561198963841479,"connected_time":4179000000000,"state":"active","ping":77},{"user_id":74,"name":"Cosmonaut","steam_id":76561198239514504,"connected_time":665000000000,"state":"active","ping":60},{"user_id":68,"name":"yasser","steam_id":76561198103973320,"connected_time":1279000000000,"state":"active","ping":101},{"user_id":81,"name":"2D","steam_id":76561199113659141,"connected_time":170000000000,"state":"active","ping":132},{"user_id":72,"name":"muehlbacher","steam_id":76561199046112419,"connected_time":937000000000,"state":"active","ping":67},{"user_id":67,"name":"wireless device","steam_id":76561199216923710,"connected_time":1484000000000,"state":"active","ping":133},{"user_id":63,"name":"nostalgia critic side character","steam_id":76561198273681447,"connected_time":1814000000000,"state":"active","ping":75},{"user_id":82,"name":"alexsabio_26","steam_id":76561198833356748,"connected_time":147000000000,"state":"active","ping":83},{"user_id":65,"name":"SantiTzePug","steam_id":76561199049615996,"connected_time":1598000000000,"state":"active","ping":75},{"user_id":83,"name":"Layton","steam_id":76561198087221314,"connected_time":129000000000,"state":"active","ping":47},{"user_id":51,"name":"♥ Mark ♥ | P.U.R.","steam_id":76561198965998351,"connected_time":2243000000000,"state":"active","ping":75}]},{"server_id":110,"name":"Uncletopia | Frankfurt | 2 | All Maps","name_short":"frk-2","host":"frk-1.de.uncletopia.com","port":27025,"enabled":true,"region":"eu","cc":"de","latitude":50.110924,"longitude":8.682127,"reserved":0,"last_update":"0001-01-01T00:00:00Z","name_a2s":"Uncletopia | Frankfurt | 2 | All Maps","protocol":17,"map":"cp_altitude","folder":"tf","game":"Team Fortress","app_id":440,"player_count":0,"max_players":24,"Bots":0,"server_type":"Dedicated","server_os":"Linux","password":true,"vac":true,"version":"7757534","steam_id":85568392924469990,"keywords":["cp","nocrits","nodmgspread","uncletopia"],"game_id":440,"stv_port":27026,"stv_name":"Uncletopia | Frankfurt | 2 | All Maps | STV","players":null},{"server_id":308,"name":"Uncletopia | Frankfurt | 3 | All Maps","name_short":"frk-3","host":"frk-1.de.uncletopia.com","port":27035,"enabled":true,"region":"eu","cc":"de","latitude":50.110924,"longitude":8.682127,"reserved":0,"last_update":"0001-01-01T00:00:00Z","name_a2s":"Uncletopia | Frankfurt | 3 | All Maps","protocol":17,"map":"koth_viaduct","folder":"tf","game":"Team Fortress","app_id":440,"player_count":0,"max_players":24,"Bots":0,"server_type":"Dedicated","server_os":"Linux","password":true,"vac":true,"version":"7757534","steam_id":85568392924504274,"keywords":["cp","nocrits","nodmgspread","uncletopia"],"game_id":440,"stv_port":27036,"stv_name":"Uncletopia | Frankfurt | 3 | All Maps | STV","players":null},{"server_id":309,"name":"Uncletopia | Frankfurt | 4 | All Maps","name_short":"frk-4","host":"frk-1.de.uncletopia.com","port":27045,"enabled":true,"region":"eu","cc":"de","latitude":50.110924,"longitude":8.682127,"reserved":0,"last_update":"0001-01-01T00:00:00Z","name_a2s":"Uncletopia | Frankfurt | 4 | All Maps","protocol":17,"map":"pl_pier","folder":"tf","game":"Team Fortress","app_id":440,"player_count":20,"max_players":24,"Bots":0,"server_type":"Dedicated","server_os":"Linux","password":true,"vac":true,"version":"7757534","steam_id":85568392924504275,"keywords":["nocrits","nodmgspread","payload","uncletopia"],"game_id":440,"stv_port":27046,"stv_name":"Uncletopia | Frankfurt | 4 | All Maps | STV","players":[{"user_id":4,"name":"SFC Pump","steam_id":76561198129338259,"connected_time":1398000000000,"state":"active","ping":81},{"user_id":5,"name":"RandomGuy","steam_id":76561198801432621,"connected_time":1388000000000,"state":"active","ping":91},{"user_id":6,"name":"StefanXD","steam_id":76561198051095318,"connected_time":1359000000000,"state":"active","ping":79},{"user_id":7,"name":"Aspartus","steam_id":76561198101385763,"connected_time":1329000000000,"state":"active","ping":46},{"user_id":8,"name":"heavy sings (real)","steam_id":76561199023804405,"connected_time":1275000000000,"state":"active","ping":72},{"user_id":9,"name":"Felix","steam_id":76561198172029653,"connected_time":1223000000000,"state":"active","ping":84},{"user_id":10,"name":"SynthBox3","steam_id":76561199094075745,"connected_time":1216000000000,"state":"active","ping":92},{"user_id":11,"name":"Aneťák","steam_id":76561198159294906,"connected_time":1211000000000,"state":"active","ping":60},{"user_id":13,"name":"Xoukz","steam_id":76561198356014540,"connected_time":1015000000000,"state":"active","ping":105},{"user_id":14,"name":"rein","steam_id":76561198067856323,"connected_time":999000000000,"state":"active","ping":99},{"user_id":23,"name":"skeleton94","steam_id":76561199032256341,"connected_time":722000000000,"state":"active","ping":100},{"user_id":35,"name":"greg's mom","steam_id":76561198050525471,"connected_time":83000000000,"state":"active","ping":69},{"user_id":18,"name":"Shark Petter","steam_id":76561198358801819,"connected_time":897000000000,"state":"active","ping":62},{"user_id":24,"name":"BluDiamynt","steam_id":76561198894231340,"connected_time":646000000000,"state":"active","ping":73},{"user_id":27,"name":"santoren","steam_id":76561199078058474,"connected_time":569000000000,"state":"active","ping":94},{"user_id":22,"name":"Na'vi Misato (by popular demand","steam_id":76561198130860698,"connected_time":784000000000,"state":"active","ping":63},{"user_id":36,"name":"fried","steam_id":76561198307522022,"connected_time":45000000000,"state":"active","ping":53},{"user_id":28,"name":"Bombilla","steam_id":76561198084281798,"connected_time":502000000000,"state":"active","ping":76},{"user_id":30,"name":"KGiorgios_Bully","steam_id":76561198825392728,"connected_time":449000000000,"state":"active","ping":106},{"user_id":32,"name":"swueuws","steam_id":76561198020716743,"connected_time":414000000000,"state":"active","ping":55}]},{"server_id":310,"name":"Uncletopia | Frankfurt | 5 | All Maps","name_short":"frk-5","host":"frk-1.de.uncletopia.com","port":27055,"enabled":true,"region":"eu","cc":"de","latitude":50.110924,"longitude":8.682127,"reserved":0,"last_update":"0001-01-01T00:00:00Z","name_a2s":"Uncletopia | Frankfurt | 5 | All Maps","protocol":17,"map":"cp_altitude","folder":"tf","game":"Team Fortress","app_id":440,"player_count":0,"max_players":24,"Bots":0,"server_type":"Dedicated","server_os":"Linux","password":true,"vac":true,"version":"7757534","steam_id":85568392924504277,"keywords":["cp","nocrits","nodmgspread","uncletopia"],"game_id":440,"stv_port":27056,"stv_name":"Uncletopia | Frankfurt | 5 | All Maps | STV","players":null},{"server_id":311,"name":"Uncletopia | Frankfurt | 6 | All Maps","name_short":"frk-6","host":"frk-1.de.uncletopia.com","port":27065,"enabled":true,"region":"eu","cc":"de","latitude":50.110924,"longitude":8.682127,"reserved":0,"last_update":"0001-01-01T00:00:00Z","name_a2s":"Uncletopia | Frankfurt | 6 | All Maps","protocol":17,"map":"pl_barnblitz","folder":"tf","game":"Team Fortress","app_id":440,"player_count":0,"max_players":24,"Bots":0,"server_type":"Dedicated","server_os":"Linux","password":true,"vac":true,"version":"7757534","steam_id":85568392924504278,"keywords":["nocrits","nodmgspread","payload","uncletopia"],"game_id":440,"stv_port":27066,"stv_name":"Uncletopia | Frankfurt | 6 | All Maps | STV","players":null},{"server_id":23,"name":"Uncletopia | Frankfurt | 7 | Stopwatch Beta","name_short":"frk-7","host":"frk-1.de.uncletopia.com","port":27075,"enabled":true,"region":"eu","cc":"de","latitude":50.110924,"longitude":8.682127,"reserved":0,"last_update":"0001-01-01T00:00:00Z","name_a2s":"Uncletopia | Frankfurt | 7 | Stopwatch Beta","protocol":17,"map":"workshop/cp_reckoner_rc6.ugc674719999","folder":"tf","game":"Team Fortress","app_id":440,"player_count":1,"max_players":24,"Bots":0,"server_type":"Dedicated","server_os":"Linux","password":true,"vac":true,"version":"7757534","steam_id":85568392924742827,"keywords":["cp","nocrits","nodmgspread","uncletopia"],"game_id":440,"stv_port":27076,"stv_name":"Uncletopia | Frankfurt | 7 | Stopwatch Beta | STV","players":[{"user_id":4,"name":"Minority Gaming","steam_id":76561198307551499,"connected_time":1364000000000,"state":"active","ping":48}]},{"server_id":24,"name":"Uncletopia | Frankfurt | 8 | Community","name_short":"frk-8","host":"frk-1.de.uncletopia.com","port":27085,"enabled":true,"region":"eu","cc":"de","latitude":50.110924,"longitude":8.682127,"reserved":0,"last_update":"0001-01-01T00:00:00Z","name_a2s":"Uncletopia | Frankfurt | 8 | Community","protocol":17,"map":"koth_viaduct","folder":"tf","game":"Team Fortress","app_id":440,"player_count":0,"max_players":24,"Bots":0,"server_type":"Dedicated","server_os":"Linux","password":true,"vac":true,"version":"7757534","steam_id":85568392924742828,"keywords":["cp","nocrits","nodmgspread","uncletopia"],"game_id":440,"stv_port":27086,"stv_name":"Uncletopia | Frankfurt | 8 | Community | STV","players":null},{"server_id":202,"name":"Uncletopia | Hong Kong | 1 | All Maps","name_short":"hgk-1","host":"hgk-1.hk.uncletopia.com","port":27015,"enabled":true,"region":"asia","cc":"hk","latitude":22.302711,"longitude":114.177216,"reserved":0,"last_update":"0001-01-01T00:00:00Z","name_a2s":"Uncletopia | Hong Kong | 1 | All Maps","protocol":17,"map":"pl_frontier_final","folder":"tf","game":"Team Fortress","app_id":440,"player_count":24,"max_players":24,"Bots":0,"server_type":"Dedicated","server_os":"Linux","password":true,"vac":true,"version":"7757534","steam_id":85568392924494504,"keywords":["nocrits","nodmgspread","payload","uncletopia"],"game_id":440,"stv_port":27016,"stv_name":"Uncletopia | Hong Kong | 1 | All Maps | STV","players":[{"user_id":225,"name":"vutueminh888","steam_id":76561199383966662,"connected_time":678000000000,"state":"active","ping":92},{"user_id":182,"name":"anjing","steam_id":76561199107596818,"connected_time":6203000000000,"state":"active","ping":106},{"user_id":143,"name":"Milk❤ (First Scope Enjoyer)","steam_id":76561198163911560,"connected_time":9904000000000,"state":"active","ping":133},{"user_id":192,"name":"im_0ff","steam_id":76561198339346695,"connected_time":5282000000000,"state":"active","ping":121},{"user_id":25,"name":"spinach (old mouse)","steam_id":76561198042539541,"connected_time":17611000000000,"state":"active","ping":79},{"user_id":221,"name":"AmaiToxic","steam_id":76561199122491157,"connected_time":1414000000000,"state":"active","ping":124},{"user_id":216,"name":"anemoia","steam_id":76561198074339034,"connected_time":1627000000000,"state":"active","ping":73},{"user_id":173,"name":"Vortex Artemisio","steam_id":76561198833527091,"connected_time":6857000000000,"state":"active","ping":87},{"user_id":31,"name":"vintage","steam_id":76561198230213828,"connected_time":16930000000000,"state":"active","ping":62},{"user_id":205,"name":"twitch.tv/vision515","steam_id":76561198065293729,"connected_time":3235000000000,"state":"active","ping":153},{"user_id":201,"name":"spagsauce","steam_id":76561198999511239,"connected_time":4142000000000,"state":"active","ping":62},{"user_id":176,"name":"Shades on Goggles","steam_id":76561198406067629,"connected_time":6510000000000,"state":"active","ping":58},{"user_id":56,"name":"Bertengkar","steam_id":76561198213031155,"connected_time":15702000000000,"state":"active","ping":98},{"user_id":179,"name":"leroy","steam_id":76561199137927625,"connected_time":6401000000000,"state":"active","ping":93},{"user_id":160,"name":"Stupid B","steam_id":76561198131423270,"connected_time":8014000000000,"state":"active","ping":94},{"user_id":199,"name":"Gordon.Freeman","steam_id":76561198337746852,"connected_time":4376000000000,"state":"active","ping":71},{"user_id":222,"name":"LEGS","steam_id":76561199111623890,"connected_time":1414000000000,"state":"active","ping":91},{"user_id":193,"name":"I love undertime slopper","steam_id":76561198306574432,"connected_time":5228000000000,"state":"active","ping":83},{"user_id":190,"name":"쿠키","steam_id":76561197997220367,"connected_time":5541000000000,"state":"active","ping":54},{"user_id":194,"name":"bmbmbm","steam_id":76561198413116920,"connected_time":5221000000000,"state":"active","ping":104},{"user_id":195,"name":"Noyour","steam_id":76561198323259830,"connected_time":5221000000000,"state":"active","ping":120},{"user_id":224,"name":"sterzun","steam_id":76561198300004922,"connected_time":690000000000,"state":"active","ping":127},{"user_id":211,"name":"Muck","steam_id":76561199168204576,"connected_time":2618000000000,"state":"active","ping":49},{"user_id":213,"name":"stormy","steam_id":76561198044944261,"connected_time":2603000000000,"state":"active","ping":100}]},{"server_id":1,"name":"Uncletopia | Los Angeles | 1 | All Maps","name_short":"lax-1","host":"lax-1.us.uncletopia.com","port":27015,"enabled":true,"region":"us-west","cc":"us","latitude":33.94279,"longitude":-118.41004,"reserved":0,"last_update":"0001-01-01T00:00:00Z","name_a2s":"Uncletopia | Los Angeles | 1 | All Maps","protocol":17,"map":"cp_mercenarypark","folder":"tf","game":"Team Fortress","app_id":440,"player_count":8,"max_players":24,"Bots":0,"server_type":"Dedicated","server_os":"Linux","password":true,"vac":true,"version":"7757534","steam_id":85568392924469991,"keywords":["cp","nocrits","nodmgspread","uncletopia"],"game_id":440,"stv_port":27016,"stv_name":"Uncletopia | Los Angeles | 1 | All Maps | STV","players":[{"user_id":175,"name":"Choppa","steam_id":76561198926443232,"connected_time":5925000000000,"state":"active","ping":82},{"user_id":228,"name":"Gopofas","steam_id":76561199227999157,"connected_time":182000000000,"state":"active","ping":206},{"user_id":172,"name":"Gundam Guy","steam_id":76561198178453993,"connected_time":6501000000000,"state":"active","ping":55},{"user_id":226,"name":"Pink Trucks \u0026 Daddy's Bucks","steam_id":76561198325824681,"connected_time":494000000000,"state":"active","ping":90},{"user_id":217,"name":"postgres","steam_id":76561198011204750,"connected_time":980000000000,"state":"active","ping":87},{"user_id":223,"name":"jacket","steam_id":76561198888522431,"connected_time":566000000000,"state":"active","ping":98},{"user_id":224,"name":"Kneffy","steam_id":76561199076821117,"connected_time":563000000000,"state":"active","ping":116},{"user_id":173,"name":"KINMEKKI","steam_id":76561198066617702,"connected_time":6431000000000,"state":"active","ping":89}]},{"server_id":112,"name":"Uncletopia | Los Angeles | 2 | All Maps","name_short":"lax-2","host":"lax-1.us.uncletopia.com","port":27025,"enabled":true,"region":"us-west","cc":"us","latitude":33.94279,"longitude":-118.41004,"reserved":0,"last_update":"0001-01-01T00:00:00Z","name_a2s":"Uncletopia | Los Angeles | 2 | All Maps","protocol":17,"map":"pl_barnblitz","folder":"tf","game":"Team Fortress","app_id":440,"player_count":4,"max_players":24,"Bots":0,"server_type":"Dedicated","server_os":"Linux","password":true,"vac":true,"version":"7757534","steam_id":85568392924469992,"keywords":["nocrits","nodmgspread","payload","uncletopia"],"game_id":440,"stv_port":27026,"stv_name":"Uncletopia | Los Angeles | 2 | All Maps | STV","players":[{"user_id":1004,"name":"Medicated","steam_id":76561198028100394,"connected_time":1237000000000,"state":"active","ping":85},{"user_id":1011,"name":"Pyrolimited","steam_id":76561198195455657,"connected_time":835000000000,"state":"active","ping":69},{"user_id":1018,"name":"OH JIMMY I'M HOME #SaveTf2","steam_id":76561198396658806,"connected_time":313000000000,"state":"active","ping":46},{"user_id":972,"name":"Doctor Bear ʕ •ᴥ•ʔ","steam_id":76561197968103161,"connected_time":2933000000000,"state":"active","ping":105}]},{"server_id":324,"name":"Uncletopia | Los Angeles | 3 | All Maps","name_short":"lax-3","host":"lax-1.us.uncletopia.com","port":27035,"enabled":true,"region":"us-west","cc":"us","latitude":33.94279,"longitude":-118.41004,"reserved":0,"last_update":"0001-01-01T00:00:00Z","name_a2s":"Uncletopia | Los Angeles | 3 | All Maps","protocol":17,"map":"pl_barnblitz","folder":"tf","game":"Team Fortress","app_id":440,"player_count":21,"max_players":24,"Bots":0,"server_type":"Dedicated","server_os":"Linux","password":true,"vac":true,"version":"7757534","steam_id":85568392924510198,"keywords":["nocrits","nodmgspread","payload","uncletopia"],"game_id":440,"stv_port":27036,"stv_name":"Uncletopia | Los Angeles | 3 | All Maps | STV","players":[{"user_id":253,"name":"Cooksandcleans™","steam_id":76561198049696128,"connected_time":2152000000000,"state":"active","ping":109},{"user_id":171,"name":"Altruisticailuridae","steam_id":76561198335295596,"connected_time":9289000000000,"state":"active","ping":55},{"user_id":265,"name":"ice cream (冰淇淋)","steam_id":76561198976530881,"connected_time":913000000000,"state":"active","ping":38},{"user_id":256,"name":"muffinman12126","steam_id":76561199471924109,"connected_time":1858000000000,"state":"active","ping":54},{"user_id":276,"name":"The Population of Sweden","steam_id":76561198202201644,"connected_time":464000000000,"state":"active","ping":72},{"user_id":277,"name":"raya","steam_id":76561198051504581,"connected_time":389000000000,"state":"active","ping":71},{"user_id":215,"name":"Arcadletus","steam_id":76561198976009938,"connected_time":5483000000000,"state":"active","ping":84},{"user_id":278,"name":"Creature","steam_id":76561198194585781,"connected_time":357000000000,"state":"active","ping":60},{"user_id":242,"name":"kalani","steam_id":76561199262514612,"connected_time":2786000000000,"state":"active","ping":61},{"user_id":281,"name":"ˢᶜʳᵘᶠᶠʸ","steam_id":76561198025030539,"connected_time":19000000000,"state":"active","ping":57},{"user_id":269,"name":"MrJokester","steam_id":76561198019101367,"connected_time":660000000000,"state":"active","ping":75},{"user_id":228,"name":"gay porn","steam_id":76561198102454261,"connected_time":4064000000000,"state":"active","ping":49},{"user_id":267,"name":"Xylemon","steam_id":76561197965297420,"connected_time":742000000000,"state":"active","ping":83},{"user_id":149,"name":"werolat","steam_id":76561197960544784,"connected_time":10138000000000,"state":"active","ping":46},{"user_id":257,"name":"aaa","steam_id":76561198022623586,"connected_time":1804000000000,"state":"active","ping":94},{"user_id":259,"name":"urban legend","steam_id":76561198069188276,"connected_time":1624000000000,"state":"active","ping":99},{"user_id":243,"name":"motion lotion","steam_id":76561198043339785,"connected_time":2778000000000,"state":"active","ping":55},{"user_id":254,"name":"Aiko","steam_id":76561198262395873,"connected_time":2133000000000,"state":"active","ping":52},{"user_id":270,"name":"Not Slavoj Žižek","steam_id":76561198004619616,"connected_time":659000000000,"state":"active","ping":55},{"user_id":273,"name":"lawyerguy","steam_id":76561198070254583,"connected_time":545000000000,"state":"active","ping":76},{"user_id":275,"name":"MrChaosOK","steam_id":76561197976353083,"connected_time":521000000000,"state":"active","ping":70}]},{"server_id":25,"name":"Uncletopia | Los Angeles | 4 | Stopwatch Beta","name_short":"lax-4","host":"lax-1.us.uncletopia.com","port":27045,"enabled":true,"region":"us-west","cc":"us","latitude":33.94279,"longitude":-118.41004,"reserved":0,"last_update":"0001-01-01T00:00:00Z","name_a2s":"Uncletopia | Los Angeles | 4 | Stopwatch Beta","protocol":17,"map":"pl_borneo","folder":"tf","game":"Team Fortress","app_id":440,"player_count":0,"max_players":24,"Bots":0,"server_type":"Dedicated","server_os":"Linux","password":true,"vac":true,"version":"7757534","steam_id":85568392924510199,"keywords":["nocrits","nodmgspread","payload","uncletopia"],"game_id":440,"stv_port":27046,"stv_name":"Uncletopia | Los Angeles | 4 | Stopwatch Beta | STV","players":null},{"server_id":11,"name":"Uncletopia | London | 1 | All Maps","name_short":"lon-1","host":"lon-1.uk.uncletopia.com","port":27015,"enabled":true,"region":"eu","cc":"gb","latitude":51.509865,"longitude":-0.118092,"reserved":0,"last_update":"0001-01-01T00:00:00Z","name_a2s":"Uncletopia | London | 1 | All Maps","protocol":17,"map":"cp_altitude","folder":"tf","game":"Team Fortress","app_id":440,"player_count":0,"max_players":24,"Bots":0,"server_type":"Dedicated","server_os":"Linux","password":true,"vac":true,"version":"7757534","steam_id":85568392924367362,"keywords":["cp","nocrits","nodmgspread","uncletopia"],"game_id":440,"stv_port":27016,"stv_name":"Uncletopia | London | 1 | All Maps | STV","players":null},{"server_id":114,"name":"Uncletopia | London | 2 | All Maps","name_short":"lon-2","host":"lon-1.uk.uncletopia.com","port":27025,"enabled":true,"region":"eu","cc":"gb","latitude":51.509865,"longitude":-0.118092,"reserved":0,"last_update":"0001-01-01T00:00:00Z","name_a2s":"Uncletopia | London | 2 | All Maps","protocol":17,"map":"cp_sunshine","folder":"tf","game":"Team Fortress","app_id":440,"player_count":0,"max_players":24,"Bots":0,"server_type":"Dedicated","server_os":"Linux","password":true,"vac":true,"version":"7757534","steam_id":85568392924470941,"keywords":["cp","nocrits","nodmgspread","uncletopia"],"game_id":440,"stv_port":27026,"stv_name":"Uncletopia | London | 2 | All Maps | STV","players":null},{"server_id":320,"name":"Uncletopia | London | 3 | All Maps","name_short":"lon-3","host":"lon-1.uk.uncletopia.com","port":27035,"enabled":true,"region":"eu","cc":"gb","latitude":51.509865,"longitude":-0.118092,"reserved":0,"last_update":"0001-01-01T00:00:00Z","name_a2s":"Uncletopia | London | 3 | All Maps","protocol":17,"map":"pl_snowycoast","folder":"tf","game":"Team Fortress","app_id":440,"player_count":23,"max_players":24,"Bots":0,"server_type":"Dedicated","server_os":"Linux","password":true,"vac":true,"version":"7757534","steam_id":85568392924510192,"keywords":["nocrits","nodmgspread","payload","uncletopia"],"game_id":440,"stv_port":27036,"stv_name":"Uncletopia | London | 3 | All Maps | STV","players":[{"user_id":198,"name":"tb","steam_id":76561198326153524,"connected_time":611000000000,"state":"active","ping":59},{"user_id":94,"name":"Disasterday","steam_id":76561198044767090,"connected_time":5921000000000,"state":"active","ping":54},{"user_id":191,"name":"-PONTELIUS- ♉","steam_id":76561198045799999,"connected_time":887000000000,"state":"active","ping":82},{"user_id":100,"name":"Dwight Schrute","steam_id":76561198026272202,"connected_time":5595000000000,"state":"active","ping":99},{"user_id":178,"name":"skinny fiend","steam_id":76561198273358760,"connected_time":2008000000000,"state":"active","ping":72},{"user_id":193,"name":"mio bomba","steam_id":76561198217364720,"connected_time":813000000000,"state":"active","ping":59},{"user_id":194,"name":"Cathedra","steam_id":76561198430227030,"connected_time":794000000000,"state":"active","ping":58},{"user_id":199,"name":"Rainych","steam_id":76561199475745176,"connected_time":596000000000,"state":"active","ping":68},{"user_id":180,"name":"KAKTyC","steam_id":76561198019296536,"connected_time":1798000000000,"state":"active","ping":100},{"user_id":119,"name":"regimiro","steam_id":76561198120457008,"connected_time":3615000000000,"state":"active","ping":51},{"user_id":196,"name":"Croix","steam_id":76561198059642945,"connected_time":773000000000,"state":"active","ping":56},{"user_id":183,"name":"on1on (pickled)","steam_id":76561197995304137,"connected_time":1356000000000,"state":"active","ping":68},{"user_id":197,"name":"Ich stinke","steam_id":76561198065076046,"connected_time":723000000000,"state":"active","ping":63},{"user_id":202,"name":"bigfutacock56","steam_id":76561198835619904,"connected_time":341000000000,"state":"active","ping":109},{"user_id":203,"name":"ashsbhop","steam_id":76561199155075476,"connected_time":287000000000,"state":"active","ping":91},{"user_id":166,"name":"Deva Path","steam_id":76561198085763542,"connected_time":2659000000000,"state":"active","ping":84},{"user_id":83,"name":"wide appreciator","steam_id":76561198083286511,"connected_time":6682000000000,"state":"active","ping":51},{"user_id":204,"name":"Saken","steam_id":76561198049075295,"connected_time":275000000000,"state":"active","ping":61},{"user_id":128,"name":"Kodutah","steam_id":76561198203405574,"connected_time":3305000000000,"state":"active","ping":70},{"user_id":207,"name":"KAZAM | Tervez","steam_id":76561198045459068,"connected_time":2000000000,"state":"spawning","ping":65},{"user_id":206,"name":"gus","steam_id":76561198876303958,"connected_time":148000000000,"state":"active","ping":105},{"user_id":185,"name":"Bendy","steam_id":76561198110947303,"connected_time":1338000000000,"state":"active","ping":45},{"user_id":170,"name":"Shynii","steam_id":76561198194682105,"connected_time":2570000000000,"state":"active","ping":61}]},{"server_id":321,"name":"Uncletopia | London | 4 | All Maps","name_short":"lon-4","host":"lon-1.uk.uncletopia.com","port":27045,"enabled":true,"region":"eu","cc":"gb","latitude":51.509865,"longitude":-0.118092,"reserved":0,"last_update":"0001-01-01T00:00:00Z","name_a2s":"Uncletopia | London | 4 | All Maps","protocol":17,"map":"pl_barnblitz","folder":"tf","game":"Team Fortress","app_id":440,"player_count":0,"max_players":24,"Bots":0,"server_type":"Dedicated","server_os":"Linux","password":true,"vac":true,"version":"7757534","steam_id":85568392924510193,"keywords":["nocrits","nodmgspread","payload","uncletopia"],"game_id":440,"stv_port":27046,"stv_name":"Uncletopia | London | 4 | All Maps | STV","players":null},{"server_id":21,"name":"Uncletopia | London | 5 | All Maps","name_short":"lon-5","host":"lon-1.uk.uncletopia.com","port":27055,"enabled":true,"region":"eu","cc":"gb","latitude":51.509865,"longitude":-0.118092,"reserved":0,"last_update":"0001-01-01T00:00:00Z","name_a2s":"Uncletopia | London | 5 | All Maps","protocol":17,"map":"pl_pier","folder":"tf","game":"Team Fortress","app_id":440,"player_count":0,"max_players":24,"Bots":0,"server_type":"Dedicated","server_os":"Linux","password":true,"vac":true,"version":"7757534","steam_id":85568392924742829,"keywords":["nocrits","nodmgspread","payload","uncletopia"],"game_id":440,"stv_port":27056,"stv_name":"Uncletopia | London | 5 | All Maps | STV","players":null},{"server_id":22,"name":"Uncletopia | London | 6 | All Maps","name_short":"lon-6","host":"lon-1.uk.uncletopia.com","port":27065,"enabled":true,"region":"eu","cc":"gb","latitude":51.509865,"longitude":-0.118092,"reserved":0,"last_update":"0001-01-01T00:00:00Z","name_a2s":"Uncletopia | London | 6 | All Maps","protocol":17,"map":"pl_pier","folder":"tf","game":"Team Fortress","app_id":440,"player_count":0,"max_players":24,"Bots":0,"server_type":"Dedicated","server_os":"Linux","password":true,"vac":true,"version":"7757534","steam_id":85568392924742830,"keywords":["nocrits","nodmgspread","payload","uncletopia"],"game_id":440,"stv_port":27066,"stv_name":"Uncletopia | London | 6 | All Maps | STV","players":null},{"server_id":40,"name":"Uncletopia | London | 7 | No Payload","name_short":"lon-7","host":"lon-1.uk.uncletopia.com","port":27075,"enabled":true,"region":"eu","cc":"gb","latitude":51.509865,"longitude":-0.118092,"reserved":0,"last_update":"0001-01-01T00:00:00Z","name_a2s":"Uncletopia | London | 7 | No Payload","protocol":17,"map":"koth_highpass","folder":"tf","game":"Team Fortress","app_id":440,"player_count":0,"max_players":24,"Bots":0,"server_type":"Dedicated","server_os":"Linux","password":true,"vac":true,"version":"7757534","steam_id":85568392924964314,"keywords":["cp","nocrits","nodmgspread","uncletopia"],"game_id":440,"stv_port":27076,"stv_name":"Uncletopia | London | 7 | No Payload | STV","players":null},{"server_id":41,"name":"Uncletopia | London | 8 | Community","name_short":"lon-8","host":"lon-1.uk.uncletopia.com","port":27085,"enabled":true,"region":"eu","cc":"gb","latitude":51.509865,"longitude":-0.118092,"reserved":0,"last_update":"0001-01-01T00:00:00Z","name_a2s":"Uncletopia | London | 8 | Community","protocol":17,"map":"cp_altitude","folder":"tf","game":"Team Fortress","app_id":440,"player_count":0,"max_players":24,"Bots":0,"server_type":"Dedicated","server_os":"Linux","password":true,"vac":true,"version":"7757534","steam_id":85568392924964315,"keywords":["cp","nocrits","nodmgspread","uncletopia"],"game_id":440,"stv_port":27086,"stv_name":"Uncletopia | London | 8 | Community | STV","players":null},{"server_id":300,"name":"Uncletopia | Montréal | 1 | All Maps","name_short":"mtl-1","host":"mtl-1.ca.uncletopia.com","port":27015,"enabled":true,"region":"us-east","cc":"ca","latitude":45.50889,"longitude":-73.56167,"reserved":0,"last_update":"0001-01-01T00:00:00Z","name_a2s":"Uncletopia | Montréal | 1 | All Maps","protocol":17,"map":"koth_cascade","folder":"tf","game":"Team Fortress","app_id":440,"player_count":0,"max_players":24,"Bots":0,"server_type":"Dedicated","server_os":"Linux","password":true,"vac":true,"version":"7757534","steam_id":85568392924500087,"keywords":["cp","nocrits","nodmgspread","uncletopia"],"game_id":440,"stv_port":27016,"stv_name":"Uncletopia | Montréal | 1 | All Maps | STV","players":null},{"server_id":301,"name":"Uncletopia | Montréal | 2 | All Maps","name_short":"mtl-2","host":"mtl-1.ca.uncletopia.com","port":27025,"enabled":true,"region":"us-east","cc":"ca","latitude":45.50889,"longitude":-73.56167,"reserved":0,"last_update":"0001-01-01T00:00:00Z","name_a2s":"Uncletopia | Montréal | 2 | All Maps","protocol":17,"map":"cp_snakewater_final1","folder":"tf","game":"Team Fortress","app_id":440,"player_count":0,"max_players":24,"Bots":0,"server_type":"Dedicated","server_os":"Linux","password":true,"vac":true,"version":"7757534","steam_id":85568392924500088,"keywords":["cp","nocrits","nodmgspread","uncletopia"],"game_id":440,"stv_port":27026,"stv_name":"Uncletopia | Montréal | 2 | All Maps | STV","players":null},{"server_id":302,"name":"Uncletopia | Montréal | 3 | All Maps","name_short":"mtl-3","host":"mtl-1.ca.uncletopia.com","port":27035,"enabled":true,"region":"us-east","cc":"ca","latitude":45.50889,"longitude":-73.56167,"reserved":0,"last_update":"0001-01-01T00:00:00Z","name_a2s":"Uncletopia | Montréal | 3 | All Maps","protocol":17,"map":"cp_process_final","folder":"tf","game":"Team Fortress","app_id":440,"player_count":0,"max_players":24,"Bots":0,"server_type":"Dedicated","server_os":"Linux","password":true,"vac":true,"version":"7757534","steam_id":85568392924500089,"keywords":["cp","nocrits","nodmgspread","uncletopia"],"game_id":440,"stv_port":27036,"stv_name":"Uncletopia | Montréal | 3 | All Maps | STV","players":null},{"server_id":303,"name":"Uncletopia | Montréal | 4 | No Payload","name_short":"mtl-4","host":"mtl-1.ca.uncletopia.com","port":27045,"enabled":true,"region":"us-east","cc":"ca","latitude":45.50889,"longitude":-73.56167,"reserved":0,"last_update":"0001-01-01T00:00:00Z","name_a2s":"Uncletopia | Montréal | 4 | No Payload","protocol":17,"map":"plr_pipeline","folder":"tf","game":"Team Fortress","app_id":440,"player_count":0,"max_players":24,"Bots":0,"server_type":"Dedicated","server_os":"Linux","password":true,"vac":true,"version":"7757534","steam_id":85568392924500090,"keywords":["nocrits","nodmgspread","payload","uncletopia"],"game_id":440,"stv_port":27046,"stv_name":"Uncletopia | Montréal | 4 | No Payload | STV","players":null},{"server_id":13,"name":"Uncletopia | New York City | 1 | All Maps","name_short":"nyc-1","host":"nyc-1.us.uncletopia.com","port":27015,"enabled":true,"region":"us-east","cc":"us","latitude":40.73061,"longitude":-73.93524,"reserved":0,"last_update":"0001-01-01T00:00:00Z","name_a2s":"Uncletopia | New York City | 1 | All Maps","protocol":17,"map":"cp_well","folder":"tf","game":"Team Fortress","app_id":440,"player_count":0,"max_players":24,"Bots":0,"server_type":"Dedicated","server_os":"Linux","password":true,"vac":true,"version":"7757534","steam_id":85568392924469993,"keywords":["cp","nocrits","nodmgspread","uncletopia"],"game_id":440,"stv_port":27016,"stv_name":"Uncletopia | New York City | 1 | All Maps | STV","players":null},{"server_id":14,"name":"Uncletopia | New York City | 2 | All Maps","name_short":"nyc-2","host":"nyc-1.us.uncletopia.com","port":27025,"enabled":true,"region":"us-east","cc":"us","latitude":40.73061,"longitude":-73.93524,"reserved":0,"last_update":"0001-01-01T00:00:00Z","name_a2s":"Uncletopia | New York City | 2 | All Maps","protocol":17,"map":"pl_barnblitz","folder":"tf","game":"Team Fortress","app_id":440,"player_count":0,"max_players":24,"Bots":0,"server_type":"Dedicated","server_os":"Linux","password":true,"vac":true,"version":"7757534","steam_id":85568392924469994,"keywords":["nocrits","nodmgspread","payload","uncletopia"],"game_id":440,"stv_port":27026,"stv_name":"Uncletopia | New York City | 2 | All Maps | STV","players":null},{"server_id":15,"name":"Uncletopia | New York City | 3 | Stopwatch Beta","name_short":"nyc-3","host":"nyc-1.us.uncletopia.com","port":27035,"enabled":true,"region":"us-east","cc":"us","latitude":40.73061,"longitude":-73.93524,"reserved":0,"last_update":"0001-01-01T00:00:00Z","name_a2s":"Uncletopia | New York City | 3 | Stopwatch Beta","protocol":17,"map":"cp_process_final","folder":"tf","game":"Team Fortress","app_id":440,"player_count":0,"max_players":24,"Bots":0,"server_type":"Dedicated","server_os":"Linux","password":true,"vac":true,"version":"7757534","steam_id":85568392924742820,"keywords":["cp","nocrits","nodmgspread","uncletopia"],"game_id":440,"stv_port":27036,"stv_name":"Uncletopia | New York City | 3 | Stopwatch Beta | STV","players":null},{"server_id":16,"name":"Uncletopia | New York City | 4 | Community","name_short":"nyc-4","host":"nyc-1.us.uncletopia.com","port":27045,"enabled":true,"region":"us-east","cc":"us","latitude":40.73061,"longitude":-73.93524,"reserved":0,"last_update":"0001-01-01T00:00:00Z","name_a2s":"Uncletopia | New York City | 4 | Community","protocol":17,"map":"workshop/koth_bagel_rc6.ugc2514036946","folder":"tf","game":"Team Fortress","app_id":440,"player_count":0,"max_players":24,"Bots":0,"server_type":"Dedicated","server_os":"Linux","password":true,"vac":true,"version":"7757534","steam_id":85568392924742821,"keywords":["cp","nocrits","nodmgspread","uncletopia"],"game_id":440,"stv_port":27046,"stv_name":"Uncletopia | New York City | 4 | Community | STV","players":null},{"server_id":142,"name":"Uncletopia | São Paulo | 1 | All Maps","name_short":"sao-1","host":"sao-1.br.uncletopia.com","port":27015,"enabled":true,"region":"sa","cc":"br","latitude":-23.533773,"longitude":-46.62529,"reserved":0,"last_update":"0001-01-01T00:00:00Z","name_a2s":"Uncletopia | São Paulo | 1 | All Maps","protocol":17,"map":"cp_altitude","folder":"tf","game":"Team Fortress","app_id":440,"player_count":0,"max_players":24,"Bots":0,"server_type":"Dedicated","server_os":"Linux","password":true,"vac":true,"version":"7757534","steam_id":85568392924469996,"keywords":["cp","nocrits","nodmgspread","uncletopia"],"game_id":440,"stv_port":27016,"stv_name":"Uncletopia | São Paulo | 1 | All Maps | STV","players":null},{"server_id":143,"name":"Uncletopia | São Paulo | 2 | All Maps","name_short":"sao-2","host":"sao-2.br.uncletopia.com","port":27015,"enabled":true,"region":"sa","cc":"br","latitude":-23.533773,"longitude":-46.62529,"reserved":0,"last_update":"0001-01-01T00:00:00Z","name_a2s":"Uncletopia | São Paulo | 2 | All Maps","protocol":17,"map":"koth_viaduct","folder":"tf","game":"Team Fortress","app_id":440,"player_count":0,"max_players":24,"Bots":0,"server_type":"Dedicated","server_os":"Linux","password":true,"vac":true,"version":"7757534","steam_id":85568392924485349,"keywords":["cp","nocrits","nodmgspread","uncletopia"],"game_id":440,"stv_port":27016,"stv_name":"Uncletopia | São Paulo | 2 | All Maps | STV","players":null},{"server_id":7,"name":"Uncletopia | Seattle | 1 | All Maps","name_short":"sea-1","host":"sea-1.us.uncletopia.com","port":27015,"enabled":true,"region":"us-west","cc":"us","latitude":47.608013,"longitude":-122.33517,"reserved":0,"last_update":"0001-01-01T00:00:00Z","name_a2s":"Uncletopia | Seattle | 1 | All Maps","protocol":17,"map":"pl_upward","folder":"tf","game":"Team Fortress","app_id":440,"player_count":23,"max_players":24,"Bots":0,"server_type":"Dedicated","server_os":"Linux","password":true,"vac":true,"version":"7757534","steam_id":85568392924469997,"keywords":["nocrits","nodmgspread","payload","uncletopia"],"game_id":440,"stv_port":27016,"stv_name":"Uncletopia | Seattle | 1 | All Maps | STV","players":[{"user_id":636,"name":"Root Deer","steam_id":76561198030245365,"connected_time":56000000000,"state":"active","ping":76},{"user_id":621,"name":"Demongodcrush","steam_id":76561198001531988,"connected_time":1051000000000,"state":"active","ping":118},{"user_id":620,"name":"Pudsla","steam_id":76561198258974036,"connected_time":1070000000000,"state":"active","ping":66},{"user_id":622,"name":"Chief WaWaWa","steam_id":76561198138312242,"connected_time":941000000000,"state":"active","ping":82},{"user_id":618,"name":"Danzuniverse","steam_id":76561198179817943,"connected_time":2116000000000,"state":"active","ping":59},{"user_id":520,"name":"Arsonist Goose","steam_id":76561198147441830,"connected_time":11587000000000,"state":"active","ping":72},{"user_id":623,"name":"dzcreeper","steam_id":76561198072250723,"connected_time":909000000000,"state":"active","ping":95},{"user_id":604,"name":"SvicidalBug","steam_id":76561198221390504,"connected_time":4743000000000,"state":"active","ping":62},{"user_id":624,"name":"Jetcream sam","steam_id":76561199076491805,"connected_time":877000000000,"state":"active","ping":91},{"user_id":585,"name":"goldhed","steam_id":76561198051751133,"connected_time":6068000000000,"state":"active","ping":59},{"user_id":625,"name":"sameways","steam_id":76561198120982884,"connected_time":856000000000,"state":"active","ping":75},{"user_id":635,"name":"Gary, 40, soul sucking 9-5","steam_id":76561198073812888,"connected_time":138000000000,"state":"active","ping":42},{"user_id":637,"name":"KingToaster","steam_id":76561198007903802,"connected_time":48000000000,"state":"active","ping":40},{"user_id":627,"name":"Joseph","steam_id":76561198056950963,"connected_time":794000000000,"state":"active","ping":57},{"user_id":634,"name":"GOT MILK?","steam_id":76561198212993755,"connected_time":326000000000,"state":"active","ping":57},{"user_id":616,"name":"AFunkyPigeon","steam_id":76561199350099870,"connected_time":2284000000000,"state":"active","ping":105},{"user_id":613,"name":"PerKnuckleChuckle","steam_id":76561198023221596,"connected_time":2958000000000,"state":"active","ping":82},{"user_id":629,"name":"drunk man","steam_id":76561198342427583,"connected_time":778000000000,"state":"active","ping":65},{"user_id":610,"name":"glizzy inflation","steam_id":76561198046073848,"connected_time":3415000000000,"state":"active","ping":46},{"user_id":573,"name":"nescoceo","steam_id":76561198040801160,"connected_time":7482000000000,"state":"active","ping":74},{"user_id":612,"name":"Antzen","steam_id":76561198041343470,"connected_time":3256000000000,"state":"active","ping":72},{"user_id":631,"name":"loppy","steam_id":76561198081870327,"connected_time":770000000000,"state":"active","ping":84},{"user_id":633,"name":"lug nut larry","steam_id":76561198170643378,"connected_time":642000000000,"state":"active","ping":91}]},{"server_id":119,"name":"Uncletopia | Seattle | 2 | All Maps","name_short":"sea-2","host":"sea-1.us.uncletopia.com","port":27025,"enabled":true,"region":"us-west","cc":"us","latitude":47.608013,"longitude":-122.33517,"reserved":0,"last_update":"0001-01-01T00:00:00Z","name_a2s":"Uncletopia | Seattle | 2 | All Maps","protocol":17,"map":"pl_upward","folder":"tf","game":"Team Fortress","app_id":440,"player_count":24,"max_players":24,"Bots":0,"server_type":"Dedicated","server_os":"Linux","password":true,"vac":true,"version":"7757534","steam_id":85568392924469998,"keywords":["nocrits","nodmgspread","payload","uncletopia"],"game_id":440,"stv_port":27026,"stv_name":"Uncletopia | Seattle | 2 | All Maps | STV","players":[{"user_id":840,"name":"Shamrock Shake Oct.10.2020 @8pm","steam_id":76561198833313201,"connected_time":798000000000,"state":"active","ping":80},{"user_id":780,"name":"CHASE","steam_id":76561198090739352,"connected_time":5020000000000,"state":"active","ping":69},{"user_id":816,"name":"RufusJukebox","steam_id":76561198195074028,"connected_time":1723000000000,"state":"active","ping":77},{"user_id":833,"name":"diymo","steam_id":76561198017600790,"connected_time":1132000000000,"state":"active","ping":38},{"user_id":848,"name":"Free Bird","steam_id":76561198303302188,"connected_time":131000000000,"state":"active","ping":79},{"user_id":817,"name":"Zorlovo","steam_id":76561198006443283,"connected_time":1677000000000,"state":"active","ping":87},{"user_id":751,"name":"Neo Kojiro","steam_id":76561198000967076,"connected_time":7763000000000,"state":"active","ping":159},{"user_id":785,"name":"cracky","steam_id":76561197971365444,"connected_time":4469000000000,"state":"active","ping":48},{"user_id":849,"name":"B)","steam_id":76561198093921290,"connected_time":56000000000,"state":"active","ping":97},{"user_id":813,"name":"River Rat","steam_id":76561198116383976,"connected_time":2045000000000,"state":"active","ping":70},{"user_id":818,"name":"King Of Noob s","steam_id":76561198143209841,"connected_time":1584000000000,"state":"active","ping":59},{"user_id":819,"name":"s4lmon","steam_id":76561198055882807,"connected_time":1519000000000,"state":"active","ping":52},{"user_id":821,"name":"kibben","steam_id":76561198222386220,"connected_time":1512000000000,"state":"active","ping":45},{"user_id":834,"name":"truundrscr","steam_id":76561198213525809,"connected_time":1113000000000,"state":"active","ping":71},{"user_id":823,"name":"Ben_meistro","steam_id":76561198876356862,"connected_time":1410000000000,"state":"active","ping":92},{"user_id":839,"name":"gristle","steam_id":76561198046815360,"connected_time":839000000000,"state":"active","ping":75},{"user_id":835,"name":"TTYmilkman","steam_id":76561199048615674,"connected_time":1106000000000,"state":"active","ping":98},{"user_id":847,"name":"Tee","steam_id":76561198213326445,"connected_time":259000000000,"state":"active","ping":64},{"user_id":829,"name":"raptorrule","steam_id":76561198164362417,"connected_time":1268000000000,"state":"active","ping":68},{"user_id":756,"name":"Ryanel","steam_id":76561198053075898,"connected_time":7693000000000,"state":"active","ping":84},{"user_id":850,"name":"Luv","steam_id":76561199200757524,"connected_time":45000000000,"state":"active","ping":80},{"user_id":838,"name":"Shmoo","steam_id":76561198809915108,"connected_time":1041000000000,"state":"active","ping":112},{"user_id":843,"name":"served","steam_id":76561199438267625,"connected_time":517000000000,"state":"active","ping":98},{"user_id":757,"name":"PeptobismolCorndog","steam_id":76561198080072237,"connected_time":7693000000000,"state":"active","ping":135}]},{"server_id":406,"name":"Uncletopia | Seattle | 3 | Stopwatch Beta","name_short":"sea-3","host":"sea-1.us.uncletopia.com","port":27035,"enabled":true,"region":"us-west","cc":"us","latitude":47.608013,"longitude":-122.33517,"reserved":0,"last_update":"0001-01-01T00:00:00Z","name_a2s":"Uncletopia | Seattle | 3 | Stopwatch Beta","protocol":17,"map":"pl_swiftwater_final1","folder":"tf","game":"Team Fortress","app_id":440,"player_count":0,"max_players":24,"Bots":0,"server_type":"Dedicated","server_os":"Linux","password":true,"vac":true,"version":"7757534","steam_id":85568392924515217,"keywords":["nocrits","nodmgspread","payload","uncletopia"],"game_id":440,"stv_port":27036,"stv_name":"Uncletopia | Seattle | 3 | Stopwatch Beta | STV","players":null},{"server_id":17,"name":"Uncletopia | San Francisco | 1 | All Maps","name_short":"sfo-1","host":"sfo-1.us.uncletopia.com","port":27015,"enabled":true,"region":"us-west","cc":"us","latitude":37.77397,"longitude":-122.4313,"reserved":0,"last_update":"0001-01-01T00:00:00Z","name_a2s":"Uncletopia | San Francisco | 1 | All Maps","protocol":17,"map":"pl_upward","folder":"tf","game":"Team Fortress","app_id":440,"player_count":24,"max_players":24,"Bots":0,"server_type":"Dedicated","server_os":"Linux","password":true,"vac":true,"version":"7757534","steam_id":85568392924469999,"keywords":["nocrits","nodmgspread","payload","uncletopia"],"game_id":440,"stv_port":27016,"stv_name":"Uncletopia | San Francisco | 1 | All Maps | STV","players":[{"user_id":705,"name":"squash","steam_id":76561198150281353,"connected_time":2073000000000,"state":"active","ping":73},{"user_id":717,"name":"Bullet Kin","steam_id":76561198219951947,"connected_time":644000000000,"state":"active","ping":55},{"user_id":723,"name":"Five","steam_id":76561198026640473,"connected_time":508000000000,"state":"active","ping":67},{"user_id":629,"name":"p9 delight","steam_id":76561197980280272,"connected_time":8246000000000,"state":"active","ping":62},{"user_id":726,"name":"Potassium!","steam_id":76561199082921723,"connected_time":245000000000,"state":"active","ping":91},{"user_id":714,"name":"yungevildoer29k","steam_id":76561198127631900,"connected_time":725000000000,"state":"active","ping":44},{"user_id":708,"name":"Bald Rice","steam_id":76561199019142767,"connected_time":1674000000000,"state":"active","ping":60},{"user_id":683,"name":"Trips","steam_id":76561198054581597,"connected_time":3022000000000,"state":"active","ping":41},{"user_id":722,"name":"oof","steam_id":76561198068031860,"connected_time":580000000000,"state":"active","ping":59},{"user_id":721,"name":"Camohno","steam_id":76561198283519918,"connected_time":608000000000,"state":"active","ping":56},{"user_id":713,"name":"oiljacket","steam_id":76561199162111049,"connected_time":1038000000000,"state":"active","ping":119},{"user_id":697,"name":"Wise Goat","steam_id":76561198032361889,"connected_time":2427000000000,"state":"active","ping":57},{"user_id":665,"name":"This game sucks","steam_id":76561198042007578,"connected_time":4162000000000,"state":"active","ping":60},{"user_id":716,"name":"Deacon","steam_id":76561197998532724,"connected_time":664000000000,"state":"active","ping":76},{"user_id":699,"name":"A Shiny Meat Bicycle","steam_id":76561198358757709,"connected_time":2368000000000,"state":"active","ping":137},{"user_id":725,"name":"123","steam_id":76561198040375911,"connected_time":270000000000,"state":"active","ping":110},{"user_id":728,"name":"KZN02","steam_id":76561198043802482,"connected_time":95000000000,"state":"active","ping":67},{"user_id":720,"name":"dP | I'm in a Wookie Suit","steam_id":76561198083307644,"connected_time":610000000000,"state":"active","ping":79},{"user_id":711,"name":"The Big Cheese","steam_id":76561198123903885,"connected_time":1409000000000,"state":"active","ping":86},{"user_id":695,"name":"89","steam_id":76561198106308056,"connected_time":2466000000000,"state":"active","ping":60},{"user_id":671,"name":"chanoc","steam_id":76561198026734746,"connected_time":3985000000000,"state":"active","ping":53},{"user_id":696,"name":"Proshoetoe","steam_id":76561198040566915,"connected_time":2459000000000,"state":"active","ping":58},{"user_id":703,"name":"p9 jorts FULL of pilk","steam_id":76561199041179985,"connected_time":2265000000000,"state":"active","ping":72},{"user_id":704,"name":"rorywashere /ᐠ - ˕ -マ Ⳋ","steam_id":76561198065825165,"connected_time":2093000000000,"state":"active","ping":118}]},{"server_id":18,"name":"Uncletopia | San Francisco | 2 | All Maps","name_short":"sfo-2","host":"sfo-1.us.uncletopia.com","port":27025,"enabled":true,"region":"us-west","cc":"us","latitude":37.77397,"longitude":-122.4313,"reserved":0,"last_update":"0001-01-01T00:00:00Z","name_a2s":"Uncletopia | San Francisco | 2 | All Maps","protocol":17,"map":"ctf_2fort","folder":"tf","game":"Team Fortress","app_id":440,"player_count":3,"max_players":24,"Bots":0,"server_type":"Dedicated","server_os":"Linux","password":true,"vac":true,"version":"7757534","steam_id":85568392924470000,"keywords":["ctf","nocrits","nodmgspread","uncletopia"],"game_id":440,"stv_port":27026,"stv_name":"Uncletopia | San Francisco | 2 | All Maps | STV","players":[{"user_id":310,"name":"Ediot","steam_id":76561199349494096,"connected_time":1552000000000,"state":"active","ping":131},{"user_id":311,"name":"ChuChu","steam_id":76561199443647976,"connected_time":460000000000,"state":"active","ping":108},{"user_id":312,"name":"kumusta7287","steam_id":76561199208795697,"connected_time":153000000000,"state":"active","ping":211}]},{"server_id":19,"name":"Uncletopia | San Francisco | 3 | Stopwatch Beta","name_short":"sfo-3","host":"sfo-1.us.uncletopia.com","port":27035,"enabled":true,"region":"us-west","cc":"us","latitude":37.77397,"longitude":-122.4313,"reserved":0,"last_update":"0001-01-01T00:00:00Z","name_a2s":"Uncletopia | San Francisco | 3 | Stopwatch Beta","protocol":17,"map":"workshop/koth_ramjam_rc1.ugc459778887","folder":"tf","game":"Team Fortress","app_id":440,"player_count":0,"max_players":24,"Bots":0,"server_type":"Dedicated","server_os":"Linux","password":true,"vac":true,"version":"7757534","steam_id":85568392924742824,"keywords":["cp","nocrits","nodmgspread","uncletopia"],"game_id":440,"stv_port":27036,"stv_name":"Uncletopia | San Francisco | 3 | Stopwatch Beta | STV","players":null},{"server_id":20,"name":"Uncletopia | San Francisco | 4 | Community","name_short":"sfo-4","host":"sfo-1.us.uncletopia.com","port":27045,"enabled":true,"region":"us-west","cc":"us","latitude":37.77397,"longitude":-122.4313,"reserved":0,"last_update":"0001-01-01T00:00:00Z","name_a2s":"Uncletopia | San Francisco | 4 | Community","protocol":17,"map":"workshop/koth_slaughter_rc1.ugc1712845210","folder":"tf","game":"Team Fortress","app_id":440,"player_count":0,"max_players":24,"Bots":0,"server_type":"Dedicated","server_os":"Linux","password":true,"vac":true,"version":"7757534","steam_id":85568392924742826,"keywords":["cp","nocrits","nodmgspread","uncletopia"],"game_id":440,"stv_port":27046,"stv_name":"Uncletopia | San Francisco | 4 | Community | STV","players":null},{"server_id":141,"name":"Uncletopia | Sydney | 1 | All Maps","name_short":"syd-1","host":"syd-1.au.uncletopia.com","port":27015,"enabled":true,"region":"au","cc":"au","latitude":-33.865143,"longitude":151.2099,"reserved":0,"last_update":"0001-01-01T00:00:00Z","name_a2s":"Uncletopia | Sydney | 1 | All Maps","protocol":17,"map":"pl_swiftwater_final1","folder":"tf","game":"Team Fortress","app_id":440,"player_count":24,"max_players":24,"Bots":0,"server_type":"Dedicated","server_os":"Linux","password":true,"vac":true,"version":"7757534","steam_id":85568392924470001,"keywords":["nocrits","nodmgspread","payload","uncletopia"],"game_id":440,"stv_port":27016,"stv_name":"Uncletopia | Sydney | 1 | All Maps | STV","players":[{"user_id":575,"name":"Neep","steam_id":76561198391424737,"connected_time":637000000000,"state":"active","ping":60},{"user_id":555,"name":"tommck","steam_id":76561198376969861,"connected_time":1285000000000,"state":"active","ping":101},{"user_id":583,"name":"krandlez` (Any/All)","steam_id":76561198044839726,"connected_time":198000000000,"state":"active","ping":45},{"user_id":585,"name":"uncle nephew junior","steam_id":76561198930683342,"connected_time":131000000000,"state":"active","ping":52},{"user_id":559,"name":"Ganome Chilled","steam_id":76561198064898965,"connected_time":1065000000000,"state":"active","ping":82},{"user_id":578,"name":"cedrick highsmith","steam_id":76561198380568764,"connected_time":397000000000,"state":"active","ping":63},{"user_id":562,"name":"Beehive","steam_id":76561199436707447,"connected_time":1040000000000,"state":"active","ping":51},{"user_id":538,"name":"Charm","steam_id":76561198028891054,"connected_time":1658000000000,"state":"active","ping":59},{"user_id":556,"name":"beth.cubitt","steam_id":76561198454733447,"connected_time":1241000000000,"state":"active","ping":89},{"user_id":561,"name":"SamK #AnnexTF2","steam_id":76561198149051619,"connected_time":1045000000000,"state":"active","ping":70},{"user_id":511,"name":"shaymii","steam_id":76561198058562392,"connected_time":4940000000000,"state":"active","ping":82},{"user_id":526,"name":"LightningBlock","steam_id":76561198289997742,"connected_time":3463000000000,"state":"active","ping":34},{"user_id":539,"name":"Sparky","steam_id":76561198117687688,"connected_time":1652000000000,"state":"active","ping":68},{"user_id":570,"name":"abcdef","steam_id":76561198083700749,"connected_time":832000000000,"state":"active","ping":45},{"user_id":564,"name":"triip","steam_id":76561198009092833,"connected_time":1014000000000,"state":"active","ping":80},{"user_id":577,"name":"sf/k","steam_id":76561198047758776,"connected_time":543000000000,"state":"active","ping":44},{"user_id":545,"name":"Zeron","steam_id":76561198125778202,"connected_time":1604000000000,"state":"active","ping":59},{"user_id":552,"name":"Giant Rat","steam_id":76561198110170714,"connected_time":1401000000000,"state":"active","ping":59},{"user_id":580,"name":"Morgenstern","steam_id":76561198253080474,"connected_time":329000000000,"state":"active","ping":65},{"user_id":572,"name":"manglemonster","steam_id":76561198155233607,"connected_time":774000000000,"state":"active","ping":51},{"user_id":546,"name":"thrax","steam_id":76561197992385270,"connected_time":1582000000000,"state":"active","ping":53},{"user_id":557,"name":"skinny loser man","steam_id":76561198094041769,"connected_time":1217000000000,"state":"active","ping":42},{"user_id":566,"name":"Wolf","steam_id":76561198067256350,"connected_time":982000000000,"state":"active","ping":56},{"user_id":574,"name":"Trins","steam_id":76561198040922808,"connected_time":688000000000,"state":"active","ping":67}]},{"server_id":123,"name":"Uncletopia | Sydney | 2 | All Maps","name_short":"syd-2","host":"syd-1.au.uncletopia.com","port":27025,"enabled":true,"region":"au","cc":"au","latitude":-33.865143,"longitude":151.2099,"reserved":0,"last_update":"0001-01-01T00:00:00Z","name_a2s":"Uncletopia | Sydney | 2 | All Maps","protocol":17,"map":"koth_brazil","folder":"tf","game":"Team Fortress","app_id":440,"player_count":0,"max_players":24,"Bots":0,"server_type":"Dedicated","server_os":"Linux","password":true,"vac":true,"version":"7757534","steam_id":85568392924470002,"keywords":["cp","nocrits","nodmgspread","uncletopia"],"game_id":440,"stv_port":27026,"stv_name":"Uncletopia | Sydney | 2 | All Maps | STV","players":null},{"server_id":395,"name":"Uncletopia | Sydney | 3 | All Maps","name_short":"syd-3","host":"syd-1.au.uncletopia.com","port":27035,"enabled":true,"region":"au","cc":"au","latitude":-33.865143,"longitude":151.2099,"reserved":0,"last_update":"0001-01-01T00:00:00Z","name_a2s":"Uncletopia | Sydney | 3 | All Maps","protocol":17,"map":"koth_lakeside_final","folder":"tf","game":"Team Fortress","app_id":440,"player_count":0,"max_players":24,"Bots":0,"server_type":"Dedicated","server_os":"Linux","password":true,"vac":true,"version":"7757534","steam_id":85568392925194467,"keywords":["cp","nocrits","nodmgspread","uncletopia"],"game_id":440,"stv_port":27036,"stv_name":"Uncletopia | Sydney | 3 | All Maps | STV","players":null},{"server_id":396,"name":"Uncletopia | Sydney | 4 | All Maps","name_short":"syd-4","host":"syd-1.au.uncletopia.com","port":27045,"enabled":true,"region":"au","cc":"au","latitude":-33.865143,"longitude":151.2099,"reserved":0,"last_update":"0001-01-01T00:00:00Z","name_a2s":"Uncletopia | Sydney | 4 | All Maps","protocol":17,"map":"koth_lakeside_final","folder":"tf","game":"Team Fortress","app_id":440,"player_count":0,"max_players":24,"Bots":0,"server_type":"Dedicated","server_os":"Linux","password":true,"vac":true,"version":"7757534","steam_id":85568392925397958,"keywords":["cp","nocrits","nodmgspread","uncletopia"],"game_id":440,"stv_port":27046,"stv_name":"Uncletopia | Sydney | 4 | All Maps | STV","players":null},{"server_id":58,"name":"Uncletopia | Sydney | 5 | Stopwatch Beta","name_short":"syd-5","host":"syd-1.au.uncletopia.com","port":27055,"enabled":true,"region":"au","cc":"au","latitude":-33.865143,"longitude":151.2099,"reserved":0,"last_update":"0001-01-01T00:00:00Z","name_a2s":"Uncletopia | Sydney | 5 | Stopwatch Beta","protocol":17,"map":"koth_cascade","folder":"tf","game":"Team Fortress","app_id":440,"player_count":0,"max_players":24,"Bots":0,"server_type":"Dedicated","server_os":"Linux","password":true,"vac":true,"version":"7757534","steam_id":85568392925397959,"keywords":["cp","nocrits","nodmgspread","uncletopia"],"game_id":440,"stv_port":27056,"stv_name":"Uncletopia | Sydney | 5 | Stopwatch Beta | STV","players":null},{"server_id":59,"name":"Uncletopia | Sydney | 6 | Community","name_short":"syd-6","host":"syd-1.au.uncletopia.com","port":27065,"enabled":true,"region":"au","cc":"au","latitude":-33.865143,"longitude":151.2099,"reserved":0,"last_update":"0001-01-01T00:00:00Z","name_a2s":"Uncletopia | Sydney | 6 | Community","protocol":17,"map":"workshop/koth_kemptown_rc1.ugc767410655","folder":"tf","game":"Team Fortress","app_id":440,"player_count":0,"max_players":24,"Bots":0,"server_type":"Dedicated","server_os":"Linux","password":true,"vac":true,"version":"7757534","steam_id":85568392925397960,"keywords":["cp","nocrits","nodmgspread","uncletopia"],"game_id":440,"stv_port":27066,"stv_name":"Uncletopia | Sydney | 6 | Community | STV","players":null},{"server_id":49,"name":"Uncletopia | Warsaw | 1 | All Maps","name_short":"waw-1","host":"waw-1.pl.uncletopia.com","port":27015,"enabled":true,"region":"eu","cc":"pl","latitude":52.2297,"longitude":21.017532,"reserved":0,"last_update":"0001-01-01T00:00:00Z","name_a2s":"","protocol":0,"map":"","folder":"","game":"","app_id":0,"player_count":0,"max_players":0,"Bots":0,"server_type":"","server_os":"","password":false,"vac":false,"version":"","steam_id":0,"keywords":null,"game_id":0,"stv_port":0,"stv_name":"","players":null},{"server_id":50,"name":"Uncletopia | Warsaw | 2 | All Maps","name_short":"waw-2","host":"waw-1.pl.uncletopia.com","port":27025,"enabled":true,"region":"eu","cc":"pl","latitude":52.2297,"longitude":21.017532,"reserved":0,"last_update":"0001-01-01T00:00:00Z","name_a2s":"Uncletopia | Warsaw | 2 | All Maps","protocol":17,"map":"pl_frontier_final","folder":"tf","game":"Team Fortress","app_id":440,"player_count":0,"max_players":24,"Bots":0,"server_type":"Dedicated","server_os":"Linux","password":true,"vac":true,"version":"7757534","steam_id":85568392925397851,"keywords":["nocrits","nodmgspread","payload","uncletopia"],"game_id":440,"stv_port":27026,"stv_name":"Uncletopia | Warsaw | 2 | All Maps | STV","players":null},{"server_id":51,"name":"Uncletopia | Warsaw | 3 | All Maps","name_short":"waw-3","host":"waw-1.pl.uncletopia.com","port":27035,"enabled":true,"region":"eu","cc":"pl","latitude":52.2297,"longitude":21.017532,"reserved":0,"last_update":"0001-01-01T00:00:00Z","name_a2s":"Uncletopia | Warsaw | 3 | All Maps","protocol":17,"map":"pl_barnblitz","folder":"tf","game":"Team Fortress","app_id":440,"player_count":0,"max_players":24,"Bots":0,"server_type":"Dedicated","server_os":"Linux","password":true,"vac":true,"version":"7757534","steam_id":85568392925397852,"keywords":["nocrits","nodmgspread","payload","uncletopia"],"game_id":440,"stv_port":27036,"stv_name":"Uncletopia | Warsaw | 3 | All Maps | STV","players":null},{"server_id":52,"name":"Uncletopia | Warsaw | 4 | All Maps","name_short":"waw-4","host":"waw-1.pl.uncletopia.com","port":27045,"enabled":true,"region":"eu","cc":"pl","latitude":52.2297,"longitude":21.017532,"reserved":0,"last_update":"0001-01-01T00:00:00Z","name_a2s":"Uncletopia | Warsaw | 4 | All Maps","protocol":17,"map":"cp_altitude","folder":"tf","game":"Team Fortress","app_id":440,"player_count":0,"max_players":24,"Bots":0,"server_type":"Dedicated","server_os":"Linux","password":true,"vac":true,"version":"7757534","steam_id":85568392925397853,"keywords":["cp","nocrits","nodmgspread","uncletopia"],"game_id":440,"stv_port":27046,"stv_name":"Uncletopia | Warsaw | 4 | All Maps | STV","players":null},{"server_id":53,"name":"Uncletopia | Warsaw | 5 | Stopwatch Beta","name_short":"waw-5","host":"waw-1.pl.uncletopia.com","port":27055,"enabled":true,"region":"eu","cc":"pl","latitude":52.2297,"longitude":21.017532,"reserved":0,"last_update":"0001-01-01T00:00:00Z","name_a2s":"Uncletopia | Warsaw | 5 | Stopwatch Beta","protocol":17,"map":"pl_pier","folder":"tf","game":"Team Fortress","app_id":440,"player_count":0,"max_players":24,"Bots":0,"server_type":"Dedicated","server_os":"Linux","password":true,"vac":true,"version":"7757534","steam_id":85568392925397854,"keywords":["nocrits","nodmgspread","payload","uncletopia"],"game_id":440,"stv_port":27056,"stv_name":"Uncletopia | Warsaw | 5 | Stopwatch Beta | STV","players":null},{"server_id":54,"name":"Uncletopia | Warsaw | 6 | Community","name_short":"waw-6","host":"waw-1.pl.uncletopia.com","port":27065,"enabled":true,"region":"eu","cc":"pl","latitude":52.2297,"longitude":21.017532,"reserved":0,"last_update":"0001-01-01T00:00:00Z","name_a2s":"Uncletopia | Warsaw | 6 | Community","protocol":17,"map":"koth_highpass","folder":"tf","game":"Team Fortress","app_id":440,"player_count":0,"max_players":24,"Bots":0,"server_type":"Dedicated","server_os":"Linux","password":true,"vac":true,"version":"7757534","steam_id":85568392925397856,"keywords":["cp","nocrits","nodmgspread","uncletopia"],"game_id":440,"stv_port":27066,"stv_name":"Uncletopia | Warsaw | 6 | Community | STV","players":null}]}