{"status":true,"message":"","result":[{"server_id":9,"name":"Uncletopia | Atlanta | 1 | All Maps","name_short":"atl-1","host":"atl-1.us.uncletopia.com","port":27015,"enabled":true,"region":"us-east","cc":"us","latitude":33.753746,"longitude":-84.38633,"reserved":0,"last_update":"0001-01-01T00:00:00Z","name_a2s":"Uncletopia | Atlanta | 1 | All Maps","protocol":17,"map":"pl_swiftwater_final1","folder":"tf","game":"Team Fortress","app_id":440,"player_count":23,"max_players":24,"Bots":0,"server_type":"Dedicated","server_os":"Linux","password":true,"vac":true,"version":"7961495","steam_id":85568392924469982,"keywords":["nocrits","nodmgspread","payload","uncletopia"],"game_id":440,"stv_port":27016,"stv_name":"Uncletopia | Atlanta | 1 | All Maps | STV","players":[{"user_id":524,"name":"Yoshika","steam_id":76561198036858169,"connected_time":1025000000000,"state":"active","ping":65},{"user_id":522,"name":"look killa","steam_id":76561198173047169,"connected_time":1307000000000,"state":"active","ping":66},{"user_id":516,"name":"DeezNoodlez","steam_id":76561198246700372,"connected_time":1668000000000,"state":"active","ping":55},{"user_id":368,"name":"eish","steam_id":76561198089463603,"connected_time":12750000000000,"state":"active","ping":121},{"user_id":534,"name":"Ripping Heads","steam_id":76561198006146062,"connected_time":398000000000,"state":"active","ping":75},{"user_id":535,"name":"C Papi","steam_id":76561198027779564,"connected_time":42000000000,"state":"active","ping":52},{"user_id":532,"name":"Csquared","steam_id":76561198169038599,"connected_time":692000000000,"state":"active","ping":122},{"user_id":511,"name":"Toonice","steam_id":76561198402994885,"connected_time":2297000000000,"state":"active","ping":79},{"user_id":495,"name":"kite","steam_id":76561198346516392,"connected_time":3289000000000,"state":"active","ping":87},{"user_id":525,"name":"Tommy Pickles (Very Cool)","steam_id":76561198391261463,"connected_time":966000000000,"state":"active","ping":91},{"user_id":505,"name":"custodian","steam_id":76561198058793778,"connected_time":2678000000000,"state":"active","ping":87},{"user_id":531,"name":"pharmacist","steam_id":76561198274424248,"connected_time":761000000000,"state":"active","ping":193},{"user_id":527,"name":"BIG HOG","steam_id":76561198079923652,"connected_time":931000000000,"state":"active","ping":62},{"user_id":517,"name":"souVern","steam_id":76561198046940771,"connected_time":1382000000000,"state":"active","ping":54},{"user_id":514,"name":"BotchyAlarm8","steam_id":76561198092682129,"connected_time":1842000000000,"state":"active","ping":81},{"user_id":533,"name":"Nine-Tails Delsin","steam_id":76561198149825187,"connected_time":639000000000,"state":"active","ping":150},{"user_id":512,"name":"lil hog","steam_id":76561199230929836,"connected_time":2121000000000,"state":"active","ping":84},{"user_id":498,"name":"/\\","steam_id":76561198045522596,"connected_time":2997000000000,"state":"active","ping":61},{"user_id":529,"name":"gabbertrap","steam_id":76561198109948247,"connected_time":902000000000,"state":"active","ping":38},{"user_id":485,"name":"Albino Jellyfish","steam_id":76561198208561097,"connected_time":4136000000000,"state":"active","ping":55},{"user_id":536,"name":"Intro Bonito","steam_id":76561198119478838,"connected_time":41000000000,"state":"active","ping":99},{"user_id":530,"name":"why","steam_id":76561199059732212,"connected_time":900000000000,"state":"active","ping":63},{"user_id":391,"name":"Ojen","steam_id":76561197998414482,"connected_time":10536000000000,"state":"active","ping":75}]},{"server_id":104,"name":"Uncletopia | Atlanta | 2 | All Maps","name_short":"atl-2","host":"atl-1.us.uncletopia.com","port":27025,"enabled":true,"region":"us-east","cc":"us","latitude":33.753746,"longitude":-84.38633,"reserved":0,"last_update":"0001-01-01T00:00:00Z","name_a2s":"Uncletopia | Atlanta | 2 | All Maps","protocol":17,"map":"cp_altitude","folder":"tf","game":"Team Fortress","app_id":440,"player_count":24,"max_players":24,"Bots":0,"server_type":"Dedicated","server_os":"Linux","password":true,"vac":true,"version":"7961495","steam_id":85568392924469983,"keywords":["cp","nocrits","nodmgspread","uncletopia"],"game_id":440,"stv_port":27026,"stv_name":"Uncletopia | Atlanta | 2 | All Maps | STV","players":[{"user_id":688,"name":"Captain Emerald The Changeling","steam_id":76561198320651177,"connected_time":4700000000000,"state":"active","ping":71},{"user_id":728,"name":"velneu","steam_id":76561198831996918,"connected_time":1598000000000,"state":"active","ping":81},{"user_id":689,"name":"Shystie","steam_id":76561198025371440,"connected_time":4667000000000,"state":"active","ping":85},{"user_id":740,"name":"MisterSJK","steam_id":76561198163892060,"connected_time":1041000000000,"state":"active","ping":77},{"user_id":732,"name":"I am Seth","steam_id":76561198068182899,"connected_time":1453000000000,"state":"active","ping":74},{"user_id":730,"name":"God's Wet Diaper","steam_id":76561198273203726,"connected_time":1501000000000,"state":"active","ping":74},{"user_id":731,"name":"Toripistefi","steam_id":76561199173353462,"connected_time":1462000000000,"state":"active","ping":184},{"user_id":726,"name":"GorenoiseGoddess","steam_id":76561198294061190,"connected_time":1672000000000,"state":"active","ping":86},{"user_id":742,"name":"ginosaurusx","steam_id":76561198410640142,"connected_time":907000000000,"state":"active","ping":80},{"user_id":752,"name":"Fire Wizard","steam_id":76561198972006814,"connected_time":110000000000,"state":"active","ping":75},{"user_id":745,"name":"(‚à©'-¬¥)‚äÉ ‚òÜÔæü Catgirl","steam_id":76561199500664171,"connected_time":404000000000,"state":"active","ping":60},{"user_id":672,"name":"Chirunomo","steam_id":76561197963956138,"connected_time":5935000000000,"state":"active","ping":115},{"user_id":711,"name":"LambChop","steam_id":76561197995535440,"connected_time":3043000000000,"state":"active","ping":84},{"user_id":746,"name":"scarecr0wzz","steam_id":76561198416218389,"connected_time":392000000000,"state":"active","ping":68},{"user_id":734,"name":"DudeWithMoney","steam_id":76561198001643450,"connected_time":1362000000000,"state":"active","ping":91},{"user_id":735,"name":"The_Stomach_Stone_Surgeon","steam_id":76561198044643725,"connected_time":1343000000000,"state":"active","ping":57},{"user_id":747,"name":"Chica","steam_id":76561198381832158,"connected_time":352000000000,"state":"active","ping":60},{"user_id":748,"name":"Weirdo","steam_id":76561198133961446,"connected_time":287000000000,"state":"active","ping":59},{"user_id":749,"name":"Generic Name","steam_id":76561198094225684,"connected_time":279000000000,"state":"active","ping":100},{"user_id":750,"name":"Catfish","steam_id":76561198088009583,"connected_time":278000000000,"state":"active","ping":81},{"user_id":736,"name":"GuyGoom","steam_id":76561198254522178,"connected_time":1315000000000,"state":"active","ping":74},{"user_id":751,"name":"Loashes","steam_id":76561198119608299,"connected_time":202000000000,"state":"active","ping":76},{"user_id":753,"name":"cnoisy","steam_id":76561198043018600,"connected_time":24000000000,"state":"active","ping":82},{"user_id":705,"name":"Makowako","steam_id":76561199016565502,"connected_time":3523000000000,"state":"active","ping":79}]},{"server_id":400,"name":"Uncletopia | Atlanta | 3 | Stopwatch","name_short":"atl-3","host":"atl-1.us.uncletopia.com","port":27035,"enabled":true,"region":"us-east","cc":"us","latitude":33.753746,"longitude":-84.38633,"reserved":0,"last_update":"0001-01-01T00:00:00Z","name_a2s":"Uncletopia | Atlanta | 3 | Stopwatch","protocol":17,"map":"workshop/koth_clearcut_b15.ugc2107050255","folder":"tf","game":"Team Fortress","app_id":440,"player_count":0,"max_players":24,"Bots":0,"server_type":"Dedicated","server_os":"Linux","password":true,"vac":true,"version":"7961495","steam_id":85568392924515187,"keywords":["cp","nocrits","nodmgspread","uncletopia"],"game_id":440,"stv_port":27036,"stv_name":"Uncletopia | Atlanta | 3 | Stopwatch | STV","players":null},{"server_id":401,"name":"Uncletopia | Atlanta | 4 | Community","name_short":"atl-4","host":"atl-1.us.uncletopia.com","port":27045,"enabled":true,"region":"us-east","cc":"us","latitude":33.753746,"longitude":-84.38633,"reserved":0,"last_update":"0001-01-01T00:00:00Z","name_a2s":"Uncletopia | Atlanta | 4 | Community","protocol":17,"map":"workshop/cp_bruhstbowl_b6.ugc2878604990","folder":"tf","game":"Team Fortress","app_id":440,"player_count":11,"max_players":24,"Bots":0,"server_type":"Dedicated","server_os":"Linux","password":true,"vac":true,"version":"7961495","steam_id":85568392924515188,"keywords":["cp","nocrits","nodmgspread","uncletopia"],"game_id":440,"stv_port":27046,"stv_name":"Uncletopia | Atlanta | 4 | Community | STV","players":[{"user_id":156,"name":"psychosetr","steam_id":76561199490479656,"connected_time":1459000000000,"state":"active","ping":71},{"user_id":158,"name":"Mr. Bones","steam_id":76561199288311517,"connected_time":1272000000000,"state":"active","ping":111},{"user_id":123,"name":"Soldie","steam_id":76561198118414372,"connected_time":4234000000000,"state":"active","ping":75},{"user_id":124,"name":"Fazer","steam_id":76561197979461186,"connected_time":4226000000000,"state":"active","ping":98},{"user_id":163,"name":"garfield","steam_id":76561198114119308,"connected_time":78000000000,"state":"active","ping":36},{"user_id":161,"name":"Chicken Strip","steam_id":76561198382354328,"connected_time":779000000000,"state":"active","ping":115},{"user_id":141,"name":"ProfessorCagan","steam_id":76561198141372356,"connected_time":2273000000000,"state":"active","ping":61},{"user_id":153,"name":"GRIM GAMING","steam_id":76561198107491637,"connected_time":1815000000000,"state":"active","ping":68},{"user_id":155,"name":"Cthulhu's Malewife","steam_id":76561198085888959,"connected_time":1628000000000,"state":"active","ping":44},{"user_id":125,"name":"monkey squirts","steam_id":76561197983101644,"connected_time":4131000000000,"state":"active","ping":101},{"user_id":143,"name":"Ghost Dragon1122","steam_id":76561198201930302,"connected_time":2192000000000,"state":"active","ping":72}]},{"server_id":2,"name":"Uncletopia | Chicago | 1 | All Maps","name_short":"chi-1","host":"chi-1.us.uncletopia.com","port":27015,"enabled":true,"region":"us-central","cc":"us","latitude":41.881832,"longitude":-87.62318,"reserved":0,"last_update":"0001-01-01T00:00:00Z","name_a2s":"Uncletopia | Chicago | 1 | All Maps","protocol":17,"map":"pl_badwater","folder":"tf","game":"Team Fortress","app_id":440,"player_count":24,"max_players":24,"Bots":0,"server_type":"Dedicated","server_os":"Linux","password":true,"vac":true,"version":"7961495","steam_id":85568392924469984,"keywords":["nocrits","nodmgspread","payload","uncletopia"],"game_id":440,"stv_port":27016,"stv_name":"Uncletopia | Chicago | 1 | All Maps | STV","players":[{"user_id":669,"name":"Ms Twig","steam_id":76561198144111736,"connected_time":3978000000000,"state":"active","ping":44},{"user_id":702,"name":"ABY$$","steam_id":76561198026837000,"connected_time":1931000000000,"state":"active","ping":60},{"user_id":713,"name":"TheSquirrelofHuscurl","steam_id":76561198073379623,"connected_time":685000000000,"state":"active","ping":82},{"user_id":710,"name":"Terrorism","steam_id":76561198020561572,"connected_time":747000000000,"state":"active","ping":78},{"user_id":714,"name":"Retro Phoenix","steam_id":76561198077176271,"connected_time":666000000000,"state":"active","ping":64},{"user_id":708,"name":"(1)Bee","steam_id":76561198074681324,"connected_time":776000000000,"state":"active","ping":80},{"user_id":716,"name":"Rudy","steam_id":76561198013456828,"connected_time":606000000000,"state":"active","ping":60},{"user_id":693,"name":"Wheat","steam_id":76561198106270789,"connected_time":2572000000000,"state":"active","ping":59},{"user_id":662,"name":"epic_corndog","steam_id":76561198061530137,"connected_time":4510000000000,"state":"active","ping":38},{"user_id":682,"name":"dr chungy ph.d","steam_id":76561198215559840,"connected_time":2923000000000,"state":"active","ping":63},{"user_id":715,"name":"vevetables","steam_id":76561198404178400,"connected_time":665000000000,"state":"active","ping":53},{"user_id":704,"name":"bee","steam_id":76561198025553902,"connected_time":1694000000000,"state":"active","ping":44},{"user_id":694,"name":"Worst Scenario","steam_id":76561199052130229,"connected_time":2551000000000,"state":"active","ping":62},{"user_id":700,"name":"Perfection","steam_id":76561198073313540,"connected_time":2150000000000,"state":"active","ping":62},{"user_id":698,"name":"MegaPenguin","steam_id":76561198038796875,"connected_time":2446000000000,"state":"active","ping":86},{"user_id":676,"name":"Dwaggy","steam_id":76561198027369555,"connected_time":3201000000000,"state":"active","ping":69},{"user_id":711,"name":"Laventhey","steam_id":76561198977523626,"connected_time":746000000000,"state":"active","ping":67},{"user_id":717,"name":"Smiles","steam_id":76561198107197973,"connected_time":230000000000,"state":"active","ping":62},{"user_id":668,"name":"K","steam_id":76561198171446177,"connected_time":4281000000000,"state":"active","ping":100},{"user_id":706,"name":"goofbears","steam_id":76561199100831175,"connected_time":871000000000,"state":"active","ping":61},{"user_id":665,"name":"{FITH}‚Ñ¢ Halcyon","steam_id":76561198049132808,"connected_time":4497000000000,"state":"active","ping":70},{"user_id":712,"name":"Scum!","steam_id":76561198051805219,"connected_time":743000000000,"state":"active","ping":52},{"user_id":679,"name":"Pharthus","steam_id":76561198093866050,"connected_time":3059000000000,"state":"active","ping":94},{"user_id":697,"name":"dark souls boss","steam_id":76561198316610724,"connected_time":2531000000000,"state":"active","ping":90}]},{"server_id":106,"name":"Uncletopia | Chicago | 2 | All Maps","name_short":"chi-2","host":"chi-1.us.uncletopia.com","port":27025,"enabled":true,"region":"us-central","cc":"us","latitude":41.881832,"longitude":-87.62318,"reserved":0,"last_update":"0001-01-01T00:00:00Z","name_a2s":"Uncletopia | Chicago | 2 | All Maps","protocol":17,"map":"pl_snowycoast","folder":"tf","game":"Team Fortress","app_id":440,"player_count":24,"max_players":24,"Bots":0,"server_type":"Dedicated","server_os":"Linux","password":true,"vac":true,"version":"7961495","steam_id":85568392924469985,"keywords":["nocrits","nodmgspread","payload","uncletopia"],"game_id":440,"stv_port":27026,"stv_name":"Uncletopia | Chicago | 2 | All Maps | STV","players":[{"user_id":768,"name":"drujnk falloyuj","steam_id":76561198066068001,"connected_time":127000000000,"state":"active","ping":75},{"user_id":738,"name":"Tom Cr√∫aich","steam_id":76561197999439911,"connected_time":1893000000000,"state":"active","ping":73},{"user_id":767,"name":"FROYO cina_red","steam_id":76561198070266530,"connected_time":192000000000,"state":"active","ping":95},{"user_id":747,"name":"Ya viene...ü•µ","steam_id":76561198298364415,"connected_time":1414000000000,"state":"active","ping":114},{"user_id":762,"name":"Mr8bittripper","steam_id":76561198133894229,"connected_time":580000000000,"state":"active","ping":79},{"user_id":765,"name":"bloodyboorp","steam_id":76561199177105829,"connected_time":385000000000,"state":"active","ping":119},{"user_id":740,"name":"Stinkly","steam_id":76561198045010846,"connected_time":1799000000000,"state":"active","ping":90},{"user_id":629,"name":"loser","steam_id":76561198259380127,"connected_time":8270000000000,"state":"active","ping":56},{"user_id":748,"name":"hittign dabong","steam_id":76561198097588802,"connected_time":1383000000000,"state":"active","ping":49},{"user_id":717,"name":"Da Boo Brothas","steam_id":76561198167545395,"connected_time":4054000000000,"state":"active","ping":117},{"user_id":749,"name":"3pac","steam_id":76561198068393322,"connected_time":1283000000000,"state":"active","ping":65},{"user_id":752,"name":"SKForm","steam_id":76561198381500437,"connected_time":832000000000,"state":"active","ping":53},{"user_id":756,"name":"Dot.","steam_id":76561198149463984,"connected_time":798000000000,"state":"active","ping":48},{"user_id":743,"name":"CandorDanceFloor","steam_id":76561198062980511,"connected_time":1774000000000,"state":"active","ping":77},{"user_id":744,"name":"kritik","steam_id":76561198075216115,"connected_time":1753000000000,"state":"active","ping":150},{"user_id":715,"name":"A Puppy","steam_id":76561198828184456,"connected_time":4468000000000,"state":"active","ping":61},{"user_id":769,"name":"Snoopist","steam_id":76561198144023761,"connected_time":38000000000,"state":"active","ping":35},{"user_id":757,"name":"VanderSalad","steam_id":76561198027370031,"connected_time":789000000000,"state":"active","ping":68},{"user_id":667,"name":"1920","steam_id":76561198111669774,"connected_time":6737000000000,"state":"active","ping":51},{"user_id":668,"name":"sue squirt","steam_id":76561198380688967,"connected_time":6616000000000,"state":"active","ping":56},{"user_id":746,"name":"Madrox Who?","steam_id":76561197988859134,"connected_time":1744000000000,"state":"active","ping":69},{"user_id":763,"name":"crouching tiger heavy","steam_id":76561198121767390,"connected_time":445000000000,"state":"active","ping":62},{"user_id":759,"name":"Shazzy","steam_id":76561198145460523,"connected_time":710000000000,"state":"active","ping":90},{"user_id":766,"name":"Hawksgamer","steam_id":76561198152405941,"connected_time":384000000000,"state":"active","ping":94}]},{"server_id":402,"name":"Uncletopia | Chicago | 3 | All Maps","name_short":"chi-3","host":"chi-1.us.uncletopia.com","port":27035,"enabled":true,"region":"us-central","cc":"us","latitude":41.881832,"longitude":-87.62318,"reserved":0,"last_update":"0001-01-01T00:00:00Z","name_a2s":"Uncletopia | Chicago | 3 | All Maps","protocol":17,"map":"pl_badwater","folder":"tf","game":"Team Fortress","app_id":440,"player_count":24,"max_players":24,"Bots":0,"server_type":"Dedicated","server_os":"Linux","password":true,"vac":true,"version":"7961495","steam_id":85568392924515191,"keywords":["nocrits","nodmgspread","payload","uncletopia"],"game_id":440,"stv_port":27036,"stv_name":"Uncletopia | Chicago | 3 | All Maps | STV","players":[{"user_id":765,"name":"Castroy","steam_id":76561198108160099,"connected_time":815000000000,"state":"active","ping":47},{"user_id":771,"name":"grayflingsnap098","steam_id":76561199142779872,"connected_time":651000000000,"state":"active","ping":72},{"user_id":729,"name":"feed lips","steam_id":76561197971152439,"connected_time":4509000000000,"state":"active","ping":59},{"user_id":730,"name":"kikikikoboy","steam_id":76561198073380271,"connected_time":4502000000000,"state":"active","ping":76},{"user_id":767,"name":"KingoftheDucks","steam_id":76561198150536550,"connected_time":766000000000,"state":"active","ping":89},{"user_id":779,"name":"Person","steam_id":76561198093244204,"connected_time":595000000000,"state":"active","ping":75},{"user_id":772,"name":"Dr. Culo Trasero Extremo MD","steam_id":76561197994425084,"connected_time":643000000000,"state":"active","ping":69},{"user_id":762,"name":"MR SKELTAL","steam_id":76561198031089598,"connected_time":1643000000000,"state":"active","ping":71},{"user_id":780,"name":"Nukeboy","steam_id":76561198147058560,"connected_time":577000000000,"state":"active","ping":105},{"user_id":773,"name":"PTR","steam_id":76561198237253772,"connected_time":640000000000,"state":"active","ping":61},{"user_id":777,"name":"for the king","steam_id":76561197973488858,"connected_time":605000000000,"state":"active","ping":57},{"user_id":775,"name":"the mountains","steam_id":76561198053621664,"connected_time":635000000000,"state":"active","ping":46},{"user_id":776,"name":"-BRH- Tangled up in Bluegrass","steam_id":76561197987181139,"connected_time":631000000000,"state":"active","ping":70},{"user_id":778,"name":"younggflylyfe","steam_id":76561199477357832,"connected_time":603000000000,"state":"active","ping":69},{"user_id":756,"name":"Sariff","steam_id":76561198136446352,"connected_time":2214000000000,"state":"active","ping":52},{"user_id":740,"name":"JACK BRUNO","steam_id":76561198027957690,"connected_time":4239000000000,"state":"active","ping":103},{"user_id":757,"name":"None of that $9.99 bullshit","steam_id":76561198116169903,"connected_time":2209000000000,"state":"active","ping":46},{"user_id":758,"name":"Foolie","steam_id":76561198291741747,"connected_time":2197000000000,"state":"active","ping":80},{"user_id":708,"name":"Lane","steam_id":76561197965828506,"connected_time":6895000000000,"state":"active","ping":44},{"user_id":781,"name":"bored in the house","steam_id":76561199498821080,"connected_time":568000000000,"state":"active","ping":53},{"user_id":782,"name":"-Avh-","steam_id":76561198087593160,"connected_time":553000000000,"state":"active","ping":71},{"user_id":739,"name":"tydogzilla","steam_id":76561198054254518,"connected_time":4274000000000,"state":"active","ping":76},{"user_id":759,"name":"a festive sooley","steam_id":76561198134500189,"connected_time":2175000000000,"state":"active","ping":45},{"user_id":760,"name":"Tweek Tweak","steam_id":76561198445739792,"connected_time":2038000000000,"state":"active","ping":62}]},{"server_id":403,"name":"Uncletopia | Chicago | 4 | All Maps","name_short":"chi-4","host":"chi-1.us.uncletopia.com","port":27045,"enabled":true,"region":"us-central","cc":"us","latitude":41.881832,"longitude":-87.62318,"reserved":0,"last_update":"0001-01-01T00:00:00Z","name_a2s":"Uncletopia | Chicago | 4 | All Maps","protocol":17,"map":"cp_altitude","folder":"tf","game":"Team Fortress","app_id":440,"player_count":15,"max_players":24,"Bots":0,"server_type":"Dedicated","server_os":"Linux","password":true,"vac":true,"version":"7961495","steam_id":85568392924515193,"keywords":["cp","nocrits","nodmgspread","uncletopia"],"game_id":440,"stv_port":27046,"stv_name":"Uncletopia | Chicago | 4 | All Maps | STV","players":[{"user_id":712,"name":"leonardo doujinshi","steam_id":76561198025810326,"connected_time":358000000000,"state":"active","ping":45},{"user_id":702,"name":"Deluxe_Taco34","steam_id":76561199037653437,"connected_time":1040000000000,"state":"active","ping":107},{"user_id":686,"name":"hud_saytext_time 0","steam_id":76561198010327228,"connected_time":1708000000000,"state":"active","ping":154},{"user_id":687,"name":"Crackhead Energy","steam_id":76561198263847667,"connected_time":1697000000000,"state":"active","ping":56},{"user_id":688,"name":"Waxing Green Gibus","steam_id":76561198269228580,"connected_time":1694000000000,"state":"active","ping":77},{"user_id":706,"name":"LivingRaccoon","steam_id":76561198035425632,"connected_time":534000000000,"state":"active","ping":105},{"user_id":711,"name":"Lord Cutler Beckett","steam_id":76561198091356047,"connected_time":422000000000,"state":"active","ping":55},{"user_id":708,"name":"sfoster","steam_id":76561197993895857,"connected_time":485000000000,"state":"active","ping":80},{"user_id":704,"name":"srv","steam_id":76561198026589960,"connected_time":941000000000,"state":"active","ping":58},{"user_id":692,"name":"yeahelliot","steam_id":76561198167299951,"connected_time":1605000000000,"state":"active","ping":74},{"user_id":695,"name":"Schloper","steam_id":76561198153400447,"connected_time":1587000000000,"state":"active","ping":61},{"user_id":701,"name":"Guerito550hp","steam_id":76561198019028544,"connected_time":1201000000000,"state":"active","ping":67},{"user_id":710,"name":"Big Bill Haywood","steam_id":76561198142290733,"connected_time":466000000000,"state":"active","ping":60},{"user_id":681,"name":"wise","steam_id":76561198030066204,"connected_time":2902000000000,"state":"active","ping":58},{"user_id":698,"name":"ùíÜùíóùíäùíçArnoldGamingÔæ†","steam_id":76561198040140247,"connected_time":1558000000000,"state":"active","ping":87}]},{"server_id":36,"name":"Uncletopia | Chicago | 5 | All Maps","name_short":"chi-5","host":"chi-2.us.uncletopia.com","port":27015,"enabled":true,"region":"us-central","cc":"us","latitude":41.881832,"longitude":-87.62318,"reserved":0,"last_update":"0001-01-01T00:00:00Z","name_a2s":"Uncletopia | Chicago | 5 | All Maps","protocol":17,"map":"pl_badwater","folder":"tf","game":"Team Fortress","app_id":440,"player_count":7,"max_players":24,"Bots":0,"server_type":"Dedicated","server_os":"Linux","password":true,"vac":true,"version":"7961495","steam_id":85568392924866362,"keywords":["nocrits","nodmgspread","payload","uncletopia"],"game_id":440,"stv_port":27016,"stv_name":"Uncletopia | Chicago | 5 | All Maps | STV","players":[{"user_id":508,"name":"Tectonic11","steam_id":76561198061169359,"connected_time":299000000000,"state":"active","ping":68},{"user_id":507,"name":"bleach65","steam_id":76561198115270571,"connected_time":361000000000,"state":"active","ping":75},{"user_id":509,"name":"Catdog32","steam_id":76561198113364714,"connected_time":93000000000,"state":"active","ping":54},{"user_id":455,"name":"Chairman Meow","steam_id":76561198107795169,"connected_time":4212000000000,"state":"active","ping":70},{"user_id":461,"name":"Piyono","steam_id":76561197962188504,"connected_time":4119000000000,"state":"active","ping":74},{"user_id":457,"name":"Yarman53","steam_id":76561198099889202,"connected_time":4208000000000,"state":"active","ping":32},{"user_id":426,"name":"Slap Nuts","steam_id":76561198117093185,"connected_time":6865000000000,"state":"active","ping":55}]},{"server_id":37,"name":"Uncletopia | Chicago | 6 | All Maps","name_short":"chi-6","host":"chi-2.us.uncletopia.com","port":27025,"enabled":true,"region":"us-central","cc":"us","latitude":41.881832,"longitude":-87.62318,"reserved":0,"last_update":"0001-01-01T00:00:00Z","name_a2s":"Uncletopia | Chicago | 6 | All Maps","protocol":17,"map":"pl_snowycoast","folder":"tf","game":"Team Fortress","app_id":440,"player_count":4,"max_players":24,"Bots":0,"server_type":"Dedicated","server_os":"Linux","password":true,"vac":true,"version":"7961495","steam_id":85568392924866363,"keywords":["nocrits","nodmgspread","payload","uncletopia"],"game_id":440,"stv_port":27026,"stv_name":"Uncletopia | Chicago | 6 | All Maps | STV","players":[{"user_id":775,"name":"doinker","steam_id":76561198329067451,"connected_time":3786000000000,"state":"active","ping":69},{"user_id":735,"name":"asimus","steam_id":76561199141433499,"connected_time":6588000000000,"state":"active","ping":104},{"user_id":774,"name":"andrewbmarshmellow","steam_id":76561198347169036,"connected_time":3800000000000,"state":"active","ping":102},{"user_id":777,"name":"RiflingShotgun","steam_id":76561198288209651,"connected_time":3655000000000,"state":"active","ping":44}]},{"server_id":38,"name":"Uncletopia | Chicago | 7 | Stopwatch","name_short":"chi-7","host":"chi-2.us.uncletopia.com","port":27035,"enabled":true,"region":"us-central","cc":"us","latitude":41.881832,"longitude":-87.62318,"reserved":0,"last_update":"0001-01-01T00:00:00Z","name_a2s":"Uncletopia | Chicago | 7 | Stopwatch","protocol":17,"map":"workshop/cp_process_f12.ugc2302948105","folder":"tf","game":"Team Fortress","app_id":440,"player_count":0,"max_players":24,"Bots":0,"server_type":"Dedicated","server_os":"Linux","password":true,"vac":true,"version":"7961495","steam_id":85568392924866364,"keywords":["cp","nocrits","nodmgspread","uncletopia"],"game_id":440,"stv_port":27036,"stv_name":"Uncletopia | Chicago | 7 | Stopwatch | STV","players":null},{"server_id":39,"name":"Uncletopia | Chicago | 8 | Community","name_short":"chi-8","host":"chi-2.us.uncletopia.com","port":27045,"enabled":true,"region":"us-central","cc":"us","latitude":41.881832,"longitude":-87.62318,"reserved":0,"last_update":"0001-01-01T00:00:00Z","name_a2s":"Uncletopia | Chicago | 8 | Community","protocol":17,"map":"workshop/cp_alloy_rc3.ugc592805587","folder":"tf","game":"Team Fortress","app_id":440,"player_count":0,"max_players":24,"Bots":0,"server_type":"Dedicated","server_os":"Linux","password":true,"vac":true,"version":"7961495","steam_id":85568392924866365,"keywords":["cp","nocrits","nodmgspread","uncletopia"],"game_id":440,"stv_port":27046,"stv_name":"Uncletopia | Chicago | 8 | Community | STV","players":null},{"server_id":8,"name":"Uncletopia | Dallas | 1 | All Maps","name_short":"dal-1","host":"dal-1.us.uncletopia.com","port":27015,"enabled":true,"region":"us-central","cc":"us","latitude":32.779167,"longitude":-96.80889,"reserved":0,"last_update":"0001-01-01T00:00:00Z","name_a2s":"Uncletopia | Dallas | 1 | All Maps","protocol":17,"map":"pl_upward","folder":"tf","game":"Team Fortress","app_id":440,"player_count":18,"max_players":24,"Bots":0,"server_type":"Dedicated","server_os":"Linux","password":true,"vac":true,"version":"7961495","steam_id":85568392924469986,"keywords":["nocrits","nodmgspread","payload","uncletopia"],"game_id":440,"stv_port":27016,"stv_name":"Uncletopia | Dallas | 1 | All Maps | STV","players":[{"user_id":564,"name":"dave","steam_id":76561198135961731,"connected_time":6087000000000,"state":"active","ping":51},{"user_id":613,"name":"Zetta","steam_id":76561198045710113,"connected_time":3207000000000,"state":"active","ping":77},{"user_id":636,"name":"Aviastur","steam_id":76561198066776250,"connected_time":1588000000000,"state":"active","ping":72},{"user_id":594,"name":"The Winter Medic","steam_id":76561198197112922,"connected_time":4028000000000,"state":"active","ping":89},{"user_id":614,"name":"Dragorf2010","steam_id":76561199238402270,"connected_time":3057000000000,"state":"active","ping":75},{"user_id":583,"name":"Lock'd","steam_id":76561198170108230,"connected_time":4578000000000,"state":"active","ping":59},{"user_id":631,"name":"tubby","steam_id":76561198174982661,"connected_time":2145000000000,"state":"active","ping":79},{"user_id":626,"name":"Coolcat","steam_id":76561198180933957,"connected_time":2430000000000,"state":"active","ping":50},{"user_id":589,"name":"Silverstar","steam_id":76561198399525329,"connected_time":4371000000000,"state":"active","ping":93},{"user_id":639,"name":"Meiji","steam_id":76561198971753591,"connected_time":898000000000,"state":"active","ping":87},{"user_id":620,"name":"socksa","steam_id":76561198108007896,"connected_time":2834000000000,"state":"active","ping":88},{"user_id":643,"name":"werecat","steam_id":76561198005091213,"connected_time":536000000000,"state":"active","ping":74},{"user_id":623,"name":"Bigburgers","steam_id":76561198165013808,"connected_time":2786000000000,"state":"active","ping":79},{"user_id":640,"name":"‚òÖTC2","steam_id":76561198026985346,"connected_time":877000000000,"state":"active","ping":74},{"user_id":575,"name":"ShamroknRoll","steam_id":76561198984165109,"connected_time":5242000000000,"state":"active","ping":85},{"user_id":637,"name":"Mr.President","steam_id":76561198971144834,"connected_time":1176000000000,"state":"active","ping":68},{"user_id":600,"name":"Alejandro","steam_id":76561197970051493,"connected_time":3885000000000,"state":"active","ping":111},{"user_id":641,"name":"Batso","steam_id":76561198106589452,"connected_time":846000000000,"state":"active","ping":82}]},{"server_id":108,"name":"Uncletopia | Dallas | 2 | All Maps","name_short":"dal-2","host":"dal-1.us.uncletopia.com","port":27025,"enabled":true,"region":"us-central","cc":"us","latitude":32.779167,"longitude":-96.80889,"reserved":0,"last_update":"0001-01-01T00:00:00Z","name_a2s":"Uncletopia | Dallas | 2 | All Maps","protocol":17,"map":"cp_metalworks","folder":"tf","game":"Team Fortress","app_id":440,"player_count":14,"max_players":24,"Bots":0,"server_type":"Dedicated","server_os":"Linux","password":true,"vac":true,"version":"7961495","steam_id":85568392924469988,"keywords":["cp","nocrits","nodmgspread","uncletopia"],"game_id":440,"stv_port":27026,"stv_name":"Uncletopia | Dallas | 2 | All Maps | STV","players":[{"user_id":729,"name":"Code","steam_id":76561198084509974,"connected_time":232000000000,"state":"active","ping":76},{"user_id":724,"name":"Goat","steam_id":76561198068447650,"connected_time":491000000000,"state":"active","ping":62},{"user_id":727,"name":"TheAsianMeatball","steam_id":76561198336926133,"connected_time":287000000000,"state":"active","ping":59},{"user_id":725,"name":"sheeesh","steam_id":76561198038080028,"connected_time":448000000000,"state":"active","ping":76},{"user_id":720,"name":"inhales watermelon","steam_id":76561198065318169,"connected_time":768000000000,"state":"active","ping":77},{"user_id":698,"name":"TheMiddler","steam_id":76561199254971843,"connected_time":2438000000000,"state":"active","ping":90},{"user_id":723,"name":"kennedy","steam_id":76561198304536343,"connected_time":635000000000,"state":"active","ping":61},{"user_id":728,"name":"jade","steam_id":76561198055611029,"connected_time":287000000000,"state":"active","ping":59},{"user_id":687,"name":"ihave80hp","steam_id":76561199251621911,"connected_time":3928000000000,"state":"active","ping":66},{"user_id":715,"name":"Acuzik","steam_id":76561198045453400,"connected_time":1346000000000,"state":"active","ping":61},{"user_id":704,"name":"swoozx","steam_id":76561198151583397,"connected_time":2124000000000,"state":"active","ping":66},{"user_id":712,"name":"remmy_se","steam_id":76561198841729555,"connected_time":1620000000000,"state":"active","ping":74},{"user_id":716,"name":"Braingoo Hex","steam_id":76561198083094783,"connected_time":1343000000000,"state":"active","ping":73},{"user_id":703,"name":"unlikelycure","steam_id":76561199174450788,"connected_time":2170000000000,"state":"active","ping":524}]},{"server_id":404,"name":"Uncletopia | Dallas | 3 | All Maps","name_short":"dal-3","host":"dal-1.us.uncletopia.com","port":27035,"enabled":true,"region":"us-central","cc":"us","latitude":32.779167,"longitude":-96.80889,"reserved":0,"last_update":"0001-01-01T00:00:00Z","name_a2s":"Uncletopia | Dallas | 3 | All Maps","protocol":17,"map":"pl_borneo","folder":"tf","game":"Team Fortress","app_id":440,"player_count":24,"max_players":24,"Bots":0,"server_type":"Dedicated","server_os":"Linux","password":true,"vac":true,"version":"7961495","steam_id":85568392924515219,"keywords":["nocrits","nodmgspread","payload","uncletopia"],"game_id":440,"stv_port":27036,"stv_name":"Uncletopia | Dallas | 3 | All Maps | STV","players":[{"user_id":538,"name":"zig","steam_id":76561199020345303,"connected_time":341000000000,"state":"active","ping":88},{"user_id":516,"name":"Brogu","steam_id":76561199254054428,"connected_time":1369000000000,"state":"active","ping":111},{"user_id":517,"name":"cajun thotsauce","steam_id":76561198101636066,"connected_time":1267000000000,"state":"active","ping":78},{"user_id":518,"name":"CheeseHead","steam_id":76561198353372150,"connected_time":1195000000000,"state":"active","ping":76},{"user_id":519,"name":"Greenman","steam_id":76561198236789422,"connected_time":1105000000000,"state":"active","ping":85},{"user_id":520,"name":"Franticraven177","steam_id":76561198334105579,"connected_time":1079000000000,"state":"active","ping":74},{"user_id":521,"name":"TallPrince","steam_id":76561198337065171,"connected_time":1055000000000,"state":"active","ping":105},{"user_id":522,"name":"lightaaa","steam_id":76561198335346271,"connected_time":976000000000,"state":"active","ping":193},{"user_id":536,"name":"Jauri","steam_id":76561197994448995,"connected_time":423000000000,"state":"active","ping":48},{"user_id":524,"name":"sleepy‚äπ","steam_id":76561199200969139,"connected_time":817000000000,"state":"active","ping":108},{"user_id":526,"name":"dave","steam_id":76561199000920577,"connected_time":789000000000,"state":"active","ping":56},{"user_id":539,"name":"skulm","steam_id":76561198189275735,"connected_time":310000000000,"state":"active","ping":93},{"user_id":528,"name":"Classythulhu","steam_id":76561198027717464,"connected_time":583000000000,"state":"active","ping":44},{"user_id":529,"name":"KennytheHedgehog","steam_id":76561198094607721,"connected_time":575000000000,"state":"active","ping":51},{"user_id":540,"name":"internet gnome","steam_id":76561198035392601,"connected_time":308000000000,"state":"active","ping":190},{"user_id":531,"name":"two-bit Thief","steam_id":76561199202681534,"connected_time":558000000000,"state":"active","ping":87},{"user_id":532,"name":"Cahootles","steam_id":76561198056407485,"connected_time":543000000000,"state":"active","ping":56},{"user_id":471,"name":"stuffedidiot","steam_id":76561199181513019,"connected_time":6262000000000,"state":"active","ping":105},{"user_id":472,"name":"Rat Smacker","steam_id":76561198043629646,"connected_time":6246000000000,"state":"active","ping":153},{"user_id":533,"name":"I am inside your home","steam_id":76561198083561382,"connected_time":538000000000,"state":"active","ping":86},{"user_id":485,"name":"Mug","steam_id":76561198000672907,"connected_time":5344000000000,"state":"active","ping":103},{"user_id":534,"name":"Owl","steam_id":76561198126595407,"connected_time":517000000000,"state":"active","ping":85},{"user_id":499,"name":"Holp","steam_id":76561199019186848,"connected_time":4818000000000,"state":"active","ping":83},{"user_id":544,"name":"PrinceBean","steam_id":76561199055077408,"connected_time":100000000000,"state":"active","ping":90}]},{"server_id":405,"name":"Uncletopia | Dallas | 4 | Community","name_short":"dal-4","host":"dal-1.us.uncletopia.com","port":27045,"enabled":true,"region":"us-central","cc":"us","latitude":32.779167,"longitude":-96.80889,"reserved":0,"last_update":"0001-01-01T00:00:00Z","name_a2s":"Uncletopia | Dallas | 4 | Community","protocol":17,"map":"workshop/koth_slaughter_rc1.ugc1712845210","folder":"tf","game":"Team Fortress","app_id":440,"player_count":0,"max_players":24,"Bots":0,"server_type":"Dedicated","server_os":"Linux","password":true,"vac":true,"version":"7961495","steam_id":85568392924515220,"keywords":["cp","nocrits","nodmgspread","uncletopia"],"game_id":440,"stv_port":27046,"stv_name":"Uncletopia | Dallas | 4 | Community | STV","players":null},{"server_id":5,"name":"Uncletopia | Frankfurt | 1 | All Maps","name_short":"frk-1","host":"frk-1.de.uncletopia.com","port":27015,"enabled":true,"region":"eu","cc":"de","latitude":50.110924,"longitude":8.682127,"reserved":0,"last_update":"0001-01-01T00:00:00Z","name_a2s":"Uncletopia | Frankfurt | 1 | All Maps","protocol":17,"map":"koth_highpass","folder":"tf","game":"Team Fortress","app_id":440,"player_count":0,"max_players":24,"Bots":0,"server_type":"Dedicated","server_os":"Linux","password":true,"vac":true,"version":"7961495","steam_id":85568392924469989,"keywords":["cp","nocrits","nodmgspread","uncletopia"],"game_id":440,"stv_port":27016,"stv_name":"Uncletopia | Frankfurt | 1 | All Maps | STV","players":null},{"server_id":110,"name":"Uncletopia | Frankfurt | 2 | All Maps","name_short":"frk-2","host":"frk-1.de.uncletopia.com","port":27025,"enabled":true,"region":"eu","cc":"de","latitude":50.110924,"longitude":8.682127,"reserved":0,"last_update":"0001-01-01T00:00:00Z","name_a2s":"Uncletopia | Frankfurt | 2 | All Maps","protocol":17,"map":"cp_dustbowl","folder":"tf","game":"Team Fortress","app_id":440,"player_count":0,"max_players":24,"Bots":0,"server_type":"Dedicated","server_os":"Linux","password":true,"vac":true,"version":"7961495","steam_id":85568392924469990,"keywords":["cp","nocrits","nodmgspread","uncletopia"],"game_id":440,"stv_port":27026,"stv_name":"Uncletopia | Frankfurt | 2 | All Maps | STV","players":null},{"server_id":308,"name":"Uncletopia | Frankfurt | 3 | All Maps","name_short":"frk-3","host":"frk-1.de.uncletopia.com","port":27035,"enabled":true,"region":"eu","cc":"de","latitude":50.110924,"longitude":8.682127,"reserved":0,"last_update":"0001-01-01T00:00:00Z","name_a2s":"Uncletopia | Frankfurt | 3 | All Maps","protocol":17,"map":"pl_barnblitz","folder":"tf","game":"Team Fortress","app_id":440,"player_count":0,"max_players":24,"Bots":0,"server_type":"Dedicated","server_os":"Linux","password":true,"vac":true,"version":"7961495","steam_id":85568392924504274,"keywords":["nocrits","nodmgspread","payload","uncletopia"],"game_id":440,"stv_port":27036,"stv_name":"Uncletopia | Frankfurt | 3 | All Maps | STV","players":null},{"server_id":309,"name":"Uncletopia | Frankfurt | 4 | All Maps","name_short":"frk-4","host":"frk-1.de.uncletopia.com","port":27045,"enabled":true,"region":"eu","cc":"de","latitude":50.110924,"longitude":8.682127,"reserved":0,"last_update":"0001-01-01T00:00:00Z","name_a2s":"Uncletopia | Frankfurt | 4 | All Maps","protocol":17,"map":"koth_highpass","folder":"tf","game":"Team Fortress","app_id":440,"player_count":0,"max_players":24,"Bots":0,"server_type":"Dedicated","server_os":"Linux","password":true,"vac":true,"version":"7961495","steam_id":85568392924504275,"keywords":["cp","nocrits","nodmgspread","uncletopia"],"game_id":440,"stv_port":27046,"stv_name":"Uncletopia | Frankfurt | 4 | All Maps | STV","players":null},{"server_id":310,"name":"Uncletopia | Frankfurt | 5 | All Maps","name_short":"frk-5","host":"frk-1.de.uncletopia.com","port":27055,"enabled":true,"region":"eu","cc":"de","latitude":50.110924,"longitude":8.682127,"reserved":0,"last_update":"0001-01-01T00:00:00Z","name_a2s":"Uncletopia | Frankfurt | 5 | All Maps","protocol":17,"map":"pl_badwater","folder":"tf","game":"Team Fortress","app_id":440,"player_count":0,"max_players":24,"Bots":0,"server_type":"Dedicated","server_os":"Linux","password":true,"vac":true,"version":"7961495","steam_id":85568392924504277,"keywords":["nocrits","nodmgspread","payload","uncletopia"],"game_id":440,"stv_port":27056,"stv_name":"Uncletopia | Frankfurt | 5 | All Maps | STV","players":null},{"server_id":311,"name":"Uncletopia | Frankfurt | 6 | All Maps","name_short":"frk-6","host":"frk-1.de.uncletopia.com","port":27065,"enabled":true,"region":"eu","cc":"de","latitude":50.110924,"longitude":8.682127,"reserved":0,"last_update":"0001-01-01T00:00:00Z","name_a2s":"Uncletopia | Frankfurt | 6 | All Maps","protocol":17,"map":"pl_pier","folder":"tf","game":"Team Fortress","app_id":440,"player_count":0,"max_players":24,"Bots":0,"server_type":"Dedicated","server_os":"Linux","password":true,"vac":true,"version":"7961495","steam_id":85568392924504278,"keywords":["nocrits","nodmgspread","payload","uncletopia"],"game_id":440,"stv_port":27066,"stv_name":"Uncletopia | Frankfurt | 6 | All Maps | STV","players":null},{"server_id":23,"name":"Uncletopia | Frankfurt | 7 | Stopwatch","name_short":"frk-7","host":"frk-1.de.uncletopia.com","port":27075,"enabled":true,"region":"eu","cc":"de","latitude":50.110924,"longitude":8.682127,"reserved":0,"last_update":"0001-01-01T00:00:00Z","name_a2s":"Uncletopia | Frankfurt | 7 | Stopwatch","protocol":17,"map":"pl_frontier_final","folder":"tf","game":"Team Fortress","app_id":440,"player_count":0,"max_players":24,"Bots":0,"server_type":"Dedicated","server_os":"Linux","password":true,"vac":true,"version":"7961495","steam_id":85568392924742827,"keywords":["nocrits","nodmgspread","payload","uncletopia"],"game_id":440,"stv_port":27076,"stv_name":"Uncletopia | Frankfurt | 7 | Stopwatch | STV","players":null},{"server_id":24,"name":"Uncletopia | Frankfurt | 8 | Community","name_short":"frk-8","host":"frk-1.de.uncletopia.com","port":27085,"enabled":true,"region":"eu","cc":"de","latitude":50.110924,"longitude":8.682127,"reserved":0,"last_update":"0001-01-01T00:00:00Z","name_a2s":"Uncletopia | Frankfurt | 8 | Community","protocol":17,"map":"cp_mountainlab","folder":"tf","game":"Team Fortress","app_id":440,"player_count":0,"max_players":24,"Bots":0,"server_type":"Dedicated","server_os":"Linux","password":true,"vac":true,"version":"7961495","steam_id":85568392924742828,"keywords":["cp","nocrits","nodmgspread","uncletopia"],"game_id":440,"stv_port":27086,"stv_name":"Uncletopia | Frankfurt | 8 | Community | STV","players":null},{"server_id":202,"name":"Uncletopia | Hong Kong | 1 | All Maps","name_short":"hgk-1","host":"hgk-1.hk.uncletopia.com","port":27015,"enabled":true,"region":"asia","cc":"hk","latitude":22.302711,"longitude":114.177216,"reserved":0,"last_update":"0001-01-01T00:00:00Z","name_a2s":"Uncletopia | Hong Kong | 1 | All Maps","protocol":17,"map":"pl_badwater","folder":"tf","game":"Team Fortress","app_id":440,"player_count":25,"max_players":24,"Bots":0,"server_type":"Dedicated","server_os":"Linux","password":true,"vac":true,"version":"7961495","steam_id":85568392924494504,"keywords":["nocrits","nodmgspread","payload","uncletopia"],"game_id":440,"stv_port":27016,"stv_name":"Uncletopia | Hong Kong | 1 | All Maps | STV","players":[{"user_id":262,"name":"‚òÖaÃ≤cÃ≤aÃ≤tÃ≤","steam_id":76561198334099003,"connected_time":476000000000,"state":"active","ping":131},{"user_id":191,"name":"Creaserg","steam_id":76561198827951097,"connected_time":2112000000000,"state":"active","ping":89},{"user_id":265,"name":"pyroman51","steam_id":76561198074339034,"connected_time":440000000000,"state":"active","ping":77},{"user_id":267,"name":"XxVoidGam3rxX","steam_id":76561199500403887,"connected_time":350000000000,"state":"active","ping":122},{"user_id":213,"name":"bob man bobby","steam_id":76561198096942095,"connected_time":912000000000,"state":"active","ping":128},{"user_id":144,"name":"In(e)","steam_id":76561198362097007,"connected_time":5041000000000,"state":"active","ping":58},{"user_id":271,"name":"Pain Ice","steam_id":76561199100912953,"connected_time":223000000000,"state":"active","ping":74},{"user_id":194,"name":"Spacedude877","steam_id":76561198363124915,"connected_time":1862000000000,"state":"active","ping":83},{"user_id":206,"name":"big beaver","steam_id":76561199219484527,"connected_time":1169000000000,"state":"active","ping":178},{"user_id":211,"name":"Joy in A Box","steam_id":76561198156820753,"connected_time":992000000000,"state":"active","ping":43},{"user_id":192,"name":"Telekhine","steam_id":76561198387120618,"connected_time":2018000000000,"state":"active","ping":61},{"user_id":204,"name":"a worm","steam_id":76561199042262110,"connected_time":1231000000000,"state":"active","ping":81},{"user_id":153,"name":"Lu ‚úø","steam_id":76561198320532821,"connected_time":4703000000000,"state":"active","ping":60},{"user_id":266,"name":"spinach (old mouse)","steam_id":76561198042539541,"connected_time":385000000000,"state":"active","ping":82},{"user_id":187,"name":"TheSimpLord","steam_id":76561199169274715,"connected_time":2553000000000,"state":"active","ping":80},{"user_id":280,"name":"Jeiloywhite","steam_id":76561198392226487,"connected_time":4000000000,"state":"spawning","ping":69},{"user_id":268,"name":"corpse_cadaver","steam_id":76561199225360457,"connected_time":342000000000,"state":"active","ping":79},{"user_id":137,"name":"beet juice","steam_id":76561198055553140,"connected_time":5968000000000,"state":"active","ping":78},{"user_id":273,"name":"Anna Jordan","steam_id":76561199401344657,"connected_time":171000000000,"state":"active","ping":152},{"user_id":170,"name":"Cheesey","steam_id":76561198975684137,"connected_time":3363000000000,"state":"active","ping":86},{"user_id":197,"name":"Lerroy","steam_id":76561199137927625,"connected_time":1647000000000,"state":"active","ping":97},{"user_id":260,"name":"Pillboi","steam_id":76561198011172886,"connected_time":502000000000,"state":"active","ping":44},{"user_id":172,"name":"UZ","steam_id":76561198179320563,"connected_time":3326000000000,"state":"active","ping":140},{"user_id":152,"name":"allah no.1, gambling no.2","steam_id":76561198113401862,"connected_time":4719000000000,"state":"active","ping":86},{"user_id":223,"name":"Hanta","steam_id":76561199031390218,"connected_time":752000000000,"state":"active","ping":172}]},{"server_id":1,"name":"Uncletopia | Los Angeles | 1 | All Maps","name_short":"lax-1","host":"lax-1.us.uncletopia.com","port":27015,"enabled":true,"region":"us-west","cc":"us","latitude":33.94279,"longitude":-118.41004,"reserved":0,"last_update":"0001-01-01T00:00:00Z","name_a2s":"Uncletopia | Los Angeles | 1 | All Maps","protocol":17,"map":"cp_snakewater_final1","folder":"tf","game":"Team Fortress","app_id":440,"player_count":22,"max_players":24,"Bots":0,"server_type":"Dedicated","server_os":"Linux","password":true,"vac":true,"version":"7961495","steam_id":85568392924469991,"keywords":["cp","nocrits","nodmgspread","uncletopia"],"game_id":440,"stv_port":27016,"stv_name":"Uncletopia | Los Angeles | 1 | All Maps | STV","players":[{"user_id":597,"name":"allahsdroptop","steam_id":76561198133195238,"connected_time":1896000000000,"state":"active","ping":163},{"user_id":596,"name":"Sleezy","steam_id":76561198839500707,"connected_time":1903000000000,"state":"active","ping":42},{"user_id":587,"name":"OniSlays","steam_id":76561198043875292,"connected_time":2447000000000,"state":"active","ping":66},{"user_id":609,"name":"soundcloud.com/cremexav","steam_id":76561198134544837,"connected_time":1022000000000,"state":"active","ping":46},{"user_id":577,"name":"erm what the scallop???","steam_id":76561198338610196,"connected_time":3088000000000,"state":"active","ping":71},{"user_id":598,"name":"MechanizedContortion","steam_id":76561199146092247,"connected_time":1849000000000,"state":"active","ping":224},{"user_id":615,"name":"jams","steam_id":76561198131701290,"connected_time":103000000000,"state":"active","ping":48},{"user_id":616,"name":"SamSmelly","steam_id":76561198045152184,"connected_time":52000000000,"state":"active","ping":46},{"user_id":610,"name":"triph","steam_id":76561198067196509,"connected_time":960000000000,"state":"active","ping":30},{"user_id":618,"name":"Fray","steam_id":76561198030141282,"connected_time":13000000000,"state":"spawning","ping":75},{"user_id":584,"name":"Zkyball","steam_id":76561198428206943,"connected_time":2696000000000,"state":"active","ping":69},{"user_id":617,"name":"R0KKSTAR","steam_id":76561198206177593,"connected_time":51000000000,"state":"active","ping":44},{"user_id":613,"name":"shakoiwa","steam_id":76561199059441773,"connected_time":660000000000,"state":"active","ping":84},{"user_id":594,"name":"lazy catboy","steam_id":76561198359994674,"connected_time":2011000000000,"state":"active","ping":112},{"user_id":612,"name":"dodecadron","steam_id":76561198027397222,"connected_time":756000000000,"state":"active","ping":90},{"user_id":574,"name":"HOG RIDER","steam_id":76561198298589502,"connected_time":3187000000000,"state":"active","ping":46},{"user_id":595,"name":"Crabohydrate","steam_id":76561198157019155,"connected_time":1994000000000,"state":"active","ping":94},{"user_id":614,"name":"Willow","steam_id":76561198045623200,"connected_time":235000000000,"state":"active","ping":77},{"user_id":608,"name":"New Reno","steam_id":76561198156522866,"connected_time":1202000000000,"state":"active","ping":122},{"user_id":605,"name":"a chicken","steam_id":76561198313121580,"connected_time":1638000000000,"state":"active","ping":45},{"user_id":611,"name":"EduardoLopez2005","steam_id":76561198188481309,"connected_time":911000000000,"state":"active","ping":66},{"user_id":607,"name":"Micro","steam_id":76561198319239296,"connected_time":1260000000000,"state":"active","ping":112}]},{"server_id":112,"name":"Uncletopia | Los Angeles | 2 | All Maps","name_short":"lax-2","host":"lax-1.us.uncletopia.com","port":27025,"enabled":true,"region":"us-west","cc":"us","latitude":33.94279,"longitude":-118.41004,"reserved":0,"last_update":"0001-01-01T00:00:00Z","name_a2s":"Uncletopia | Los Angeles | 2 | All Maps","protocol":17,"map":"pl_barnblitz","folder":"tf","game":"Team Fortress","app_id":440,"player_count":24,"max_players":24,"Bots":0,"server_type":"Dedicated","server_os":"Linux","password":true,"vac":true,"version":"7961495","steam_id":85568392924469992,"keywords":["nocrits","nodmgspread","payload","uncletopia"],"game_id":440,"stv_port":27026,"stv_name":"Uncletopia | Los Angeles | 2 | All Maps | STV","players":[{"user_id":306,"name":"Creature","steam_id":76561198194585781,"connected_time":3212000000000,"state":"active","ping":69},{"user_id":335,"name":"Limp Pumpo Discography Fan Club","steam_id":76561198145748479,"connected_time":962000000000,"state":"active","ping":76},{"user_id":307,"name":"Weed Dealer","steam_id":76561198418604400,"connected_time":3211000000000,"state":"active","ping":78},{"user_id":328,"name":"canadian birds","steam_id":76561198059466588,"connected_time":1305000000000,"state":"active","ping":103},{"user_id":349,"name":"bad spy player","steam_id":76561198873699671,"connected_time":230000000000,"state":"active","ping":81},{"user_id":321,"name":"TriggerPullPone","steam_id":76561198071789810,"connected_time":1824000000000,"state":"active","ping":34},{"user_id":341,"name":"Pablo.Gonzalez.2007","steam_id":76561199083115222,"connected_time":549000000000,"state":"active","ping":125},{"user_id":331,"name":"Lemonade Juice","steam_id":76561198402892608,"connected_time":1174000000000,"state":"active","ping":44},{"user_id":329,"name":"earthDF","steam_id":76561198026084025,"connected_time":1258000000000,"state":"active","ping":61},{"user_id":316,"name":"Claybae","steam_id":76561198064290179,"connected_time":2156000000000,"state":"active","ping":97},{"user_id":350,"name":"Drapph","steam_id":76561199384213314,"connected_time":4000000000,"state":"spawning","ping":85},{"user_id":342,"name":"pc15pdx","steam_id":76561198072638933,"connected_time":534000000000,"state":"active","ping":56},{"user_id":343,"name":"Ricochet Pro","steam_id":76561198005328215,"connected_time":515000000000,"state":"active","ping":63},{"user_id":299,"name":"Can You Feel It Mr.Krabs","steam_id":76561198128302414,"connected_time":4268000000000,"state":"active","ping":52},{"user_id":304,"name":"GoldtoothFour","steam_id":76561198055529332,"connected_time":3889000000000,"state":"active","ping":109},{"user_id":330,"name":"Sockbasket","steam_id":76561198043984271,"connected_time":1252000000000,"state":"active","ping":105},{"user_id":338,"name":"rmbl (fork eater)","steam_id":76561198150137369,"connected_time":856000000000,"state":"active","ping":57},{"user_id":333,"name":"Giddy","steam_id":76561198271951969,"connected_time":1044000000000,"state":"active","ping":60},{"user_id":346,"name":"Mr. Noodle","steam_id":76561198025280658,"connected_time":482000000000,"state":"active","ping":59},{"user_id":285,"name":"furry police","steam_id":76561198065662025,"connected_time":5596000000000,"state":"active","ping":59},{"user_id":282,"name":"Flerps","steam_id":76561197979279110,"connected_time":5699000000000,"state":"active","ping":33},{"user_id":347,"name":"fertile moist and well drained","steam_id":76561198031409921,"connected_time":439000000000,"state":"active","ping":56},{"user_id":337,"name":"moe","steam_id":76561198929586245,"connected_time":899000000000,"state":"active","ping":38},{"user_id":348,"name":"Matches_                       ","steam_id":76561198048925904,"connected_time":369000000000,"state":"active","ping":60}]},{"server_id":324,"name":"Uncletopia | Los Angeles | 3 | All Maps","name_short":"lax-3","host":"lax-1.us.uncletopia.com","port":27035,"enabled":true,"region":"us-west","cc":"us","latitude":33.94279,"longitude":-118.41004,"reserved":0,"last_update":"0001-01-01T00:00:00Z","name_a2s":"Uncletopia | Los Angeles | 3 | All Maps","protocol":17,"map":"pl_barnblitz","folder":"tf","game":"Team Fortress","app_id":440,"player_count":22,"max_players":24,"Bots":0,"server_type":"Dedicated","server_os":"Linux","password":true,"vac":true,"version":"7961495","steam_id":85568392924510198,"keywords":["nocrits","nodmgspread","payload","uncletopia"],"game_id":440,"stv_port":27036,"stv_name":"Uncletopia | Los Angeles | 3 | All Maps | STV","players":[{"user_id":471,"name":"Dr. Medicine","steam_id":76561198165309820,"connected_time":329000000000,"state":"active","ping":69},{"user_id":472,"name":"Ian","steam_id":76561198159334435,"connected_time":300000000000,"state":"active","ping":175},{"user_id":419,"name":"Phillip Jeffries","steam_id":76561198064052174,"connected_time":3186000000000,"state":"active","ping":119},{"user_id":474,"name":"Dongus","steam_id":76561197979056451,"connected_time":261000000000,"state":"active","ping":75},{"user_id":468,"name":"BreadGod","steam_id":76561198050665205,"connected_time":1015000000000,"state":"active","ping":113},{"user_id":416,"name":"self sufficient kitten","steam_id":76561197960592612,"connected_time":3241000000000,"state":"active","ping":74},{"user_id":458,"name":"Noscope","steam_id":76561198092017151,"connected_time":1352000000000,"state":"active","ping":85},{"user_id":475,"name":"Sleepy Bunny","steam_id":76561198069870490,"connected_time":211000000000,"state":"active","ping":73},{"user_id":476,"name":"dyson","steam_id":76561199081837220,"connected_time":125000000000,"state":"active","ping":94},{"user_id":431,"name":"Hydroxianchaos","steam_id":76561198043786828,"connected_time":2717000000000,"state":"active","ping":122},{"user_id":460,"name":"DWSkilltonTTV","steam_id":76561197967027880,"connected_time":1323000000000,"state":"active","ping":76},{"user_id":437,"name":"Stick","steam_id":76561198001509374,"connected_time":2319000000000,"state":"active","ping":72},{"user_id":477,"name":"poob","steam_id":76561198406728732,"connected_time":14000000000,"state":"active","ping":102},{"user_id":462,"name":"DW codeN1nj4","steam_id":76561198025558856,"connected_time":1313000000000,"state":"active","ping":95},{"user_id":463,"name":"IratePirate","steam_id":76561198055891451,"connected_time":1291000000000,"state":"active","ping":77},{"user_id":464,"name":"Gibus Man","steam_id":76561198257241062,"connected_time":1291000000000,"state":"active","ping":88},{"user_id":454,"name":"supcupman","steam_id":76561198051513866,"connected_time":1620000000000,"state":"active","ping":76},{"user_id":404,"name":"‚ù§ Ashley ‚ù§","steam_id":76561198056428303,"connected_time":4075000000000,"state":"active","ping":49},{"user_id":467,"name":"Skribbles","steam_id":76561198373073766,"connected_time":1172000000000,"state":"active","ping":62},{"user_id":345,"name":"Spread Joy, Not Hate","steam_id":76561198053117503,"connected_time":9178000000000,"state":"active","ping":91},{"user_id":466,"name":"Larry Ca√±onga","steam_id":76561198081053203,"connected_time":1262000000000,"state":"active","ping":73},{"user_id":470,"name":"LeagueofHobos","steam_id":76561198083271368,"connected_time":379000000000,"state":"active","ping":95}]},{"server_id":25,"name":"Uncletopia | Los Angeles | 4 | Stopwatch","name_short":"lax-4","host":"lax-1.us.uncletopia.com","port":27045,"enabled":true,"region":"us-west","cc":"us","latitude":33.94279,"longitude":-118.41004,"reserved":0,"last_update":"0001-01-01T00:00:00Z","name_a2s":"Uncletopia | Los Angeles | 4 | Stopwatch","protocol":17,"map":"koth_lakeside_final","folder":"tf","game":"Team Fortress","app_id":440,"player_count":0,"max_players":24,"Bots":0,"server_type":"Dedicated","server_os":"Linux","password":true,"vac":true,"version":"7961495","steam_id":85568392924510199,"keywords":["cp","nocrits","nodmgspread","uncletopia"],"game_id":440,"stv_port":27046,"stv_name":"Uncletopia | Los Angeles | 4 | Stopwatch | STV","players":null},{"server_id":11,"name":"Uncletopia | London | 1 | All Maps","name_short":"lon-1","host":"lon-1.uk.uncletopia.com","port":27015,"enabled":true,"region":"eu","cc":"gb","latitude":51.509865,"longitude":-0.118092,"reserved":0,"last_update":"0001-01-01T00:00:00Z","name_a2s":"Uncletopia | London | 1 | All Maps","protocol":17,"map":"koth_highpass","folder":"tf","game":"Team Fortress","app_id":440,"player_count":0,"max_players":24,"Bots":0,"server_type":"Dedicated","server_os":"Linux","password":true,"vac":true,"version":"7961495","steam_id":85568392924367362,"keywords":["cp","nocrits","nodmgspread","uncletopia"],"game_id":440,"stv_port":27016,"stv_name":"Uncletopia | London | 1 | All Maps | STV","players":null},{"server_id":114,"name":"Uncletopia | London | 2 | All Maps","name_short":"lon-2","host":"lon-1.uk.uncletopia.com","port":27025,"enabled":true,"region":"eu","cc":"gb","latitude":51.509865,"longitude":-0.118092,"reserved":0,"last_update":"0001-01-01T00:00:00Z","name_a2s":"Uncletopia | London | 2 | All Maps","protocol":17,"map":"koth_lakeside_final","folder":"tf","game":"Team Fortress","app_id":440,"player_count":16,"max_players":24,"Bots":0,"server_type":"Dedicated","server_os":"Linux","password":true,"vac":true,"version":"7961495","steam_id":85568392924470941,"keywords":["cp","nocrits","nodmgspread","uncletopia"],"game_id":440,"stv_port":27026,"stv_name":"Uncletopia | London | 2 | All Maps | STV","players":[{"user_id":25,"name":"stun","steam_id":76561198276681691,"connected_time":175000000000,"state":"active","ping":38},{"user_id":4,"name":"BEDA","steam_id":76561198277943630,"connected_time":855000000000,"state":"active","ping":75},{"user_id":14,"name":"Ember The Femboy","steam_id":76561198139630565,"connected_time":815000000000,"state":"active","ping":57},{"user_id":9,"name":"dron gandon","steam_id":76561198412922428,"connected_time":829000000000,"state":"active","ping":145},{"user_id":8,"name":"huggle's serbian war criminal","steam_id":76561198024743746,"connected_time":847000000000,"state":"active","ping":69},{"user_id":10,"name":"–¥–∏–ª–¥—é–∫","steam_id":76561198397720520,"connected_time":825000000000,"state":"active","ping":135},{"user_id":11,"name":"Nome","steam_id":76561198867982828,"connected_time":825000000000,"state":"active","ping":116},{"user_id":12,"name":"lawn","steam_id":76561198001243486,"connected_time":822000000000,"state":"active","ping":45},{"user_id":13,"name":"Exgone","steam_id":76561198296655773,"connected_time":820000000000,"state":"active","ping":65},{"user_id":15,"name":"Uncle Dane's Evil Twin","steam_id":76561198012410589,"connected_time":813000000000,"state":"active","ping":44},{"user_id":16,"name":"CRYPT WALK","steam_id":76561198121260981,"connected_time":813000000000,"state":"active","ping":44},{"user_id":19,"name":"Armolitskiy","steam_id":76561198443646513,"connected_time":799000000000,"state":"active","ping":125},{"user_id":23,"name":"TheFox.tf","steam_id":76561197996851702,"connected_time":500000000000,"state":"active","ping":60},{"user_id":24,"name":"Dot","steam_id":76561198047299145,"connected_time":412000000000,"state":"active","ping":89},{"user_id":21,"name":"Marcus","steam_id":76561198205027963,"connected_time":719000000000,"state":"active","ping":60},{"user_id":26,"name":"rat piss","steam_id":76561198969003413,"connected_time":29000000000,"state":"active","ping":46}]},{"server_id":320,"name":"Uncletopia | London | 3 | All Maps","name_short":"lon-3","host":"lon-1.uk.uncletopia.com","port":27035,"enabled":true,"region":"eu","cc":"gb","latitude":51.509865,"longitude":-0.118092,"reserved":0,"last_update":"0001-01-01T00:00:00Z","name_a2s":"Uncletopia | London | 3 | All Maps","protocol":17,"map":"cp_process_final","folder":"tf","game":"Team Fortress","app_id":440,"player_count":0,"max_players":24,"Bots":0,"server_type":"Dedicated","server_os":"Linux","password":true,"vac":true,"version":"7961495","steam_id":85568392924510192,"keywords":["cp","nocrits","nodmgspread","uncletopia"],"game_id":440,"stv_port":27036,"stv_name":"Uncletopia | London | 3 | All Maps | STV","players":null},{"server_id":321,"name":"Uncletopia | London | 4 | All Maps","name_short":"lon-4","host":"lon-1.uk.uncletopia.com","port":27045,"enabled":true,"region":"eu","cc":"gb","latitude":51.509865,"longitude":-0.118092,"reserved":0,"last_update":"0001-01-01T00:00:00Z","name_a2s":"Uncletopia | London | 4 | All Maps","protocol":17,"map":"koth_cascade","folder":"tf","game":"Team Fortress","app_id":440,"player_count":0,"max_players":24,"Bots":0,"server_type":"Dedicated","server_os":"Linux","password":true,"vac":true,"version":"7961495","steam_id":85568392924510193,"keywords":["cp","nocrits","nodmgspread","uncletopia"],"game_id":440,"stv_port":27046,"stv_name":"Uncletopia | London | 4 | All Maps | STV","players":null},{"server_id":21,"name":"Uncletopia | London | 5 | All Maps","name_short":"lon-5","host":"lon-1.uk.uncletopia.com","port":27055,"enabled":true,"region":"eu","cc":"gb","latitude":51.509865,"longitude":-0.118092,"reserved":0,"last_update":"0001-01-01T00:00:00Z","name_a2s":"Uncletopia | London | 5 | All Maps","protocol":17,"map":"koth_lakeside_final","folder":"tf","game":"Team Fortress","app_id":440,"player_count":0,"max_players":24,"Bots":0,"server_type":"Dedicated","server_os":"Linux","password":true,"vac":true,"version":"7961495","steam_id":85568392924742829,"keywords":["cp","nocrits","nodmgspread","uncletopia"],"game_id":440,"stv_port":27056,"stv_name":"Uncletopia | London | 5 | All Maps | STV","players":null},{"server_id":22,"name":"Uncletopia | London | 6 | All Maps","name_short":"lon-6","host":"lon-1.uk.uncletopia.com","port":27065,"enabled":true,"region":"eu","cc":"gb","latitude":51.509865,"longitude":-0.118092,"reserved":0,"last_update":"0001-01-01T00:00:00Z","name_a2s":"Uncletopia | London | 6 | All Maps","protocol":17,"map":"cp_dustbowl","folder":"tf","game":"Team Fortress","app_id":440,"player_count":0,"max_players":24,"Bots":0,"server_type":"Dedicated","server_os":"Linux","password":true,"vac":true,"version":"7961495","steam_id":85568392924742830,"keywords":["cp","nocrits","nodmgspread","uncletopia"],"game_id":440,"stv_port":27066,"stv_name":"Uncletopia | London | 6 | All Maps | STV","players":null},{"server_id":40,"name":"Uncletopia | London | 7 | Stopwatch","name_short":"lon-7","host":"lon-1.uk.uncletopia.com","port":27075,"enabled":true,"region":"eu","cc":"gb","latitude":51.509865,"longitude":-0.118092,"reserved":0,"last_update":"0001-01-01T00:00:00Z","name_a2s":"Uncletopia | London | 7 | Stopwatch","protocol":17,"map":"koth_lakeside_final","folder":"tf","game":"Team Fortress","app_id":440,"player_count":0,"max_players":24,"Bots":0,"server_type":"Dedicated","server_os":"Linux","password":true,"vac":true,"version":"7961495","steam_id":85568392924964314,"keywords":["cp","nocrits","nodmgspread","uncletopia"],"game_id":440,"stv_port":27076,"stv_name":"Uncletopia | London | 7 | Stopwatch | STV","players":null},{"server_id":41,"name":"Uncletopia | London | 8 | Community","name_short":"lon-8","host":"lon-1.uk.uncletopia.com","port":27085,"enabled":true,"region":"eu","cc":"gb","latitude":51.509865,"longitude":-0.118092,"reserved":0,"last_update":"0001-01-01T00:00:00Z","name_a2s":"Uncletopia | London | 8 | Community","protocol":17,"map":"cp_snakewater_final1","folder":"tf","game":"Team Fortress","app_id":440,"player_count":0,"max_players":24,"Bots":0,"server_type":"Dedicated","server_os":"Linux","password":true,"vac":true,"version":"7961495","steam_id":85568392924964315,"keywords":["cp","nocrits","nodmgspread","uncletopia"],"game_id":440,"stv_port":27086,"stv_name":"Uncletopia | London | 8 | Community | STV","players":null},{"server_id":300,"name":"Uncletopia | Montr√©al | 1 | One Thousand Uncles","name_short":"mtl-1","host":"mtl-1.ca.uncletopia.com","port":27015,"enabled":true,"region":"us-east","cc":"ca","latitude":45.50889,"longitude":-73.56167,"reserved":0,"last_update":"0001-01-01T00:00:00Z","name_a2s":"","protocol":0,"map":"","folder":"","game":"","app_id":0,"player_count":4,"max_players":0,"Bots":0,"server_type":"","server_os":"","password":false,"vac":false,"version":"","steam_id":0,"keywords":null,"game_id":0,"stv_port":0,"stv_name":"","players":[{"user_id":462,"name":"Mr.Kingboo","steam_id":76561198141543180,"connected_time":6285000000000,"state":"active","ping":66},{"user_id":463,"name":"Markus Velafi","steam_id":76561198063193924,"connected_time":6259000000000,"state":"active","ping":48},{"user_id":464,"name":"James Theory","steam_id":76561198070605795,"connected_time":6247000000000,"state":"active","ping":69},{"user_id":483,"name":"Im Groot","steam_id":76561198294943420,"connected_time":3716000000000,"state":"active","ping":77}]},{"server_id":301,"name":"Uncletopia | Montr√©al | 2 | One Thousand Uncles","name_short":"mtl-2","host":"mtl-1.ca.uncletopia.com","port":27025,"enabled":true,"region":"us-east","cc":"ca","latitude":45.50889,"longitude":-73.56167,"reserved":0,"last_update":"0001-01-01T00:00:00Z","name_a2s":"","protocol":0,"map":"","folder":"","game":"","app_id":0,"player_count":1,"max_players":0,"Bots":0,"server_type":"","server_os":"","password":false,"vac":false,"version":"","steam_id":0,"keywords":null,"game_id":0,"stv_port":0,"stv_name":"","players":[{"user_id":81,"name":"Holiday Fartcruise","steam_id":76561198043851584,"connected_time":648000000000,"state":"active","ping":122}]},{"server_id":302,"name":"Uncletopia | Montr√©al | 3 | One Thousand Uncles","name_short":"mtl-3","host":"mtl-1.ca.uncletopia.com","port":27035,"enabled":true,"region":"us-east","cc":"ca","latitude":45.50889,"longitude":-73.56167,"reserved":0,"last_update":"0001-01-01T00:00:00Z","name_a2s":"","protocol":0,"map":"","folder":"","game":"","app_id":0,"player_count":2,"max_players":0,"Bots":0,"server_type":"","server_os":"","password":false,"vac":false,"version":"","steam_id":0,"keywords":null,"game_id":0,"stv_port":0,"stv_name":"","players":[{"user_id":644,"name":"Girl who stinks good","steam_id":76561198195512819,"connected_time":8584000000000,"state":"active","ping":110},{"user_id":674,"name":"Emiza","steam_id":76561198120524962,"connected_time":4061000000000,"state":"active","ping":150}]},{"server_id":13,"name":"Uncletopia | New York City | 1 | All Maps","name_short":"nyc-1","host":"nyc-1.us.uncletopia.com","port":27015,"enabled":true,"region":"us-east","cc":"us","latitude":40.73061,"longitude":-73.93524,"reserved":0,"last_update":"0001-01-01T00:00:00Z","name_a2s":"Uncletopia | New York City | 1 | All Maps","protocol":17,"map":"koth_lakeside_final","folder":"tf","game":"Team Fortress","app_id":440,"player_count":0,"max_players":24,"Bots":0,"server_type":"Dedicated","server_os":"Linux","password":true,"vac":true,"version":"7961495","steam_id":85568392924469993,"keywords":["cp","nocrits","nodmgspread","uncletopia"],"game_id":440,"stv_port":27016,"stv_name":"Uncletopia | New York City | 1 | All Maps | STV","players":null},{"server_id":14,"name":"Uncletopia | New York City | 2 | All Maps","name_short":"nyc-2","host":"nyc-1.us.uncletopia.com","port":27025,"enabled":true,"region":"us-east","cc":"us","latitude":40.73061,"longitude":-73.93524,"reserved":0,"last_update":"0001-01-01T00:00:00Z","name_a2s":"Uncletopia | New York City | 2 | All Maps","protocol":17,"map":"cp_mountainlab","folder":"tf","game":"Team Fortress","app_id":440,"player_count":24,"max_players":24,"Bots":0,"server_type":"Dedicated","server_os":"Linux","password":true,"vac":true,"version":"7961495","steam_id":85568392924469994,"keywords":["cp","nocrits","nodmgspread","uncletopia"],"game_id":440,"stv_port":27026,"stv_name":"Uncletopia | New York City | 2 | All Maps | STV","players":[{"user_id":726,"name":"Zerg","steam_id":76561198334336702,"connected_time":2299000000000,"state":"active","ping":49},{"user_id":748,"name":"Hazi","steam_id":76561198066844855,"connected_time":539000000000,"state":"active","ping":78},{"user_id":706,"name":"Fluffeline","steam_id":76561198352909489,"connected_time":4527000000000,"state":"active","ping":144},{"user_id":711,"name":"Gibusize","steam_id":76561198081758770,"connected_time":3847000000000,"state":"active","ping":66},{"user_id":725,"name":"Terror-Billy #SaveTF2","steam_id":76561198328141870,"connected_time":2316000000000,"state":"active","ping":68},{"user_id":705,"name":"Ceige LFT","steam_id":76561198068538473,"connected_time":4587000000000,"state":"active","ping":92},{"user_id":734,"name":"Baron von Whoopsie","steam_id":76561197996691013,"connected_time":2126000000000,"state":"active","ping":62},{"user_id":757,"name":"I'mWillow","steam_id":76561198229691912,"connected_time":85000000000,"state":"active","ping":49},{"user_id":739,"name":"PackingPeanutt :]","steam_id":76561199053229413,"connected_time":1611000000000,"state":"active","ping":84},{"user_id":749,"name":"Sicko Mode (Chris Pratt Cover)","steam_id":76561198315786174,"connected_time":469000000000,"state":"active","ping":61},{"user_id":729,"name":"DiscoTraveler","steam_id":76561199240168088,"connected_time":2209000000000,"state":"active","ping":52},{"user_id":730,"name":"dog","steam_id":76561198263873491,"connected_time":2201000000000,"state":"active","ping":60},{"user_id":745,"name":"Blade Racer","steam_id":76561198155896703,"connected_time":611000000000,"state":"active","ping":52},{"user_id":699,"name":"ndvr","steam_id":76561199379200102,"connected_time":5182000000000,"state":"active","ping":53},{"user_id":746,"name":"Gentoo Linux Gaming","steam_id":76561197999657118,"connected_time":605000000000,"state":"active","ping":70},{"user_id":675,"name":"Wique","steam_id":76561198071217597,"connected_time":7232000000000,"state":"active","ping":75},{"user_id":659,"name":"MAXIMUS","steam_id":76561198085809453,"connected_time":8269000000000,"state":"active","ping":82},{"user_id":750,"name":"Havok","steam_id":76561198063455003,"connected_time":409000000000,"state":"active","ping":57},{"user_id":751,"name":"SubZeroDestruction","steam_id":76561198145082209,"connected_time":383000000000,"state":"active","ping":46},{"user_id":741,"name":"HAWK_6155","steam_id":76561198085696816,"connected_time":1235000000000,"state":"active","ping":68},{"user_id":752,"name":"ChaoticBunnyBrim","steam_id":76561198067650229,"connected_time":360000000000,"state":"active","ping":128},{"user_id":753,"name":"ShadowBolt","steam_id":76561198061610985,"connected_time":358000000000,"state":"active","ping":85},{"user_id":754,"name":"‚ù§Addy‚ù§","steam_id":76561199153405603,"connected_time":350000000000,"state":"active","ping":101},{"user_id":755,"name":"Steve (from Minecraft)","steam_id":76561198232026076,"connected_time":334000000000,"state":"active","ping":69}]},{"server_id":15,"name":"Uncletopia | New York City | 3 | Stopwatch","name_short":"nyc-3","host":"nyc-1.us.uncletopia.com","port":27035,"enabled":true,"region":"us-east","cc":"us","latitude":40.73061,"longitude":-73.93524,"reserved":0,"last_update":"0001-01-01T00:00:00Z","name_a2s":"Uncletopia | New York City | 3 | Stopwatch","protocol":17,"map":"workshop/pl_barnblitz_pro7.ugc582280235","folder":"tf","game":"Team Fortress","app_id":440,"player_count":0,"max_players":24,"Bots":0,"server_type":"Dedicated","server_os":"Linux","password":true,"vac":true,"version":"7961495","steam_id":85568392924742820,"keywords":["nocrits","nodmgspread","payload","uncletopia"],"game_id":440,"stv_port":27036,"stv_name":"Uncletopia | New York City | 3 | Stopwatch | STV","players":null},{"server_id":16,"name":"Uncletopia | New York City | 4 | Community","name_short":"nyc-4","host":"nyc-1.us.uncletopia.com","port":27045,"enabled":true,"region":"us-east","cc":"us","latitude":40.73061,"longitude":-73.93524,"reserved":0,"last_update":"0001-01-01T00:00:00Z","name_a2s":"Uncletopia | New York City | 4 | Community","protocol":17,"map":"workshop/koth_synthetic_rc6a.ugc1549817316","folder":"tf","game":"Team Fortress","app_id":440,"player_count":0,"max_players":24,"Bots":0,"server_type":"Dedicated","server_os":"Linux","password":true,"vac":true,"version":"7961495","steam_id":85568392924742821,"keywords":["cp","nocrits","nodmgspread","uncletopia"],"game_id":440,"stv_port":27046,"stv_name":"Uncletopia | New York City | 4 | Community | STV","players":null},{"server_id":142,"name":"Uncletopia | S√£o Paulo | 1 | All Maps","name_short":"sao-1","host":"sao-1.br.uncletopia.com","port":27015,"enabled":true,"region":"sa","cc":"br","latitude":-23.533773,"longitude":-46.62529,"reserved":0,"last_update":"0001-01-01T00:00:00Z","name_a2s":"Uncletopia | S√£o Paulo | 1 | All Maps","protocol":17,"map":"koth_viaduct","folder":"tf","game":"Team Fortress","app_id":440,"player_count":0,"max_players":24,"Bots":0,"server_type":"Dedicated","server_os":"Linux","password":true,"vac":true,"version":"7961495","steam_id":85568392924469996,"keywords":["cp","nocrits","nodmgspread","uncletopia"],"game_id":440,"stv_port":27016,"stv_name":"Uncletopia | S√£o Paulo | 1 | All Maps | STV","players":null},{"server_id":143,"name":"Uncletopia | S√£o Paulo | 2 | Community","name_short":"sao-2","host":"sao-2.br.uncletopia.com","port":27015,"enabled":true,"region":"sa","cc":"br","latitude":-23.533773,"longitude":-46.62529,"reserved":0,"last_update":"0001-01-01T00:00:00Z","name_a2s":"Uncletopia | S√£o Paulo | 2 | Community","protocol":17,"map":"workshop/cp_hazyfort_rc6.ugc1365963729","folder":"tf","game":"Team Fortress","app_id":440,"player_count":0,"max_players":24,"Bots":0,"server_type":"Dedicated","server_os":"Linux","password":true,"vac":true,"version":"7961495","steam_id":85568392924485349,"keywords":["cp","nocrits","nodmgspread","uncletopia"],"game_id":440,"stv_port":27016,"stv_name":"Uncletopia | S√£o Paulo | 2 | Community | STV","players":null},{"server_id":7,"name":"Uncletopia | Seattle | 1 | All Maps","name_short":"sea-1","host":"sea-1.us.uncletopia.com","port":27015,"enabled":true,"region":"us-west","cc":"us","latitude":47.608013,"longitude":-122.33517,"reserved":0,"last_update":"0001-01-01T00:00:00Z","name_a2s":"Uncletopia | Seattle | 1 | All Maps","protocol":17,"map":"pl_upward","folder":"tf","game":"Team Fortress","app_id":440,"player_count":24,"max_players":24,"Bots":0,"server_type":"Dedicated","server_os":"Linux","password":true,"vac":true,"version":"7961495","steam_id":85568392924469997,"keywords":["nocrits","nodmgspread","payload","uncletopia"],"game_id":440,"stv_port":27016,"stv_name":"Uncletopia | Seattle | 1 | All Maps | STV","players":[{"user_id":513,"name":"mega","steam_id":76561198089520959,"connected_time":3791000000000,"state":"active","ping":94},{"user_id":472,"name":"fungi","steam_id":76561198169755734,"connected_time":5983000000000,"state":"active","ping":65},{"user_id":531,"name":"hazel","steam_id":76561198037292232,"connected_time":1686000000000,"state":"active","ping":119},{"user_id":515,"name":"R5-D4","steam_id":76561198025196439,"connected_time":3788000000000,"state":"active","ping":45},{"user_id":541,"name":"jorts","steam_id":76561199041179985,"connected_time":1309000000000,"state":"active","ping":58},{"user_id":497,"name":"spenca","steam_id":76561198025371154,"connected_time":5274000000000,"state":"active","ping":62},{"user_id":530,"name":"Havi","steam_id":76561198197832829,"connected_time":1875000000000,"state":"active","ping":45},{"user_id":498,"name":"soup","steam_id":76561198043209046,"connected_time":5083000000000,"state":"active","ping":69},{"user_id":487,"name":"Drone #0432 (they/it)","steam_id":76561198027321950,"connected_time":5862000000000,"state":"active","ping":39},{"user_id":534,"name":"Tyth","steam_id":76561198062543298,"connected_time":1427000000000,"state":"active","ping":44},{"user_id":514,"name":"blinkerton city","steam_id":76561198054270410,"connected_time":3791000000000,"state":"active","ping":55},{"user_id":492,"name":"Necronics","steam_id":76561198072673123,"connected_time":5670000000000,"state":"active","ping":59},{"user_id":535,"name":"NEBULA","steam_id":76561198086878595,"connected_time":1426000000000,"state":"active","ping":69},{"user_id":543,"name":"Sweets","steam_id":76561198998446307,"connected_time":377000000000,"state":"active","ping":61},{"user_id":533,"name":"[COS]SonneyDonkeh","steam_id":76561198091284496,"connected_time":1557000000000,"state":"active","ping":66},{"user_id":521,"name":"Sniff","steam_id":76561198010270922,"connected_time":2660000000000,"state":"active","ping":55},{"user_id":538,"name":"An Old Lady","steam_id":76561198047480318,"connected_time":1421000000000,"state":"active","ping":55},{"user_id":540,"name":"rushy :))","steam_id":76561198065825165,"connected_time":1366000000000,"state":"active","ping":99},{"user_id":506,"name":"Level 99 Mudcrab","steam_id":76561198077452771,"connected_time":4148000000000,"state":"active","ping":57},{"user_id":526,"name":"Gm_Sweet","steam_id":76561199445091548,"connected_time":2228000000000,"state":"active","ping":59},{"user_id":455,"name":"cheesebro","steam_id":76561198002072852,"connected_time":8079000000000,"state":"active","ping":72},{"user_id":504,"name":"thunderous prophet","steam_id":76561198131166135,"connected_time":4194000000000,"state":"active","ping":41},{"user_id":478,"name":"Be Gay, Do Crimes, Smoke Weed!","steam_id":76561198092419868,"connected_time":5977000000000,"state":"active","ping":87},{"user_id":539,"name":"scottymack","steam_id":76561198322671574,"connected_time":1421000000000,"state":"active","ping":114}]},{"server_id":119,"name":"Uncletopia | Seattle | 2 | All Maps","name_short":"sea-2","host":"sea-1.us.uncletopia.com","port":27025,"enabled":true,"region":"us-west","cc":"us","latitude":47.608013,"longitude":-122.33517,"reserved":0,"last_update":"0001-01-01T00:00:00Z","name_a2s":"Uncletopia | Seattle | 2 | All Maps","protocol":17,"map":"pl_borneo","folder":"tf","game":"Team Fortress","app_id":440,"player_count":23,"max_players":24,"Bots":0,"server_type":"Dedicated","server_os":"Linux","password":true,"vac":true,"version":"7961495","steam_id":85568392924469998,"keywords":["nocrits","nodmgspread","payload","uncletopia"],"game_id":440,"stv_port":27026,"stv_name":"Uncletopia | Seattle | 2 | All Maps | STV","players":[{"user_id":468,"name":"vacachimuela","steam_id":76561198297332421,"connected_time":2123000000000,"state":"active","ping":69},{"user_id":488,"name":"dragonskull122","steam_id":76561198996268558,"connected_time":890000000000,"state":"active","ping":45},{"user_id":471,"name":"Jimmy","steam_id":76561198059948196,"connected_time":2046000000000,"state":"active","ping":60},{"user_id":472,"name":"Stock Dog","steam_id":76561198070469034,"connected_time":2038000000000,"state":"active","ping":64},{"user_id":406,"name":"BradB.","steam_id":76561199163905036,"connected_time":7207000000000,"state":"active","ping":118},{"user_id":491,"name":"panda","steam_id":76561198025214612,"connected_time":611000000000,"state":"active","ping":36},{"user_id":483,"name":"sillymoder2005","steam_id":76561198202235495,"connected_time":1080000000000,"state":"active","ping":36},{"user_id":497,"name":"IBadLlama","steam_id":76561199188220675,"connected_time":51000000000,"state":"active","ping":122},{"user_id":492,"name":"vulture pupy","steam_id":76561198061963965,"connected_time":542000000000,"state":"active","ping":51},{"user_id":493,"name":"Beef","steam_id":76561198082238388,"connected_time":498000000000,"state":"active","ping":48},{"user_id":494,"name":"albert581_gaming","steam_id":76561198219209367,"connected_time":433000000000,"state":"active","ping":59},{"user_id":455,"name":"S Q U I S H E  T H A T  C A T","steam_id":76561198293865429,"connected_time":3126000000000,"state":"active","ping":31},{"user_id":452,"name":"God's Goofiest Goober","steam_id":76561197991015780,"connected_time":3611000000000,"state":"active","ping":70},{"user_id":359,"name":"Trouser Snivy","steam_id":76561198073788829,"connected_time":9905000000000,"state":"active","ping":59},{"user_id":487,"name":"elephant thumb","steam_id":76561198118859752,"connected_time":946000000000,"state":"active","ping":73},{"user_id":463,"name":"krootonitron","steam_id":76561198114113037,"connected_time":2785000000000,"state":"active","ping":54},{"user_id":495,"name":"Master Oogway","steam_id":76561198252199106,"connected_time":385000000000,"state":"active","ping":119},{"user_id":496,"name":"Rafl","steam_id":76561198055222756,"connected_time":180000000000,"state":"active","ping":103},{"user_id":462,"name":"weegeebad","steam_id":76561198280841437,"connected_time":2849000000000,"state":"active","ping":94},{"user_id":459,"name":"yoingle spoingle","steam_id":76561198336684715,"connected_time":2989000000000,"state":"active","ping":105},{"user_id":477,"name":"Villchip","steam_id":76561198198599982,"connected_time":1772000000000,"state":"active","ping":46},{"user_id":476,"name":"RoseaVenefica","steam_id":76561198020660560,"connected_time":2002000000000,"state":"active","ping":90},{"user_id":454,"name":"THAT CAT","steam_id":76561198010828625,"connected_time":3137000000000,"state":"active","ping":36}]},{"server_id":406,"name":"Uncletopia | Seattle | 3 | Stopwatch","name_short":"sea-3","host":"sea-1.us.uncletopia.com","port":27035,"enabled":true,"region":"us-west","cc":"us","latitude":47.608013,"longitude":-122.33517,"reserved":0,"last_update":"0001-01-01T00:00:00Z","name_a2s":"Uncletopia | Seattle | 3 | Stopwatch","protocol":17,"map":"workshop/koth_product_final.ugc454272353","folder":"tf","game":"Team Fortress","app_id":440,"player_count":0,"max_players":24,"Bots":0,"server_type":"Dedicated","server_os":"Linux","password":true,"vac":true,"version":"7961495","steam_id":85568392924515217,"keywords":["cp","nocrits","nodmgspread","uncletopia"],"game_id":440,"stv_port":27036,"stv_name":"Uncletopia | Seattle | 3 | Stopwatch | STV","players":null},{"server_id":17,"name":"Uncletopia | San Francisco | 1 | All Maps","name_short":"sfo-1","host":"sfo-1.us.uncletopia.com","port":27015,"enabled":true,"region":"us-west","cc":"us","latitude":37.77397,"longitude":-122.4313,"reserved":0,"last_update":"0001-01-01T00:00:00Z","name_a2s":"Uncletopia | San Francisco | 1 | All Maps","protocol":17,"map":"cp_coldfront","folder":"tf","game":"Team Fortress","app_id":440,"player_count":21,"max_players":24,"Bots":0,"server_type":"Dedicated","server_os":"Linux","password":true,"vac":true,"version":"7961495","steam_id":85568392924469999,"keywords":["cp","nocrits","nodmgspread","uncletopia"],"game_id":440,"stv_port":27016,"stv_name":"Uncletopia | San Francisco | 1 | All Maps | STV","players":[{"user_id":317,"name":"Vv","steam_id":76561199052196750,"connected_time":1895000000000,"state":"active","ping":82},{"user_id":328,"name":"5oc","steam_id":76561199196300397,"connected_time":1100000000000,"state":"active","ping":71},{"user_id":329,"name":"Dickride Gaming","steam_id":76561198169915227,"connected_time":1048000000000,"state":"active","ping":53},{"user_id":309,"name":"Brando","steam_id":76561198078306678,"connected_time":2587000000000,"state":"active","ping":69},{"user_id":299,"name":"Username","steam_id":76561198198918781,"connected_time":3418000000000,"state":"active","ping":70},{"user_id":200,"name":"AstroRips","steam_id":76561198827617571,"connected_time":12556000000000,"state":"active","ping":74},{"user_id":337,"name":"Crylec","steam_id":76561198092755279,"connected_time":52000000000,"state":"active","ping":119},{"user_id":252,"name":"Lickity Split","steam_id":76561198132051047,"connected_time":8932000000000,"state":"active","ping":81},{"user_id":331,"name":"ohnocringe","steam_id":76561199381232082,"connected_time":829000000000,"state":"active","ping":100},{"user_id":332,"name":"Krack Crabs","steam_id":76561199091315615,"connected_time":777000000000,"state":"active","ping":80},{"user_id":326,"name":"Medi","steam_id":76561198160010984,"connected_time":1178000000000,"state":"active","ping":112},{"user_id":195,"name":"Mom","steam_id":76561198207936000,"connected_time":12641000000000,"state":"active","ping":32},{"user_id":333,"name":"Shabooyaroll-call","steam_id":76561198112306237,"connected_time":681000000000,"state":"active","ping":69},{"user_id":315,"name":"Adalbern","steam_id":76561197991785034,"connected_time":2140000000000,"state":"active","ping":62},{"user_id":324,"name":"Xanathar","steam_id":76561197985749277,"connected_time":1387000000000,"state":"active","ping":65},{"user_id":322,"name":"PizzaFratello","steam_id":76561199059951970,"connected_time":1536000000000,"state":"active","ping":93},{"user_id":262,"name":"Sleuth","steam_id":76561198418288939,"connected_time":8081000000000,"state":"active","ping":82},{"user_id":308,"name":"Toomander","steam_id":76561199050150834,"connected_time":2823000000000,"state":"active","ping":65},{"user_id":316,"name":"Ilban","steam_id":76561197992559225,"connected_time":2127000000000,"state":"active","ping":70},{"user_id":334,"name":"Ka1","steam_id":76561198165446906,"connected_time":583000000000,"state":"active","ping":126},{"user_id":271,"name":"Dagoth Ur","steam_id":76561198115714484,"connected_time":6471000000000,"state":"active","ping":89}]},{"server_id":18,"name":"Uncletopia | San Francisco | 2 | All Maps","name_short":"sfo-2","host":"sfo-1.us.uncletopia.com","port":27025,"enabled":true,"region":"us-west","cc":"us","latitude":37.77397,"longitude":-122.4313,"reserved":0,"last_update":"0001-01-01T00:00:00Z","name_a2s":"Uncletopia | San Francisco | 2 | All Maps","protocol":17,"map":"cp_dustbowl","folder":"tf","game":"Team Fortress","app_id":440,"player_count":22,"max_players":24,"Bots":0,"server_type":"Dedicated","server_os":"Linux","password":true,"vac":true,"version":"7961495","steam_id":85568392924470000,"keywords":["cp","nocrits","nodmgspread","uncletopia"],"game_id":440,"stv_port":27026,"stv_name":"Uncletopia | San Francisco | 2 | All Maps | STV","players":[{"user_id":506,"name":"Dog","steam_id":76561198041841128,"connected_time":2000000000,"state":"spawning","ping":57},{"user_id":488,"name":"finland","steam_id":76561198041820125,"connected_time":1345000000000,"state":"active","ping":73},{"user_id":477,"name":"a familiar cat","steam_id":76561198080046542,"connected_time":2215000000000,"state":"active","ping":61},{"user_id":483,"name":"mafia is mafia","steam_id":76561198042574722,"connected_time":1593000000000,"state":"active","ping":72},{"user_id":482,"name":"Riah!!","steam_id":76561198147205390,"connected_time":1635000000000,"state":"active","ping":60},{"user_id":480,"name":"Daz","steam_id":76561198041431938,"connected_time":1895000000000,"state":"active","ping":66},{"user_id":481,"name":"miguelrodriguez2013","steam_id":76561198269253587,"connected_time":1798000000000,"state":"active","ping":46},{"user_id":484,"name":"Amethyst212","steam_id":76561198797600530,"connected_time":1578000000000,"state":"active","ping":65},{"user_id":500,"name":"Ssamjang","steam_id":76561197966891870,"connected_time":823000000000,"state":"active","ping":69},{"user_id":486,"name":"Tarruin","steam_id":76561198009677876,"connected_time":1362000000000,"state":"active","ping":114},{"user_id":499,"name":"Taskrabbits","steam_id":76561198366682546,"connected_time":845000000000,"state":"active","ping":141},{"user_id":489,"name":"Wolf401","steam_id":76561198800504620,"connected_time":1337000000000,"state":"active","ping":96},{"user_id":504,"name":"shoobs","steam_id":76561198042507255,"connected_time":272000000000,"state":"active","ping":95},{"user_id":491,"name":"Ruckminn","steam_id":76561198040779297,"connected_time":1291000000000,"state":"active","ping":80},{"user_id":493,"name":"TaruTwist","steam_id":76561198831359905,"connected_time":1215000000000,"state":"active","ping":79},{"user_id":502,"name":"marty","steam_id":76561198032782746,"connected_time":553000000000,"state":"active","ping":49},{"user_id":496,"name":"TheTalentlessChicken","steam_id":76561198148390834,"connected_time":973000000000,"state":"active","ping":63},{"user_id":455,"name":"SanitysEdge","steam_id":76561198130732813,"connected_time":4650000000000,"state":"active","ping":50},{"user_id":497,"name":"resh","steam_id":76561198239598834,"connected_time":915000000000,"state":"active","ping":111},{"user_id":469,"name":"Windows Vista Home Premium","steam_id":76561198043764863,"connected_time":3390000000000,"state":"active","ping":62},{"user_id":498,"name":"FI LO","steam_id":76561198976530881,"connected_time":893000000000,"state":"active","ping":45},{"user_id":503,"name":"Gary Sinfeld","steam_id":76561198042274074,"connected_time":456000000000,"state":"active","ping":72}]},{"server_id":19,"name":"Uncletopia | San Francisco | 3 | Stopwatch","name_short":"sfo-3","host":"sfo-1.us.uncletopia.com","port":27035,"enabled":true,"region":"us-west","cc":"us","latitude":37.77397,"longitude":-122.4313,"reserved":0,"last_update":"0001-01-01T00:00:00Z","name_a2s":"Uncletopia | San Francisco | 3 | Stopwatch","protocol":17,"map":"workshop/koth_clearcut_b15.ugc2107050255","folder":"tf","game":"Team Fortress","app_id":440,"player_count":0,"max_players":24,"Bots":0,"server_type":"Dedicated","server_os":"Linux","password":true,"vac":true,"version":"7961495","steam_id":85568392924742824,"keywords":["cp","nocrits","nodmgspread","uncletopia"],"game_id":440,"stv_port":27036,"stv_name":"Uncletopia | San Francisco | 3 | Stopwatch | STV","players":null},{"server_id":20,"name":"Uncletopia | San Francisco | 4 | Community","name_short":"sfo-4","host":"sfo-1.us.uncletopia.com","port":27045,"enabled":true,"region":"us-west","cc":"us","latitude":37.77397,"longitude":-122.4313,"reserved":0,"last_update":"0001-01-01T00:00:00Z","name_a2s":"Uncletopia | San Francisco | 4 | Community","protocol":17,"map":"workshop/cp_coilblaze_rc7.ugc1272700588","folder":"tf","game":"Team Fortress","app_id":440,"player_count":0,"max_players":24,"Bots":0,"server_type":"Dedicated","server_os":"Linux","password":true,"vac":true,"version":"7961495","steam_id":85568392924742826,"keywords":["cp","nocrits","nodmgspread","uncletopia"],"game_id":440,"stv_port":27046,"stv_name":"Uncletopia | San Francisco | 4 | Community | STV","players":null},{"server_id":141,"name":"Uncletopia | Sydney | 1 | All Maps","name_short":"syd-1","host":"syd-1.au.uncletopia.com","port":27015,"enabled":true,"region":"au","cc":"au","latitude":-33.865143,"longitude":151.2099,"reserved":0,"last_update":"0001-01-01T00:00:00Z","name_a2s":"Uncletopia | Sydney | 1 | All Maps","protocol":17,"map":"koth_cascade","folder":"tf","game":"Team Fortress","app_id":440,"player_count":0,"max_players":24,"Bots":0,"server_type":"Dedicated","server_os":"Linux","password":true,"vac":true,"version":"7961495","steam_id":85568392924470001,"keywords":["cp","nocrits","nodmgspread","uncletopia"],"game_id":440,"stv_port":27016,"stv_name":"Uncletopia | Sydney | 1 | All Maps | STV","players":null},{"server_id":123,"name":"Uncletopia | Sydney | 2 | All Maps","name_short":"syd-2","host":"syd-1.au.uncletopia.com","port":27025,"enabled":true,"region":"au","cc":"au","latitude":-33.865143,"longitude":151.2099,"reserved":0,"last_update":"0001-01-01T00:00:00Z","name_a2s":"Uncletopia | Sydney | 2 | All Maps","protocol":17,"map":"cp_mountainlab","folder":"tf","game":"Team Fortress","app_id":440,"player_count":0,"max_players":24,"Bots":0,"server_type":"Dedicated","server_os":"Linux","password":true,"vac":true,"version":"7961495","steam_id":85568392924470002,"keywords":["cp","nocrits","nodmgspread","uncletopia"],"game_id":440,"stv_port":27026,"stv_name":"Uncletopia | Sydney | 2 | All Maps | STV","players":null},{"server_id":395,"name":"Uncletopia | Sydney | 3 | All Maps","name_short":"syd-3","host":"syd-1.au.uncletopia.com","port":27035,"enabled":true,"region":"au","cc":"au","latitude":-33.865143,"longitude":151.2099,"reserved":0,"last_update":"0001-01-01T00:00:00Z","name_a2s":"Uncletopia | Sydney | 3 | All Maps","protocol":17,"map":"pl_frontier_final","folder":"tf","game":"Team Fortress","app_id":440,"player_count":0,"max_players":24,"Bots":0,"server_type":"Dedicated","server_os":"Linux","password":true,"vac":true,"version":"7961495","steam_id":85568392925194467,"keywords":["nocrits","nodmgspread","payload","uncletopia"],"game_id":440,"stv_port":27036,"stv_name":"Uncletopia | Sydney | 3 | All Maps | STV","players":null},{"server_id":396,"name":"Uncletopia | Sydney | 4 | All Maps","name_short":"syd-4","host":"syd-1.au.uncletopia.com","port":27045,"enabled":true,"region":"au","cc":"au","latitude":-33.865143,"longitude":151.2099,"reserved":0,"last_update":"0001-01-01T00:00:00Z","name_a2s":"Uncletopia | Sydney | 4 | All Maps","protocol":17,"map":"pl_pier","folder":"tf","game":"Team Fortress","app_id":440,"player_count":0,"max_players":24,"Bots":0,"server_type":"Dedicated","server_os":"Linux","password":true,"vac":true,"version":"7961495","steam_id":85568392925397958,"keywords":["nocrits","nodmgspread","payload","uncletopia"],"game_id":440,"stv_port":27046,"stv_name":"Uncletopia | Sydney | 4 | All Maps | STV","players":null},{"server_id":58,"name":"Uncletopia | Sydney | 5 | Stopwatch","name_short":"syd-5","host":"syd-1.au.uncletopia.com","port":27055,"enabled":true,"region":"au","cc":"au","latitude":-33.865143,"longitude":151.2099,"reserved":0,"last_update":"0001-01-01T00:00:00Z","name_a2s":"Uncletopia | Sydney | 5 | Stopwatch","protocol":17,"map":"pl_frontier_final","folder":"tf","game":"Team Fortress","app_id":440,"player_count":0,"max_players":24,"Bots":0,"server_type":"Dedicated","server_os":"Linux","password":true,"vac":true,"version":"7961495","steam_id":85568392925397959,"keywords":["nocrits","nodmgspread","payload","uncletopia"],"game_id":440,"stv_port":27056,"stv_name":"Uncletopia | Sydney | 5 | Stopwatch | STV","players":null},{"server_id":59,"name":"Uncletopia | Sydney | 6 | Community","name_short":"syd-6","host":"syd-1.au.uncletopia.com","port":27065,"enabled":true,"region":"au","cc":"au","latitude":-33.865143,"longitude":151.2099,"reserved":0,"last_update":"0001-01-01T00:00:00Z","name_a2s":"Uncletopia | Sydney | 6 | Community","protocol":17,"map":"cp_sunshine","folder":"tf","game":"Team Fortress","app_id":440,"player_count":0,"max_players":24,"Bots":0,"server_type":"Dedicated","server_os":"Linux","password":true,"vac":true,"version":"7961495","steam_id":85568392925397960,"keywords":["cp","nocrits","nodmgspread","uncletopia"],"game_id":440,"stv_port":27066,"stv_name":"Uncletopia | Sydney | 6 | Community | STV","players":null},{"server_id":49,"name":"Uncletopia | Warsaw | 1 | One Thousand Uncles","name_short":"waw-1","host":"waw-1.pl.uncletopia.com","port":27015,"enabled":true,"region":"eu","cc":"pl","latitude":52.2297,"longitude":21.017532,"reserved":0,"last_update":"0001-01-01T00:00:00Z","name_a2s":"Uncletopia | Warsaw | 1 | One Thousand Uncles","protocol":17,"map":"koth_highpass","folder":"tf","game":"Team Fortress","app_id":440,"player_count":0,"max_players":32,"Bots":0,"server_type":"Dedicated","server_os":"Linux","password":true,"vac":true,"version":"7961495","steam_id":85568392925397850,"keywords":["alltalk","cp","danepve","increased_maxplayers","nocrits","norespawntime","uncletopia"],"game_id":440,"stv_port":0,"stv_name":"","players":null},{"server_id":50,"name":"Uncletopia | Warsaw | 2 | One Thousand Uncles","name_short":"waw-2","host":"waw-1.pl.uncletopia.com","port":27025,"enabled":true,"region":"eu","cc":"pl","latitude":52.2297,"longitude":21.017532,"reserved":0,"last_update":"0001-01-01T00:00:00Z","name_a2s":"Uncletopia | Warsaw | 2 | One Thousand Uncles","protocol":17,"map":"pl_goldrush","folder":"tf","game":"Team Fortress","app_id":440,"player_count":17,"max_players":32,"Bots":16,"server_type":"Dedicated","server_os":"Linux","password":true,"vac":true,"version":"7961495","steam_id":85568392925397851,"keywords":["alltalk","bots","danepve","increased_maxplayers","nocrits","norespawntime","payload","uncletopia"],"game_id":440,"stv_port":0,"stv_name":"","players":[{"user_id":2,"name":"Donkey kong","steam_id":76561199401399810,"connected_time":46000000000,"state":"active","ping":82}]},{"server_id":51,"name":"Uncletopia | Warsaw | 3 | All Maps","name_short":"waw-3","host":"waw-1.pl.uncletopia.com","port":27035,"enabled":true,"region":"eu","cc":"pl","latitude":52.2297,"longitude":21.017532,"reserved":0,"last_update":"0001-01-01T00:00:00Z","name_a2s":"Uncletopia | Warsaw | 3 | All Maps","protocol":17,"map":"plr_pipeline","folder":"tf","game":"Team Fortress","app_id":440,"player_count":0,"max_players":24,"Bots":0,"server_type":"Dedicated","server_os":"Linux","password":true,"vac":true,"version":"7961495","steam_id":85568392925397852,"keywords":["nocrits","nodmgspread","payload","uncletopia"],"game_id":440,"stv_port":27036,"stv_name":"Uncletopia | Warsaw | 3 | All Maps | STV","players":null},{"server_id":52,"name":"Uncletopia | Warsaw | 4 | All Maps","name_short":"waw-4","host":"waw-1.pl.uncletopia.com","port":27045,"enabled":true,"region":"eu","cc":"pl","latitude":52.2297,"longitude":21.017532,"reserved":0,"last_update":"0001-01-01T00:00:00Z","name_a2s":"Uncletopia | Warsaw | 4 | All Maps","protocol":17,"map":"cp_coldfront","folder":"tf","game":"Team Fortress","app_id":440,"player_count":0,"max_players":24,"Bots":0,"server_type":"Dedicated","server_os":"Linux","password":true,"vac":true,"version":"7961495","steam_id":85568392925397853,"keywords":["cp","nocrits","nodmgspread","uncletopia"],"game_id":440,"stv_port":27046,"stv_name":"Uncletopia | Warsaw | 4 | All Maps | STV","players":null},{"server_id":53,"name":"Uncletopia | Warsaw | 5 | Stopwatch","name_short":"waw-5","host":"waw-1.pl.uncletopia.com","port":27055,"enabled":true,"region":"eu","cc":"pl","latitude":52.2297,"longitude":21.017532,"reserved":0,"last_update":"0001-01-01T00:00:00Z","name_a2s":"Uncletopia | Warsaw | 5 | Stopwatch","protocol":17,"map":"workshop/koth_bagel_rc6.ugc2514036946","folder":"tf","game":"Team Fortress","app_id":440,"player_count":0,"max_players":24,"Bots":0,"server_type":"Dedicated","server_os":"Linux","password":true,"vac":true,"version":"7961495","steam_id":85568392925397854,"keywords":["cp","nocrits","nodmgspread","uncletopia"],"game_id":440,"stv_port":27056,"stv_name":"Uncletopia | Warsaw | 5 | Stopwatch | STV","players":null},{"server_id":54,"name":"Uncletopia | Warsaw | 6 | Community","name_short":"waw-6","host":"waw-1.pl.uncletopia.com","port":27065,"enabled":true,"region":"eu","cc":"pl","latitude":52.2297,"longitude":21.017532,"reserved":0,"last_update":"0001-01-01T00:00:00Z","name_a2s":"Uncletopia | Warsaw | 6 | Community","protocol":17,"map":"workshop/pl_badwater_pro_v12.ugc2142942074","folder":"tf","game":"Team Fortress","app_id":440,"player_count":0,"max_players":24,"Bots":0,"server_type":"Dedicated","server_os":"Linux","password":true,"vac":true,"version":"7961495","steam_id":85568392925397856,"keywords":["nocrits","nodmgspread","payload","uncletopia"],"game_id":440,"stv_port":27066,"stv_name":"Uncletopia | Warsaw | 6 | Community | STV","players":null}]}