{"status":true,"message":"","result":[{"server_id":9,"name":"Uncletopia | Atlanta | 1 | All Maps","name_short":"atl-1","host":"atl-1.us.uncletopia.com","port":27015,"enabled":true,"region":"us-east","cc":"us","latitude":33.753746,"longitude":-84.38633,"reserved":0,"last_update":"0001-01-01T00:00:00Z","name_a2s":"Uncletopia | Atlanta | 1 | All Maps","protocol":17,"map":"pl_frontier_final","folder":"tf","game":"Team Fortress","app_id":440,"player_count":24,"max_players":24,"Bots":0,"server_type":"Dedicated","server_os":"Linux","password":true,"vac":true,"version":"7961495","steam_id":85568392924469982,"keywords":["nocrits","nodmgspread","payload","uncletopia"],"game_id":440,"stv_port":27016,"stv_name":"Uncletopia | Atlanta | 1 | All Maps | STV","players":null},{"server_id":104,"name":"Uncletopia | Atlanta | 2 | All Maps","name_short":"atl-2","host":"atl-1.us.uncletopia.com","port":27025,"enabled":true,"region":"us-east","cc":"us","latitude":33.753746,"longitude":-84.38633,"reserved":0,"last_update":"0001-01-01T00:00:00Z","name_a2s":"Uncletopia | Atlanta | 2 | All Maps","protocol":17,"map":"cp_mossrock","folder":"tf","game":"Team Fortress","app_id":440,"player_count":23,"max_players":24,"Bots":0,"server_type":"Dedicated","server_os":"Linux","password":true,"vac":true,"version":"7961495","steam_id":85568392924469983,"keywords":["cp","nocrits","nodmgspread","uncletopia"],"game_id":440,"stv_port":27026,"stv_name":"Uncletopia | Atlanta | 2 | All Maps | STV","players":null},{"server_id":400,"name":"Uncletopia | Atlanta | 3 | Stopwatch","name_short":"atl-3","host":"atl-1.us.uncletopia.com","port":27035,"enabled":true,"region":"us-east","cc":"us","latitude":33.753746,"longitude":-84.38633,"reserved":0,"last_update":"0001-01-01T00:00:00Z","name_a2s":"Uncletopia | Atlanta | 3 | Stopwatch","protocol":17,"map":"koth_ramjam_rc1","folder":"tf","game":"Team Fortress","app_id":440,"player_count":3,"max_players":24,"Bots":0,"server_type":"Dedicated","server_os":"Linux","password":true,"vac":true,"version":"7961495","steam_id":85568392924515187,"keywords":["cp","nocrits","nodmgspread","uncletopia"],"game_id":440,"stv_port":27036,"stv_name":"Uncletopia | Atlanta | 3 | Stopwatch | STV","players":null},{"server_id":401,"name":"Uncletopia | Atlanta | 4 | Community","name_short":"atl-4","host":"atl-1.us.uncletopia.com","port":27045,"enabled":true,"region":"us-east","cc":"us","latitude":33.753746,"longitude":-84.38633,"reserved":0,"last_update":"0001-01-01T00:00:00Z","name_a2s":"Uncletopia | Atlanta | 4 | Community","protocol":17,"map":"pl_vigil_rc10","folder":"tf","game":"Team Fortress","app_id":440,"player_count":0,"max_players":24,"Bots":0,"server_type":"Dedicated","server_os":"Linux","password":true,"vac":true,"version":"7961495","steam_id":85568392924515188,"keywords":["nocrits","nodmgspread","payload","uncletopia"],"game_id":440,"stv_port":27046,"stv_name":"Uncletopia | Atlanta | 4 | Community | STV","players":null},{"server_id":2,"name":"Uncletopia | Chicago | 1 | All Maps","name_short":"chi-1","host":"chi-1.us.uncletopia.com","port":27015,"enabled":true,"region":"us-central","cc":"us","latitude":41.881832,"longitude":-87.62318,"reserved":0,"last_update":"0001-01-01T00:00:00Z","name_a2s":"Uncletopia | Chicago | 1 | All Maps","protocol":17,"map":"pl_swiftwater_final1","folder":"tf","game":"Team Fortress","app_id":440,"player_count":24,"max_players":24,"Bots":0,"server_type":"Dedicated","server_os":"Linux","password":true,"vac":true,"version":"7961495","steam_id":85568392924469984,"keywords":["nocrits","nodmgspread","payload","uncletopia"],"game_id":440,"stv_port":27016,"stv_name":"Uncletopia | Chicago | 1 | All Maps | STV","players":[{"user_id":443,"name":"ComradeofSucc","steam_id":76561198076025718,"connected_time":1438000000000,"state":"active","ping":99},{"user_id":452,"name":"murderous deer","steam_id":76561198350832152,"connected_time":1125000000000,"state":"active","ping":67},{"user_id":449,"name":"BookBurner23","steam_id":76561198034771185,"connected_time":1231000000000,"state":"active","ping":70},{"user_id":447,"name":"Meat Dragon","steam_id":76561198120319256,"connected_time":1282000000000,"state":"active","ping":51},{"user_id":429,"name":"CheeseCake488","steam_id":76561199407617942,"connected_time":2612000000000,"state":"active","ping":128},{"user_id":412,"name":"melting","steam_id":76561198022960795,"connected_time":3379000000000,"state":"active","ping":100},{"user_id":413,"name":"Hatsune Miku IRL","steam_id":76561198023770512,"connected_time":3364000000000,"state":"active","ping":85},{"user_id":397,"name":"Milkmur","steam_id":76561198210043821,"connected_time":4484000000000,"state":"active","ping":62},{"user_id":448,"name":"Toast","steam_id":76561199207957224,"connected_time":1262000000000,"state":"active","ping":67},{"user_id":451,"name":"♥Bunny♥Slut♥","steam_id":76561198206376851,"connected_time":1149000000000,"state":"active","ping":142},{"user_id":344,"name":"Dwanor","steam_id":76561198039571887,"connected_time":7202000000000,"state":"active","ping":74},{"user_id":456,"name":"LCGPhantom","steam_id":76561199052145044,"connected_time":1019000000000,"state":"active","ping":74},{"user_id":445,"name":"Bostonstapler","steam_id":76561197996334971,"connected_time":1365000000000,"state":"active","ping":70},{"user_id":436,"name":"Trader Yohan","steam_id":76561198048956010,"connected_time":1750000000000,"state":"active","ping":109},{"user_id":453,"name":"OPEN","steam_id":76561198067994868,"connected_time":1117000000000,"state":"active","ping":68},{"user_id":398,"name":"Space","steam_id":76561198350489754,"connected_time":4334000000000,"state":"active","ping":57},{"user_id":455,"name":"guy","steam_id":76561198079925551,"connected_time":1073000000000,"state":"active","ping":72},{"user_id":438,"name":"Dr. Maybe","steam_id":76561198268304564,"connected_time":1683000000000,"state":"active","ping":73},{"user_id":417,"name":"a Salty Individual","steam_id":76561197979951077,"connected_time":3345000000000,"state":"active","ping":133},{"user_id":425,"name":"Ata","steam_id":76561198349085545,"connected_time":3108000000000,"state":"active","ping":80},{"user_id":444,"name":"deimos","steam_id":76561198148357768,"connected_time":1393000000000,"state":"active","ping":62},{"user_id":454,"name":"The Grim Heaper","steam_id":76561197987759101,"connected_time":1089000000000,"state":"active","ping":111},{"user_id":406,"name":"cart","steam_id":76561198253731826,"connected_time":3946000000000,"state":"active","ping":60},{"user_id":457,"name":"ExpandedCuber","steam_id":76561198970140709,"connected_time":426000000000,"state":"active","ping":57}]},{"server_id":106,"name":"Uncletopia | Chicago | 2 | All Maps","name_short":"chi-2","host":"chi-1.us.uncletopia.com","port":27025,"enabled":true,"region":"us-central","cc":"us","latitude":41.881832,"longitude":-87.62318,"reserved":0,"last_update":"0001-01-01T00:00:00Z","name_a2s":"Uncletopia | Chicago | 2 | All Maps","protocol":17,"map":"pl_frontier_final","folder":"tf","game":"Team Fortress","app_id":440,"player_count":24,"max_players":24,"Bots":0,"server_type":"Dedicated","server_os":"Linux","password":true,"vac":true,"version":"7961495","steam_id":85568392924469985,"keywords":["nocrits","nodmgspread","payload","uncletopia"],"game_id":440,"stv_port":27026,"stv_name":"Uncletopia | Chicago | 2 | All Maps | STV","players":[{"user_id":557,"name":"Crazy Cane","steam_id":76561198993941174,"connected_time":649000000000,"state":"active","ping":64},{"user_id":538,"name":"gunk","steam_id":76561198438268213,"connected_time":1482000000000,"state":"active","ping":101},{"user_id":553,"name":"reis","steam_id":76561199232952016,"connected_time":1083000000000,"state":"active","ping":193},{"user_id":540,"name":"X-7","steam_id":76561198127217378,"connected_time":1413000000000,"state":"active","ping":66},{"user_id":541,"name":"Hawkborne","steam_id":76561198107249245,"connected_time":1411000000000,"state":"active","ping":78},{"user_id":514,"name":"cozy","steam_id":76561199044037628,"connected_time":2803000000000,"state":"active","ping":73},{"user_id":542,"name":"Octomal800","steam_id":76561199453595616,"connected_time":1395000000000,"state":"active","ping":75},{"user_id":449,"name":"Peepster","steam_id":76561198297854733,"connected_time":6570000000000,"state":"active","ping":73},{"user_id":552,"name":"skunch","steam_id":76561198069771288,"connected_time":1192000000000,"state":"active","ping":67},{"user_id":523,"name":"Gnome Tank","steam_id":76561198984179092,"connected_time":2330000000000,"state":"active","ping":77},{"user_id":482,"name":"feudal","steam_id":76561198057374871,"connected_time":4845000000000,"state":"active","ping":61},{"user_id":516,"name":"{[Jax]}","steam_id":76561199468162789,"connected_time":2798000000000,"state":"active","ping":105},{"user_id":451,"name":"Gwuf","steam_id":76561198091503282,"connected_time":6556000000000,"state":"active","ping":134},{"user_id":554,"name":"Torensz64(But weezer)","steam_id":76561198239036482,"connected_time":974000000000,"state":"active","ping":54},{"user_id":475,"name":"Jedediah Smurm","steam_id":76561198847209882,"connected_time":5149000000000,"state":"active","ping":56},{"user_id":543,"name":"sheep","steam_id":76561198172943006,"connected_time":1391000000000,"state":"active","ping":45},{"user_id":544,"name":"Oopsie Daisy ❋","steam_id":76561198042144492,"connected_time":1390000000000,"state":"active","ping":74},{"user_id":530,"name":"Troyer","steam_id":76561198038005881,"connected_time":2049000000000,"state":"active","ping":60},{"user_id":559,"name":"@TV.FUN hyaZzZaZa","steam_id":76561199100342013,"connected_time":420000000000,"state":"active","ping":92},{"user_id":537,"name":"gwendoodle\u003c3","steam_id":76561198031757768,"connected_time":1534000000000,"state":"active","ping":108},{"user_id":547,"name":"tiananmensquare1989","steam_id":76561199076837870,"connected_time":1284000000000,"state":"active","ping":87},{"user_id":560,"name":"Michaelpc1","steam_id":76561198088365519,"connected_time":396000000000,"state":"active","ping":56},{"user_id":562,"name":"Mocha","steam_id":76561198221986284,"connected_time":189000000000,"state":"active","ping":70},{"user_id":536,"name":"ElChuchoXf","steam_id":76561199235124146,"connected_time":1587000000000,"state":"active","ping":143}]},{"server_id":402,"name":"Uncletopia | Chicago | 3 | All Maps","name_short":"chi-3","host":"chi-1.us.uncletopia.com","port":27035,"enabled":true,"region":"us-central","cc":"us","latitude":41.881832,"longitude":-87.62318,"reserved":0,"last_update":"0001-01-01T00:00:00Z","name_a2s":"Uncletopia | Chicago | 3 | All Maps","protocol":17,"map":"koth_harvest_final","folder":"tf","game":"Team Fortress","app_id":440,"player_count":24,"max_players":24,"Bots":0,"server_type":"Dedicated","server_os":"Linux","password":true,"vac":true,"version":"7961495","steam_id":85568392924515191,"keywords":["cp","nocrits","nodmgspread","uncletopia"],"game_id":440,"stv_port":27036,"stv_name":"Uncletopia | Chicago | 3 | All Maps | STV","players":[{"user_id":162,"name":"󠁳 ⁧Argo","steam_id":76561198353725622,"connected_time":1967000000000,"state":"active","ping":82},{"user_id":152,"name":"woah","steam_id":76561198301264312,"connected_time":2763000000000,"state":"active","ping":53},{"user_id":148,"name":"DinkleBerg","steam_id":76561198891626233,"connected_time":2957000000000,"state":"active","ping":62},{"user_id":14,"name":"TimeWarper","steam_id":76561198307258839,"connected_time":17450000000000,"state":"active","ping":81},{"user_id":80,"name":"Lia_Rein","steam_id":76561198151569597,"connected_time":11005000000000,"state":"active","ping":147},{"user_id":184,"name":"Dzhoshua","steam_id":76561198071915251,"connected_time":506000000000,"state":"active","ping":62},{"user_id":176,"name":"Sucks-At-Aiming","steam_id":76561198027487285,"connected_time":764000000000,"state":"active","ping":126},{"user_id":173,"name":"Der Krieger105","steam_id":76561197978384609,"connected_time":1142000000000,"state":"active","ping":92},{"user_id":177,"name":"TheElderFrog","steam_id":76561197985743135,"connected_time":762000000000,"state":"active","ping":77},{"user_id":166,"name":"catrinaisahuman","steam_id":76561198281355729,"connected_time":1859000000000,"state":"active","ping":70},{"user_id":145,"name":"[NAME-REDACTED]","steam_id":76561198035682975,"connected_time":3097000000000,"state":"active","ping":67},{"user_id":170,"name":"Atomic_Daze","steam_id":76561198011029392,"connected_time":1524000000000,"state":"active","ping":82},{"user_id":178,"name":"NERV","steam_id":76561198111023744,"connected_time":750000000000,"state":"active","ping":72},{"user_id":183,"name":"SandHanitizer","steam_id":76561198234676500,"connected_time":552000000000,"state":"active","ping":70},{"user_id":156,"name":"jimmz","steam_id":76561199076776118,"connected_time":2090000000000,"state":"active","ping":77},{"user_id":175,"name":"Crunchy","steam_id":76561198060342804,"connected_time":805000000000,"state":"active","ping":101},{"user_id":185,"name":"masonmark265","steam_id":76561199230441293,"connected_time":131000000000,"state":"active","ping":66},{"user_id":165,"name":"paint huffer","steam_id":76561198253172399,"connected_time":1875000000000,"state":"active","ping":69},{"user_id":157,"name":"mobe","steam_id":76561198121633820,"connected_time":2089000000000,"state":"active","ping":106},{"user_id":133,"name":"TheOneZoot","steam_id":76561198121944243,"connected_time":4010000000000,"state":"active","ping":84},{"user_id":179,"name":"7/11","steam_id":76561198032529704,"connected_time":734000000000,"state":"active","ping":81},{"user_id":180,"name":"totoro","steam_id":76561198210420871,"connected_time":723000000000,"state":"active","ping":44},{"user_id":181,"name":"NerdCuddles","steam_id":76561198078915242,"connected_time":716000000000,"state":"active","ping":57},{"user_id":182,"name":"joethefool","steam_id":76561199015436319,"connected_time":707000000000,"state":"active","ping":73}]},{"server_id":403,"name":"Uncletopia | Chicago | 4 | All Maps","name_short":"chi-4","host":"chi-1.us.uncletopia.com","port":27045,"enabled":true,"region":"us-central","cc":"us","latitude":41.881832,"longitude":-87.62318,"reserved":0,"last_update":"0001-01-01T00:00:00Z","name_a2s":"Uncletopia | Chicago | 4 | All Maps","protocol":17,"map":"pl_pier","folder":"tf","game":"Team Fortress","app_id":440,"player_count":23,"max_players":24,"Bots":0,"server_type":"Dedicated","server_os":"Linux","password":true,"vac":true,"version":"7961495","steam_id":85568392924515193,"keywords":["nocrits","nodmgspread","payload","uncletopia"],"game_id":440,"stv_port":27046,"stv_name":"Uncletopia | Chicago | 4 | All Maps | STV","players":[{"user_id":516,"name":"An Erect Penis :)","steam_id":76561198086477485,"connected_time":1245000000000,"state":"active","ping":43},{"user_id":531,"name":"Mikeyb_03","steam_id":76561198409357944,"connected_time":90000000000,"state":"active","ping":45},{"user_id":515,"name":"joe","steam_id":76561199389283507,"connected_time":1334000000000,"state":"active","ping":74},{"user_id":529,"name":"frenemy","steam_id":76561198011363677,"connected_time":101000000000,"state":"active","ping":46},{"user_id":522,"name":"Urbanzpinapple","steam_id":76561198115426938,"connected_time":947000000000,"state":"active","ping":83},{"user_id":464,"name":"Smelly","steam_id":76561198380507370,"connected_time":3367000000000,"state":"active","ping":79},{"user_id":520,"name":"chikmslaad","steam_id":76561198871478705,"connected_time":1176000000000,"state":"active","ping":68},{"user_id":530,"name":"Gamering_funy","steam_id":76561199006503777,"connected_time":101000000000,"state":"active","ping":56},{"user_id":532,"name":"gayest MF DOOM fan","steam_id":76561198065801979,"connected_time":67000000000,"state":"active","ping":78},{"user_id":533,"name":"nickname 123","steam_id":76561198080234033,"connected_time":53000000000,"state":"spawning","ping":50},{"user_id":496,"name":"ElephantHydrogen4277882","steam_id":76561198175741741,"connected_time":2290000000000,"state":"active","ping":70},{"user_id":526,"name":"YINGBING43","steam_id":76561198166141576,"connected_time":550000000000,"state":"active","ping":87},{"user_id":501,"name":"Ephemeral-chan","steam_id":76561197996001672,"connected_time":1878000000000,"state":"active","ping":99},{"user_id":523,"name":"Carson","steam_id":76561198076771071,"connected_time":896000000000,"state":"active","ping":41},{"user_id":497,"name":"The local hobo","steam_id":76561198289650060,"connected_time":2225000000000,"state":"active","ping":76},{"user_id":507,"name":"Zhong Xina","steam_id":76561198048157121,"connected_time":1693000000000,"state":"active","ping":85},{"user_id":488,"name":"ADRIEN BRODY","steam_id":76561198009299473,"connected_time":2747000000000,"state":"active","ping":61},{"user_id":524,"name":"Squeeky Clean","steam_id":76561198231132788,"connected_time":598000000000,"state":"active","ping":118},{"user_id":534,"name":"CAT","steam_id":76561198121826578,"connected_time":30000000000,"state":"spawning","ping":73},{"user_id":527,"name":"Church","steam_id":76561199214866732,"connected_time":481000000000,"state":"active","ping":68},{"user_id":458,"name":"CDBeans","steam_id":76561198046990367,"connected_time":3683000000000,"state":"active","ping":96},{"user_id":511,"name":"lexi","steam_id":76561198176299759,"connected_time":1561000000000,"state":"active","ping":73},{"user_id":508,"name":"dave strider","steam_id":76561198065112186,"connected_time":1691000000000,"state":"active","ping":70}]},{"server_id":36,"name":"Uncletopia | Chicago | 5 | All Maps","name_short":"chi-5","host":"chi-2.us.uncletopia.com","port":27015,"enabled":true,"region":"us-central","cc":"us","latitude":41.881832,"longitude":-87.62318,"reserved":0,"last_update":"0001-01-01T00:00:00Z","name_a2s":"Uncletopia | Chicago | 5 | All Maps","protocol":17,"map":"plr_hightower","folder":"tf","game":"Team Fortress","app_id":440,"player_count":0,"max_players":24,"Bots":0,"server_type":"Dedicated","server_os":"Linux","password":true,"vac":true,"version":"7961495","steam_id":85568392924866362,"keywords":["nocrits","nodmgspread","payload","uncletopia"],"game_id":440,"stv_port":27016,"stv_name":"Uncletopia | Chicago | 5 | All Maps | STV","players":null},{"server_id":37,"name":"Uncletopia | Chicago | 6 | All Maps","name_short":"chi-6","host":"chi-2.us.uncletopia.com","port":27025,"enabled":true,"region":"us-central","cc":"us","latitude":41.881832,"longitude":-87.62318,"reserved":0,"last_update":"0001-01-01T00:00:00Z","name_a2s":"Uncletopia | Chicago | 6 | All Maps","protocol":17,"map":"pl_borneo","folder":"tf","game":"Team Fortress","app_id":440,"player_count":24,"max_players":24,"Bots":0,"server_type":"Dedicated","server_os":"Linux","password":true,"vac":true,"version":"7961495","steam_id":85568392924866363,"keywords":["nocrits","nodmgspread","payload","uncletopia"],"game_id":440,"stv_port":27026,"stv_name":"Uncletopia | Chicago | 6 | All Maps | STV","players":[{"user_id":277,"name":"McCambell","steam_id":76561198020194378,"connected_time":853000000000,"state":"active","ping":81},{"user_id":273,"name":"meat.","steam_id":76561198256154493,"connected_time":1032000000000,"state":"active","ping":69},{"user_id":272,"name":"Huntpk","steam_id":76561198340591674,"connected_time":1056000000000,"state":"active","ping":39},{"user_id":260,"name":"soltuno","steam_id":76561198074430565,"connected_time":1854000000000,"state":"active","ping":122},{"user_id":256,"name":"R Kay","steam_id":76561199107386147,"connected_time":2269000000000,"state":"active","ping":74},{"user_id":267,"name":"Gobl1n","steam_id":76561198808610991,"connected_time":1107000000000,"state":"active","ping":77},{"user_id":222,"name":"doro","steam_id":76561198099041747,"connected_time":3682000000000,"state":"active","ping":98},{"user_id":268,"name":"bambithedj","steam_id":76561199224897581,"connected_time":1106000000000,"state":"active","ping":90},{"user_id":179,"name":"Lucon","steam_id":76561198067147724,"connected_time":5931000000000,"state":"active","ping":57},{"user_id":254,"name":"corned beef","steam_id":76561199366782761,"connected_time":2539000000000,"state":"active","ping":155},{"user_id":249,"name":"Vega","steam_id":76561198141126883,"connected_time":2838000000000,"state":"active","ping":95},{"user_id":232,"name":"HundchenTanque","steam_id":76561198122692754,"connected_time":3412000000000,"state":"active","ping":48},{"user_id":280,"name":"Golden Lime Boi","steam_id":76561198027779564,"connected_time":597000000000,"state":"active","ping":60},{"user_id":282,"name":"Stinky Beans","steam_id":76561199497207470,"connected_time":244000000000,"state":"active","ping":96},{"user_id":278,"name":"Pyroshark","steam_id":76561198133599422,"connected_time":850000000000,"state":"active","ping":72},{"user_id":211,"name":"pestilence007","steam_id":76561199068623664,"connected_time":4099000000000,"state":"active","ping":102},{"user_id":270,"name":"CREE","steam_id":76561198392539722,"connected_time":1092000000000,"state":"active","ping":81},{"user_id":276,"name":"HOOPLA","steam_id":76561198993451858,"connected_time":887000000000,"state":"active","ping":57},{"user_id":269,"name":"Mint Jelly","steam_id":76561197991286751,"connected_time":1105000000000,"state":"active","ping":63},{"user_id":263,"name":"BoxesOnCheetahs","steam_id":76561198213080323,"connected_time":1798000000000,"state":"active","ping":71},{"user_id":275,"name":"Crisp","steam_id":76561198132644084,"connected_time":1015000000000,"state":"active","ping":78},{"user_id":281,"name":"Howard Hamlin","steam_id":76561198881039861,"connected_time":558000000000,"state":"active","ping":40},{"user_id":265,"name":"Beyblade","steam_id":76561198893358191,"connected_time":1460000000000,"state":"active","ping":89},{"user_id":117,"name":"muri","steam_id":76561198036167494,"connected_time":9885000000000,"state":"active","ping":43}]},{"server_id":38,"name":"Uncletopia | Chicago | 7 | Stopwatch","name_short":"chi-7","host":"chi-2.us.uncletopia.com","port":27035,"enabled":true,"region":"us-central","cc":"us","latitude":41.881832,"longitude":-87.62318,"reserved":0,"last_update":"0001-01-01T00:00:00Z","name_a2s":"Uncletopia | Chicago | 7 | Stopwatch","protocol":17,"map":"workshop/koth_product_final.ugc454272353","folder":"tf","game":"Team Fortress","app_id":440,"player_count":0,"max_players":24,"Bots":0,"server_type":"Dedicated","server_os":"Linux","password":true,"vac":true,"version":"7961495","steam_id":85568392924866364,"keywords":["cp","nocrits","nodmgspread","uncletopia"],"game_id":440,"stv_port":27036,"stv_name":"Uncletopia | Chicago | 7 | Stopwatch | STV","players":null},{"server_id":39,"name":"Uncletopia | Chicago | 8 | Community","name_short":"chi-8","host":"chi-2.us.uncletopia.com","port":27045,"enabled":true,"region":"us-central","cc":"us","latitude":41.881832,"longitude":-87.62318,"reserved":0,"last_update":"0001-01-01T00:00:00Z","name_a2s":"Uncletopia | Chicago | 8 | Community","protocol":17,"map":"workshop/cp_reckoner_rc6.ugc674719999","folder":"tf","game":"Team Fortress","app_id":440,"player_count":0,"max_players":24,"Bots":0,"server_type":"Dedicated","server_os":"Linux","password":true,"vac":true,"version":"7961495","steam_id":85568392924866365,"keywords":["cp","nocrits","nodmgspread","uncletopia"],"game_id":440,"stv_port":27046,"stv_name":"Uncletopia | Chicago | 8 | Community | STV","players":null},{"server_id":8,"name":"Uncletopia | Dallas | 1 | All Maps","name_short":"dal-1","host":"dal-1.us.uncletopia.com","port":27015,"enabled":true,"region":"us-central","cc":"us","latitude":32.779167,"longitude":-96.80889,"reserved":0,"last_update":"0001-01-01T00:00:00Z","name_a2s":"Uncletopia | Dallas | 1 | All Maps","protocol":17,"map":"koth_highpass","folder":"tf","game":"Team Fortress","app_id":440,"player_count":24,"max_players":24,"Bots":0,"server_type":"Dedicated","server_os":"Linux","password":true,"vac":true,"version":"7961495","steam_id":85568392924469986,"keywords":["cp","nocrits","nodmgspread","uncletopia"],"game_id":440,"stv_port":27016,"stv_name":"Uncletopia | Dallas | 1 | All Maps | STV","players":[{"user_id":408,"name":"Fat Kid In a Dragonball T-Shirt","steam_id":76561198182589975,"connected_time":88000000000,"state":"active","ping":102},{"user_id":380,"name":"pinglefingle","steam_id":76561198216580197,"connected_time":1843000000000,"state":"active","ping":56},{"user_id":344,"name":"yoshido","steam_id":76561198846313229,"connected_time":4963000000000,"state":"active","ping":75},{"user_id":323,"name":"Rob","steam_id":76561199187786660,"connected_time":6112000000000,"state":"active","ping":53},{"user_id":378,"name":"NoLights!","steam_id":76561197981106761,"connected_time":1881000000000,"state":"active","ping":88},{"user_id":390,"name":"Boingo","steam_id":76561199086931535,"connected_time":1110000000000,"state":"active","ping":60},{"user_id":381,"name":"Vorpas Jabwak","steam_id":76561198112186064,"connected_time":1816000000000,"state":"active","ping":67},{"user_id":382,"name":"Texas Methhead","steam_id":76561199205120538,"connected_time":1814000000000,"state":"active","ping":69},{"user_id":319,"name":"sobaka","steam_id":76561198116008934,"connected_time":6700000000000,"state":"active","ping":94},{"user_id":402,"name":"OwningTundra2","steam_id":76561198936893224,"connected_time":635000000000,"state":"active","ping":61},{"user_id":391,"name":"Denialz","steam_id":76561198311188458,"connected_time":1100000000000,"state":"active","ping":64},{"user_id":392,"name":"fried rice","steam_id":76561198928939100,"connected_time":1079000000000,"state":"active","ping":78},{"user_id":406,"name":"qwerty clan member","steam_id":76561199497627611,"connected_time":297000000000,"state":"active","ping":86},{"user_id":293,"name":"Glaceon","steam_id":76561198177715869,"connected_time":8039000000000,"state":"active","ping":68},{"user_id":393,"name":"giveit5","steam_id":76561198030815437,"connected_time":1029000000000,"state":"active","ping":74},{"user_id":387,"name":"Karma","steam_id":76561198320530905,"connected_time":1610000000000,"state":"active","ping":50},{"user_id":407,"name":"La Bomba","steam_id":76561198069948353,"connected_time":241000000000,"state":"active","ping":65},{"user_id":399,"name":"Bastard_Yanisaur","steam_id":76561199134114075,"connected_time":906000000000,"state":"active","ping":114},{"user_id":404,"name":"flippercurve","steam_id":76561199238295034,"connected_time":408000000000,"state":"active","ping":72},{"user_id":389,"name":"Quomples","steam_id":76561198140996628,"connected_time":1192000000000,"state":"active","ping":65},{"user_id":395,"name":"*DEAD* Bloodfart","steam_id":76561199489296949,"connected_time":996000000000,"state":"active","ping":77},{"user_id":272,"name":"RacoonGamer","steam_id":76561198100907657,"connected_time":9070000000000,"state":"active","ping":103},{"user_id":405,"name":"Five","steam_id":76561198026640473,"connected_time":387000000000,"state":"active","ping":73},{"user_id":403,"name":"Whompert","steam_id":76561198042939624,"connected_time":438000000000,"state":"active","ping":97}]},{"server_id":108,"name":"Uncletopia | Dallas | 2 | All Maps","name_short":"dal-2","host":"dal-1.us.uncletopia.com","port":27025,"enabled":true,"region":"us-central","cc":"us","latitude":32.779167,"longitude":-96.80889,"reserved":0,"last_update":"0001-01-01T00:00:00Z","name_a2s":"Uncletopia | Dallas | 2 | All Maps","protocol":17,"map":"pl_pier","folder":"tf","game":"Team Fortress","app_id":440,"player_count":24,"max_players":24,"Bots":0,"server_type":"Dedicated","server_os":"Linux","password":true,"vac":true,"version":"7961495","steam_id":85568392924469988,"keywords":["nocrits","nodmgspread","payload","uncletopia"],"game_id":440,"stv_port":27026,"stv_name":"Uncletopia | Dallas | 2 | All Maps | STV","players":[{"user_id":295,"name":"DragonHunter994","steam_id":76561199076203907,"connected_time":388000000000,"state":"active","ping":70},{"user_id":285,"name":"Papillon","steam_id":76561198049725849,"connected_time":985000000000,"state":"active","ping":90},{"user_id":282,"name":"Dov-Ah-Bob","steam_id":76561198147798338,"connected_time":1058000000000,"state":"active","ping":63},{"user_id":235,"name":"Gelliterate","steam_id":76561198107233070,"connected_time":4850000000000,"state":"active","ping":48},{"user_id":228,"name":"GJDon","steam_id":76561199026755019,"connected_time":5095000000000,"state":"active","ping":128},{"user_id":296,"name":"Rhutebeer","steam_id":76561198018302761,"connected_time":377000000000,"state":"active","ping":70},{"user_id":281,"name":"Chub","steam_id":76561198380637611,"connected_time":1488000000000,"state":"active","ping":98},{"user_id":262,"name":"Cspans","steam_id":76561198290316405,"connected_time":2008000000000,"state":"active","ping":89},{"user_id":273,"name":"Your Dad™","steam_id":76561198254739340,"connected_time":1832000000000,"state":"active","ping":96},{"user_id":271,"name":"SharpStabbyThing","steam_id":76561199059465912,"connected_time":1899000000000,"state":"active","ping":99},{"user_id":292,"name":"StarB","steam_id":76561198149605368,"connected_time":479000000000,"state":"active","ping":68},{"user_id":283,"name":"Bacon","steam_id":76561199078407152,"connected_time":1056000000000,"state":"active","ping":85},{"user_id":287,"name":"solveig","steam_id":76561198271713106,"connected_time":941000000000,"state":"active","ping":101},{"user_id":222,"name":"Kenku","steam_id":76561199086762926,"connected_time":5723000000000,"state":"active","ping":70},{"user_id":298,"name":"nonagon infinity","steam_id":76561198397662124,"connected_time":143000000000,"state":"active","ping":65},{"user_id":286,"name":"Liebesträume","steam_id":76561198038862034,"connected_time":982000000000,"state":"active","ping":72},{"user_id":289,"name":"Dragus","steam_id":76561198032967285,"connected_time":806000000000,"state":"active","ping":74},{"user_id":288,"name":"Anti-Clown","steam_id":76561199041966659,"connected_time":938000000000,"state":"active","ping":75},{"user_id":278,"name":"MrMind","steam_id":76561199321657653,"connected_time":1673000000000,"state":"active","ping":73},{"user_id":267,"name":"Pearez","steam_id":76561198158141878,"connected_time":1955000000000,"state":"active","ping":87},{"user_id":279,"name":"Just Luck","steam_id":76561198294350105,"connected_time":1660000000000,"state":"active","ping":61},{"user_id":269,"name":"Liver stealer","steam_id":76561199029954287,"connected_time":1929000000000,"state":"active","ping":140},{"user_id":231,"name":"Niko","steam_id":76561198185806553,"connected_time":4951000000000,"state":"active","ping":57},{"user_id":293,"name":"史詩玩家","steam_id":76561198118929194,"connected_time":462000000000,"state":"active","ping":113}]},{"server_id":404,"name":"Uncletopia | Dallas | 3 | All Maps","name_short":"dal-3","host":"dal-1.us.uncletopia.com","port":27035,"enabled":true,"region":"us-central","cc":"us","latitude":32.779167,"longitude":-96.80889,"reserved":0,"last_update":"0001-01-01T00:00:00Z","name_a2s":"Uncletopia | Dallas | 3 | All Maps","protocol":17,"map":"pl_frontier_final","folder":"tf","game":"Team Fortress","app_id":440,"player_count":18,"max_players":24,"Bots":0,"server_type":"Dedicated","server_os":"Linux","password":true,"vac":true,"version":"7961495","steam_id":85568392924515219,"keywords":["nocrits","nodmgspread","payload","uncletopia"],"game_id":440,"stv_port":27036,"stv_name":"Uncletopia | Dallas | 3 | All Maps | STV","players":[{"user_id":13,"name":"AttentionDeficitDad","steam_id":76561199093919121,"connected_time":2442000000000,"state":"active","ping":91},{"user_id":14,"name":"Item Stealer","steam_id":76561198205585493,"connected_time":2239000000000,"state":"active","ping":131},{"user_id":19,"name":"pato","steam_id":76561199060058326,"connected_time":935000000000,"state":"active","ping":84},{"user_id":16,"name":"Average Londoner","steam_id":76561198324598029,"connected_time":1402000000000,"state":"active","ping":52},{"user_id":20,"name":"[cf] Captain Terror","steam_id":76561198028034742,"connected_time":843000000000,"state":"active","ping":98},{"user_id":21,"name":"EndurusPrime","steam_id":76561198799595277,"connected_time":792000000000,"state":"active","ping":55},{"user_id":22,"name":"bookreader","steam_id":76561198978568007,"connected_time":469000000000,"state":"active","ping":80},{"user_id":28,"name":"Eris.","steam_id":76561198938073286,"connected_time":343000000000,"state":"active","ping":72},{"user_id":30,"name":"NANI","steam_id":76561198880986922,"connected_time":271000000000,"state":"active","ping":109},{"user_id":26,"name":"Squid","steam_id":76561198371891344,"connected_time":379000000000,"state":"active","ping":55},{"user_id":27,"name":"Mimik","steam_id":76561198799742232,"connected_time":372000000000,"state":"active","ping":92},{"user_id":31,"name":"Eth","steam_id":76561198147881701,"connected_time":210000000000,"state":"active","ping":117},{"user_id":37,"name":"Tags3","steam_id":76561198115926329,"connected_time":155000000000,"state":"active","ping":62},{"user_id":33,"name":"TechnoBear2099","steam_id":76561198238863596,"connected_time":203000000000,"state":"active","ping":46},{"user_id":34,"name":"CeLeb144","steam_id":76561199089907740,"connected_time":201000000000,"state":"active","ping":65},{"user_id":38,"name":"Science Pants","steam_id":76561198050013796,"connected_time":62000000000,"state":"active","ping":55},{"user_id":36,"name":"Bluedime","steam_id":76561198123181025,"connected_time":199000000000,"state":"active","ping":70},{"user_id":39,"name":"chompman97","steam_id":76561199238099033,"connected_time":41000000000,"state":"active","ping":94}]},{"server_id":405,"name":"Uncletopia | Dallas | 4 | Community","name_short":"dal-4","host":"dal-1.us.uncletopia.com","port":27045,"enabled":true,"region":"us-central","cc":"us","latitude":32.779167,"longitude":-96.80889,"reserved":0,"last_update":"0001-01-01T00:00:00Z","name_a2s":"Uncletopia | Dallas | 4 | Community","protocol":17,"map":"workshop/koth_ashville_final.ugc2130459942","folder":"tf","game":"Team Fortress","app_id":440,"player_count":0,"max_players":24,"Bots":0,"server_type":"Dedicated","server_os":"Linux","password":true,"vac":true,"version":"7961495","steam_id":85568392924515220,"keywords":["cp","nocrits","nodmgspread","uncletopia"],"game_id":440,"stv_port":27046,"stv_name":"Uncletopia | Dallas | 4 | Community | STV","players":null},{"server_id":5,"name":"Uncletopia | Frankfurt | 1 | All Maps","name_short":"frk-1","host":"frk-1.de.uncletopia.com","port":27015,"enabled":true,"region":"eu","cc":"de","latitude":50.110924,"longitude":8.682127,"reserved":0,"last_update":"0001-01-01T00:00:00Z","name_a2s":"Uncletopia | Frankfurt | 1 | All Maps","protocol":17,"map":"pl_upward","folder":"tf","game":"Team Fortress","app_id":440,"player_count":24,"max_players":24,"Bots":0,"server_type":"Dedicated","server_os":"Linux","password":true,"vac":true,"version":"7961495","steam_id":85568392924469989,"keywords":["nocrits","nodmgspread","payload","uncletopia"],"game_id":440,"stv_port":27016,"stv_name":"Uncletopia | Frankfurt | 1 | All Maps | STV","players":[{"user_id":720,"name":"Enjoyer","steam_id":76561198147399855,"connected_time":777000000000,"state":"active","ping":132},{"user_id":735,"name":"Haha?","steam_id":76561198056882245,"connected_time":16000000000,"state":"active","ping":49},{"user_id":670,"name":"Onbeheerde Jongeheer","steam_id":76561198051685232,"connected_time":3013000000000,"state":"active","ping":57},{"user_id":706,"name":"Alice","steam_id":76561198052410860,"connected_time":1323000000000,"state":"active","ping":146},{"user_id":722,"name":"gatorade","steam_id":76561198135519881,"connected_time":694000000000,"state":"active","ping":66},{"user_id":673,"name":"Arsonist","steam_id":76561199087953833,"connected_time":2906000000000,"state":"active","ping":101},{"user_id":734,"name":"bin","steam_id":76561198085163975,"connected_time":63000000000,"state":"active","ping":60},{"user_id":719,"name":"Invoker-sama","steam_id":76561198128470403,"connected_time":818000000000,"state":"active","ping":102},{"user_id":669,"name":"Rarky","steam_id":76561198054398642,"connected_time":3190000000000,"state":"active","ping":47},{"user_id":665,"name":"I AM SUMMER SLAYCATION","steam_id":76561198179339326,"connected_time":3876000000000,"state":"active","ping":79},{"user_id":723,"name":"JugoTopia","steam_id":76561197996067209,"connected_time":660000000000,"state":"active","ping":117},{"user_id":726,"name":"emkoç","steam_id":76561198846782346,"connected_time":496000000000,"state":"active","ping":106},{"user_id":725,"name":"ay","steam_id":76561198033695429,"connected_time":572000000000,"state":"active","ping":58},{"user_id":718,"name":"simplistic","steam_id":76561198231690748,"connected_time":879000000000,"state":"active","ping":81},{"user_id":712,"name":"Dude™","steam_id":76561198082099161,"connected_time":1061000000000,"state":"active","ping":101},{"user_id":727,"name":"[T]aKer","steam_id":76561198001778013,"connected_time":482000000000,"state":"active","ping":48},{"user_id":732,"name":"Ash","steam_id":76561198148738525,"connected_time":143000000000,"state":"active","ping":104},{"user_id":728,"name":"KAIOKEN X10","steam_id":76561198147173457,"connected_time":429000000000,"state":"active","ping":68},{"user_id":666,"name":"xavier","steam_id":76561198076494034,"connected_time":3864000000000,"state":"active","ping":56},{"user_id":730,"name":"Lumi","steam_id":76561198127137036,"connected_time":390000000000,"state":"active","ping":70},{"user_id":731,"name":"xD","steam_id":76561198103633797,"connected_time":379000000000,"state":"active","ping":87},{"user_id":667,"name":"Vershal Smershal","steam_id":76561198116223995,"connected_time":3820000000000,"state":"active","ping":60},{"user_id":736,"name":"Tomaash","steam_id":76561198115542042,"connected_time":5000000000,"state":"spawning","ping":44},{"user_id":716,"name":"a regular cat","steam_id":76561198164675078,"connected_time":969000000000,"state":"active","ping":72}]},{"server_id":110,"name":"Uncletopia | Frankfurt | 2 | All Maps","name_short":"frk-2","host":"frk-1.de.uncletopia.com","port":27025,"enabled":true,"region":"eu","cc":"de","latitude":50.110924,"longitude":8.682127,"reserved":0,"last_update":"0001-01-01T00:00:00Z","name_a2s":"Uncletopia | Frankfurt | 2 | All Maps","protocol":17,"map":"koth_highpass","folder":"tf","game":"Team Fortress","app_id":440,"player_count":0,"max_players":24,"Bots":0,"server_type":"Dedicated","server_os":"Linux","password":true,"vac":true,"version":"7961495","steam_id":85568392924469990,"keywords":["cp","nocrits","nodmgspread","uncletopia"],"game_id":440,"stv_port":27026,"stv_name":"Uncletopia | Frankfurt | 2 | All Maps | STV","players":null},{"server_id":308,"name":"Uncletopia | Frankfurt | 3 | All Maps","name_short":"frk-3","host":"frk-1.de.uncletopia.com","port":27035,"enabled":true,"region":"eu","cc":"de","latitude":50.110924,"longitude":8.682127,"reserved":0,"last_update":"0001-01-01T00:00:00Z","name_a2s":"Uncletopia | Frankfurt | 3 | All Maps","protocol":17,"map":"koth_lakeside_final","folder":"tf","game":"Team Fortress","app_id":440,"player_count":0,"max_players":24,"Bots":0,"server_type":"Dedicated","server_os":"Linux","password":true,"vac":true,"version":"7961495","steam_id":85568392924504274,"keywords":["cp","nocrits","nodmgspread","uncletopia"],"game_id":440,"stv_port":27036,"stv_name":"Uncletopia | Frankfurt | 3 | All Maps | STV","players":null},{"server_id":309,"name":"Uncletopia | Frankfurt | 4 | All Maps","name_short":"frk-4","host":"frk-1.de.uncletopia.com","port":27045,"enabled":true,"region":"eu","cc":"de","latitude":50.110924,"longitude":8.682127,"reserved":0,"last_update":"0001-01-01T00:00:00Z","name_a2s":"Uncletopia | Frankfurt | 4 | All Maps","protocol":17,"map":"koth_cascade","folder":"tf","game":"Team Fortress","app_id":440,"player_count":0,"max_players":24,"Bots":0,"server_type":"Dedicated","server_os":"Linux","password":true,"vac":true,"version":"7961495","steam_id":85568392924504275,"keywords":["cp","nocrits","nodmgspread","uncletopia"],"game_id":440,"stv_port":27046,"stv_name":"Uncletopia | Frankfurt | 4 | All Maps | STV","players":null},{"server_id":310,"name":"Uncletopia | Frankfurt | 5 | All Maps","name_short":"frk-5","host":"frk-1.de.uncletopia.com","port":27055,"enabled":true,"region":"eu","cc":"de","latitude":50.110924,"longitude":8.682127,"reserved":0,"last_update":"0001-01-01T00:00:00Z","name_a2s":"Uncletopia | Frankfurt | 5 | All Maps","protocol":17,"map":"koth_viaduct","folder":"tf","game":"Team Fortress","app_id":440,"player_count":0,"max_players":24,"Bots":0,"server_type":"Dedicated","server_os":"Linux","password":true,"vac":true,"version":"7961495","steam_id":85568392924504277,"keywords":["cp","nocrits","nodmgspread","uncletopia"],"game_id":440,"stv_port":27056,"stv_name":"Uncletopia | Frankfurt | 5 | All Maps | STV","players":null},{"server_id":311,"name":"Uncletopia | Frankfurt | 6 | All Maps","name_short":"frk-6","host":"frk-1.de.uncletopia.com","port":27065,"enabled":true,"region":"eu","cc":"de","latitude":50.110924,"longitude":8.682127,"reserved":0,"last_update":"0001-01-01T00:00:00Z","name_a2s":"Uncletopia | Frankfurt | 6 | All Maps","protocol":17,"map":"pl_frontier_final","folder":"tf","game":"Team Fortress","app_id":440,"player_count":22,"max_players":24,"Bots":0,"server_type":"Dedicated","server_os":"Linux","password":true,"vac":true,"version":"7961495","steam_id":85568392924504278,"keywords":["nocrits","nodmgspread","payload","uncletopia"],"game_id":440,"stv_port":27066,"stv_name":"Uncletopia | Frankfurt | 6 | All Maps | STV","players":[{"user_id":428,"name":"etc","steam_id":76561197998394797,"connected_time":809000000000,"state":"active","ping":54},{"user_id":421,"name":"wG Domo","steam_id":76561198056790920,"connected_time":1034000000000,"state":"active","ping":60},{"user_id":398,"name":"Lowtidey","steam_id":76561198994887486,"connected_time":2909000000000,"state":"active","ping":133},{"user_id":400,"name":"Albert Salavan","steam_id":76561199152398906,"connected_time":2507000000000,"state":"active","ping":81},{"user_id":401,"name":"AKI-47","steam_id":76561198086069864,"connected_time":1789000000000,"state":"active","ping":61},{"user_id":402,"name":"Carlton Banks","steam_id":76561198300996149,"connected_time":1715000000000,"state":"active","ping":60},{"user_id":427,"name":"Taste The Pain","steam_id":76561198082334165,"connected_time":875000000000,"state":"active","ping":50},{"user_id":404,"name":"Borat","steam_id":76561198122226417,"connected_time":1665000000000,"state":"active","ping":59},{"user_id":433,"name":"debil","steam_id":76561198160047415,"connected_time":34000000000,"state":"active","ping":72},{"user_id":431,"name":"SuperBob103","steam_id":76561199175360012,"connected_time":580000000000,"state":"active","ping":61},{"user_id":410,"name":"forv","steam_id":76561198326667006,"connected_time":1512000000000,"state":"active","ping":67},{"user_id":434,"name":"DDGAF","steam_id":76561198257836694,"connected_time":30000000000,"state":"active","ping":50},{"user_id":432,"name":"JujuBalu","steam_id":76561198207253071,"connected_time":320000000000,"state":"active","ping":83},{"user_id":429,"name":"Kaupsýslumaðurinn","steam_id":76561198070358944,"connected_time":763000000000,"state":"active","ping":64},{"user_id":412,"name":"holy motors","steam_id":76561199233979726,"connected_time":1468000000000,"state":"active","ping":83},{"user_id":413,"name":"Pointer LF","steam_id":76561198054572570,"connected_time":1332000000000,"state":"active","ping":61},{"user_id":418,"name":"Penguinmark","steam_id":76561199057089501,"connected_time":1146000000000,"state":"active","ping":131},{"user_id":415,"name":"UseCondomsKid","steam_id":76561198325375997,"connected_time":1290000000000,"state":"active","ping":98},{"user_id":417,"name":"toonz","steam_id":76561198056057975,"connected_time":1214000000000,"state":"active","ping":74},{"user_id":419,"name":"Minimi","steam_id":76561198873850443,"connected_time":1118000000000,"state":"active","ping":58},{"user_id":420,"name":"Endi","steam_id":76561198914938199,"connected_time":1114000000000,"state":"active","ping":89},{"user_id":430,"name":"dog2","steam_id":76561198030119065,"connected_time":732000000000,"state":"active","ping":75}]},{"server_id":23,"name":"Uncletopia | Frankfurt | 7 | Stopwatch","name_short":"frk-7","host":"frk-1.de.uncletopia.com","port":27075,"enabled":true,"region":"eu","cc":"de","latitude":50.110924,"longitude":8.682127,"reserved":0,"last_update":"0001-01-01T00:00:00Z","name_a2s":"Uncletopia | Frankfurt | 7 | Stopwatch","protocol":17,"map":"workshop/koth_product_final.ugc454272353","folder":"tf","game":"Team Fortress","app_id":440,"player_count":0,"max_players":24,"Bots":0,"server_type":"Dedicated","server_os":"Linux","password":true,"vac":true,"version":"7961495","steam_id":85568392924742827,"keywords":["cp","nocrits","nodmgspread","uncletopia"],"game_id":440,"stv_port":27076,"stv_name":"Uncletopia | Frankfurt | 7 | Stopwatch | STV","players":null},{"server_id":24,"name":"Uncletopia | Frankfurt | 8 | Community","name_short":"frk-8","host":"frk-1.de.uncletopia.com","port":27085,"enabled":true,"region":"eu","cc":"de","latitude":50.110924,"longitude":8.682127,"reserved":0,"last_update":"0001-01-01T00:00:00Z","name_a2s":"Uncletopia | Frankfurt | 8 | Community","protocol":17,"map":"workshop/koth_trenchfoot_b1a.ugc731436616","folder":"tf","game":"Team Fortress","app_id":440,"player_count":0,"max_players":24,"Bots":0,"server_type":"Dedicated","server_os":"Linux","password":true,"vac":true,"version":"7961495","steam_id":85568392924742828,"keywords":["cp","nocrits","nodmgspread","uncletopia"],"game_id":440,"stv_port":27086,"stv_name":"Uncletopia | Frankfurt | 8 | Community | STV","players":null},{"server_id":202,"name":"Uncletopia | Hong Kong | 1 | All Maps","name_short":"hgk-1","host":"hgk-1.hk.uncletopia.com","port":27015,"enabled":true,"region":"asia","cc":"hk","latitude":22.302711,"longitude":114.177216,"reserved":0,"last_update":"0001-01-01T00:00:00Z","name_a2s":"Uncletopia | Hong Kong | 1 | All Maps","protocol":17,"map":"pl_frontier_final","folder":"tf","game":"Team Fortress","app_id":440,"player_count":0,"max_players":24,"Bots":0,"server_type":"Dedicated","server_os":"Linux","password":true,"vac":true,"version":"7961495","steam_id":85568392924494504,"keywords":["nocrits","nodmgspread","payload","uncletopia"],"game_id":440,"stv_port":27016,"stv_name":"Uncletopia | Hong Kong | 1 | All Maps | STV","players":null},{"server_id":1,"name":"Uncletopia | Los Angeles | 1 | All Maps","name_short":"lax-1","host":"lax-1.us.uncletopia.com","port":27015,"enabled":true,"region":"us-west","cc":"us","latitude":33.94279,"longitude":-118.41004,"reserved":0,"last_update":"0001-01-01T00:00:00Z","name_a2s":"Uncletopia | Los Angeles | 1 | All Maps","protocol":17,"map":"cp_snakewater_final1","folder":"tf","game":"Team Fortress","app_id":440,"player_count":22,"max_players":24,"Bots":0,"server_type":"Dedicated","server_os":"Linux","password":true,"vac":true,"version":"7961495","steam_id":85568392924469991,"keywords":["cp","nocrits","nodmgspread","uncletopia"],"game_id":440,"stv_port":27016,"stv_name":"Uncletopia | Los Angeles | 1 | All Maps | STV","players":[{"user_id":112,"name":"uzr","steam_id":76561198799343084,"connected_time":1414000000000,"state":"active","ping":51},{"user_id":107,"name":"jeff__100","steam_id":76561198080870439,"connected_time":1585000000000,"state":"active","ping":88},{"user_id":42,"name":"MORE BOUNCE TO THE OUNCE","steam_id":76561198243399336,"connected_time":6921000000000,"state":"active","ping":60},{"user_id":76,"name":"Mocha Josie","steam_id":76561198066452726,"connected_time":4714000000000,"state":"active","ping":48},{"user_id":71,"name":"noceof","steam_id":76561198043656816,"connected_time":4866000000000,"state":"active","ping":170},{"user_id":105,"name":"Seriously Bruh","steam_id":76561198070408485,"connected_time":2163000000000,"state":"active","ping":79},{"user_id":102,"name":"Main Opp","steam_id":76561198124910662,"connected_time":2224000000000,"state":"active","ping":61},{"user_id":108,"name":"Boxcars","steam_id":76561198120978767,"connected_time":1558000000000,"state":"active","ping":56},{"user_id":84,"name":"vvitch","steam_id":76561198279661941,"connected_time":4382000000000,"state":"active","ping":42},{"user_id":43,"name":"Schnitz","steam_id":76561198265484253,"connected_time":6894000000000,"state":"active","ping":59},{"user_id":109,"name":"Hugs","steam_id":76561198214584133,"connected_time":1558000000000,"state":"active","ping":58},{"user_id":97,"name":"090-nsalih","steam_id":76561199467467873,"connected_time":3143000000000,"state":"active","ping":85},{"user_id":106,"name":"Action-Flash","steam_id":76561198042438122,"connected_time":1653000000000,"state":"active","ping":128},{"user_id":115,"name":"[EASY] Necie","steam_id":76561198193908728,"connected_time":805000000000,"state":"active","ping":61},{"user_id":98,"name":"ReachZilla","steam_id":76561199122890568,"connected_time":3136000000000,"state":"active","ping":47},{"user_id":92,"name":"hog cranker","steam_id":76561198073587145,"connected_time":3485000000000,"state":"active","ping":98},{"user_id":83,"name":"a","steam_id":76561198040561757,"connected_time":4504000000000,"state":"active","ping":101},{"user_id":90,"name":"roach","steam_id":76561198354811369,"connected_time":3917000000000,"state":"active","ping":46},{"user_id":119,"name":"hoos","steam_id":76561198045985910,"connected_time":428000000000,"state":"active","ping":106},{"user_id":117,"name":"FunnyGoomba","steam_id":76561198279865229,"connected_time":671000000000,"state":"active","ping":87},{"user_id":100,"name":"Skeleop","steam_id":76561198981106464,"connected_time":3036000000000,"state":"active","ping":45},{"user_id":121,"name":"pt","steam_id":76561198143023330,"connected_time":109000000000,"state":"active","ping":45}]},{"server_id":112,"name":"Uncletopia | Los Angeles | 2 | All Maps","name_short":"lax-2","host":"lax-1.us.uncletopia.com","port":27025,"enabled":true,"region":"us-west","cc":"us","latitude":33.94279,"longitude":-118.41004,"reserved":0,"last_update":"0001-01-01T00:00:00Z","name_a2s":"Uncletopia | Los Angeles | 2 | All Maps","protocol":17,"map":"koth_cascade","folder":"tf","game":"Team Fortress","app_id":440,"player_count":1,"max_players":24,"Bots":0,"server_type":"Dedicated","server_os":"Linux","password":true,"vac":true,"version":"7961495","steam_id":85568392924469992,"keywords":["cp","nocrits","nodmgspread","uncletopia"],"game_id":440,"stv_port":27026,"stv_name":"Uncletopia | Los Angeles | 2 | All Maps | STV","players":[{"user_id":6,"name":"Arkán","steam_id":76561198205702933,"connected_time":335000000000,"state":"active","ping":54}]},{"server_id":324,"name":"Uncletopia | Los Angeles | 3 | All Maps","name_short":"lax-3","host":"lax-1.us.uncletopia.com","port":27035,"enabled":true,"region":"us-west","cc":"us","latitude":33.94279,"longitude":-118.41004,"reserved":0,"last_update":"0001-01-01T00:00:00Z","name_a2s":"Uncletopia | Los Angeles | 3 | All Maps","protocol":17,"map":"pl_upward","folder":"tf","game":"Team Fortress","app_id":440,"player_count":24,"max_players":24,"Bots":0,"server_type":"Dedicated","server_os":"Linux","password":true,"vac":true,"version":"7961495","steam_id":85568392924510198,"keywords":["nocrits","nodmgspread","payload","uncletopia"],"game_id":440,"stv_port":27036,"stv_name":"Uncletopia | Los Angeles | 3 | All Maps | STV","players":[{"user_id":41,"name":"Fish Lambert","steam_id":76561198098279668,"connected_time":450000000000,"state":"active","ping":49},{"user_id":40,"name":"bubby","steam_id":76561197992341879,"connected_time":513000000000,"state":"active","ping":114},{"user_id":42,"name":"BigBubble42","steam_id":76561198136286123,"connected_time":320000000000,"state":"active","ping":57},{"user_id":28,"name":"yogi","steam_id":76561198067986753,"connected_time":904000000000,"state":"active","ping":40},{"user_id":12,"name":"A UsedNom","steam_id":76561198402832756,"connected_time":1865000000000,"state":"active","ping":48},{"user_id":44,"name":"wheresgeorge","steam_id":76561198986281248,"connected_time":97000000000,"state":"active","ping":120},{"user_id":16,"name":"Grassman (Cc)","steam_id":76561198026488532,"connected_time":1620000000000,"state":"active","ping":59},{"user_id":17,"name":"Kiradias777","steam_id":76561198067176309,"connected_time":1545000000000,"state":"active","ping":114},{"user_id":19,"name":"Mi cara","steam_id":76561198190771759,"connected_time":1480000000000,"state":"active","ping":69},{"user_id":20,"name":"Trav_YEET","steam_id":76561198960813580,"connected_time":1433000000000,"state":"active","ping":115},{"user_id":21,"name":"Knavish","steam_id":76561198073434372,"connected_time":1402000000000,"state":"active","ping":60},{"user_id":22,"name":"Ockulus","steam_id":76561199069638460,"connected_time":1382000000000,"state":"active","ping":56},{"user_id":23,"name":"Alchemist","steam_id":76561198094238189,"connected_time":1259000000000,"state":"active","ping":52},{"user_id":27,"name":"zinnk","steam_id":76561198092081825,"connected_time":1021000000000,"state":"active","ping":55},{"user_id":29,"name":"Rohigi","steam_id":76561198261890023,"connected_time":882000000000,"state":"active","ping":55},{"user_id":30,"name":"dabeed","steam_id":76561198140596499,"connected_time":877000000000,"state":"active","ping":64},{"user_id":32,"name":"Gobb","steam_id":76561198028907283,"connected_time":613000000000,"state":"active","ping":39},{"user_id":33,"name":"A Loaf Of Fetus","steam_id":76561198058016214,"connected_time":604000000000,"state":"active","ping":67},{"user_id":34,"name":"cornballer","steam_id":76561199006886644,"connected_time":600000000000,"state":"active","ping":60},{"user_id":35,"name":"heyCharn","steam_id":76561198058641350,"connected_time":596000000000,"state":"active","ping":54},{"user_id":36,"name":"FliturbiousRex","steam_id":76561199217583334,"connected_time":594000000000,"state":"active","ping":112},{"user_id":43,"name":"nav","steam_id":76561198872608266,"connected_time":311000000000,"state":"active","ping":107},{"user_id":38,"name":"Mana \u003c3","steam_id":76561198804360021,"connected_time":565000000000,"state":"active","ping":88},{"user_id":39,"name":"gregg","steam_id":76561198034242401,"connected_time":553000000000,"state":"active","ping":102}]},{"server_id":25,"name":"Uncletopia | Los Angeles | 4 | Stopwatch","name_short":"lax-4","host":"lax-1.us.uncletopia.com","port":27045,"enabled":true,"region":"us-west","cc":"us","latitude":33.94279,"longitude":-118.41004,"reserved":0,"last_update":"0001-01-01T00:00:00Z","name_a2s":"Uncletopia | Los Angeles | 4 | Stopwatch","protocol":17,"map":"cp_process_final","folder":"tf","game":"Team Fortress","app_id":440,"player_count":0,"max_players":24,"Bots":0,"server_type":"Dedicated","server_os":"Linux","password":true,"vac":true,"version":"7961495","steam_id":85568392924510199,"keywords":["cp","nocrits","nodmgspread","uncletopia"],"game_id":440,"stv_port":27046,"stv_name":"Uncletopia | Los Angeles | 4 | Stopwatch | STV","players":null},{"server_id":11,"name":"Uncletopia | London | 1 | All Maps","name_short":"lon-1","host":"lon-1.uk.uncletopia.com","port":27015,"enabled":true,"region":"eu","cc":"gb","latitude":51.509865,"longitude":-0.118092,"reserved":0,"last_update":"0001-01-01T00:00:00Z","name_a2s":"Uncletopia | London | 1 | All Maps","protocol":17,"map":"pl_badwater","folder":"tf","game":"Team Fortress","app_id":440,"player_count":24,"max_players":24,"Bots":0,"server_type":"Dedicated","server_os":"Linux","password":true,"vac":true,"version":"7961495","steam_id":85568392924367362,"keywords":["nocrits","nodmgspread","payload","uncletopia"],"game_id":440,"stv_port":27016,"stv_name":"Uncletopia | London | 1 | All Maps | STV","players":[{"user_id":614,"name":"snowycoast","steam_id":76561198346638308,"connected_time":4833000000000,"state":"active","ping":50},{"user_id":659,"name":"High School Nudical","steam_id":76561198172120615,"connected_time":1972000000000,"state":"active","ping":109},{"user_id":646,"name":"Geoff the Oracle","steam_id":76561198053759965,"connected_time":2858000000000,"state":"active","ping":56},{"user_id":640,"name":"xva","steam_id":76561198969286813,"connected_time":3368000000000,"state":"active","ping":74},{"user_id":639,"name":"✪ Danny","steam_id":76561198104483241,"connected_time":3431000000000,"state":"active","ping":48},{"user_id":671,"name":"Gioni","steam_id":76561198395912581,"connected_time":593000000000,"state":"active","ping":106},{"user_id":650,"name":"♥Medical student♥","steam_id":76561199119401415,"connected_time":2446000000000,"state":"active","ping":122},{"user_id":662,"name":"Wiverny","steam_id":76561198061954999,"connected_time":1448000000000,"state":"active","ping":47},{"user_id":635,"name":"rez777ka","steam_id":76561198107605938,"connected_time":3789000000000,"state":"active","ping":93},{"user_id":625,"name":"Smithex","steam_id":76561198882520378,"connected_time":4474000000000,"state":"active","ping":159},{"user_id":579,"name":"sora","steam_id":76561198096547662,"connected_time":8335000000000,"state":"active","ping":53},{"user_id":670,"name":"rajAs | Aoeitalia.com","steam_id":76561198035928111,"connected_time":612000000000,"state":"active","ping":79},{"user_id":666,"name":"BenteBent","steam_id":76561198297920637,"connected_time":1380000000000,"state":"active","ping":36},{"user_id":628,"name":"Vexu","steam_id":76561198113145846,"connected_time":4416000000000,"state":"active","ping":84},{"user_id":658,"name":"cora","steam_id":76561199474154775,"connected_time":1984000000000,"state":"active","ping":59},{"user_id":618,"name":"Swaifa da Skwai Dwagon","steam_id":76561198062255803,"connected_time":4663000000000,"state":"active","ping":80},{"user_id":672,"name":"☁ Lou1smeister ☁","steam_id":76561198004032968,"connected_time":55000000000,"state":"active","ping":63},{"user_id":647,"name":"teddy","steam_id":76561198007436837,"connected_time":2777000000000,"state":"active","ping":33},{"user_id":596,"name":"beebo","steam_id":76561199120277007,"connected_time":6261000000000,"state":"active","ping":41},{"user_id":667,"name":"SOPHIIEE","steam_id":76561198443798981,"connected_time":1264000000000,"state":"active","ping":237},{"user_id":668,"name":"⚜︎ LoGaN ⚜","steam_id":76561198300678500,"connected_time":1040000000000,"state":"active","ping":60},{"user_id":673,"name":"Son Goku","steam_id":76561199383437138,"connected_time":55000000000,"state":"active","ping":119},{"user_id":638,"name":"Purps","steam_id":76561198053886680,"connected_time":3587000000000,"state":"active","ping":43},{"user_id":611,"name":"PootisLovesDispenser","steam_id":76561199184100727,"connected_time":4952000000000,"state":"active","ping":83}]},{"server_id":114,"name":"Uncletopia | London | 2 | All Maps","name_short":"lon-2","host":"lon-1.uk.uncletopia.com","port":27025,"enabled":true,"region":"eu","cc":"gb","latitude":51.509865,"longitude":-0.118092,"reserved":0,"last_update":"0001-01-01T00:00:00Z","name_a2s":"Uncletopia | London | 2 | All Maps","protocol":17,"map":"pl_goldrush","folder":"tf","game":"Team Fortress","app_id":440,"player_count":24,"max_players":24,"Bots":0,"server_type":"Dedicated","server_os":"Linux","password":true,"vac":true,"version":"7961495","steam_id":85568392924470941,"keywords":["nocrits","nodmgspread","payload","uncletopia"],"game_id":440,"stv_port":27026,"stv_name":"Uncletopia | London | 2 | All Maps | STV","players":[{"user_id":631,"name":"bENtO","steam_id":76561198082076676,"connected_time":1111000000000,"state":"active","ping":45},{"user_id":629,"name":"Deformed Gollum","steam_id":76561198155563589,"connected_time":1247000000000,"state":"active","ping":56},{"user_id":619,"name":"Agro | KritzKast","steam_id":76561197970498549,"connected_time":2173000000000,"state":"active","ping":36},{"user_id":615,"name":"cansado","steam_id":76561198003898089,"connected_time":2599000000000,"state":"active","ping":73},{"user_id":632,"name":"Level 1 Noob","steam_id":76561198088586340,"connected_time":1070000000000,"state":"active","ping":56},{"user_id":600,"name":"DarthMurloc_OW","steam_id":76561198075577711,"connected_time":3235000000000,"state":"active","ping":89},{"user_id":583,"name":"pardner","steam_id":76561198451471161,"connected_time":4548000000000,"state":"active","ping":63},{"user_id":634,"name":"Eltonius","steam_id":76561198157560715,"connected_time":787000000000,"state":"active","ping":85},{"user_id":620,"name":"xTheDarkLight","steam_id":76561198239128298,"connected_time":2156000000000,"state":"active","ping":61},{"user_id":602,"name":"tm`","steam_id":76561197993580412,"connected_time":3220000000000,"state":"active","ping":68},{"user_id":603,"name":"Phalcon","steam_id":76561197987051394,"connected_time":3216000000000,"state":"active","ping":80},{"user_id":604,"name":"Valen","steam_id":76561198049614521,"connected_time":3204000000000,"state":"active","ping":75},{"user_id":635,"name":"il","steam_id":76561198122662610,"connected_time":573000000000,"state":"active","ping":93},{"user_id":606,"name":"Toa LightMakuta","steam_id":76561198212178104,"connected_time":3127000000000,"state":"active","ping":62},{"user_id":627,"name":"disgustang","steam_id":76561198036057803,"connected_time":1455000000000,"state":"active","ping":66},{"user_id":587,"name":"top 10 turnips","steam_id":76561198069649097,"connected_time":4418000000000,"state":"active","ping":63},{"user_id":636,"name":"Vince","steam_id":76561199103000131,"connected_time":534000000000,"state":"active","ping":45},{"user_id":607,"name":"Vonacht","steam_id":76561198016033944,"connected_time":3065000000000,"state":"active","ping":60},{"user_id":568,"name":"The Lady","steam_id":76561198029895809,"connected_time":5872000000000,"state":"active","ping":87},{"user_id":626,"name":"King Sunshine","steam_id":76561198802723642,"connected_time":1550000000000,"state":"active","ping":59},{"user_id":638,"name":"General G","steam_id":76561198062075870,"connected_time":333000000000,"state":"active","ping":74},{"user_id":637,"name":"Champi","steam_id":76561198830002766,"connected_time":474000000000,"state":"active","ping":62},{"user_id":578,"name":"remi, she wrote.","steam_id":76561198044045655,"connected_time":4947000000000,"state":"active","ping":77},{"user_id":614,"name":"you are cold. you are wet.","steam_id":76561198000369215,"connected_time":2859000000000,"state":"active","ping":52}]},{"server_id":320,"name":"Uncletopia | London | 3 | All Maps","name_short":"lon-3","host":"lon-1.uk.uncletopia.com","port":27035,"enabled":true,"region":"eu","cc":"gb","latitude":51.509865,"longitude":-0.118092,"reserved":0,"last_update":"0001-01-01T00:00:00Z","name_a2s":"Uncletopia | London | 3 | All Maps","protocol":17,"map":"koth_cascade","folder":"tf","game":"Team Fortress","app_id":440,"player_count":0,"max_players":24,"Bots":0,"server_type":"Dedicated","server_os":"Linux","password":true,"vac":true,"version":"7961495","steam_id":85568392924510192,"keywords":["cp","nocrits","nodmgspread","uncletopia"],"game_id":440,"stv_port":27036,"stv_name":"Uncletopia | London | 3 | All Maps | STV","players":null},{"server_id":321,"name":"Uncletopia | London | 4 | All Maps","name_short":"lon-4","host":"lon-1.uk.uncletopia.com","port":27045,"enabled":true,"region":"eu","cc":"gb","latitude":51.509865,"longitude":-0.118092,"reserved":0,"last_update":"0001-01-01T00:00:00Z","name_a2s":"Uncletopia | London | 4 | All Maps","protocol":17,"map":"koth_viaduct","folder":"tf","game":"Team Fortress","app_id":440,"player_count":0,"max_players":24,"Bots":0,"server_type":"Dedicated","server_os":"Linux","password":true,"vac":true,"version":"7961495","steam_id":85568392924510193,"keywords":["cp","nocrits","nodmgspread","uncletopia"],"game_id":440,"stv_port":27046,"stv_name":"Uncletopia | London | 4 | All Maps | STV","players":null},{"server_id":21,"name":"Uncletopia | London | 5 | All Maps","name_short":"lon-5","host":"lon-1.uk.uncletopia.com","port":27055,"enabled":true,"region":"eu","cc":"gb","latitude":51.509865,"longitude":-0.118092,"reserved":0,"last_update":"0001-01-01T00:00:00Z","name_a2s":"Uncletopia | London | 5 | All Maps","protocol":17,"map":"cp_snakewater_final1","folder":"tf","game":"Team Fortress","app_id":440,"player_count":0,"max_players":24,"Bots":0,"server_type":"Dedicated","server_os":"Linux","password":true,"vac":true,"version":"7961495","steam_id":85568392924742829,"keywords":["cp","nocrits","nodmgspread","uncletopia"],"game_id":440,"stv_port":27056,"stv_name":"Uncletopia | London | 5 | All Maps | STV","players":null},{"server_id":22,"name":"Uncletopia | London | 6 | All Maps","name_short":"lon-6","host":"lon-1.uk.uncletopia.com","port":27065,"enabled":true,"region":"eu","cc":"gb","latitude":51.509865,"longitude":-0.118092,"reserved":0,"last_update":"0001-01-01T00:00:00Z","name_a2s":"Uncletopia | London | 6 | All Maps","protocol":17,"map":"pl_barnblitz","folder":"tf","game":"Team Fortress","app_id":440,"player_count":0,"max_players":24,"Bots":0,"server_type":"Dedicated","server_os":"Linux","password":true,"vac":true,"version":"7961495","steam_id":85568392924742830,"keywords":["nocrits","nodmgspread","payload","uncletopia"],"game_id":440,"stv_port":27066,"stv_name":"Uncletopia | London | 6 | All Maps | STV","players":null},{"server_id":40,"name":"Uncletopia | London | 7 | Stopwatch","name_short":"lon-7","host":"lon-1.uk.uncletopia.com","port":27075,"enabled":true,"region":"eu","cc":"gb","latitude":51.509865,"longitude":-0.118092,"reserved":0,"last_update":"0001-01-01T00:00:00Z","name_a2s":"Uncletopia | London | 7 | Stopwatch","protocol":17,"map":"workshop/koth_bagel_rc6.ugc2514036946","folder":"tf","game":"Team Fortress","app_id":440,"player_count":0,"max_players":24,"Bots":0,"server_type":"Dedicated","server_os":"Linux","password":true,"vac":true,"version":"7961495","steam_id":85568392924964314,"keywords":["cp","nocrits","nodmgspread","uncletopia"],"game_id":440,"stv_port":27076,"stv_name":"Uncletopia | London | 7 | Stopwatch | STV","players":null},{"server_id":41,"name":"Uncletopia | London | 8 | Community","name_short":"lon-8","host":"lon-1.uk.uncletopia.com","port":27085,"enabled":true,"region":"eu","cc":"gb","latitude":51.509865,"longitude":-0.118092,"reserved":0,"last_update":"0001-01-01T00:00:00Z","name_a2s":"Uncletopia | London | 8 | Community","protocol":17,"map":"workshop/cp_propaganda_b18.ugc1603743849","folder":"tf","game":"Team Fortress","app_id":440,"player_count":0,"max_players":24,"Bots":0,"server_type":"Dedicated","server_os":"Linux","password":true,"vac":true,"version":"7961495","steam_id":85568392924964315,"keywords":["cp","nocrits","nodmgspread","uncletopia"],"game_id":440,"stv_port":27086,"stv_name":"Uncletopia | London | 8 | Community | STV","players":null},{"server_id":300,"name":"Uncletopia | Montréal | 1 | All Maps","name_short":"mtl-1","host":"mtl-1.ca.uncletopia.com","port":27015,"enabled":true,"region":"us-east","cc":"ca","latitude":45.50889,"longitude":-73.56167,"reserved":0,"last_update":"0001-01-01T00:00:00Z","name_a2s":"","protocol":0,"map":"","folder":"","game":"","app_id":0,"player_count":0,"max_players":0,"Bots":0,"server_type":"","server_os":"","password":false,"vac":false,"version":"","steam_id":0,"keywords":null,"game_id":0,"stv_port":0,"stv_name":"","players":null},{"server_id":301,"name":"Uncletopia | Montréal | 2 | One Thousand Uncles","name_short":"mtl-2","host":"mtl-1.ca.uncletopia.com","port":27025,"enabled":true,"region":"us-east","cc":"ca","latitude":45.50889,"longitude":-73.56167,"reserved":0,"last_update":"0001-01-01T00:00:00Z","name_a2s":"","protocol":0,"map":"","folder":"","game":"","app_id":0,"player_count":16,"max_players":0,"Bots":0,"server_type":"","server_os":"","password":false,"vac":false,"version":"","steam_id":0,"keywords":null,"game_id":0,"stv_port":0,"stv_name":"","players":[{"user_id":2,"name":"ุ","steam_id":76561198084134025,"connected_time":7712000000000,"state":"active","ping":84},{"user_id":3,"name":"I just joined","steam_id":76561198057999536,"connected_time":7711000000000,"state":"active","ping":117},{"user_id":88,"name":"kale rarely","steam_id":76561197993458626,"connected_time":2252000000000,"state":"active","ping":52},{"user_id":82,"name":"Andallfor","steam_id":76561198350143349,"connected_time":3378000000000,"state":"active","ping":69},{"user_id":22,"name":"bouncypear","steam_id":76561198199800094,"connected_time":7701000000000,"state":"active","ping":71},{"user_id":143,"name":"Adam Sandler from grown ups 2","steam_id":76561199480087227,"connected_time":959000000000,"state":"active","ping":85},{"user_id":85,"name":"Blue⛧Melon","steam_id":76561197970926435,"connected_time":2569000000000,"state":"active","ping":52},{"user_id":144,"name":"hashmap","steam_id":76561198043794014,"connected_time":218000000000,"state":"active","ping":41},{"user_id":124,"name":"Vincent Van Bro","steam_id":76561197966919802,"connected_time":1175000000000,"state":"active","ping":103},{"user_id":87,"name":"Dr. Professor PJ, Ph.D","steam_id":76561198004429398,"connected_time":2337000000000,"state":"active","ping":62},{"user_id":100,"name":"1-800-GHOST-DANCE","steam_id":76561198835430429,"connected_time":1957000000000,"state":"active","ping":82},{"user_id":125,"name":"Mecha","steam_id":76561198014927379,"connected_time":1171000000000,"state":"active","ping":62},{"user_id":59,"name":"Durazorn","steam_id":76561198096327396,"connected_time":5272000000000,"state":"active","ping":126},{"user_id":142,"name":"larguu","steam_id":76561197994336210,"connected_time":1112000000000,"state":"active","ping":45},{"user_id":123,"name":"Moonly Days","steam_id":76561198188657895,"connected_time":1661000000000,"state":"active","ping":156},{"user_id":84,"name":"aqua","steam_id":76561199407709552,"connected_time":2873000000000,"state":"active","ping":71}]},{"server_id":13,"name":"Uncletopia | New York City | 1 | All Maps","name_short":"nyc-1","host":"nyc-1.us.uncletopia.com","port":27015,"enabled":true,"region":"us-east","cc":"us","latitude":40.73061,"longitude":-73.93524,"reserved":0,"last_update":"0001-01-01T00:00:00Z","name_a2s":"Uncletopia | New York City | 1 | All Maps","protocol":17,"map":"pl_barnblitz","folder":"tf","game":"Team Fortress","app_id":440,"player_count":21,"max_players":24,"Bots":0,"server_type":"Dedicated","server_os":"Linux","password":true,"vac":true,"version":"7961495","steam_id":85568392924469993,"keywords":["nocrits","nodmgspread","payload","uncletopia"],"game_id":440,"stv_port":27016,"stv_name":"Uncletopia | New York City | 1 | All Maps | STV","players":[{"user_id":198,"name":"LOKKI","steam_id":76561198259022887,"connected_time":388000000000,"state":"active","ping":149},{"user_id":191,"name":"Smiles","steam_id":76561198107197973,"connected_time":821000000000,"state":"active","ping":75},{"user_id":199,"name":"Bronze Age Furvert","steam_id":76561198859118263,"connected_time":388000000000,"state":"active","ping":76},{"user_id":182,"name":"Cactus_Armor","steam_id":76561198300669569,"connected_time":1329000000000,"state":"active","ping":81},{"user_id":200,"name":"Stonks","steam_id":76561199490085068,"connected_time":377000000000,"state":"active","ping":62},{"user_id":201,"name":"why?","steam_id":76561198170390298,"connected_time":370000000000,"state":"active","ping":84},{"user_id":119,"name":"Daksuki","steam_id":76561198084127751,"connected_time":5311000000000,"state":"active","ping":93},{"user_id":160,"name":"dyyd7706","steam_id":76561199230461523,"connected_time":2463000000000,"state":"active","ping":115},{"user_id":212,"name":"Reza The Cool","steam_id":76561198372285506,"connected_time":4000000000,"state":"spawning","ping":41},{"user_id":213,"name":"Tempest FIN","steam_id":76561198311021830,"connected_time":3000000000,"state":"spawning","ping":152},{"user_id":162,"name":"jstn","steam_id":76561198845283665,"connected_time":2438000000000,"state":"active","ping":75},{"user_id":202,"name":"GoldtoothFour","steam_id":76561198055529332,"connected_time":369000000000,"state":"active","ping":72},{"user_id":163,"name":"Copland OS","steam_id":76561198041800378,"connected_time":2427000000000,"state":"active","ping":70},{"user_id":179,"name":"Xavi","steam_id":76561198337783795,"connected_time":1380000000000,"state":"active","ping":38},{"user_id":190,"name":"k3ramb1t","steam_id":76561198097880352,"connected_time":1140000000000,"state":"active","ping":54},{"user_id":185,"name":"Smeller","steam_id":76561198041767882,"connected_time":1304000000000,"state":"active","ping":59},{"user_id":186,"name":"A Dodge Challenger","steam_id":76561198097978317,"connected_time":1279000000000,"state":"active","ping":58},{"user_id":187,"name":"the_woof","steam_id":76561197975329130,"connected_time":1265000000000,"state":"active","ping":42},{"user_id":156,"name":"fucked-up electronic punk.","steam_id":76561198294013916,"connected_time":3021000000000,"state":"active","ping":45},{"user_id":177,"name":"MochaTheGoat","steam_id":76561198295388936,"connected_time":1532000000000,"state":"active","ping":121},{"user_id":209,"name":"Beethoven Bitch","steam_id":76561198059848842,"connected_time":69000000000,"state":"active","ping":63}]},{"server_id":14,"name":"Uncletopia | New York City | 2 | All Maps","name_short":"nyc-2","host":"nyc-1.us.uncletopia.com","port":27025,"enabled":true,"region":"us-east","cc":"us","latitude":40.73061,"longitude":-73.93524,"reserved":0,"last_update":"0001-01-01T00:00:00Z","name_a2s":"Uncletopia | New York City | 2 | All Maps","protocol":17,"map":"cp_dustbowl","folder":"tf","game":"Team Fortress","app_id":440,"player_count":22,"max_players":24,"Bots":0,"server_type":"Dedicated","server_os":"Linux","password":true,"vac":true,"version":"7961495","steam_id":85568392924469994,"keywords":["cp","nocrits","nodmgspread","uncletopia"],"game_id":440,"stv_port":27026,"stv_name":"Uncletopia | New York City | 2 | All Maps | STV","players":[{"user_id":543,"name":"Gluestick","steam_id":76561199013430308,"connected_time":40000000000,"state":"active","ping":106},{"user_id":520,"name":"NYC APPA YIP YIP","steam_id":76561198112929942,"connected_time":1746000000000,"state":"active","ping":50},{"user_id":534,"name":"Cum Time™","steam_id":76561198003137065,"connected_time":649000000000,"state":"active","ping":44},{"user_id":521,"name":"Chernov","steam_id":76561198014463424,"connected_time":1712000000000,"state":"active","ping":38},{"user_id":539,"name":"Sire Salty","steam_id":76561198079639072,"connected_time":75000000000,"state":"active","ping":109},{"user_id":541,"name":"Feces","steam_id":76561198380219187,"connected_time":60000000000,"state":"active","ping":65},{"user_id":542,"name":"Jerk Tryhard (roleplay)","steam_id":76561199470538309,"connected_time":56000000000,"state":"spawning","ping":498},{"user_id":523,"name":"eaglesfan609","steam_id":76561198151032242,"connected_time":1583000000000,"state":"active","ping":47},{"user_id":473,"name":"Gentoo Linux Gaming","steam_id":76561197999657118,"connected_time":4345000000000,"state":"active","ping":70},{"user_id":537,"name":"Normalux","steam_id":76561198293891426,"connected_time":372000000000,"state":"active","ping":84},{"user_id":531,"name":"Kelpy","steam_id":76561198294906383,"connected_time":729000000000,"state":"active","ping":45},{"user_id":530,"name":"Kiss Master","steam_id":76561198289572271,"connected_time":778000000000,"state":"active","ping":75},{"user_id":540,"name":"YummerBummer","steam_id":76561198094773987,"connected_time":74000000000,"state":"active","ping":53},{"user_id":533,"name":"catface","steam_id":76561198096347625,"connected_time":707000000000,"state":"active","ping":74},{"user_id":536,"name":"milk","steam_id":76561198813251405,"connected_time":409000000000,"state":"active","ping":50},{"user_id":538,"name":"kjc105","steam_id":76561198880364422,"connected_time":245000000000,"state":"active","ping":83},{"user_id":527,"name":"Capzlockz3","steam_id":76561198310863739,"connected_time":1044000000000,"state":"active","ping":42},{"user_id":532,"name":"Captain, Sir","steam_id":76561198874804989,"connected_time":721000000000,"state":"active","ping":136},{"user_id":544,"name":"franc | montuga;com","steam_id":76561198417807155,"connected_time":25000000000,"state":"active","ping":45},{"user_id":526,"name":"Top Frog","steam_id":76561198072793446,"connected_time":1191000000000,"state":"active","ping":70},{"user_id":501,"name":"Elena Manetta","steam_id":76561197998344054,"connected_time":2454000000000,"state":"active","ping":31},{"user_id":515,"name":"r1bbit","steam_id":76561198149212502,"connected_time":1985000000000,"state":"active","ping":89}]},{"server_id":15,"name":"Uncletopia | New York City | 3 | Stopwatch","name_short":"nyc-3","host":"nyc-1.us.uncletopia.com","port":27035,"enabled":true,"region":"us-east","cc":"us","latitude":40.73061,"longitude":-73.93524,"reserved":0,"last_update":"0001-01-01T00:00:00Z","name_a2s":"Uncletopia | New York City | 3 | Stopwatch","protocol":17,"map":"workshop/koth_product_final.ugc454272353","folder":"tf","game":"Team Fortress","app_id":440,"player_count":21,"max_players":24,"Bots":0,"server_type":"Dedicated","server_os":"Linux","password":true,"vac":true,"version":"7961495","steam_id":85568392924742820,"keywords":["cp","nocrits","nodmgspread","uncletopia"],"game_id":440,"stv_port":27036,"stv_name":"Uncletopia | New York City | 3 | Stopwatch | STV","players":[{"user_id":96,"name":"✪ dSaner -iwnl-","steam_id":76561198082291174,"connected_time":1379000000000,"state":"active","ping":78},{"user_id":55,"name":"Capn. Wing Ding","steam_id":76561198076068424,"connected_time":3734000000000,"state":"active","ping":62},{"user_id":118,"name":"phone","steam_id":76561198029268743,"connected_time":515000000000,"state":"active","ping":60},{"user_id":121,"name":"box","steam_id":76561198049531483,"connected_time":39000000000,"state":"active","ping":80},{"user_id":74,"name":"too much peyote","steam_id":76561198161747964,"connected_time":2587000000000,"state":"active","ping":94},{"user_id":72,"name":"SilverLife25","steam_id":76561198392015722,"connected_time":2620000000000,"state":"active","ping":99},{"user_id":108,"name":"BLANK3T [They/He femboy on THC]","steam_id":76561198028875624,"connected_time":998000000000,"state":"active","ping":120},{"user_id":95,"name":"The Notorious RBG","steam_id":76561198014275148,"connected_time":1428000000000,"state":"active","ping":61},{"user_id":98,"name":"the creamer","steam_id":76561198400486883,"connected_time":1203000000000,"state":"active","ping":46},{"user_id":119,"name":"market","steam_id":76561198056871257,"connected_time":462000000000,"state":"active","ping":46},{"user_id":104,"name":"Spaghettios","steam_id":76561198070323656,"connected_time":1126000000000,"state":"active","ping":80},{"user_id":29,"name":"baconandx","steam_id":76561198355074004,"connected_time":5357000000000,"state":"active","ping":65},{"user_id":112,"name":"Plimki","steam_id":76561199019877748,"connected_time":822000000000,"state":"active","ping":70},{"user_id":79,"name":"FleshGoon D'Beepocalypse","steam_id":76561198044519176,"connected_time":2538000000000,"state":"active","ping":65},{"user_id":101,"name":"cpg","steam_id":76561198853515541,"connected_time":1194000000000,"state":"active","ping":88},{"user_id":80,"name":"Sableye","steam_id":76561198061247147,"connected_time":2530000000000,"state":"active","ping":77},{"user_id":114,"name":"IanTheAwsm","steam_id":76561198093031738,"connected_time":779000000000,"state":"active","ping":67},{"user_id":88,"name":"uufyfuu","steam_id":76561198142787212,"connected_time":2303000000000,"state":"active","ping":101},{"user_id":120,"name":"MEATBALL","steam_id":76561198028499312,"connected_time":371000000000,"state":"active","ping":47},{"user_id":117,"name":"A 2008 Laptop.","steam_id":76561198860068961,"connected_time":647000000000,"state":"active","ping":45},{"user_id":111,"name":"Cheese","steam_id":76561198069997079,"connected_time":968000000000,"state":"active","ping":71}]},{"server_id":16,"name":"Uncletopia | New York City | 4 | Community","name_short":"nyc-4","host":"nyc-1.us.uncletopia.com","port":27045,"enabled":true,"region":"us-east","cc":"us","latitude":40.73061,"longitude":-73.93524,"reserved":0,"last_update":"0001-01-01T00:00:00Z","name_a2s":"Uncletopia | New York City | 4 | Community","protocol":17,"map":"workshop/koth_slaughter_rc1.ugc1712845210","folder":"tf","game":"Team Fortress","app_id":440,"player_count":8,"max_players":24,"Bots":0,"server_type":"Dedicated","server_os":"Linux","password":true,"vac":true,"version":"7961495","steam_id":85568392924742821,"keywords":["cp","nocrits","nodmgspread","uncletopia"],"game_id":440,"stv_port":27046,"stv_name":"Uncletopia | New York City | 4 | Community | STV","players":[{"user_id":38,"name":"LeenBeen","steam_id":76561199251065660,"connected_time":335000000000,"state":"active","ping":56},{"user_id":32,"name":"XboxGold14dayfreetrial","steam_id":76561199087480628,"connected_time":685000000000,"state":"active","ping":117},{"user_id":12,"name":"daksi","steam_id":76561198202051432,"connected_time":2907000000000,"state":"active","ping":56},{"user_id":39,"name":"nhbiker","steam_id":76561198081277675,"connected_time":319000000000,"state":"active","ping":44},{"user_id":40,"name":"pinkissocool {f2p}","steam_id":76561198989599828,"connected_time":257000000000,"state":"active","ping":37},{"user_id":27,"name":"Captain Chicken","steam_id":76561198047767530,"connected_time":1650000000000,"state":"active","ping":168},{"user_id":34,"name":"killer fish from san diego","steam_id":76561198875612039,"connected_time":544000000000,"state":"active","ping":55},{"user_id":35,"name":"The Incredible Fem Boy","steam_id":76561198355754259,"connected_time":530000000000,"state":"active","ping":56}]},{"server_id":142,"name":"Uncletopia | São Paulo | 1 | All Maps","name_short":"sao-1","host":"sao-1.br.uncletopia.com","port":27015,"enabled":true,"region":"sa","cc":"br","latitude":-23.533773,"longitude":-46.62529,"reserved":0,"last_update":"0001-01-01T00:00:00Z","name_a2s":"Uncletopia | São Paulo | 1 | All Maps","protocol":17,"map":"koth_harvest_final","folder":"tf","game":"Team Fortress","app_id":440,"player_count":0,"max_players":24,"Bots":0,"server_type":"Dedicated","server_os":"Linux","password":true,"vac":true,"version":"7961495","steam_id":85568392924469996,"keywords":["cp","nocrits","nodmgspread","uncletopia"],"game_id":440,"stv_port":27016,"stv_name":"Uncletopia | São Paulo | 1 | All Maps | STV","players":null},{"server_id":143,"name":"Uncletopia | São Paulo | 2 | Community","name_short":"sao-2","host":"sao-2.br.uncletopia.com","port":27015,"enabled":true,"region":"sa","cc":"br","latitude":-23.533773,"longitude":-46.62529,"reserved":0,"last_update":"0001-01-01T00:00:00Z","name_a2s":"Uncletopia | São Paulo | 2 | Community","protocol":17,"map":"workshop/cp_propaganda_b18.ugc1603743849","folder":"tf","game":"Team Fortress","app_id":440,"player_count":0,"max_players":24,"Bots":0,"server_type":"Dedicated","server_os":"Linux","password":true,"vac":true,"version":"7961495","steam_id":85568392924485349,"keywords":["cp","nocrits","nodmgspread","uncletopia"],"game_id":440,"stv_port":27016,"stv_name":"Uncletopia | São Paulo | 2 | Community | STV","players":null},{"server_id":7,"name":"Uncletopia | Seattle | 1 | All Maps","name_short":"sea-1","host":"sea-1.us.uncletopia.com","port":27015,"enabled":true,"region":"us-west","cc":"us","latitude":47.608013,"longitude":-122.33517,"reserved":0,"last_update":"0001-01-01T00:00:00Z","name_a2s":"Uncletopia | Seattle | 1 | All Maps","protocol":17,"map":"pl_borneo","folder":"tf","game":"Team Fortress","app_id":440,"player_count":24,"max_players":24,"Bots":0,"server_type":"Dedicated","server_os":"Linux","password":true,"vac":true,"version":"7961495","steam_id":85568392924469997,"keywords":["nocrits","nodmgspread","payload","uncletopia"],"game_id":440,"stv_port":27016,"stv_name":"Uncletopia | Seattle | 1 | All Maps | STV","players":[{"user_id":371,"name":"gorp 4 (she/herr)","steam_id":76561199431553789,"connected_time":1546000000000,"state":"active","ping":73},{"user_id":377,"name":"SAVECASEY","steam_id":76561198857896847,"connected_time":1001000000000,"state":"active","ping":72},{"user_id":355,"name":"piipy :))","steam_id":76561198450073779,"connected_time":2256000000000,"state":"active","ping":45},{"user_id":356,"name":"jayeskae","steam_id":76561198144220801,"connected_time":2231000000000,"state":"active","ping":47},{"user_id":379,"name":"gugcat","steam_id":76561198129822860,"connected_time":964000000000,"state":"active","ping":45},{"user_id":360,"name":"MonteJT","steam_id":76561198055409360,"connected_time":2055000000000,"state":"active","ping":33},{"user_id":380,"name":"Keebler","steam_id":76561199465040669,"connected_time":961000000000,"state":"active","ping":45},{"user_id":361,"name":"Layeshi (they/them)","steam_id":76561198027321950,"connected_time":2033000000000,"state":"active","ping":42},{"user_id":382,"name":"MrYadaization","steam_id":76561198050770818,"connected_time":329000000000,"state":"active","ping":57},{"user_id":313,"name":"weegeebad","steam_id":76561198280841437,"connected_time":5099000000000,"state":"active","ping":114},{"user_id":383,"name":"ms. anthrope","steam_id":76561198063533082,"connected_time":291000000000,"state":"active","ping":39},{"user_id":276,"name":"greens beans","steam_id":76561198153611491,"connected_time":7945000000000,"state":"active","ping":42},{"user_id":352,"name":"bear1boss fan","steam_id":76561198047850813,"connected_time":2643000000000,"state":"active","ping":56},{"user_id":350,"name":"BeepieSheepie","steam_id":76561198106327537,"connected_time":2884000000000,"state":"active","ping":114},{"user_id":340,"name":"mine diam","steam_id":76561198119123981,"connected_time":3791000000000,"state":"active","ping":58},{"user_id":375,"name":"Space360","steam_id":76561198106743284,"connected_time":1377000000000,"state":"active","ping":45},{"user_id":374,"name":"Strikerbolt","steam_id":76561199095622897,"connected_time":1478000000000,"state":"active","ping":78},{"user_id":364,"name":"rilelyscastle","steam_id":76561198090372870,"connected_time":1769000000000,"state":"active","ping":46},{"user_id":344,"name":"mmmmmmmmmmmmmmmmmm","steam_id":76561199267742979,"connected_time":3514000000000,"state":"active","ping":79},{"user_id":347,"name":"Fluffy","steam_id":76561198115952540,"connected_time":3202000000000,"state":"active","ping":46},{"user_id":337,"name":"ZEKKER","steam_id":76561197967968980,"connected_time":4029000000000,"state":"active","ping":38},{"user_id":381,"name":"Klone","steam_id":76561198854485605,"connected_time":805000000000,"state":"active","ping":120},{"user_id":369,"name":"sagekiss","steam_id":76561198038831240,"connected_time":1645000000000,"state":"active","ping":46},{"user_id":372,"name":"Bocchi the Rock Johnson","steam_id":76561198216017952,"connected_time":1544000000000,"state":"active","ping":80}]},{"server_id":119,"name":"Uncletopia | Seattle | 2 | All Maps","name_short":"sea-2","host":"sea-1.us.uncletopia.com","port":27025,"enabled":true,"region":"us-west","cc":"us","latitude":47.608013,"longitude":-122.33517,"reserved":0,"last_update":"0001-01-01T00:00:00Z","name_a2s":"Uncletopia | Seattle | 2 | All Maps","protocol":17,"map":"koth_cascade","folder":"tf","game":"Team Fortress","app_id":440,"player_count":0,"max_players":24,"Bots":0,"server_type":"Dedicated","server_os":"Linux","password":true,"vac":true,"version":"7961495","steam_id":85568392924469998,"keywords":["cp","nocrits","nodmgspread","uncletopia"],"game_id":440,"stv_port":27026,"stv_name":"Uncletopia | Seattle | 2 | All Maps | STV","players":null},{"server_id":406,"name":"Uncletopia | Seattle | 3 | Stopwatch","name_short":"sea-3","host":"sea-1.us.uncletopia.com","port":27035,"enabled":true,"region":"us-west","cc":"us","latitude":47.608013,"longitude":-122.33517,"reserved":0,"last_update":"0001-01-01T00:00:00Z","name_a2s":"Uncletopia | Seattle | 3 | Stopwatch","protocol":17,"map":"workshop/pl_badwater_pro_v12.ugc2142942074","folder":"tf","game":"Team Fortress","app_id":440,"player_count":0,"max_players":24,"Bots":0,"server_type":"Dedicated","server_os":"Linux","password":true,"vac":true,"version":"7961495","steam_id":85568392924515217,"keywords":["nocrits","nodmgspread","payload","uncletopia"],"game_id":440,"stv_port":27036,"stv_name":"Uncletopia | Seattle | 3 | Stopwatch | STV","players":null},{"server_id":17,"name":"Uncletopia | San Francisco | 1 | All Maps","name_short":"sfo-1","host":"sfo-1.us.uncletopia.com","port":27015,"enabled":true,"region":"us-west","cc":"us","latitude":37.77397,"longitude":-122.4313,"reserved":0,"last_update":"0001-01-01T00:00:00Z","name_a2s":"Uncletopia | San Francisco | 1 | All Maps","protocol":17,"map":"koth_cascade","folder":"tf","game":"Team Fortress","app_id":440,"player_count":0,"max_players":24,"Bots":0,"server_type":"Dedicated","server_os":"Linux","password":true,"vac":true,"version":"7961495","steam_id":85568392924469999,"keywords":["cp","nocrits","nodmgspread","uncletopia"],"game_id":440,"stv_port":27016,"stv_name":"Uncletopia | San Francisco | 1 | All Maps | STV","players":null},{"server_id":18,"name":"Uncletopia | San Francisco | 2 | All Maps","name_short":"sfo-2","host":"sfo-1.us.uncletopia.com","port":27025,"enabled":true,"region":"us-west","cc":"us","latitude":37.77397,"longitude":-122.4313,"reserved":0,"last_update":"0001-01-01T00:00:00Z","name_a2s":"Uncletopia | San Francisco | 2 | All Maps","protocol":17,"map":"pl_snowycoast","folder":"tf","game":"Team Fortress","app_id":440,"player_count":0,"max_players":24,"Bots":0,"server_type":"Dedicated","server_os":"Linux","password":true,"vac":true,"version":"7961495","steam_id":85568392924470000,"keywords":["nocrits","nodmgspread","payload","uncletopia"],"game_id":440,"stv_port":27026,"stv_name":"Uncletopia | San Francisco | 2 | All Maps | STV","players":null},{"server_id":19,"name":"Uncletopia | San Francisco | 3 | Stopwatch","name_short":"sfo-3","host":"sfo-1.us.uncletopia.com","port":27035,"enabled":true,"region":"us-west","cc":"us","latitude":37.77397,"longitude":-122.4313,"reserved":0,"last_update":"0001-01-01T00:00:00Z","name_a2s":"Uncletopia | San Francisco | 3 | Stopwatch","protocol":17,"map":"pl_pier","folder":"tf","game":"Team Fortress","app_id":440,"player_count":0,"max_players":24,"Bots":0,"server_type":"Dedicated","server_os":"Linux","password":true,"vac":true,"version":"7961495","steam_id":85568392924742824,"keywords":["nocrits","nodmgspread","payload","uncletopia"],"game_id":440,"stv_port":27036,"stv_name":"Uncletopia | San Francisco | 3 | Stopwatch | STV","players":null},{"server_id":20,"name":"Uncletopia | San Francisco | 4 | Community","name_short":"sfo-4","host":"sfo-1.us.uncletopia.com","port":27045,"enabled":true,"region":"us-west","cc":"us","latitude":37.77397,"longitude":-122.4313,"reserved":0,"last_update":"0001-01-01T00:00:00Z","name_a2s":"Uncletopia | San Francisco | 4 | Community","protocol":17,"map":"workshop/pl_boundary_final1.ugc456799153","folder":"tf","game":"Team Fortress","app_id":440,"player_count":0,"max_players":24,"Bots":0,"server_type":"Dedicated","server_os":"Linux","password":true,"vac":true,"version":"7961495","steam_id":85568392924742826,"keywords":["nocrits","nodmgspread","payload","uncletopia"],"game_id":440,"stv_port":27046,"stv_name":"Uncletopia | San Francisco | 4 | Community | STV","players":null},{"server_id":141,"name":"Uncletopia | Sydney | 1 | All Maps","name_short":"syd-1","host":"syd-1.au.uncletopia.com","port":27015,"enabled":true,"region":"au","cc":"au","latitude":-33.865143,"longitude":151.2099,"reserved":0,"last_update":"0001-01-01T00:00:00Z","name_a2s":"Uncletopia | Sydney | 1 | All Maps","protocol":17,"map":"koth_viaduct","folder":"tf","game":"Team Fortress","app_id":440,"player_count":0,"max_players":24,"Bots":0,"server_type":"Dedicated","server_os":"Linux","password":true,"vac":true,"version":"7961495","steam_id":85568392924470001,"keywords":["cp","nocrits","nodmgspread","uncletopia"],"game_id":440,"stv_port":27016,"stv_name":"Uncletopia | Sydney | 1 | All Maps | STV","players":null},{"server_id":123,"name":"Uncletopia | Sydney | 2 | All Maps","name_short":"syd-2","host":"syd-1.au.uncletopia.com","port":27025,"enabled":true,"region":"au","cc":"au","latitude":-33.865143,"longitude":151.2099,"reserved":0,"last_update":"0001-01-01T00:00:00Z","name_a2s":"Uncletopia | Sydney | 2 | All Maps","protocol":17,"map":"koth_lakeside_final","folder":"tf","game":"Team Fortress","app_id":440,"player_count":0,"max_players":24,"Bots":0,"server_type":"Dedicated","server_os":"Linux","password":true,"vac":true,"version":"7961495","steam_id":85568392924470002,"keywords":["cp","nocrits","nodmgspread","uncletopia"],"game_id":440,"stv_port":27026,"stv_name":"Uncletopia | Sydney | 2 | All Maps | STV","players":null},{"server_id":395,"name":"Uncletopia | Sydney | 3 | All Maps","name_short":"syd-3","host":"syd-1.au.uncletopia.com","port":27035,"enabled":true,"region":"au","cc":"au","latitude":-33.865143,"longitude":151.2099,"reserved":0,"last_update":"0001-01-01T00:00:00Z","name_a2s":"Uncletopia | Sydney | 3 | All Maps","protocol":17,"map":"pl_frontier_final","folder":"tf","game":"Team Fortress","app_id":440,"player_count":0,"max_players":24,"Bots":0,"server_type":"Dedicated","server_os":"Linux","password":true,"vac":true,"version":"7961495","steam_id":85568392925194467,"keywords":["nocrits","nodmgspread","payload","uncletopia"],"game_id":440,"stv_port":27036,"stv_name":"Uncletopia | Sydney | 3 | All Maps | STV","players":null},{"server_id":396,"name":"Uncletopia | Sydney | 4 | All Maps","name_short":"syd-4","host":"syd-1.au.uncletopia.com","port":27045,"enabled":true,"region":"au","cc":"au","latitude":-33.865143,"longitude":151.2099,"reserved":0,"last_update":"0001-01-01T00:00:00Z","name_a2s":"Uncletopia | Sydney | 4 | All Maps","protocol":17,"map":"pl_upward","folder":"tf","game":"Team Fortress","app_id":440,"player_count":0,"max_players":24,"Bots":0,"server_type":"Dedicated","server_os":"Linux","password":true,"vac":true,"version":"7961495","steam_id":85568392925397958,"keywords":["nocrits","nodmgspread","payload","uncletopia"],"game_id":440,"stv_port":27046,"stv_name":"Uncletopia | Sydney | 4 | All Maps | STV","players":null},{"server_id":58,"name":"Uncletopia | Sydney | 5 | Stopwatch","name_short":"syd-5","host":"syd-1.au.uncletopia.com","port":27055,"enabled":true,"region":"au","cc":"au","latitude":-33.865143,"longitude":151.2099,"reserved":0,"last_update":"0001-01-01T00:00:00Z","name_a2s":"Uncletopia | Sydney | 5 | Stopwatch","protocol":17,"map":"pl_frontier_final","folder":"tf","game":"Team Fortress","app_id":440,"player_count":0,"max_players":24,"Bots":0,"server_type":"Dedicated","server_os":"Linux","password":true,"vac":true,"version":"7961495","steam_id":85568392925397959,"keywords":["nocrits","nodmgspread","payload","uncletopia"],"game_id":440,"stv_port":27056,"stv_name":"Uncletopia | Sydney | 5 | Stopwatch | STV","players":null},{"server_id":59,"name":"Uncletopia | Sydney | 6 | Community","name_short":"syd-6","host":"syd-1.au.uncletopia.com","port":27065,"enabled":true,"region":"au","cc":"au","latitude":-33.865143,"longitude":151.2099,"reserved":0,"last_update":"0001-01-01T00:00:00Z","name_a2s":"Uncletopia | Sydney | 6 | Community","protocol":17,"map":"cp_sunshine","folder":"tf","game":"Team Fortress","app_id":440,"player_count":0,"max_players":24,"Bots":0,"server_type":"Dedicated","server_os":"Linux","password":true,"vac":true,"version":"7961495","steam_id":85568392925397960,"keywords":["cp","nocrits","nodmgspread","uncletopia"],"game_id":440,"stv_port":27066,"stv_name":"Uncletopia | Sydney | 6 | Community | STV","players":null},{"server_id":49,"name":"Uncletopia | Warsaw | 1 | All Maps","name_short":"waw-1","host":"waw-1.pl.uncletopia.com","port":27015,"enabled":true,"region":"eu","cc":"pl","latitude":52.2297,"longitude":21.017532,"reserved":0,"last_update":"0001-01-01T00:00:00Z","name_a2s":"Uncletopia | Warsaw | 1 | All Maps","protocol":17,"map":"koth_lakeside_final","folder":"tf","game":"Team Fortress","app_id":440,"player_count":0,"max_players":24,"Bots":0,"server_type":"Dedicated","server_os":"Linux","password":true,"vac":true,"version":"7961495","steam_id":85568392925397850,"keywords":["cp","nocrits","nodmgspread","uncletopia"],"game_id":440,"stv_port":27016,"stv_name":"Uncletopia | Warsaw | 1 | All Maps | STV","players":null},{"server_id":50,"name":"Uncletopia | Warsaw | 2 | All Maps","name_short":"waw-2","host":"waw-1.pl.uncletopia.com","port":27025,"enabled":true,"region":"eu","cc":"pl","latitude":52.2297,"longitude":21.017532,"reserved":0,"last_update":"0001-01-01T00:00:00Z","name_a2s":"Uncletopia | Warsaw | 2 | All Maps","protocol":17,"map":"koth_highpass","folder":"tf","game":"Team Fortress","app_id":440,"player_count":0,"max_players":24,"Bots":0,"server_type":"Dedicated","server_os":"Linux","password":true,"vac":true,"version":"7961495","steam_id":85568392925397851,"keywords":["cp","nocrits","nodmgspread","uncletopia"],"game_id":440,"stv_port":27026,"stv_name":"Uncletopia | Warsaw | 2 | All Maps | STV","players":null},{"server_id":51,"name":"Uncletopia | Warsaw | 3 | All Maps","name_short":"waw-3","host":"waw-1.pl.uncletopia.com","port":27035,"enabled":true,"region":"eu","cc":"pl","latitude":52.2297,"longitude":21.017532,"reserved":0,"last_update":"0001-01-01T00:00:00Z","name_a2s":"Uncletopia | Warsaw | 3 | All Maps","protocol":17,"map":"pl_badwater","folder":"tf","game":"Team Fortress","app_id":440,"player_count":0,"max_players":24,"Bots":0,"server_type":"Dedicated","server_os":"Linux","password":true,"vac":true,"version":"7961495","steam_id":85568392925397852,"keywords":["nocrits","nodmgspread","payload","uncletopia"],"game_id":440,"stv_port":27036,"stv_name":"Uncletopia | Warsaw | 3 | All Maps | STV","players":null},{"server_id":52,"name":"Uncletopia | Warsaw | 4 | All Maps","name_short":"waw-4","host":"waw-1.pl.uncletopia.com","port":27045,"enabled":true,"region":"eu","cc":"pl","latitude":52.2297,"longitude":21.017532,"reserved":0,"last_update":"0001-01-01T00:00:00Z","name_a2s":"Uncletopia | Warsaw | 4 | All Maps","protocol":17,"map":"cp_dustbowl","folder":"tf","game":"Team Fortress","app_id":440,"player_count":0,"max_players":24,"Bots":0,"server_type":"Dedicated","server_os":"Linux","password":true,"vac":true,"version":"7961495","steam_id":85568392925397853,"keywords":["cp","nocrits","nodmgspread","uncletopia"],"game_id":440,"stv_port":27046,"stv_name":"Uncletopia | Warsaw | 4 | All Maps | STV","players":null},{"server_id":53,"name":"Uncletopia | Warsaw | 5 | Stopwatch","name_short":"waw-5","host":"waw-1.pl.uncletopia.com","port":27055,"enabled":true,"region":"eu","cc":"pl","latitude":52.2297,"longitude":21.017532,"reserved":0,"last_update":"0001-01-01T00:00:00Z","name_a2s":"Uncletopia | Warsaw | 5 | Stopwatch","protocol":17,"map":"workshop/koth_ramjam_rc1.ugc459778887","folder":"tf","game":"Team Fortress","app_id":440,"player_count":0,"max_players":24,"Bots":0,"server_type":"Dedicated","server_os":"Linux","password":true,"vac":true,"version":"7961495","steam_id":85568392925397854,"keywords":["cp","nocrits","nodmgspread","uncletopia"],"game_id":440,"stv_port":27056,"stv_name":"Uncletopia | Warsaw | 5 | Stopwatch | STV","players":null},{"server_id":54,"name":"Uncletopia | Warsaw | 6 | Community","name_short":"waw-6","host":"waw-1.pl.uncletopia.com","port":27065,"enabled":true,"region":"eu","cc":"pl","latitude":52.2297,"longitude":21.017532,"reserved":0,"last_update":"0001-01-01T00:00:00Z","name_a2s":"Uncletopia | Warsaw | 6 | Community","protocol":17,"map":"workshop/pl_emerge_rc2.ugc888027758","folder":"tf","game":"Team Fortress","app_id":440,"player_count":0,"max_players":24,"Bots":0,"server_type":"Dedicated","server_os":"Linux","password":true,"vac":true,"version":"7961495","steam_id":85568392925397856,"keywords":["nocrits","nodmgspread","payload","uncletopia"],"game_id":440,"stv_port":27066,"stv_name":"Uncletopia | Warsaw | 6 | Community | STV","players":null}]}