{"status":true,"message":"","result":[{"server_id":9,"name":"Uncletopia | Atlanta | 1 | All Maps","name_short":"atl-1","host":"atl-1.us.uncletopia.com","port":27015,"enabled":true,"region":"us-east","cc":"us","latitude":33.753746,"longitude":-84.38633,"reserved":0,"last_update":"0001-01-01T00:00:00Z","name_a2s":"Uncletopia | Atlanta | 1 | All Maps","protocol":17,"map":"pl_pier","folder":"tf","game":"Team Fortress","app_id":440,"player_count":24,"max_players":24,"Bots":0,"server_type":"Dedicated","server_os":"Linux","password":true,"vac":true,"version":"7742253","steam_id":85568392924469982,"keywords":["nocrits","nodmgspread","payload","uncletopia"],"game_id":440,"stv_port":27016,"stv_name":"Uncletopia | Atlanta | 1 | All Maps | STV","players":[{"user_id":364,"name":"ATL1 | on my hunting trip","steam_id":76561198315341646,"connected_time":1917000000000,"state":"active","ping":72},{"user_id":371,"name":"ATL1 | SparkStorm","steam_id":76561198095817025,"connected_time":962000000000,"state":"active","ping":38},{"user_id":382,"name":"Stampdawg","steam_id":76561198050500060,"connected_time":74000000000,"state":"active","ping":88},{"user_id":349,"name":"kohi","steam_id":76561198319990195,"connected_time":2707000000000,"state":"active","ping":90},{"user_id":367,"name":"Britches the Bridges","steam_id":76561198024339158,"connected_time":1451000000000,"state":"active","ping":64},{"user_id":345,"name":"Lamic","steam_id":76561198102388474,"connected_time":2893000000000,"state":"active","ping":56},{"user_id":372,"name":"Big Cash","steam_id":76561198064010622,"connected_time":634000000000,"state":"active","ping":61},{"user_id":335,"name":"Bandicario","steam_id":76561198432036026,"connected_time":4120000000000,"state":"active","ping":50},{"user_id":366,"name":"Amestris","steam_id":76561198097284610,"connected_time":1489000000000,"state":"active","ping":75},{"user_id":356,"name":"shadow","steam_id":76561198161824724,"connected_time":2325000000000,"state":"active","ping":96},{"user_id":323,"name":"ATL1 | Lav4ie They/Them","steam_id":76561198825997674,"connected_time":4489000000000,"state":"active","ping":57},{"user_id":363,"name":"christmas.jimmy.2014","steam_id":76561199177672325,"connected_time":2035000000000,"state":"active","ping":46},{"user_id":368,"name":"Banana Patrick","steam_id":76561198258067237,"connected_time":1434000000000,"state":"active","ping":78},{"user_id":381,"name":"Jellyboi","steam_id":76561197995758438,"connected_time":131000000000,"state":"active","ping":63},{"user_id":339,"name":"sansa musa","steam_id":76561198163723555,"connected_time":3488000000000,"state":"active","ping":86},{"user_id":350,"name":"Sigiferd","steam_id":76561198148788110,"connected_time":2706000000000,"state":"active","ping":125},{"user_id":359,"name":"Mr.Mug (Festive)","steam_id":76561199282207802,"connected_time":2308000000000,"state":"active","ping":78},{"user_id":379,"name":"knotsofunny","steam_id":76561198071336304,"connected_time":211000000000,"state":"active","ping":74},{"user_id":337,"name":"jstn","steam_id":76561198845283665,"connected_time":3816000000000,"state":"active","ping":57},{"user_id":373,"name":"‚Ä†  Rockhead  ‚Ä†","steam_id":76561197995196535,"connected_time":452000000000,"state":"active","ping":70},{"user_id":375,"name":"puikuto","steam_id":76561199095484624,"connected_time":287000000000,"state":"active","ping":82},{"user_id":330,"name":"Winter the Witchie","steam_id":76561198151971178,"connected_time":4218000000000,"state":"active","ping":105},{"user_id":378,"name":"Ziggy","steam_id":76561198355577506,"connected_time":239000000000,"state":"active","ping":58}]},{"server_id":400,"name":"Uncletopia | Atlanta | 3 | Stopwatch Beta","name_short":"atl-3","host":"atl-1.us.uncletopia.com","port":27035,"enabled":true,"region":"us-east","cc":"us","latitude":33.753746,"longitude":-84.38633,"reserved":0,"last_update":"0001-01-01T00:00:00Z","name_a2s":"Uncletopia | Atlanta | 3 | Stopwatch Beta","protocol":17,"map":"workshop/pl_summercoast_rc8e.ugc1761528829","folder":"tf","game":"Team Fortress","app_id":440,"player_count":23,"max_players":24,"Bots":0,"server_type":"Dedicated","server_os":"Linux","password":true,"vac":true,"version":"7742253","steam_id":85568392924515187,"keywords":["nocrits","nodmgspread","payload","uncletopia"],"game_id":440,"stv_port":27036,"stv_name":"Uncletopia | Atlanta | 3 | Stopwatch Beta | STV","players":[{"user_id":461,"name":"CHEF","steam_id":76561199028833327,"connected_time":693000000000,"state":"active","ping":95},{"user_id":467,"name":"Alfonso Molestro","steam_id":76561197998677099,"connected_time":458000000000,"state":"active","ping":100},{"user_id":455,"name":"Buzzy Boarder","steam_id":76561198031754871,"connected_time":1227000000000,"state":"active","ping":94},{"user_id":463,"name":"Drop a Draco","steam_id":76561198120735848,"connected_time":599000000000,"state":"active","ping":136},{"user_id":464,"name":"swan","steam_id":76561198012569200,"connected_time":581000000000,"state":"active","ping":83},{"user_id":409,"name":"PhaserLazer","steam_id":76561198407341298,"connected_time":3610000000000,"state":"active","ping":73},{"user_id":468,"name":"fatmastersus","steam_id":76561199063884752,"connected_time":433000000000,"state":"active","ping":100},{"user_id":436,"name":"darkesther0","steam_id":76561198858282525,"connected_time":2427000000000,"state":"active","ping":126},{"user_id":469,"name":"glass","steam_id":76561198845795659,"connected_time":406000000000,"state":"active","ping":83},{"user_id":457,"name":"Ch4rl33","steam_id":76561198037008621,"connected_time":990000000000,"state":"active","ping":76},{"user_id":448,"name":"Havok","steam_id":76561198063455003,"connected_time":1616000000000,"state":"active","ping":95},{"user_id":479,"name":"Jakethesnake558","steam_id":76561199059365749,"connected_time":43000000000,"state":"active","ping":104},{"user_id":432,"name":"AliCeline","steam_id":76561198207017241,"connected_time":3002000000000,"state":"active","ping":83},{"user_id":471,"name":"ned stark from got of throne","steam_id":76561198060133892,"connected_time":337000000000,"state":"active","ping":104},{"user_id":418,"name":"blibulon","steam_id":76561198370642854,"connected_time":3254000000000,"state":"active","ping":92},{"user_id":419,"name":"AssassinHit6th","steam_id":76561199406024406,"connected_time":3241000000000,"state":"active","ping":108},{"user_id":472,"name":"literally down with the flu, he","steam_id":76561198205386960,"connected_time":270000000000,"state":"active","ping":97},{"user_id":473,"name":"deeply colorful","steam_id":76561199059099841,"connected_time":256000000000,"state":"active","ping":114},{"user_id":474,"name":"callum","steam_id":76561198070918366,"connected_time":248000000000,"state":"active","ping":98},{"user_id":443,"name":"Doctor Sex","steam_id":76561198119503652,"connected_time":2245000000000,"state":"active","ping":76},{"user_id":435,"name":"nicholasballard7109","steam_id":76561199434286633,"connected_time":2489000000000,"state":"active","ping":95},{"user_id":475,"name":"Antwan","steam_id":76561198246200638,"connected_time":240000000000,"state":"active","ping":70},{"user_id":433,"name":"Kiddo0","steam_id":76561198359596849,"connected_time":2912000000000,"state":"active","ping":66}]},{"server_id":401,"name":"Uncletopia | Atlanta | 4 | No Payload","name_short":"atl-4","host":"atl-1.us.uncletopia.com","port":27045,"enabled":true,"region":"us-east","cc":"us","latitude":33.753746,"longitude":-84.38633,"reserved":0,"last_update":"0001-01-01T00:00:00Z","name_a2s":"Uncletopia | Atlanta | 4 | No Payload","protocol":17,"map":"pl_pier","folder":"tf","game":"Team Fortress","app_id":440,"player_count":0,"max_players":24,"Bots":0,"server_type":"Dedicated","server_os":"Linux","password":true,"vac":true,"version":"7723704","steam_id":85568392924515188,"keywords":["nocrits","nodmgspread","payload","uncletopia"],"game_id":440,"stv_port":27046,"stv_name":"Uncletopia | Atlanta | 4 | No Payload | STV","players":null},{"server_id":2,"name":"Uncletopia | Chicago | 1 | All Maps","name_short":"chi-1","host":"chi-1.us.uncletopia.com","port":27015,"enabled":true,"region":"us-central","cc":"us","latitude":41.881832,"longitude":-87.62318,"reserved":0,"last_update":"0001-01-01T00:00:00Z","name_a2s":"Uncletopia | Chicago | 1 | All Maps","protocol":17,"map":"pl_upward","folder":"tf","game":"Team Fortress","app_id":440,"player_count":24,"max_players":24,"Bots":0,"server_type":"Dedicated","server_os":"Linux","password":true,"vac":true,"version":"7742253","steam_id":85568392924469984,"keywords":["nocrits","nodmgspread","payload","uncletopia"],"game_id":440,"stv_port":27016,"stv_name":"Uncletopia | Chicago | 1 | All Maps | STV","players":[{"user_id":259,"name":"‚ô• Femboy‚ô•Ventily ‚ô•","steam_id":76561198157260335,"connected_time":1444000000000,"state":"active","ping":48},{"user_id":264,"name":"Undertime Slopper","steam_id":76561198396789061,"connected_time":663000000000,"state":"active","ping":84},{"user_id":268,"name":"viagra addict","steam_id":76561198017705248,"connected_time":408000000000,"state":"active","ping":45},{"user_id":267,"name":"Alt","steam_id":76561197992591984,"connected_time":629000000000,"state":"active","ping":61},{"user_id":272,"name":"crypto bioengineer analyst","steam_id":76561198070635731,"connected_time":323000000000,"state":"active","ping":63},{"user_id":239,"name":"‚Ä¢deaf‚Ä¢ miirym","steam_id":76561199164635912,"connected_time":3603000000000,"state":"active","ping":61},{"user_id":223,"name":"[slug]","steam_id":76561197989592178,"connected_time":4899000000000,"state":"active","ping":63},{"user_id":263,"name":"jayy.t","steam_id":76561198059575962,"connected_time":674000000000,"state":"active","ping":52},{"user_id":242,"name":"weeb_whacker #Jenius","steam_id":76561198187098041,"connected_time":2985000000000,"state":"active","ping":54},{"user_id":269,"name":"=Silver=","steam_id":76561198292307127,"connected_time":405000000000,"state":"active","ping":100},{"user_id":209,"name":"IGotTheLettuce","steam_id":76561198062473897,"connected_time":6170000000000,"state":"active","ping":81},{"user_id":270,"name":"gautamaYBT","steam_id":76561198133616658,"connected_time":346000000000,"state":"active","ping":94},{"user_id":262,"name":"CowTipper","steam_id":76561198068024343,"connected_time":1173000000000,"state":"active","ping":60},{"user_id":261,"name":"TallBit","steam_id":76561199059748976,"connected_time":1190000000000,"state":"active","ping":59},{"user_id":230,"name":"Depresso Amber","steam_id":76561198074209737,"connected_time":4350000000000,"state":"active","ping":61},{"user_id":221,"name":"maze","steam_id":76561198068443860,"connected_time":5223000000000,"state":"active","ping":57},{"user_id":255,"name":"Mattron1","steam_id":76561198012270524,"connected_time":2411000000000,"state":"active","ping":59},{"user_id":200,"name":"Astori√¶!","steam_id":76561199090168858,"connected_time":7106000000000,"state":"active","ping":59},{"user_id":271,"name":"la loveiathenne","steam_id":76561198046394237,"connected_time":336000000000,"state":"active","ping":89},{"user_id":274,"name":"SneakySneak","steam_id":76561198064847921,"connected_time":28000000000,"state":"active","ping":96},{"user_id":260,"name":"$$$","steam_id":76561198218897541,"connected_time":1432000000000,"state":"active","ping":64},{"user_id":240,"name":"lemon","steam_id":76561198329179651,"connected_time":3328000000000,"state":"active","ping":107},{"user_id":265,"name":"Catboy Potemkin","steam_id":76561198078474420,"connected_time":658000000000,"state":"active","ping":67},{"user_id":258,"name":"armed slobbery. enguzzlement.","steam_id":76561198237292756,"connected_time":1675000000000,"state":"active","ping":66}]},{"server_id":106,"name":"Uncletopia | Chicago | 2 | All Maps","name_short":"chi-2","host":"chi-1.us.uncletopia.com","port":27025,"enabled":true,"region":"us-central","cc":"us","latitude":41.881832,"longitude":-87.62318,"reserved":0,"last_update":"0001-01-01T00:00:00Z","name_a2s":"Uncletopia | Chicago | 2 | All Maps","protocol":17,"map":"koth_highpass","folder":"tf","game":"Team Fortress","app_id":440,"player_count":1,"max_players":24,"Bots":0,"server_type":"Dedicated","server_os":"Linux","password":true,"vac":true,"version":"7742253","steam_id":85568392924469985,"keywords":["cp","nocrits","nodmgspread","uncletopia"],"game_id":440,"stv_port":27026,"stv_name":"Uncletopia | Chicago | 2 | All Maps | STV","players":[{"user_id":16,"name":"WhyLuigi","steam_id":76561198815846547,"connected_time":29000000000,"state":"spawning","ping":76}]},{"server_id":402,"name":"Uncletopia | Chicago | 3 | All Maps","name_short":"chi-3","host":"chi-1.us.uncletopia.com","port":27035,"enabled":true,"region":"us-central","cc":"us","latitude":41.881832,"longitude":-87.62318,"reserved":0,"last_update":"0001-01-01T00:00:00Z","name_a2s":"Uncletopia | Chicago | 3 | All Maps","protocol":17,"map":"cp_snakewater_final1","folder":"tf","game":"Team Fortress","app_id":440,"player_count":15,"max_players":24,"Bots":0,"server_type":"Dedicated","server_os":"Linux","password":true,"vac":true,"version":"7742253","steam_id":85568392924515191,"keywords":["cp","nocrits","nodmgspread","uncletopia"],"game_id":440,"stv_port":27036,"stv_name":"Uncletopia | Chicago | 3 | All Maps | STV","players":[{"user_id":586,"name":"Pebbled","steam_id":76561199390347605,"connected_time":16000000000,"state":"spawning","ping":88},{"user_id":551,"name":"derz","steam_id":76561198010742216,"connected_time":1482000000000,"state":"active","ping":49},{"user_id":534,"name":"Human Person","steam_id":76561198283855440,"connected_time":1650000000000,"state":"active","ping":84},{"user_id":558,"name":"green dude","steam_id":76561198413514653,"connected_time":1372000000000,"state":"active","ping":63},{"user_id":582,"name":"jerma enthusiast","steam_id":76561198359466264,"connected_time":144000000000,"state":"connecting","ping":0},{"user_id":583,"name":"Masotan","steam_id":76561199047187302,"connected_time":135000000000,"state":"active","ping":49},{"user_id":580,"name":"MY MOM FOUND THE POOP SOCK","steam_id":76561199133307822,"connected_time":180000000000,"state":"active","ping":91},{"user_id":573,"name":"Liquid Oxycodone","steam_id":76561198154162664,"connected_time":588000000000,"state":"active","ping":71},{"user_id":584,"name":"paddy","steam_id":76561198097588802,"connected_time":100000000000,"state":"active","ping":42},{"user_id":570,"name":"smart toilet","steam_id":76561198001781616,"connected_time":828000000000,"state":"active","ping":45},{"user_id":566,"name":"Okas8","steam_id":76561198100697096,"connected_time":952000000000,"state":"active","ping":65},{"user_id":585,"name":"r30848","steam_id":76561199123984543,"connected_time":82000000000,"state":"active","ping":72},{"user_id":578,"name":"[Hentai]","steam_id":76561198042817805,"connected_time":229000000000,"state":"active","ping":51},{"user_id":553,"name":"Quansen","steam_id":76561198151594550,"connected_time":1466000000000,"state":"active","ping":59},{"user_id":556,"name":"entirety of santas naughty list","steam_id":76561198295690725,"connected_time":1418000000000,"state":"active","ping":70}]},{"server_id":403,"name":"Uncletopia | Chicago | 4 | All Maps","name_short":"chi-4","host":"chi-1.us.uncletopia.com","port":27045,"enabled":true,"region":"us-central","cc":"us","latitude":41.881832,"longitude":-87.62318,"reserved":0,"last_update":"0001-01-01T00:00:00Z","name_a2s":"Uncletopia | Chicago | 4 | All Maps","protocol":17,"map":"plr_hightower","folder":"tf","game":"Team Fortress","app_id":440,"player_count":24,"max_players":24,"Bots":0,"server_type":"Dedicated","server_os":"Linux","password":true,"vac":true,"version":"7742253","steam_id":85568392924515193,"keywords":["nocrits","nodmgspread","payload","uncletopia"],"game_id":440,"stv_port":27046,"stv_name":"Uncletopia | Chicago | 4 | All Maps | STV","players":[{"user_id":67,"name":"anabolic steroids","steam_id":76561199097771720,"connected_time":337000000000,"state":"active","ping":85},{"user_id":65,"name":"three three","steam_id":76561198177354155,"connected_time":407000000000,"state":"active","ping":52},{"user_id":68,"name":"rainingmudkips","steam_id":76561198018010854,"connected_time":331000000000,"state":"active","ping":68},{"user_id":69,"name":"amongusbungus","steam_id":76561198258950520,"connected_time":321000000000,"state":"active","ping":60},{"user_id":11,"name":"Shaggy","steam_id":76561198352219798,"connected_time":3231000000000,"state":"active","ping":53},{"user_id":12,"name":"brandon72217","steam_id":76561198389653824,"connected_time":3191000000000,"state":"active","ping":55},{"user_id":13,"name":"levidavis27","steam_id":76561198309982166,"connected_time":3182000000000,"state":"active","ping":223},{"user_id":59,"name":"CryoCrab12","steam_id":76561198398818373,"connected_time":1054000000000,"state":"active","ping":86},{"user_id":61,"name":"Sherma","steam_id":76561198857908711,"connected_time":838000000000,"state":"active","ping":89},{"user_id":16,"name":"White Woman Fiesta","steam_id":76561198215902495,"connected_time":2970000000000,"state":"active","ping":76},{"user_id":70,"name":"goldleader123","steam_id":76561198985991888,"connected_time":215000000000,"state":"active","ping":74},{"user_id":18,"name":"curb","steam_id":76561198034022775,"connected_time":2959000000000,"state":"active","ping":79},{"user_id":76,"name":"Synergy","steam_id":76561198098630198,"connected_time":95000000000,"state":"active","ping":100},{"user_id":43,"name":"Hobocop","steam_id":76561198076321907,"connected_time":1925000000000,"state":"active","ping":82},{"user_id":21,"name":"Super Noob","steam_id":76561199179611350,"connected_time":2829000000000,"state":"active","ping":61},{"user_id":63,"name":"Gian","steam_id":76561198041434512,"connected_time":611000000000,"state":"active","ping":113},{"user_id":72,"name":"herb","steam_id":76561198185980055,"connected_time":197000000000,"state":"active","ping":66},{"user_id":35,"name":"Smart_Fridge","steam_id":76561198854290654,"connected_time":2267000000000,"state":"active","ping":59},{"user_id":73,"name":"Smeelay","steam_id":76561198224812372,"connected_time":180000000000,"state":"active","ping":58},{"user_id":74,"name":"MACHUCADO","steam_id":76561199179037898,"connected_time":171000000000,"state":"active","ping":180},{"user_id":77,"name":"The Power","steam_id":76561198060566884,"connected_time":84000000000,"state":"active","ping":155},{"user_id":52,"name":"Pancreas Enjoyer","steam_id":76561199438598904,"connected_time":1500000000000,"state":"active","ping":102},{"user_id":60,"name":"Mixer","steam_id":76561199020200249,"connected_time":1043000000000,"state":"active","ping":66},{"user_id":54,"name":"Shaby_Frost","steam_id":76561198401334563,"connected_time":1327000000000,"state":"active","ping":80}]},{"server_id":36,"name":"Uncletopia | Chicago | 5 | All Maps","name_short":"chi-5","host":"chi-2.us.uncletopia.com","port":27015,"enabled":true,"region":"us-central","cc":"us","latitude":41.881832,"longitude":-87.62318,"reserved":0,"last_update":"0001-01-01T00:00:00Z","name_a2s":"Uncletopia | Chicago | 5 | All Maps","protocol":17,"map":"koth_highpass","folder":"tf","game":"Team Fortress","app_id":440,"player_count":0,"max_players":24,"Bots":0,"server_type":"Dedicated","server_os":"Linux","password":true,"vac":true,"version":"7742253","steam_id":85568392924866362,"keywords":["cp","nocrits","nodmgspread","uncletopia"],"game_id":440,"stv_port":27016,"stv_name":"Uncletopia | Chicago | 5 | All Maps | STV","players":null},{"server_id":37,"name":"Uncletopia | Chicago | 6 | All Maps","name_short":"chi-6","host":"chi-2.us.uncletopia.com","port":27025,"enabled":true,"region":"us-central","cc":"us","latitude":41.881832,"longitude":-87.62318,"reserved":0,"last_update":"0001-01-01T00:00:00Z","name_a2s":"Uncletopia | Chicago | 6 | All Maps","protocol":17,"map":"pl_frontier_final","folder":"tf","game":"Team Fortress","app_id":440,"player_count":0,"max_players":24,"Bots":0,"server_type":"Dedicated","server_os":"Linux","password":true,"vac":true,"version":"7742253","steam_id":85568392924866363,"keywords":["nocrits","nodmgspread","payload","uncletopia"],"game_id":440,"stv_port":27026,"stv_name":"Uncletopia | Chicago | 6 | All Maps | STV","players":null},{"server_id":38,"name":"Uncletopia | Chicago | 7 | Stopwatch Beta","name_short":"chi-7","host":"chi-2.us.uncletopia.com","port":27035,"enabled":true,"region":"us-central","cc":"us","latitude":41.881832,"longitude":-87.62318,"reserved":0,"last_update":"0001-01-01T00:00:00Z","name_a2s":"Uncletopia | Chicago | 7 | Stopwatch Beta","protocol":17,"map":"cp_altitude","folder":"tf","game":"Team Fortress","app_id":440,"player_count":0,"max_players":24,"Bots":0,"server_type":"Dedicated","server_os":"Linux","password":true,"vac":true,"version":"7742253","steam_id":85568392924866364,"keywords":["cp","nocrits","nodmgspread","uncletopia"],"game_id":440,"stv_port":27036,"stv_name":"Uncletopia | Chicago | 7 | Stopwatch Beta | STV","players":null},{"server_id":39,"name":"Uncletopia | Chicago | 8 | Community","name_short":"chi-8","host":"chi-2.us.uncletopia.com","port":27045,"enabled":true,"region":"us-central","cc":"us","latitude":41.881832,"longitude":-87.62318,"reserved":0,"last_update":"0001-01-01T00:00:00Z","name_a2s":"Uncletopia | Chicago | 8 | Community","protocol":17,"map":"workshop/koth_ashville_final.ugc2130459942","folder":"tf","game":"Team Fortress","app_id":440,"player_count":0,"max_players":24,"Bots":0,"server_type":"Dedicated","server_os":"Linux","password":true,"vac":true,"version":"7742253","steam_id":85568392924866365,"keywords":["cp","nocrits","nodmgspread","uncletopia"],"game_id":440,"stv_port":27046,"stv_name":"Uncletopia | Chicago | 8 | Community | STV","players":null},{"server_id":8,"name":"Uncletopia | Dallas | 1 | All Maps","name_short":"dal-1","host":"dal-1.us.uncletopia.com","port":27015,"enabled":true,"region":"us-central","cc":"us","latitude":32.779167,"longitude":-96.80889,"reserved":0,"last_update":"0001-01-01T00:00:00Z","name_a2s":"Uncletopia | Dallas | 1 | All Maps","protocol":17,"map":"pl_barnblitz","folder":"tf","game":"Team Fortress","app_id":440,"player_count":24,"max_players":24,"Bots":0,"server_type":"Dedicated","server_os":"Linux","password":true,"vac":true,"version":"7742253","steam_id":85568392924469986,"keywords":["nocrits","nodmgspread","payload","uncletopia"],"game_id":440,"stv_port":27016,"stv_name":"Uncletopia | Dallas | 1 | All Maps | STV","players":[{"user_id":227,"name":"Orange bench","steam_id":76561198191269339,"connected_time":5682000000000,"state":"active","ping":79},{"user_id":311,"name":"jennco","steam_id":76561198212421513,"connected_time":648000000000,"state":"active","ping":76},{"user_id":313,"name":"Sheembs","steam_id":76561199010524390,"connected_time":599000000000,"state":"active","ping":71},{"user_id":289,"name":"bear","steam_id":76561198313696546,"connected_time":1552000000000,"state":"active","ping":91},{"user_id":261,"name":"Rat Smacker","steam_id":76561199090197628,"connected_time":3219000000000,"state":"active","ping":58},{"user_id":266,"name":"khamel3on","steam_id":76561198800324957,"connected_time":3187000000000,"state":"active","ping":57},{"user_id":330,"name":"Bonesala","steam_id":76561199052450127,"connected_time":117000000000,"state":"active","ping":71},{"user_id":277,"name":"_Lusty_","steam_id":76561198876948142,"connected_time":2830000000000,"state":"active","ping":63},{"user_id":166,"name":"christmas larguu","steam_id":76561197994336210,"connected_time":8664000000000,"state":"active","ping":81},{"user_id":300,"name":"GreenApples","steam_id":76561198120559543,"connected_time":1179000000000,"state":"active","ping":89},{"user_id":271,"name":"J. Lightning","steam_id":76561198147148998,"connected_time":3112000000000,"state":"active","ping":91},{"user_id":291,"name":"claire","steam_id":76561198127525888,"connected_time":1461000000000,"state":"active","ping":45},{"user_id":325,"name":"Petey","steam_id":76561198007339151,"connected_time":274000000000,"state":"active","ping":66},{"user_id":307,"name":"Fredfredfood","steam_id":76561198072824802,"connected_time":897000000000,"state":"active","ping":79},{"user_id":319,"name":"asbestos taste tester","steam_id":76561198161043251,"connected_time":433000000000,"state":"active","ping":81},{"user_id":196,"name":"Phil Collins","steam_id":76561198068868644,"connected_time":7947000000000,"state":"active","ping":84},{"user_id":322,"name":"T√ºCold","steam_id":76561198111278197,"connected_time":316000000000,"state":"active","ping":90},{"user_id":270,"name":"iluvtoust","steam_id":76561198869269207,"connected_time":3135000000000,"state":"active","ping":48},{"user_id":296,"name":"Pneumo.","steam_id":76561197987911883,"connected_time":1371000000000,"state":"active","ping":132},{"user_id":292,"name":"anthonyperez6543","steam_id":76561199367988161,"connected_time":1417000000000,"state":"active","ping":163},{"user_id":287,"name":"Yoshimelon","steam_id":76561198253054325,"connected_time":2286000000000,"state":"active","ping":45},{"user_id":237,"name":"Yongle","steam_id":76561198068591156,"connected_time":5284000000000,"state":"active","ping":75},{"user_id":299,"name":"Careful Demon","steam_id":76561198354263156,"connected_time":1271000000000,"state":"active","ping":97},{"user_id":255,"name":"King Cotton","steam_id":76561198292444376,"connected_time":3879000000000,"state":"active","ping":63}]},{"server_id":108,"name":"Uncletopia | Dallas | 2 | All Maps","name_short":"dal-2","host":"dal-1.us.uncletopia.com","port":27025,"enabled":true,"region":"us-central","cc":"us","latitude":32.779167,"longitude":-96.80889,"reserved":0,"last_update":"0001-01-01T00:00:00Z","name_a2s":"Uncletopia | Dallas | 2 | All Maps","protocol":17,"map":"pl_pier","folder":"tf","game":"Team Fortress","app_id":440,"player_count":23,"max_players":24,"Bots":0,"server_type":"Dedicated","server_os":"Linux","password":true,"vac":true,"version":"7742253","steam_id":85568392924469988,"keywords":["nocrits","nodmgspread","payload","uncletopia"],"game_id":440,"stv_port":27026,"stv_name":"Uncletopia | Dallas | 2 | All Maps | STV","players":[{"user_id":315,"name":"The Engie","steam_id":76561198029782412,"connected_time":1289000000000,"state":"active","ping":60},{"user_id":332,"name":"Bruised Banana","steam_id":76561198364172677,"connected_time":413000000000,"state":"active","ping":92},{"user_id":336,"name":"Dark Emerald","steam_id":76561198334017306,"connected_time":194000000000,"state":"active","ping":68},{"user_id":338,"name":"DeathwingTheDestroyer","steam_id":76561199147322448,"connected_time":92000000000,"state":"active","ping":65},{"user_id":325,"name":"Gooster","steam_id":76561198255311543,"connected_time":661000000000,"state":"active","ping":87},{"user_id":298,"name":"trobort","steam_id":76561198027150357,"connected_time":2419000000000,"state":"active","ping":56},{"user_id":323,"name":"nul","steam_id":76561198116093726,"connected_time":748000000000,"state":"active","ping":71},{"user_id":320,"name":"T_mac_831","steam_id":76561198356519364,"connected_time":1139000000000,"state":"active","ping":83},{"user_id":278,"name":"roast beast","steam_id":76561198084433360,"connected_time":3128000000000,"state":"active","ping":83},{"user_id":324,"name":"EXECUTIONER","steam_id":76561198100942212,"connected_time":719000000000,"state":"active","ping":76},{"user_id":334,"name":"Strange Potato","steam_id":76561199059013304,"connected_time":349000000000,"state":"active","ping":98},{"user_id":337,"name":"GarretGood","steam_id":76561198071881495,"connected_time":181000000000,"state":"active","ping":74},{"user_id":279,"name":"Tromboner","steam_id":76561198101850500,"connected_time":3118000000000,"state":"active","ping":90},{"user_id":273,"name":"Red Baron","steam_id":76561198067011766,"connected_time":3221000000000,"state":"active","ping":90},{"user_id":187,"name":"Merry Matches_","steam_id":76561198048925904,"connected_time":5142000000000,"state":"active","ping":87},{"user_id":339,"name":"prism7","steam_id":76561198055274663,"connected_time":77000000000,"state":"active","ping":51},{"user_id":327,"name":"CapnKris22","steam_id":76561198049010994,"connected_time":636000000000,"state":"active","ping":84},{"user_id":319,"name":"Jabulaya","steam_id":76561198004019317,"connected_time":1144000000000,"state":"active","ping":84},{"user_id":295,"name":"Snimca","steam_id":76561198453519709,"connected_time":2726000000000,"state":"active","ping":49},{"user_id":299,"name":"Ugly Mick Mars (Plz Duel Me)","steam_id":76561198051504563,"connected_time":2416000000000,"state":"active","ping":106},{"user_id":317,"name":"Piogre","steam_id":76561198006182258,"connected_time":1259000000000,"state":"active","ping":78},{"user_id":318,"name":"Inkspot","steam_id":76561199003790541,"connected_time":1256000000000,"state":"active","ping":61},{"user_id":330,"name":"Re-Loaded_Game","steam_id":76561199097136515,"connected_time":609000000000,"state":"active","ping":56}]},{"server_id":5,"name":"Uncletopia | Frankfurt | 1 | All Maps","name_short":"frk-1","host":"frk-1.de.uncletopia.com","port":27015,"enabled":true,"region":"eu","cc":"de","latitude":50.110924,"longitude":8.682127,"reserved":0,"last_update":"0001-01-01T00:00:00Z","name_a2s":"Uncletopia | Frankfurt | 1 | All Maps","protocol":17,"map":"koth_suijin","folder":"tf","game":"Team Fortress","app_id":440,"player_count":24,"max_players":24,"Bots":0,"server_type":"Dedicated","server_os":"Linux","password":true,"vac":true,"version":"7742253","steam_id":85568392924469989,"keywords":["cp","nocrits","nodmgspread","uncletopia"],"game_id":440,"stv_port":27016,"stv_name":"Uncletopia | Frankfurt | 1 | All Maps | STV","players":[{"user_id":693,"name":"godmodule","steam_id":76561198165995444,"connected_time":2246000000000,"state":"active","ping":67},{"user_id":717,"name":"freemantel30","steam_id":76561198065669800,"connected_time":165000000000,"state":"active","ping":49},{"user_id":709,"name":"QuantumRange","steam_id":76561198435576260,"connected_time":562000000000,"state":"active","ping":49},{"user_id":714,"name":"disco 2","steam_id":76561198097381936,"connected_time":328000000000,"state":"active","ping":48},{"user_id":646,"name":"Festdoktor","steam_id":76561198058159271,"connected_time":4632000000000,"state":"active","ping":59},{"user_id":703,"name":"LexaTelekSpizdohali","steam_id":76561197996744119,"connected_time":1019000000000,"state":"active","ping":74},{"user_id":673,"name":"MrMedic","steam_id":76561199239610052,"connected_time":3180000000000,"state":"active","ping":79},{"user_id":636,"name":"SuijinForever2009","steam_id":76561198430050570,"connected_time":4869000000000,"state":"active","ping":63},{"user_id":705,"name":"the joke","steam_id":76561198044309012,"connected_time":627000000000,"state":"active","ping":64},{"user_id":711,"name":"Taipan66","steam_id":76561198154094423,"connected_time":548000000000,"state":"active","ping":76},{"user_id":650,"name":"LarsInABox","steam_id":76561198028329262,"connected_time":4569000000000,"state":"active","ping":74},{"user_id":670,"name":"Ross from F.R.I.E.N.D.S.","steam_id":76561198008511665,"connected_time":3505000000000,"state":"active","ping":59},{"user_id":702,"name":"Catboy 9S gaming","steam_id":76561197999024118,"connected_time":1268000000000,"state":"active","ping":76},{"user_id":712,"name":"Íë≠THICC_KOZAKÍë≠","steam_id":76561198304569976,"connected_time":547000000000,"state":"active","ping":60},{"user_id":699,"name":"cslevi","steam_id":76561198142858923,"connected_time":1365000000000,"state":"active","ping":65},{"user_id":677,"name":"Novtis","steam_id":76561198303436988,"connected_time":2989000000000,"state":"active","ping":96},{"user_id":700,"name":"Miecio04","steam_id":76561198412639639,"connected_time":1356000000000,"state":"active","ping":61},{"user_id":672,"name":"Rudebwoyyy","steam_id":76561199387956486,"connected_time":3229000000000,"state":"active","ping":58},{"user_id":660,"name":"Serton‚ôù","steam_id":76561198011061126,"connected_time":4120000000000,"state":"active","ping":94},{"user_id":701,"name":"Plop_","steam_id":76561198112567921,"connected_time":1324000000000,"state":"active","ping":45},{"user_id":713,"name":"El Guacamole","steam_id":76561198290313144,"connected_time":540000000000,"state":"active","ping":55},{"user_id":656,"name":"Bones","steam_id":76561198065081225,"connected_time":4340000000000,"state":"active","ping":44},{"user_id":704,"name":"Joseph Schmekele","steam_id":76561198169443092,"connected_time":956000000000,"state":"active","ping":63},{"user_id":715,"name":"Nyanzey","steam_id":76561198872362188,"connected_time":317000000000,"state":"active","ping":44}]},{"server_id":110,"name":"Uncletopia | Frankfurt | 2 | All Maps","name_short":"frk-2","host":"frk-1.de.uncletopia.com","port":27025,"enabled":true,"region":"eu","cc":"de","latitude":50.110924,"longitude":8.682127,"reserved":0,"last_update":"0001-01-01T00:00:00Z","name_a2s":"Uncletopia | Frankfurt | 2 | All Maps","protocol":17,"map":"cp_steel","folder":"tf","game":"Team Fortress","app_id":440,"player_count":21,"max_players":24,"Bots":0,"server_type":"Dedicated","server_os":"Linux","password":true,"vac":true,"version":"7742253","steam_id":85568392924469990,"keywords":["cp","nocrits","nodmgspread","uncletopia"],"game_id":440,"stv_port":27026,"stv_name":"Uncletopia | Frankfurt | 2 | All Maps | STV","players":[{"user_id":343,"name":"Makeways","steam_id":76561198274466477,"connected_time":2580000000000,"state":"active","ping":68},{"user_id":325,"name":"goblin","steam_id":76561199010825303,"connected_time":3401000000000,"state":"active","ping":62},{"user_id":361,"name":"Acid","steam_id":76561198102110680,"connected_time":1464000000000,"state":"active","ping":97},{"user_id":368,"name":"syned","steam_id":76561198042411692,"connected_time":984000000000,"state":"active","ping":54},{"user_id":326,"name":"rosepinkyfuzz","steam_id":76561198018546334,"connected_time":3389000000000,"state":"active","ping":61},{"user_id":374,"name":"ACG_Dubsy","steam_id":76561198797308565,"connected_time":763000000000,"state":"active","ping":69},{"user_id":362,"name":"TheWisePenny","steam_id":76561198196492146,"connected_time":1456000000000,"state":"active","ping":57},{"user_id":363,"name":"FeeXy","steam_id":76561198028633251,"connected_time":1269000000000,"state":"active","ping":45},{"user_id":364,"name":"lolimsogreat21","steam_id":76561199052033788,"connected_time":1259000000000,"state":"active","ping":64},{"user_id":378,"name":"simn","steam_id":76561198159182269,"connected_time":37000000000,"state":"active","ping":45},{"user_id":331,"name":"Mr.Cupcake","steam_id":76561198152711174,"connected_time":3126000000000,"state":"active","ping":50},{"user_id":377,"name":"Ptahotep","steam_id":76561198008708645,"connected_time":153000000000,"state":"active","ping":61},{"user_id":369,"name":"nox","steam_id":76561198287360892,"connected_time":969000000000,"state":"active","ping":51},{"user_id":379,"name":"Bobo","steam_id":76561198052308399,"connected_time":33000000000,"state":"active","ping":51},{"user_id":344,"name":"Buff Engineer","steam_id":76561199084414313,"connected_time":2489000000000,"state":"active","ping":60},{"user_id":348,"name":"Spaenny","steam_id":76561198035850165,"connected_time":2299000000000,"state":"active","ping":46},{"user_id":359,"name":"nicholas","steam_id":76561198058211873,"connected_time":1527000000000,"state":"active","ping":47},{"user_id":375,"name":"‡∂ûbominasus 2137  #SaveTF2","steam_id":76561198030062981,"connected_time":751000000000,"state":"active","ping":61},{"user_id":372,"name":"Gety0","steam_id":76561198044387185,"connected_time":850000000000,"state":"active","ping":75},{"user_id":351,"name":"darkwater","steam_id":76561197986978738,"connected_time":2271000000000,"state":"active","ping":56},{"user_id":357,"name":"murderfucker","steam_id":76561198038753296,"connected_time":1677000000000,"state":"active","ping":75}]},{"server_id":308,"name":"Uncletopia | Frankfurt | 3 | All Maps","name_short":"frk-3","host":"frk-1.de.uncletopia.com","port":27035,"enabled":true,"region":"eu","cc":"de","latitude":50.110924,"longitude":8.682127,"reserved":0,"last_update":"0001-01-01T00:00:00Z","name_a2s":"Uncletopia | Frankfurt | 3 | All Maps","protocol":17,"map":"cp_dustbowl","folder":"tf","game":"Team Fortress","app_id":440,"player_count":18,"max_players":24,"Bots":0,"server_type":"Dedicated","server_os":"Linux","password":true,"vac":true,"version":"7742253","steam_id":85568392924504274,"keywords":["cp","nocrits","nodmgspread","uncletopia"],"game_id":440,"stv_port":27036,"stv_name":"Uncletopia | Frankfurt | 3 | All Maps | STV","players":[{"user_id":263,"name":"Lamorfomeba","steam_id":76561199063593524,"connected_time":540000000000,"state":"active","ping":64},{"user_id":234,"name":"r06u3","steam_id":76561198254099253,"connected_time":2618000000000,"state":"active","ping":178},{"user_id":264,"name":"Father Piss","steam_id":76561198152576682,"connected_time":472000000000,"state":"active","ping":63},{"user_id":247,"name":"ChickyCoop","steam_id":76561199072983488,"connected_time":1095000000000,"state":"active","ping":66},{"user_id":276,"name":"üúè Drepp","steam_id":76561197998867164,"connected_time":30000000000,"state":"active","ping":61},{"user_id":162,"name":"EEEEEH","steam_id":76561198126717413,"connected_time":5966000000000,"state":"active","ping":73},{"user_id":235,"name":"TheGreenWolf","steam_id":76561198170607033,"connected_time":2495000000000,"state":"active","ping":77},{"user_id":201,"name":"After8","steam_id":76561198090750865,"connected_time":3958000000000,"state":"active","ping":75},{"user_id":209,"name":"–±–∞–Ω–∫–∞","steam_id":76561199119375767,"connected_time":3291000000000,"state":"active","ping":107},{"user_id":269,"name":"Albert Einstein","steam_id":76561198351190006,"connected_time":327000000000,"state":"active","ping":86},{"user_id":109,"name":"Micha≈Ç","steam_id":76561198320346362,"connected_time":9748000000000,"state":"active","ping":54},{"user_id":239,"name":"Ged","steam_id":76561198079288943,"connected_time":1774000000000,"state":"active","ping":112},{"user_id":270,"name":"gamer man","steam_id":76561198436817109,"connected_time":307000000000,"state":"active","ping":61},{"user_id":251,"name":"hal","steam_id":76561198169859157,"connected_time":997000000000,"state":"active","ping":54},{"user_id":229,"name":"Boyarishnik","steam_id":76561198986324207,"connected_time":2720000000000,"state":"active","ping":71},{"user_id":271,"name":"Mankor","steam_id":76561198020439322,"connected_time":307000000000,"state":"active","ping":45},{"user_id":237,"name":"alfern #saveTF2","steam_id":76561198061708725,"connected_time":2342000000000,"state":"active","ping":63},{"user_id":254,"name":"notchclaus","steam_id":76561198203152816,"connected_time":865000000000,"state":"active","ping":53}]},{"server_id":309,"name":"Uncletopia | Frankfurt | 4 | All Maps","name_short":"frk-4","host":"frk-1.de.uncletopia.com","port":27045,"enabled":true,"region":"eu","cc":"de","latitude":50.110924,"longitude":8.682127,"reserved":0,"last_update":"0001-01-01T00:00:00Z","name_a2s":"Uncletopia | Frankfurt | 4 | All Maps","protocol":17,"map":"pl_upward","folder":"tf","game":"Team Fortress","app_id":440,"player_count":24,"max_players":24,"Bots":0,"server_type":"Dedicated","server_os":"Linux","password":true,"vac":true,"version":"7742253","steam_id":85568392924504275,"keywords":["nocrits","nodmgspread","payload","uncletopia"],"game_id":440,"stv_port":27046,"stv_name":"Uncletopia | Frankfurt | 4 | All Maps | STV","players":[{"user_id":291,"name":"BigHoovyMain","steam_id":76561198447592673,"connected_time":1510000000000,"state":"active","ping":73},{"user_id":302,"name":"deva uor","steam_id":76561198168251125,"connected_time":928000000000,"state":"active","ping":65},{"user_id":276,"name":"Volcyy","steam_id":76561198063979124,"connected_time":2674000000000,"state":"active","ping":36},{"user_id":303,"name":"roblan11","steam_id":76561198066839258,"connected_time":858000000000,"state":"active","ping":54},{"user_id":314,"name":"ultralex","steam_id":76561198024910383,"connected_time":13000000000,"state":"spawning","ping":59},{"user_id":285,"name":"kerieneth","steam_id":76561198848665951,"connected_time":2035000000000,"state":"active","ping":110},{"user_id":280,"name":"Foxy Trochez","steam_id":76561198350389993,"connected_time":2421000000000,"state":"active","ping":51},{"user_id":281,"name":"ash","steam_id":76561198004728744,"connected_time":2395000000000,"state":"active","ping":46},{"user_id":304,"name":"Seargant Snagge","steam_id":76561198055227276,"connected_time":777000000000,"state":"active","ping":78},{"user_id":297,"name":"skrimgxral","steam_id":76561198271936950,"connected_time":1263000000000,"state":"active","ping":63},{"user_id":270,"name":"Raivop","steam_id":76561197980854307,"connected_time":3355000000000,"state":"active","ping":103},{"user_id":300,"name":"Matteo Besho","steam_id":76561199159657855,"connected_time":1213000000000,"state":"active","ping":75},{"user_id":306,"name":"Zazou","steam_id":76561198028076362,"connected_time":689000000000,"state":"active","ping":59},{"user_id":313,"name":"beeb","steam_id":76561198033460021,"connected_time":153000000000,"state":"active","ping":93},{"user_id":309,"name":"well that escalated quickly","steam_id":76561198295305088,"connected_time":421000000000,"state":"active","ping":58},{"user_id":293,"name":"TheGamerNL","steam_id":76561198079738608,"connected_time":1494000000000,"state":"active","ping":62},{"user_id":248,"name":"Belithe","steam_id":76561198082612324,"connected_time":4770000000000,"state":"active","ping":62},{"user_id":296,"name":"D_Ink","steam_id":76561198267716662,"connected_time":1418000000000,"state":"active","ping":55},{"user_id":305,"name":"Furious Frenchman","steam_id":76561198082076952,"connected_time":773000000000,"state":"active","ping":63},{"user_id":241,"name":"Midoriaga","steam_id":76561198010699090,"connected_time":5072000000000,"state":"active","ping":45},{"user_id":263,"name":"vladixxk","steam_id":76561198273199378,"connected_time":3853000000000,"state":"active","ping":62},{"user_id":311,"name":"Ducc","steam_id":76561198030677425,"connected_time":371000000000,"state":"active","ping":46},{"user_id":257,"name":"Jeff","steam_id":76561198949174773,"connected_time":4482000000000,"state":"active","ping":78},{"user_id":258,"name":"_ben≈ë_swag_^_^","steam_id":76561199117893688,"connected_time":4472000000000,"state":"active","ping":62}]},{"server_id":310,"name":"Uncletopia | Frankfurt | 5 | All Maps","name_short":"frk-5","host":"frk-1.de.uncletopia.com","port":27055,"enabled":true,"region":"eu","cc":"de","latitude":50.110924,"longitude":8.682127,"reserved":0,"last_update":"0001-01-01T00:00:00Z","name_a2s":"Uncletopia | Frankfurt | 5 | All Maps","protocol":17,"map":"cp_snakewater_final1","folder":"tf","game":"Team Fortress","app_id":440,"player_count":0,"max_players":24,"Bots":0,"server_type":"Dedicated","server_os":"Linux","password":true,"vac":true,"version":"7742253","steam_id":85568392924504277,"keywords":["cp","nocrits","nodmgspread","uncletopia"],"game_id":440,"stv_port":27056,"stv_name":"Uncletopia | Frankfurt | 5 | All Maps | STV","players":null},{"server_id":311,"name":"Uncletopia | Frankfurt | 6 | All Maps","name_short":"frk-6","host":"frk-1.de.uncletopia.com","port":27065,"enabled":true,"region":"eu","cc":"de","latitude":50.110924,"longitude":8.682127,"reserved":0,"last_update":"0001-01-01T00:00:00Z","name_a2s":"Uncletopia | Frankfurt | 6 | All Maps","protocol":17,"map":"koth_harvest_final","folder":"tf","game":"Team Fortress","app_id":440,"player_count":0,"max_players":24,"Bots":0,"server_type":"Dedicated","server_os":"Linux","password":true,"vac":true,"version":"7742253","steam_id":85568392924504278,"keywords":["cp","nocrits","nodmgspread","uncletopia"],"game_id":440,"stv_port":27066,"stv_name":"Uncletopia | Frankfurt | 6 | All Maps | STV","players":null},{"server_id":23,"name":"Uncletopia | Frankfurt | 7 | Stopwatch Beta","name_short":"frk-7","host":"frk-1.de.uncletopia.com","port":27075,"enabled":true,"region":"eu","cc":"de","latitude":50.110924,"longitude":8.682127,"reserved":0,"last_update":"0001-01-01T00:00:00Z","name_a2s":"Uncletopia | Frankfurt | 7 | Stopwatch Beta","protocol":17,"map":"koth_lakeside_final","folder":"tf","game":"Team Fortress","app_id":440,"player_count":0,"max_players":24,"Bots":0,"server_type":"Dedicated","server_os":"Linux","password":true,"vac":true,"version":"7742253","steam_id":85568392924742827,"keywords":["cp","nocrits","nodmgspread","uncletopia"],"game_id":440,"stv_port":27076,"stv_name":"Uncletopia | Frankfurt | 7 | Stopwatch Beta | STV","players":null},{"server_id":24,"name":"Uncletopia | Frankfurt | 8 | Community","name_short":"frk-8","host":"frk-1.de.uncletopia.com","port":27085,"enabled":true,"region":"eu","cc":"de","latitude":50.110924,"longitude":8.682127,"reserved":0,"last_update":"0001-01-01T00:00:00Z","name_a2s":"Uncletopia | Frankfurt | 8 | Community","protocol":17,"map":"workshop/koth_slaughter_rc1.ugc1712845210","folder":"tf","game":"Team Fortress","app_id":440,"player_count":0,"max_players":24,"Bots":0,"server_type":"Dedicated","server_os":"Linux","password":true,"vac":true,"version":"7742253","steam_id":85568392924742828,"keywords":["cp","nocrits","nodmgspread","uncletopia"],"game_id":440,"stv_port":27086,"stv_name":"Uncletopia | Frankfurt | 8 | Community | STV","players":null},{"server_id":202,"name":"Uncletopia | Hong Kong | 1 | All Maps","name_short":"hgk-1","host":"hgk-1.hk.uncletopia.com","port":27015,"enabled":true,"region":"asia","cc":"hk","latitude":22.302711,"longitude":114.177216,"reserved":0,"last_update":"0001-01-01T00:00:00Z","name_a2s":"Uncletopia | Hong Kong | 1 | All Maps","protocol":17,"map":"koth_viaduct","folder":"tf","game":"Team Fortress","app_id":440,"player_count":0,"max_players":24,"Bots":0,"server_type":"Dedicated","server_os":"Linux","password":true,"vac":true,"version":"7742253","steam_id":85568392924494504,"keywords":["cp","nocrits","nodmgspread","uncletopia"],"game_id":440,"stv_port":27016,"stv_name":"Uncletopia | Hong Kong | 1 | All Maps | STV","players":null},{"server_id":1,"name":"Uncletopia | Los Angeles | 1 | All Maps","name_short":"lax-1","host":"lax-1.us.uncletopia.com","port":27015,"enabled":true,"region":"us-west","cc":"us","latitude":33.94279,"longitude":-118.41004,"reserved":0,"last_update":"0001-01-01T00:00:00Z","name_a2s":"Uncletopia | Los Angeles | 1 | All Maps","protocol":17,"map":"cp_dustbowl","folder":"tf","game":"Team Fortress","app_id":440,"player_count":0,"max_players":24,"Bots":0,"server_type":"Dedicated","server_os":"Linux","password":true,"vac":true,"version":"7742253","steam_id":85568392924469991,"keywords":["cp","nocrits","nodmgspread","uncletopia"],"game_id":440,"stv_port":27016,"stv_name":"Uncletopia | Los Angeles | 1 | All Maps | STV","players":null},{"server_id":112,"name":"Uncletopia | Los Angeles | 2 | All Maps","name_short":"lax-2","host":"lax-1.us.uncletopia.com","port":27025,"enabled":true,"region":"us-west","cc":"us","latitude":33.94279,"longitude":-118.41004,"reserved":0,"last_update":"0001-01-01T00:00:00Z","name_a2s":"Uncletopia | Los Angeles | 2 | All Maps","protocol":17,"map":"pl_pier","folder":"tf","game":"Team Fortress","app_id":440,"player_count":24,"max_players":24,"Bots":0,"server_type":"Dedicated","server_os":"Linux","password":true,"vac":true,"version":"7742253","steam_id":85568392924469992,"keywords":["nocrits","nodmgspread","payload","uncletopia"],"game_id":440,"stv_port":27026,"stv_name":"Uncletopia | Los Angeles | 2 | All Maps | STV","players":[{"user_id":71,"name":"despacitosavage98","steam_id":76561198208270929,"connected_time":997000000000,"state":"active","ping":59},{"user_id":26,"name":"L9 TSM BOWLCUT","steam_id":76561198312741463,"connected_time":3961000000000,"state":"active","ping":32},{"user_id":33,"name":"dongus","steam_id":76561199084805759,"connected_time":2857000000000,"state":"active","ping":99},{"user_id":34,"name":"DeathSushi","steam_id":76561199156131540,"connected_time":2826000000000,"state":"active","ping":79},{"user_id":73,"name":"ZRMicrowave","steam_id":76561198288574525,"connected_time":893000000000,"state":"active","ping":89},{"user_id":32,"name":"dingus","steam_id":76561199015769330,"connected_time":2871000000000,"state":"active","ping":101},{"user_id":81,"name":"dewey","steam_id":76561198132791511,"connected_time":52000000000,"state":"active","ping":52},{"user_id":36,"name":"ZhouJo","steam_id":76561198071099332,"connected_time":2789000000000,"state":"active","ping":40},{"user_id":66,"name":"Industrial Disaster","steam_id":76561198209881263,"connected_time":1176000000000,"state":"active","ping":53},{"user_id":38,"name":"christmas lights","steam_id":76561198263004448,"connected_time":2409000000000,"state":"active","ping":51},{"user_id":78,"name":"gazpacho","steam_id":76561198132903078,"connected_time":555000000000,"state":"active","ping":55},{"user_id":68,"name":"CampinCarl","steam_id":76561197997373624,"connected_time":1129000000000,"state":"active","ping":50},{"user_id":67,"name":"Greasy_Grime","steam_id":76561199014724973,"connected_time":1163000000000,"state":"active","ping":96},{"user_id":45,"name":"moe","steam_id":76561198929586245,"connected_time":2160000000000,"state":"active","ping":49},{"user_id":63,"name":"TheKyleB","steam_id":76561198202515104,"connected_time":1234000000000,"state":"active","ping":50},{"user_id":75,"name":"3.dlc","steam_id":76561198234377776,"connected_time":799000000000,"state":"active","ping":53},{"user_id":47,"name":"AlexLovesYou","steam_id":76561199163263543,"connected_time":2143000000000,"state":"active","ping":140},{"user_id":60,"name":"ÌÉúÏñë","steam_id":76561198919008214,"connected_time":1573000000000,"state":"active","ping":44},{"user_id":49,"name":"MayoMateo","steam_id":76561198360809933,"connected_time":2086000000000,"state":"active","ping":49},{"user_id":51,"name":"Walter White","steam_id":76561198265079595,"connected_time":2023000000000,"state":"active","ping":106},{"user_id":70,"name":"Kzjytsugn","steam_id":76561198130241974,"connected_time":1080000000000,"state":"active","ping":76},{"user_id":53,"name":"JDizzle","steam_id":76561199122696841,"connected_time":2003000000000,"state":"active","ping":64},{"user_id":80,"name":"ircycl","steam_id":76561198170693990,"connected_time":159000000000,"state":"active","ping":51},{"user_id":61,"name":"Punished Shitster","steam_id":76561198150452857,"connected_time":1561000000000,"state":"active","ping":84}]},{"server_id":324,"name":"Uncletopia | Los Angeles | 3 | All Maps","name_short":"lax-3","host":"lax-1.us.uncletopia.com","port":27035,"enabled":true,"region":"us-west","cc":"us","latitude":33.94279,"longitude":-118.41004,"reserved":0,"last_update":"0001-01-01T00:00:00Z","name_a2s":"Uncletopia | Los Angeles | 3 | All Maps","protocol":17,"map":"pl_borneo","folder":"tf","game":"Team Fortress","app_id":440,"player_count":1,"max_players":24,"Bots":0,"server_type":"Dedicated","server_os":"Linux","password":true,"vac":true,"version":"7742253","steam_id":85568392924510198,"keywords":["nocrits","nodmgspread","payload","uncletopia"],"game_id":440,"stv_port":27036,"stv_name":"Uncletopia | Los Angeles | 3 | All Maps | STV","players":[{"user_id":4,"name":"gal who needs more pals","steam_id":76561198271772995,"connected_time":432000000000,"state":"active","ping":57}]},{"server_id":25,"name":"Uncletopia | Los Angeles | 4 | Stopwatch Beta","name_short":"lax-4","host":"lax-1.us.uncletopia.com","port":27045,"enabled":true,"region":"us-west","cc":"us","latitude":33.94279,"longitude":-118.41004,"reserved":0,"last_update":"0001-01-01T00:00:00Z","name_a2s":"Uncletopia | Los Angeles | 4 | Stopwatch Beta","protocol":17,"map":"cp_process_final","folder":"tf","game":"Team Fortress","app_id":440,"player_count":0,"max_players":24,"Bots":0,"server_type":"Dedicated","server_os":"Linux","password":true,"vac":true,"version":"7742253","steam_id":85568392924510199,"keywords":["cp","nocrits","nodmgspread","uncletopia"],"game_id":440,"stv_port":27046,"stv_name":"Uncletopia | Los Angeles | 4 | Stopwatch Beta | STV","players":null},{"server_id":11,"name":"Uncletopia | London | 1 | All Maps","name_short":"lon-1","host":"lon-1.uk.uncletopia.com","port":27015,"enabled":true,"region":"eu","cc":"gb","latitude":51.509865,"longitude":-0.118092,"reserved":0,"last_update":"0001-01-01T00:00:00Z","name_a2s":"Uncletopia | London | 1 | All Maps","protocol":17,"map":"pl_swiftwater_final1","folder":"tf","game":"Team Fortress","app_id":440,"player_count":22,"max_players":24,"Bots":0,"server_type":"Dedicated","server_os":"Linux","password":true,"vac":true,"version":"7742253","steam_id":85568392924367362,"keywords":["nocrits","nodmgspread","payload","uncletopia"],"game_id":440,"stv_port":27016,"stv_name":"Uncletopia | London | 1 | All Maps | STV","players":[{"user_id":754,"name":"Jamie Hyneman","steam_id":76561198364121077,"connected_time":500000000000,"state":"active","ping":89},{"user_id":741,"name":"Salesman","steam_id":76561198045527771,"connected_time":1514000000000,"state":"active","ping":53},{"user_id":742,"name":"Moon","steam_id":76561198047535132,"connected_time":1502000000000,"state":"active","ping":77},{"user_id":681,"name":"ciliorkun18","steam_id":76561198228942500,"connected_time":4253000000000,"state":"active","ping":98},{"user_id":757,"name":"Sebtacular","steam_id":76561198334284616,"connected_time":334000000000,"state":"active","ping":56},{"user_id":748,"name":"Evix","steam_id":76561198418450671,"connected_time":1360000000000,"state":"active","ping":62},{"user_id":750,"name":"SOPHIIEE","steam_id":76561198443798981,"connected_time":1192000000000,"state":"active","ping":57},{"user_id":758,"name":"Videogamer","steam_id":76561198106012909,"connected_time":298000000000,"state":"active","ping":65},{"user_id":756,"name":"wicked","steam_id":76561198164376035,"connected_time":478000000000,"state":"active","ping":77},{"user_id":749,"name":"Dominus.","steam_id":76561199065917088,"connected_time":1203000000000,"state":"active","ping":77},{"user_id":647,"name":"Fast And Furious Ketamine","steam_id":76561198073769916,"connected_time":6722000000000,"state":"active","ping":57},{"user_id":659,"name":"Lubrsi","steam_id":76561198040208195,"connected_time":5530000000000,"state":"active","ping":51},{"user_id":746,"name":"DrBr4n","steam_id":76561198111801228,"connected_time":1470000000000,"state":"active","ping":87},{"user_id":755,"name":"jorogumo","steam_id":76561198838277022,"connected_time":499000000000,"state":"active","ping":76},{"user_id":678,"name":"Bait","steam_id":76561198335188568,"connected_time":4288000000000,"state":"active","ping":51},{"user_id":660,"name":"chrissymas","steam_id":76561198096547662,"connected_time":5445000000000,"state":"active","ping":54},{"user_id":752,"name":"Roasty McToasty","steam_id":76561198091709511,"connected_time":757000000000,"state":"active","ping":42},{"user_id":759,"name":"StefaNN","steam_id":76561198075273499,"connected_time":252000000000,"state":"active","ping":60},{"user_id":566,"name":"teddy","steam_id":76561198007436837,"connected_time":11995000000000,"state":"active","ping":32},{"user_id":645,"name":"trite","steam_id":76561197983765323,"connected_time":7356000000000,"state":"active","ping":49},{"user_id":747,"name":"Tombola Master of Hats","steam_id":76561198033985855,"connected_time":1441000000000,"state":"active","ping":47},{"user_id":737,"name":"azertyuiop16901","steam_id":76561199211572036,"connected_time":1863000000000,"state":"active","ping":87}]},{"server_id":114,"name":"Uncletopia | London | 2 | All Maps","name_short":"lon-2","host":"lon-1.uk.uncletopia.com","port":27025,"enabled":true,"region":"eu","cc":"gb","latitude":51.509865,"longitude":-0.118092,"reserved":0,"last_update":"0001-01-01T00:00:00Z","name_a2s":"Uncletopia | London | 2 | All Maps","protocol":17,"map":"pl_upward","folder":"tf","game":"Team Fortress","app_id":440,"player_count":22,"max_players":24,"Bots":0,"server_type":"Dedicated","server_os":"Linux","password":true,"vac":true,"version":"7742253","steam_id":85568392924470941,"keywords":["nocrits","nodmgspread","payload","uncletopia"],"game_id":440,"stv_port":27026,"stv_name":"Uncletopia | London | 2 | All Maps | STV","players":[{"user_id":717,"name":"sHIFTINGvORTEX","steam_id":76561198231648332,"connected_time":227000000000,"state":"active","ping":64},{"user_id":557,"name":"Artillery Role Play","steam_id":76561199104697943,"connected_time":8076000000000,"state":"active","ping":60},{"user_id":718,"name":"le baGATO","steam_id":76561199066143041,"connected_time":63000000000,"state":"spawning","ping":91},{"user_id":720,"name":"Skemly","steam_id":76561199224399948,"connected_time":35000000000,"state":"active","ping":50},{"user_id":721,"name":"astrom651","steam_id":76561199121128962,"connected_time":24000000000,"state":"active","ping":47},{"user_id":700,"name":"Ciccioimberlicchio","steam_id":76561198031239041,"connected_time":1594000000000,"state":"active","ping":75},{"user_id":703,"name":"Tachanka","steam_id":76561198329246233,"connected_time":1402000000000,"state":"active","ping":45},{"user_id":722,"name":"Meff","steam_id":76561197970610839,"connected_time":8000000000,"state":"spawning","ping":45},{"user_id":706,"name":"Nuuskis","steam_id":76561198084042012,"connected_time":1194000000000,"state":"active","ping":83},{"user_id":655,"name":"snowi","steam_id":76561198006502679,"connected_time":5274000000000,"state":"active","ping":47},{"user_id":235,"name":"cirrem","steam_id":76561198265192382,"connected_time":28736000000000,"state":"active","ping":67},{"user_id":697,"name":"Decadence","steam_id":76561198206829379,"connected_time":2161000000000,"state":"active","ping":79},{"user_id":662,"name":"Soul Of Caber","steam_id":76561198110395811,"connected_time":4360000000000,"state":"active","ping":104},{"user_id":710,"name":"taxi driver w huge balls","steam_id":76561199184831395,"connected_time":730000000000,"state":"active","ping":45},{"user_id":705,"name":"Fran","steam_id":76561199070516960,"connected_time":1258000000000,"state":"active","ping":74},{"user_id":715,"name":"Velosera","steam_id":76561199412527837,"connected_time":422000000000,"state":"active","ping":34},{"user_id":696,"name":"nedilya","steam_id":76561198039692077,"connected_time":2179000000000,"state":"active","ping":60},{"user_id":712,"name":"DonnytheDutchman","steam_id":76561198260295055,"connected_time":584000000000,"state":"active","ping":68},{"user_id":608,"name":"Mr.O #deletesniper","steam_id":76561198039567498,"connected_time":6645000000000,"state":"active","ping":62},{"user_id":709,"name":"gnome","steam_id":76561198262275475,"connected_time":831000000000,"state":"active","ping":135},{"user_id":716,"name":"Icarus300","steam_id":76561198015125766,"connected_time":420000000000,"state":"active","ping":102},{"user_id":614,"name":"LSKi","steam_id":76561198215470228,"connected_time":6456000000000,"state":"active","ping":61}]},{"server_id":320,"name":"Uncletopia | London | 3 | All Maps","name_short":"lon-3","host":"lon-1.uk.uncletopia.com","port":27035,"enabled":true,"region":"eu","cc":"gb","latitude":51.509865,"longitude":-0.118092,"reserved":0,"last_update":"0001-01-01T00:00:00Z","name_a2s":"Uncletopia | London | 3 | All Maps","protocol":17,"map":"pl_swiftwater_final1","folder":"tf","game":"Team Fortress","app_id":440,"player_count":23,"max_players":24,"Bots":0,"server_type":"Dedicated","server_os":"Linux","password":true,"vac":true,"version":"7742253","steam_id":85568392924510192,"keywords":["nocrits","nodmgspread","payload","uncletopia"],"game_id":440,"stv_port":27036,"stv_name":"Uncletopia | London | 3 | All Maps | STV","players":[{"user_id":259,"name":"pumpkin spice go.ggez.ro","steam_id":76561198449957490,"connected_time":3134000000000,"state":"active","ping":80},{"user_id":268,"name":"nyanezt","steam_id":76561198253734265,"connected_time":2187000000000,"state":"active","ping":116},{"user_id":222,"name":"Astro","steam_id":76561198116667442,"connected_time":4824000000000,"state":"active","ping":138},{"user_id":274,"name":"V1 is in my ass","steam_id":76561198107362485,"connected_time":2040000000000,"state":"active","ping":74},{"user_id":297,"name":"Rasmusson [29th ID]","steam_id":76561198191451713,"connected_time":985000000000,"state":"active","ping":83},{"user_id":287,"name":"TerminalHash","steam_id":76561198215351445,"connected_time":1583000000000,"state":"active","ping":97},{"user_id":286,"name":"Sedoy","steam_id":76561198390666516,"connected_time":1585000000000,"state":"active","ping":99},{"user_id":265,"name":"Pasta sauce","steam_id":76561198232919072,"connected_time":2323000000000,"state":"active","ping":42},{"user_id":289,"name":"Proto-arc","steam_id":76561198012776747,"connected_time":1570000000000,"state":"active","ping":56},{"user_id":298,"name":"the scunge","steam_id":76561198089201193,"connected_time":797000000000,"state":"active","ping":61},{"user_id":276,"name":"Insanitybomb","steam_id":76561198048707708,"connected_time":1962000000000,"state":"active","ping":57},{"user_id":285,"name":"Meladoom2","steam_id":76561198086845387,"connected_time":1589000000000,"state":"active","ping":95},{"user_id":302,"name":"jp-karam","steam_id":76561198048947685,"connected_time":380000000000,"state":"active","ping":112},{"user_id":299,"name":"jovi_","steam_id":76561198449280552,"connected_time":759000000000,"state":"active","ping":55},{"user_id":303,"name":"BrickBobBrick","steam_id":76561198931770279,"connected_time":339000000000,"state":"active","ping":73},{"user_id":301,"name":"travis","steam_id":76561198138119811,"connected_time":551000000000,"state":"active","ping":46},{"user_id":295,"name":"MeLoMeN","steam_id":76561199174657436,"connected_time":1305000000000,"state":"active","ping":89},{"user_id":304,"name":"Piellino","steam_id":76561198156873276,"connected_time":330000000000,"state":"active","ping":111},{"user_id":305,"name":"KarlRanzeier","steam_id":76561198066281337,"connected_time":321000000000,"state":"active","ping":67},{"user_id":227,"name":"Uncle Owen","steam_id":76561198157999291,"connected_time":4508000000000,"state":"active","ping":90},{"user_id":309,"name":"Loptater","steam_id":76561198114928860,"connected_time":161000000000,"state":"active","ping":58},{"user_id":307,"name":"ChilledCatz","steam_id":76561198166046621,"connected_time":282000000000,"state":"active","ping":58},{"user_id":296,"name":"Teleporter Bread","steam_id":76561198272199749,"connected_time":1296000000000,"state":"active","ping":147}]},{"server_id":321,"name":"Uncletopia | London | 4 | All Maps","name_short":"lon-4","host":"lon-1.uk.uncletopia.com","port":27045,"enabled":true,"region":"eu","cc":"gb","latitude":51.509865,"longitude":-0.118092,"reserved":0,"last_update":"0001-01-01T00:00:00Z","name_a2s":"Uncletopia | London | 4 | All Maps","protocol":17,"map":"pl_borneo","folder":"tf","game":"Team Fortress","app_id":440,"player_count":22,"max_players":24,"Bots":0,"server_type":"Dedicated","server_os":"Linux","password":true,"vac":true,"version":"7742253","steam_id":85568392924510193,"keywords":["nocrits","nodmgspread","payload","uncletopia"],"game_id":440,"stv_port":27046,"stv_name":"Uncletopia | London | 4 | All Maps | STV","players":[{"user_id":432,"name":"Tobi","steam_id":76561198049890080,"connected_time":470000000000,"state":"active","ping":43},{"user_id":419,"name":"Windows Vista Cruiser","steam_id":76561198064102233,"connected_time":1763000000000,"state":"active","ping":63},{"user_id":402,"name":"Olaznot","steam_id":76561199111472610,"connected_time":3429000000000,"state":"active","ping":68},{"user_id":446,"name":"Sweetcheesus","steam_id":76561198022299033,"connected_time":79000000000,"state":"active","ping":60},{"user_id":429,"name":"Meanderthal","steam_id":76561197962377653,"connected_time":675000000000,"state":"active","ping":52},{"user_id":445,"name":"Patrick Ratrick","steam_id":76561198086190783,"connected_time":167000000000,"state":"active","ping":46},{"user_id":434,"name":"Logic Not Found","steam_id":76561198273025576,"connected_time":421000000000,"state":"active","ping":54},{"user_id":435,"name":"Knightking309","steam_id":76561199076546834,"connected_time":405000000000,"state":"active","ping":167},{"user_id":427,"name":"ChrisBast","steam_id":76561198257444693,"connected_time":892000000000,"state":"active","ping":59},{"user_id":447,"name":"Dakkafex","steam_id":76561198020254869,"connected_time":63000000000,"state":"active","ping":45},{"user_id":403,"name":"Kili","steam_id":76561198138456346,"connected_time":3416000000000,"state":"active","ping":71},{"user_id":442,"name":"Ben UFO","steam_id":76561198001648348,"connected_time":215000000000,"state":"active","ping":46},{"user_id":424,"name":"knipje","steam_id":76561198085061953,"connected_time":1299000000000,"state":"active","ping":53},{"user_id":437,"name":"dumbest sharpshooter eu","steam_id":76561198041432181,"connected_time":376000000000,"state":"active","ping":75},{"user_id":389,"name":"KTTRS","steam_id":76561197972258054,"connected_time":4685000000000,"state":"active","ping":60},{"user_id":438,"name":"Mr. Hunts","steam_id":76561197981910397,"connected_time":352000000000,"state":"active","ping":60},{"user_id":329,"name":".quickfast.","steam_id":76561199438900919,"connected_time":8067000000000,"state":"active","ping":52},{"user_id":439,"name":"Senfbaron","steam_id":76561198070370608,"connected_time":279000000000,"state":"active","ping":65},{"user_id":443,"name":"Mega","steam_id":76561197970389664,"connected_time":214000000000,"state":"active","ping":50},{"user_id":431,"name":"default","steam_id":76561198186182298,"connected_time":496000000000,"state":"active","ping":59},{"user_id":405,"name":"Maerk","steam_id":76561199119121016,"connected_time":3383000000000,"state":"active","ping":91},{"user_id":444,"name":"Chucky.","steam_id":76561197969361063,"connected_time":198000000000,"state":"active","ping":84}]},{"server_id":21,"name":"Uncletopia | London | 5 | All Maps","name_short":"lon-5","host":"lon-1.uk.uncletopia.com","port":27055,"enabled":true,"region":"eu","cc":"gb","latitude":51.509865,"longitude":-0.118092,"reserved":0,"last_update":"0001-01-01T00:00:00Z","name_a2s":"Uncletopia | London | 5 | All Maps","protocol":17,"map":"pl_upward","folder":"tf","game":"Team Fortress","app_id":440,"player_count":23,"max_players":24,"Bots":0,"server_type":"Dedicated","server_os":"Linux","password":true,"vac":true,"version":"7742253","steam_id":85568392924742829,"keywords":["nocrits","nodmgspread","payload","uncletopia"],"game_id":440,"stv_port":27056,"stv_name":"Uncletopia | London | 5 | All Maps | STV","players":[{"user_id":172,"name":"SoupER","steam_id":76561198063056668,"connected_time":1338000000000,"state":"active","ping":41},{"user_id":156,"name":"bob marley","steam_id":76561198218047263,"connected_time":3789000000000,"state":"active","ping":51},{"user_id":173,"name":"DVous","steam_id":76561198121737111,"connected_time":1309000000000,"state":"active","ping":49},{"user_id":195,"name":"RIFT","steam_id":76561198991622379,"connected_time":95000000000,"state":"active","ping":44},{"user_id":188,"name":"im fwagging","steam_id":76561198371068409,"connected_time":738000000000,"state":"active","ping":48},{"user_id":161,"name":"FishD.ck_47","steam_id":76561198114773103,"connected_time":3626000000000,"state":"active","ping":68},{"user_id":189,"name":"Saitama","steam_id":76561198057814236,"connected_time":736000000000,"state":"active","ping":69},{"user_id":193,"name":"Pruff","steam_id":76561198377084417,"connected_time":183000000000,"state":"active","ping":58},{"user_id":140,"name":"DrauconeTMDS","steam_id":76561198083510257,"connected_time":5586000000000,"state":"active","ping":57},{"user_id":157,"name":"Mor'du","steam_id":76561198274105878,"connected_time":3767000000000,"state":"active","ping":93},{"user_id":196,"name":"Vince","steam_id":76561199103000131,"connected_time":82000000000,"state":"active","ping":46},{"user_id":146,"name":"SilverSV","steam_id":76561198164579830,"connected_time":4836000000000,"state":"active","ping":54},{"user_id":179,"name":"Alibi","steam_id":76561198061845595,"connected_time":1132000000000,"state":"active","ping":45},{"user_id":159,"name":"BeefHammer","steam_id":76561198078426223,"connected_time":3635000000000,"state":"active","ping":88},{"user_id":122,"name":"Rubi","steam_id":76561198139410003,"connected_time":6256000000000,"state":"active","ping":83},{"user_id":181,"name":"Crisps","steam_id":76561198088973774,"connected_time":1099000000000,"state":"active","ping":60},{"user_id":198,"name":"vuggie","steam_id":76561198042227249,"connected_time":25000000000,"state":"active","ping":45},{"user_id":160,"name":"Ready Rice‚Ñ¢","steam_id":76561198091969871,"connected_time":3631000000000,"state":"active","ping":75},{"user_id":194,"name":"Grand Wizard","steam_id":76561199414716848,"connected_time":136000000000,"state":"active","ping":75},{"user_id":197,"name":"Ruben Zo","steam_id":76561198063855616,"connected_time":76000000000,"state":"active","ping":80},{"user_id":184,"name":"Alexei","steam_id":76561197987169026,"connected_time":1034000000000,"state":"active","ping":42},{"user_id":168,"name":"clraffell","steam_id":76561198904469197,"connected_time":3457000000000,"state":"active","ping":54},{"user_id":192,"name":"[P-roc] Cmm Bert","steam_id":76561198016658674,"connected_time":482000000000,"state":"active","ping":58}]},{"server_id":22,"name":"Uncletopia | London | 6 | All Maps","name_short":"lon-6","host":"lon-1.uk.uncletopia.com","port":27065,"enabled":true,"region":"eu","cc":"gb","latitude":51.509865,"longitude":-0.118092,"reserved":0,"last_update":"0001-01-01T00:00:00Z","name_a2s":"Uncletopia | London | 6 | All Maps","protocol":17,"map":"pl_pier","folder":"tf","game":"Team Fortress","app_id":440,"player_count":0,"max_players":24,"Bots":0,"server_type":"Dedicated","server_os":"Linux","password":true,"vac":true,"version":"7742253","steam_id":85568392924742830,"keywords":["nocrits","nodmgspread","payload","uncletopia"],"game_id":440,"stv_port":27066,"stv_name":"Uncletopia | London | 6 | All Maps | STV","players":null},{"server_id":40,"name":"Uncletopia | London | 7 | No Payload","name_short":"lon-7","host":"lon-1.uk.uncletopia.com","port":27075,"enabled":true,"region":"eu","cc":"gb","latitude":51.509865,"longitude":-0.118092,"reserved":0,"last_update":"0001-01-01T00:00:00Z","name_a2s":"Uncletopia | London | 7 | No Payload","protocol":17,"map":"cp_dustbowl","folder":"tf","game":"Team Fortress","app_id":440,"player_count":0,"max_players":24,"Bots":0,"server_type":"Dedicated","server_os":"Linux","password":true,"vac":true,"version":"7742253","steam_id":85568392924964314,"keywords":["cp","nocrits","nodmgspread","uncletopia"],"game_id":440,"stv_port":27076,"stv_name":"Uncletopia | London | 7 | No Payload | STV","players":null},{"server_id":41,"name":"Uncletopia | London | 8 | Community","name_short":"lon-8","host":"lon-1.uk.uncletopia.com","port":27085,"enabled":true,"region":"eu","cc":"gb","latitude":51.509865,"longitude":-0.118092,"reserved":0,"last_update":"0001-01-01T00:00:00Z","name_a2s":"Uncletopia | London | 8 | Community","protocol":17,"map":"workshop/koth_bagel_rc5.ugc2514036946","folder":"tf","game":"Team Fortress","app_id":440,"player_count":0,"max_players":24,"Bots":0,"server_type":"Dedicated","server_os":"Linux","password":true,"vac":true,"version":"7742253","steam_id":85568392924964315,"keywords":["cp","nocrits","nodmgspread","uncletopia"],"game_id":440,"stv_port":27086,"stv_name":"Uncletopia | London | 8 | Community | STV","players":null},{"server_id":300,"name":"Uncletopia | Montr√©al | 1 | All Maps","name_short":"mtl-1","host":"mtl-1.ca.uncletopia.com","port":27015,"enabled":true,"region":"us-east","cc":"ca","latitude":45.50889,"longitude":-73.56167,"reserved":0,"last_update":"0001-01-01T00:00:00Z","name_a2s":"Uncletopia | Montr√©al | 1 | All Maps","protocol":17,"map":"koth_lakeside_final","folder":"tf","game":"Team Fortress","app_id":440,"player_count":0,"max_players":24,"Bots":0,"server_type":"Dedicated","server_os":"Linux","password":true,"vac":true,"version":"7742253","steam_id":85568392924500087,"keywords":["cp","nocrits","nodmgspread","uncletopia"],"game_id":440,"stv_port":27016,"stv_name":"Uncletopia | Montr√©al | 1 | All Maps | STV","players":null},{"server_id":301,"name":"Uncletopia | Montr√©al | 2 | All Maps","name_short":"mtl-2","host":"mtl-1.ca.uncletopia.com","port":27025,"enabled":true,"region":"us-east","cc":"ca","latitude":45.50889,"longitude":-73.56167,"reserved":0,"last_update":"0001-01-01T00:00:00Z","name_a2s":"Uncletopia | Montr√©al | 2 | All Maps","protocol":17,"map":"koth_lakeside_final","folder":"tf","game":"Team Fortress","app_id":440,"player_count":0,"max_players":24,"Bots":0,"server_type":"Dedicated","server_os":"Linux","password":true,"vac":true,"version":"7742253","steam_id":85568392924500088,"keywords":["cp","nocrits","nodmgspread","uncletopia"],"game_id":440,"stv_port":27026,"stv_name":"Uncletopia | Montr√©al | 2 | All Maps | STV","players":null},{"server_id":302,"name":"Uncletopia | Montr√©al | 3 | All Maps","name_short":"mtl-3","host":"mtl-1.ca.uncletopia.com","port":27035,"enabled":true,"region":"us-east","cc":"ca","latitude":45.50889,"longitude":-73.56167,"reserved":0,"last_update":"0001-01-01T00:00:00Z","name_a2s":"Uncletopia | Montr√©al | 3 | All Maps","protocol":17,"map":"pl_upward","folder":"tf","game":"Team Fortress","app_id":440,"player_count":0,"max_players":24,"Bots":0,"server_type":"Dedicated","server_os":"Linux","password":true,"vac":true,"version":"7742253","steam_id":85568392924500089,"keywords":["nocrits","nodmgspread","payload","uncletopia"],"game_id":440,"stv_port":27036,"stv_name":"Uncletopia | Montr√©al | 3 | All Maps | STV","players":null},{"server_id":303,"name":"Uncletopia | Montr√©al | 4 | No Payload","name_short":"mtl-4","host":"mtl-1.ca.uncletopia.com","port":27045,"enabled":true,"region":"us-east","cc":"ca","latitude":45.50889,"longitude":-73.56167,"reserved":0,"last_update":"0001-01-01T00:00:00Z","name_a2s":"Uncletopia | Montr√©al | 4 | No Payload","protocol":17,"map":"koth_harvest_final","folder":"tf","game":"Team Fortress","app_id":440,"player_count":0,"max_players":24,"Bots":0,"server_type":"Dedicated","server_os":"Linux","password":true,"vac":true,"version":"7742253","steam_id":85568392924500090,"keywords":["cp","nocrits","nodmgspread","uncletopia"],"game_id":440,"stv_port":27046,"stv_name":"Uncletopia | Montr√©al | 4 | No Payload | STV","players":null},{"server_id":13,"name":"Uncletopia | New York City | 1 | All Maps","name_short":"nyc-1","host":"nyc-1.us.uncletopia.com","port":27015,"enabled":true,"region":"us-east","cc":"us","latitude":40.73061,"longitude":-73.93524,"reserved":0,"last_update":"0001-01-01T00:00:00Z","name_a2s":"Uncletopia | New York City | 1 | All Maps","protocol":17,"map":"cp_mountainlab","folder":"tf","game":"Team Fortress","app_id":440,"player_count":23,"max_players":24,"Bots":0,"server_type":"Dedicated","server_os":"Linux","password":true,"vac":true,"version":"7742253","steam_id":85568392924469993,"keywords":["cp","nocrits","nodmgspread","uncletopia"],"game_id":440,"stv_port":27016,"stv_name":"Uncletopia | New York City | 1 | All Maps | STV","players":[{"user_id":172,"name":"THRILLHO","steam_id":76561198371663047,"connected_time":9022000000000,"state":"active","ping":44},{"user_id":240,"name":"Owen","steam_id":76561198025446908,"connected_time":437000000000,"state":"active","ping":43},{"user_id":241,"name":"chirp","steam_id":76561198109916563,"connected_time":416000000000,"state":"active","ping":59},{"user_id":230,"name":"StonedGiant","steam_id":76561197984386932,"connected_time":1672000000000,"state":"active","ping":52},{"user_id":247,"name":"Vladikr1","steam_id":76561198401495362,"connected_time":311000000000,"state":"active","ping":60},{"user_id":194,"name":"merry trapmas","steam_id":76561198402801140,"connected_time":7346000000000,"state":"active","ping":82},{"user_id":243,"name":"Sone","steam_id":76561198069601032,"connected_time":395000000000,"state":"active","ping":54},{"user_id":250,"name":"jpuck","steam_id":76561198025018960,"connected_time":74000000000,"state":"active","ping":64},{"user_id":92,"name":"Bysig_ttv #savetf2","steam_id":76561198086422663,"connected_time":14933000000000,"state":"active","ping":95},{"user_id":234,"name":"ItsRoy","steam_id":76561198119525485,"connected_time":1508000000000,"state":"active","ping":40},{"user_id":226,"name":"Sir Quacksalot","steam_id":76561198048942777,"connected_time":2124000000000,"state":"active","ping":87},{"user_id":209,"name":"Dilbert","steam_id":76561198195613682,"connected_time":4637000000000,"state":"active","ping":75},{"user_id":248,"name":"Acid-talon","steam_id":76561198039545578,"connected_time":308000000000,"state":"active","ping":44},{"user_id":228,"name":"A Puppy","steam_id":76561198828184456,"connected_time":1767000000000,"state":"active","ping":48},{"user_id":235,"name":"JimmY","steam_id":76561198386339252,"connected_time":1489000000000,"state":"active","ping":120},{"user_id":239,"name":"The Big","steam_id":76561198078572184,"connected_time":902000000000,"state":"active","ping":62},{"user_id":236,"name":"SuperJagops","steam_id":76561198034689716,"connected_time":1399000000000,"state":"active","ping":50},{"user_id":222,"name":"Morbius","steam_id":76561198387984694,"connected_time":2659000000000,"state":"active","ping":155},{"user_id":190,"name":"Rappitor","steam_id":76561198105613110,"connected_time":7839000000000,"state":"active","ping":49},{"user_id":224,"name":"Braamklauw","steam_id":76561198283287697,"connected_time":2463000000000,"state":"active","ping":135},{"user_id":231,"name":"Hylic","steam_id":76561199051314589,"connected_time":1549000000000,"state":"active","ping":74},{"user_id":246,"name":"Wan Shi Tong","steam_id":76561198076441225,"connected_time":342000000000,"state":"active","ping":53},{"user_id":249,"name":"Toygar","steam_id":76561198023679830,"connected_time":299000000000,"state":"active","ping":65}]},{"server_id":14,"name":"Uncletopia | New York City | 2 | All Maps","name_short":"nyc-2","host":"nyc-1.us.uncletopia.com","port":27025,"enabled":true,"region":"us-east","cc":"us","latitude":40.73061,"longitude":-73.93524,"reserved":0,"last_update":"0001-01-01T00:00:00Z","name_a2s":"Uncletopia | New York City | 2 | All Maps","protocol":17,"map":"koth_viaduct","folder":"tf","game":"Team Fortress","app_id":440,"player_count":9,"max_players":24,"Bots":0,"server_type":"Dedicated","server_os":"Linux","password":true,"vac":true,"version":"7742253","steam_id":85568392924469994,"keywords":["cp","nocrits","nodmgspread","uncletopia"],"game_id":440,"stv_port":27026,"stv_name":"Uncletopia | New York City | 2 | All Maps | STV","players":[{"user_id":64,"name":"hotline bling","steam_id":76561198984131011,"connected_time":1967000000000,"state":"active","ping":62},{"user_id":75,"name":"Yayifications","steam_id":76561198066227208,"connected_time":844000000000,"state":"active","ping":46},{"user_id":68,"name":"Nic0","steam_id":76561198305690218,"connected_time":1774000000000,"state":"active","ping":55},{"user_id":76,"name":"squishy","steam_id":76561198015034116,"connected_time":843000000000,"state":"active","ping":61},{"user_id":77,"name":"artist meme","steam_id":76561198293774425,"connected_time":657000000000,"state":"active","ping":60},{"user_id":78,"name":"Challenger Charles","steam_id":76561198005576553,"connected_time":653000000000,"state":"active","ping":54},{"user_id":80,"name":"jerma enthusiast","steam_id":76561198359466264,"connected_time":129000000000,"state":"active","ping":71},{"user_id":73,"name":"HotCocoa","steam_id":76561198385193022,"connected_time":1228000000000,"state":"active","ping":84},{"user_id":82,"name":"Back with the milk","steam_id":76561199020105501,"connected_time":5000000000,"state":"spawning","ping":74}]},{"server_id":15,"name":"Uncletopia | New York City | 3 | Stopwatch Beta","name_short":"nyc-3","host":"nyc-1.us.uncletopia.com","port":27035,"enabled":true,"region":"us-east","cc":"us","latitude":40.73061,"longitude":-73.93524,"reserved":0,"last_update":"0001-01-01T00:00:00Z","name_a2s":"Uncletopia | New York City | 3 | Stopwatch Beta","protocol":17,"map":"cp_altitude","folder":"tf","game":"Team Fortress","app_id":440,"player_count":0,"max_players":24,"Bots":0,"server_type":"Dedicated","server_os":"Linux","password":true,"vac":true,"version":"7742253","steam_id":85568392924742820,"keywords":["cp","nocrits","nodmgspread","uncletopia"],"game_id":440,"stv_port":27036,"stv_name":"Uncletopia | New York City | 3 | Stopwatch Beta | STV","players":null},{"server_id":16,"name":"Uncletopia | New York City | 4 | Community","name_short":"nyc-4","host":"nyc-1.us.uncletopia.com","port":27045,"enabled":true,"region":"us-east","cc":"us","latitude":40.73061,"longitude":-73.93524,"reserved":0,"last_update":"0001-01-01T00:00:00Z","name_a2s":"Uncletopia | New York City | 4 | Community","protocol":17,"map":"workshop/koth_synthetic_rc6a.ugc1549817316","folder":"tf","game":"Team Fortress","app_id":440,"player_count":0,"max_players":24,"Bots":0,"server_type":"Dedicated","server_os":"Linux","password":true,"vac":true,"version":"7742253","steam_id":85568392924742821,"keywords":["cp","nocrits","nodmgspread","uncletopia"],"game_id":440,"stv_port":27046,"stv_name":"Uncletopia | New York City | 4 | Community | STV","players":null},{"server_id":142,"name":"Uncletopia | S√£o Paulo | 1 | All Maps","name_short":"sao-1","host":"sao-1.br.uncletopia.com","port":27015,"enabled":true,"region":"sa","cc":"br","latitude":-23.533773,"longitude":-46.62529,"reserved":0,"last_update":"0001-01-01T00:00:00Z","name_a2s":"Uncletopia | S√£o Paulo | 1 | All Maps","protocol":17,"map":"cp_snakewater_final1","folder":"tf","game":"Team Fortress","app_id":440,"player_count":23,"max_players":24,"Bots":0,"server_type":"Dedicated","server_os":"Linux","password":true,"vac":true,"version":"7742253","steam_id":85568392924469996,"keywords":["cp","nocrits","nodmgspread","uncletopia"],"game_id":440,"stv_port":27016,"stv_name":"Uncletopia | S√£o Paulo | 1 | All Maps | STV","players":[{"user_id":29,"name":"Zoom!","steam_id":76561198289562649,"connected_time":5380000000000,"state":"active","ping":43},{"user_id":83,"name":"ayumi","steam_id":76561197977365746,"connected_time":960000000000,"state":"active","ping":44},{"user_id":25,"name":"Ï¶àÌïò","steam_id":76561198143438576,"connected_time":6677000000000,"state":"active","ping":37},{"user_id":81,"name":"MR IA","steam_id":76561199277846603,"connected_time":1190000000000,"state":"active","ping":49},{"user_id":27,"name":"Gabriel„ÇÑ„Çã„Åç","steam_id":76561198332577325,"connected_time":6096000000000,"state":"active","ping":45},{"user_id":30,"name":"6ix *","steam_id":76561198415484497,"connected_time":5217000000000,"state":"active","ping":60},{"user_id":88,"name":"A lot more","steam_id":76561198918942169,"connected_time":556000000000,"state":"active","ping":47},{"user_id":32,"name":"delta","steam_id":76561198288966901,"connected_time":4992000000000,"state":"active","ping":54},{"user_id":84,"name":"Zetaroko","steam_id":76561198199009385,"connected_time":876000000000,"state":"active","ping":84},{"user_id":37,"name":"rafxv","steam_id":76561198083321227,"connected_time":4780000000000,"state":"active","ping":64},{"user_id":85,"name":"Kaiser","steam_id":76561199168194896,"connected_time":846000000000,"state":"active","ping":58},{"user_id":43,"name":"zero.^","steam_id":76561198171128038,"connected_time":4378000000000,"state":"active","ping":45},{"user_id":44,"name":"AnGiovanni","steam_id":76561198857071387,"connected_time":4377000000000,"state":"active","ping":43},{"user_id":86,"name":"fairy_dreamin'","steam_id":76561198429851354,"connected_time":702000000000,"state":"active","ping":48},{"user_id":87,"name":"Cara da Old Spice(Old Spice Guy","steam_id":76561198081925177,"connected_time":680000000000,"state":"active","ping":60},{"user_id":48,"name":"ailuros","steam_id":76561198171349369,"connected_time":4146000000000,"state":"active","ping":44},{"user_id":49,"name":"Zodd","steam_id":76561198940541282,"connected_time":4046000000000,"state":"active","ping":55},{"user_id":75,"name":"z","steam_id":76561198003424231,"connected_time":1862000000000,"state":"active","ping":45},{"user_id":91,"name":"DPACperson","steam_id":76561198431090621,"connected_time":203000000000,"state":"active","ping":44},{"user_id":64,"name":"Deverson_","steam_id":76561199446567104,"connected_time":2621000000000,"state":"active","ping":71},{"user_id":65,"name":"jao","steam_id":76561198408082822,"connected_time":2596000000000,"state":"active","ping":60},{"user_id":66,"name":"finalmente posso falar no chat","steam_id":76561198366237958,"connected_time":2484000000000,"state":"active","ping":45},{"user_id":77,"name":"w_Vine","steam_id":76561198216213185,"connected_time":1707000000000,"state":"active","ping":52}]},{"server_id":143,"name":"Uncletopia | S√£o Paulo | 2 | All Maps","name_short":"sao-2","host":"sao-2.br.uncletopia.com","port":27015,"enabled":true,"region":"sa","cc":"br","latitude":-23.533773,"longitude":-46.62529,"reserved":0,"last_update":"0001-01-01T00:00:00Z","name_a2s":"Uncletopia | S√£o Paulo | 2 | All Maps","protocol":17,"map":"koth_viaduct","folder":"tf","game":"Team Fortress","app_id":440,"player_count":0,"max_players":24,"Bots":0,"server_type":"Dedicated","server_os":"Linux","password":true,"vac":true,"version":"7742253","steam_id":85568392924485349,"keywords":["cp","nocrits","nodmgspread","uncletopia"],"game_id":440,"stv_port":27016,"stv_name":"Uncletopia | S√£o Paulo | 2 | All Maps | STV","players":null},{"server_id":7,"name":"Uncletopia | Seattle | 1 | All Maps","name_short":"sea-1","host":"sea-1.us.uncletopia.com","port":27015,"enabled":true,"region":"us-west","cc":"us","latitude":47.608013,"longitude":-122.33517,"reserved":0,"last_update":"0001-01-01T00:00:00Z","name_a2s":"Uncletopia | Seattle | 1 | All Maps","protocol":17,"map":"koth_cascade","folder":"tf","game":"Team Fortress","app_id":440,"player_count":21,"max_players":24,"Bots":0,"server_type":"Dedicated","server_os":"Linux","password":true,"vac":true,"version":"7742253","steam_id":85568392924469997,"keywords":["cp","nocrits","nodmgspread","uncletopia"],"game_id":440,"stv_port":27016,"stv_name":"Uncletopia | Seattle | 1 | All Maps | STV","players":[{"user_id":100,"name":"Kira","steam_id":76561198021582061,"connected_time":5986000000000,"state":"active","ping":87},{"user_id":178,"name":"trackpad gaming | f2p","steam_id":76561198840414371,"connected_time":216000000000,"state":"active","ping":50},{"user_id":158,"name":"Big Jackalicious","steam_id":76561199135213338,"connected_time":2537000000000,"state":"active","ping":45},{"user_id":174,"name":"StayedUpTooLate","steam_id":76561198002123198,"connected_time":394000000000,"state":"active","ping":48},{"user_id":182,"name":"Rx Auntie","steam_id":76561198051618393,"connected_time":110000000000,"state":"active","ping":54},{"user_id":179,"name":"posse","steam_id":76561198294281809,"connected_time":179000000000,"state":"active","ping":89},{"user_id":171,"name":"Sasha The Foxgirl","steam_id":76561198018403555,"connected_time":858000000000,"state":"active","ping":51},{"user_id":183,"name":"BlookyBlock","steam_id":76561198117009300,"connected_time":42000000000,"state":"active","ping":80},{"user_id":181,"name":"The Classy Ferret","steam_id":76561198200961750,"connected_time":167000000000,"state":"active","ping":69},{"user_id":148,"name":"brimstone","steam_id":76561198066619792,"connected_time":3234000000000,"state":"active","ping":76},{"user_id":159,"name":"merge without looking","steam_id":76561198975450630,"connected_time":2534000000000,"state":"active","ping":48},{"user_id":176,"name":"Janus","steam_id":76561198070318988,"connected_time":307000000000,"state":"active","ping":69},{"user_id":152,"name":"shmowder","steam_id":76561198872316133,"connected_time":2863000000000,"state":"active","ping":65},{"user_id":144,"name":"corbenis","steam_id":76561199012442511,"connected_time":3567000000000,"state":"active","ping":91},{"user_id":167,"name":"lil uzi vertical","steam_id":76561198170669082,"connected_time":1276000000000,"state":"active","ping":86},{"user_id":166,"name":"Gaming","steam_id":76561198327632113,"connected_time":1427000000000,"state":"active","ping":46},{"user_id":173,"name":"twitch.tv/abaddon_amog","steam_id":76561198268581959,"connected_time":610000000000,"state":"active","ping":58},{"user_id":168,"name":"-=Bits=-Dinkleberg","steam_id":76561198080367616,"connected_time":1229000000000,"state":"active","ping":116},{"user_id":177,"name":"The Super Mario Bros. Movie","steam_id":76561198871692156,"connected_time":292000000000,"state":"active","ping":56},{"user_id":129,"name":"MR. MODE","steam_id":76561198046775352,"connected_time":4597000000000,"state":"active","ping":60},{"user_id":162,"name":"Greskrendtregk","steam_id":76561197969553142,"connected_time":2436000000000,"state":"active","ping":72}]},{"server_id":119,"name":"Uncletopia | Seattle | 2 | All Maps","name_short":"sea-2","host":"sea-1.us.uncletopia.com","port":27025,"enabled":true,"region":"us-west","cc":"us","latitude":47.608013,"longitude":-122.33517,"reserved":0,"last_update":"0001-01-01T00:00:00Z","name_a2s":"Uncletopia | Seattle | 2 | All Maps","protocol":17,"map":"pl_upward","folder":"tf","game":"Team Fortress","app_id":440,"player_count":24,"max_players":24,"Bots":0,"server_type":"Dedicated","server_os":"Linux","password":true,"vac":true,"version":"7742253","steam_id":85568392924469998,"keywords":["nocrits","nodmgspread","payload","uncletopia"],"game_id":440,"stv_port":27026,"stv_name":"Uncletopia | Seattle | 2 | All Maps | STV","players":[{"user_id":155,"name":"MCman","steam_id":76561198412110305,"connected_time":1582000000000,"state":"active","ping":75},{"user_id":156,"name":"Throckmorton","steam_id":76561198083636412,"connected_time":1520000000000,"state":"active","ping":118},{"user_id":166,"name":"Cosmiccz","steam_id":76561198073232442,"connected_time":721000000000,"state":"active","ping":107},{"user_id":161,"name":"the moniter","steam_id":76561198271869503,"connected_time":1344000000000,"state":"active","ping":121},{"user_id":165,"name":"{·¥õ Ä_·¥Ñ·¥á Ä·¥ò} shullers","steam_id":76561198889997809,"connected_time":876000000000,"state":"active","ping":75},{"user_id":171,"name":"THAT CAT","steam_id":76561198010828625,"connected_time":643000000000,"state":"active","ping":39},{"user_id":135,"name":"dust","steam_id":76561198045218909,"connected_time":2531000000000,"state":"active","ping":37},{"user_id":180,"name":"2 Point Tom","steam_id":76561198087617008,"connected_time":156000000000,"state":"active","ping":52},{"user_id":168,"name":"Shamash","steam_id":76561199232621620,"connected_time":692000000000,"state":"active","ping":93},{"user_id":154,"name":"mean penguin","steam_id":76561198174751517,"connected_time":1654000000000,"state":"active","ping":79},{"user_id":159,"name":"Krombopulos Michael","steam_id":76561198188730073,"connected_time":1405000000000,"state":"active","ping":107},{"user_id":160,"name":"the girl","steam_id":76561198036901822,"connected_time":1398000000000,"state":"active","ping":96},{"user_id":179,"name":"Vem","steam_id":76561198117273112,"connected_time":316000000000,"state":"active","ping":124},{"user_id":170,"name":"Drift","steam_id":76561199249056061,"connected_time":663000000000,"state":"active","ping":87},{"user_id":172,"name":"Trammy101","steam_id":76561198344726383,"connected_time":604000000000,"state":"active","ping":78},{"user_id":148,"name":"Mania13","steam_id":76561198334886955,"connected_time":1785000000000,"state":"active","ping":105},{"user_id":173,"name":"aiden","steam_id":76561198170381402,"connected_time":587000000000,"state":"active","ping":120},{"user_id":110,"name":"Seru","steam_id":76561199219827214,"connected_time":4703000000000,"state":"active","ping":123},{"user_id":181,"name":"Jeb Wins","steam_id":76561198075614895,"connected_time":111000000000,"state":"active","ping":59},{"user_id":174,"name":"vŒªughn","steam_id":76561198144165856,"connected_time":581000000000,"state":"active","ping":117},{"user_id":177,"name":"TheBold","steam_id":76561199194787298,"connected_time":494000000000,"state":"active","ping":61},{"user_id":130,"name":"Captain Komi","steam_id":76561198057125157,"connected_time":3414000000000,"state":"active","ping":141},{"user_id":176,"name":"tophawkyy","steam_id":76561199075934685,"connected_time":535000000000,"state":"active","ping":77},{"user_id":178,"name":"fishfin","steam_id":76561198255819115,"connected_time":489000000000,"state":"active","ping":109}]},{"server_id":406,"name":"Uncletopia | Seattle | 3 | Stopwatch Beta","name_short":"sea-3","host":"sea-1.us.uncletopia.com","port":27035,"enabled":true,"region":"us-west","cc":"us","latitude":47.608013,"longitude":-122.33517,"reserved":0,"last_update":"0001-01-01T00:00:00Z","name_a2s":"Uncletopia | Seattle | 3 | Stopwatch Beta","protocol":17,"map":"pl_upward","folder":"tf","game":"Team Fortress","app_id":440,"player_count":0,"max_players":24,"Bots":0,"server_type":"Dedicated","server_os":"Linux","password":true,"vac":false,"version":"7742253","steam_id":0,"keywords":["nocrits","nodmgspread","payload","uncletopia"],"game_id":440,"stv_port":27036,"stv_name":"Uncletopia | Seattle | 3 | Stopwatch Beta | STV","players":null},{"server_id":17,"name":"Uncletopia | San Francisco | 1 | All Maps","name_short":"sfo-1","host":"sfo-1.us.uncletopia.com","port":27015,"enabled":true,"region":"us-west","cc":"us","latitude":37.77397,"longitude":-122.4313,"reserved":0,"last_update":"0001-01-01T00:00:00Z","name_a2s":"Uncletopia | San Francisco | 1 | All Maps","protocol":17,"map":"koth_lakeside_final","folder":"tf","game":"Team Fortress","app_id":440,"player_count":0,"max_players":24,"Bots":0,"server_type":"Dedicated","server_os":"Linux","password":true,"vac":true,"version":"7742253","steam_id":85568392924469999,"keywords":["cp","nocrits","nodmgspread","uncletopia"],"game_id":440,"stv_port":27016,"stv_name":"Uncletopia | San Francisco | 1 | All Maps | STV","players":null},{"server_id":18,"name":"Uncletopia | San Francisco | 2 | All Maps","name_short":"sfo-2","host":"sfo-1.us.uncletopia.com","port":27025,"enabled":true,"region":"us-west","cc":"us","latitude":37.77397,"longitude":-122.4313,"reserved":0,"last_update":"0001-01-01T00:00:00Z","name_a2s":"Uncletopia | San Francisco | 2 | All Maps","protocol":17,"map":"cp_process_final","folder":"tf","game":"Team Fortress","app_id":440,"player_count":0,"max_players":24,"Bots":0,"server_type":"Dedicated","server_os":"Linux","password":true,"vac":true,"version":"7742253","steam_id":85568392924470000,"keywords":["cp","nocrits","nodmgspread","uncletopia"],"game_id":440,"stv_port":27026,"stv_name":"Uncletopia | San Francisco | 2 | All Maps | STV","players":null},{"server_id":19,"name":"Uncletopia | San Francisco | 3 | Stopwatch Beta","name_short":"sfo-3","host":"sfo-1.us.uncletopia.com","port":27035,"enabled":true,"region":"us-west","cc":"us","latitude":37.77397,"longitude":-122.4313,"reserved":0,"last_update":"0001-01-01T00:00:00Z","name_a2s":"Uncletopia | San Francisco | 3 | Stopwatch Beta","protocol":17,"map":"cp_snakewater_final1","folder":"tf","game":"Team Fortress","app_id":440,"player_count":0,"max_players":24,"Bots":0,"server_type":"Dedicated","server_os":"Linux","password":true,"vac":true,"version":"7742253","steam_id":85568392924742824,"keywords":["cp","nocrits","nodmgspread","uncletopia"],"game_id":440,"stv_port":27036,"stv_name":"Uncletopia | San Francisco | 3 | Stopwatch Beta | STV","players":null},{"server_id":20,"name":"Uncletopia | San Francisco | 4 | Community","name_short":"sfo-4","host":"sfo-1.us.uncletopia.com","port":27045,"enabled":true,"region":"us-west","cc":"us","latitude":37.77397,"longitude":-122.4313,"reserved":0,"last_update":"0001-01-01T00:00:00Z","name_a2s":"Uncletopia | San Francisco | 4 | Community","protocol":17,"map":"cp_altitude","folder":"tf","game":"Team Fortress","app_id":440,"player_count":0,"max_players":24,"Bots":0,"server_type":"Dedicated","server_os":"Linux","password":true,"vac":true,"version":"7742253","steam_id":85568392924742826,"keywords":["cp","nocrits","nodmgspread","uncletopia"],"game_id":440,"stv_port":27046,"stv_name":"Uncletopia | San Francisco | 4 | Community | STV","players":null},{"server_id":141,"name":"Uncletopia | Sydney | 1 | All Maps","name_short":"syd-1","host":"syd-1.au.uncletopia.com","port":27015,"enabled":true,"region":"au","cc":"au","latitude":-33.865143,"longitude":151.2099,"reserved":0,"last_update":"0001-01-01T00:00:00Z","name_a2s":"Uncletopia | Sydney | 1 | All Maps","protocol":17,"map":"pl_snowycoast","folder":"tf","game":"Team Fortress","app_id":440,"player_count":0,"max_players":24,"Bots":0,"server_type":"Dedicated","server_os":"Linux","password":true,"vac":true,"version":"7742253","steam_id":85568392924470001,"keywords":["nocrits","nodmgspread","payload","uncletopia"],"game_id":440,"stv_port":27016,"stv_name":"Uncletopia | Sydney | 1 | All Maps | STV","players":null},{"server_id":123,"name":"Uncletopia | Sydney | 2 | All Maps","name_short":"syd-2","host":"syd-1.au.uncletopia.com","port":27025,"enabled":true,"region":"au","cc":"au","latitude":-33.865143,"longitude":151.2099,"reserved":0,"last_update":"0001-01-01T00:00:00Z","name_a2s":"Uncletopia | Sydney | 2 | All Maps","protocol":17,"map":"koth_lakeside_final","folder":"tf","game":"Team Fortress","app_id":440,"player_count":0,"max_players":24,"Bots":0,"server_type":"Dedicated","server_os":"Linux","password":true,"vac":true,"version":"7742253","steam_id":85568392924470002,"keywords":["cp","nocrits","nodmgspread","uncletopia"],"game_id":440,"stv_port":27026,"stv_name":"Uncletopia | Sydney | 2 | All Maps | STV","players":null},{"server_id":395,"name":"Uncletopia | Sydney | 3 | All Maps","name_short":"syd-3","host":"syd-1.au.uncletopia.com","port":27035,"enabled":true,"region":"au","cc":"au","latitude":-33.865143,"longitude":151.2099,"reserved":0,"last_update":"0001-01-01T00:00:00Z","name_a2s":"Uncletopia | Sydney | 3 | All Maps","protocol":17,"map":"cp_dustbowl","folder":"tf","game":"Team Fortress","app_id":440,"player_count":0,"max_players":24,"Bots":0,"server_type":"Dedicated","server_os":"Linux","password":true,"vac":true,"version":"7742253","steam_id":85568392925194467,"keywords":["cp","nocrits","nodmgspread","uncletopia"],"game_id":440,"stv_port":27036,"stv_name":"Uncletopia | Sydney | 3 | All Maps | STV","players":null},{"server_id":396,"name":"Uncletopia | Sydney | 4 | All Maps","name_short":"syd-4","host":"syd-1.au.uncletopia.com","port":27045,"enabled":true,"region":"au","cc":"au","latitude":-33.865143,"longitude":151.2099,"reserved":0,"last_update":"0001-01-01T00:00:00Z","name_a2s":"Uncletopia | Sydney | 4 | All Maps","protocol":17,"map":"pl_borneo","folder":"tf","game":"Team Fortress","app_id":440,"player_count":0,"max_players":24,"Bots":0,"server_type":"Dedicated","server_os":"Linux","password":true,"vac":true,"version":"7742253","steam_id":85568392925397958,"keywords":["nocrits","nodmgspread","payload","uncletopia"],"game_id":440,"stv_port":27046,"stv_name":"Uncletopia | Sydney | 4 | All Maps | STV","players":null},{"server_id":58,"name":"Uncletopia | Sydney | 5 | Stopwatch Beta","name_short":"syd-5","host":"syd-1.au.uncletopia.com","port":27055,"enabled":true,"region":"au","cc":"au","latitude":-33.865143,"longitude":151.2099,"reserved":0,"last_update":"0001-01-01T00:00:00Z","name_a2s":"Uncletopia | Sydney | 5 | Stopwatch Beta","protocol":17,"map":"cp_snakewater_final1","folder":"tf","game":"Team Fortress","app_id":440,"player_count":0,"max_players":24,"Bots":0,"server_type":"Dedicated","server_os":"Linux","password":true,"vac":true,"version":"7742253","steam_id":85568392925397959,"keywords":["cp","nocrits","nodmgspread","uncletopia"],"game_id":440,"stv_port":27056,"stv_name":"Uncletopia | Sydney | 5 | Stopwatch Beta | STV","players":null},{"server_id":59,"name":"Uncletopia | Sydney | 6 | Community","name_short":"syd-6","host":"syd-1.au.uncletopia.com","port":27065,"enabled":true,"region":"au","cc":"au","latitude":-33.865143,"longitude":151.2099,"reserved":0,"last_update":"0001-01-01T00:00:00Z","name_a2s":"Uncletopia | Sydney | 6 | Community","protocol":17,"map":"cp_snakewater_final1","folder":"tf","game":"Team Fortress","app_id":440,"player_count":0,"max_players":24,"Bots":0,"server_type":"Dedicated","server_os":"Linux","password":true,"vac":true,"version":"7742253","steam_id":85568392925397960,"keywords":["cp","nocrits","nodmgspread","uncletopia"],"game_id":440,"stv_port":27066,"stv_name":"Uncletopia | Sydney | 6 | Community | STV","players":null},{"server_id":49,"name":"Uncletopia | Warsaw | 1 | All Maps","name_short":"waw-1","host":"waw-1.pl.uncletopia.com","port":27015,"enabled":true,"region":"eu","cc":"pl","latitude":52.2297,"longitude":21.017532,"reserved":0,"last_update":"0001-01-01T00:00:00Z","name_a2s":"Uncletopia | Warsaw | 1 | All Maps","protocol":17,"map":"koth_lakeside_final","folder":"tf","game":"Team Fortress","app_id":440,"player_count":0,"max_players":24,"Bots":0,"server_type":"Dedicated","server_os":"Linux","password":true,"vac":true,"version":"7723704","steam_id":85568392925397850,"keywords":["cp","nocrits","nodmgspread","uncletopia"],"game_id":440,"stv_port":27016,"stv_name":"Uncletopia | Warsaw | 1 | All Maps | STV","players":null},{"server_id":50,"name":"Uncletopia | Warsaw | 2 | All Maps","name_short":"waw-2","host":"waw-1.pl.uncletopia.com","port":27025,"enabled":true,"region":"eu","cc":"pl","latitude":52.2297,"longitude":21.017532,"reserved":0,"last_update":"0001-01-01T00:00:00Z","name_a2s":"Uncletopia | Warsaw | 2 | All Maps","protocol":17,"map":"koth_cascade","folder":"tf","game":"Team Fortress","app_id":440,"player_count":0,"max_players":24,"Bots":0,"server_type":"Dedicated","server_os":"Linux","password":true,"vac":true,"version":"7742253","steam_id":85568392925397851,"keywords":["cp","nocrits","nodmgspread","uncletopia"],"game_id":440,"stv_port":27026,"stv_name":"Uncletopia | Warsaw | 2 | All Maps | STV","players":null},{"server_id":51,"name":"Uncletopia | Warsaw | 3 | All Maps","name_short":"waw-3","host":"waw-1.pl.uncletopia.com","port":27035,"enabled":true,"region":"eu","cc":"pl","latitude":52.2297,"longitude":21.017532,"reserved":0,"last_update":"0001-01-01T00:00:00Z","name_a2s":"Uncletopia | Warsaw | 3 | All Maps","protocol":17,"map":"koth_cascade","folder":"tf","game":"Team Fortress","app_id":440,"player_count":0,"max_players":24,"Bots":0,"server_type":"Dedicated","server_os":"Linux","password":true,"vac":true,"version":"7742253","steam_id":85568392925397852,"keywords":["cp","nocrits","nodmgspread","uncletopia"],"game_id":440,"stv_port":27036,"stv_name":"Uncletopia | Warsaw | 3 | All Maps | STV","players":null},{"server_id":52,"name":"Uncletopia | Warsaw | 4 | All Maps","name_short":"waw-4","host":"waw-1.pl.uncletopia.com","port":27045,"enabled":true,"region":"eu","cc":"pl","latitude":52.2297,"longitude":21.017532,"reserved":0,"last_update":"0001-01-01T00:00:00Z","name_a2s":"Uncletopia | Warsaw | 4 | All Maps","protocol":17,"map":"pl_swiftwater_final1","folder":"tf","game":"Team Fortress","app_id":440,"player_count":0,"max_players":24,"Bots":0,"server_type":"Dedicated","server_os":"Linux","password":true,"vac":true,"version":"7742253","steam_id":85568392925397853,"keywords":["nocrits","nodmgspread","payload","uncletopia"],"game_id":440,"stv_port":27046,"stv_name":"Uncletopia | Warsaw | 4 | All Maps | STV","players":null},{"server_id":53,"name":"Uncletopia | Warsaw | 5 | Stopwatch Beta","name_short":"waw-5","host":"waw-1.pl.uncletopia.com","port":27055,"enabled":true,"region":"eu","cc":"pl","latitude":52.2297,"longitude":21.017532,"reserved":0,"last_update":"0001-01-01T00:00:00Z","name_a2s":"Uncletopia | Warsaw | 5 | Stopwatch Beta","protocol":17,"map":"pl_pier","folder":"tf","game":"Team Fortress","app_id":440,"player_count":0,"max_players":24,"Bots":0,"server_type":"Dedicated","server_os":"Linux","password":true,"vac":true,"version":"7742253","steam_id":85568392925397854,"keywords":["nocrits","nodmgspread","payload","uncletopia"],"game_id":440,"stv_port":27056,"stv_name":"Uncletopia | Warsaw | 5 | Stopwatch Beta | STV","players":null},{"server_id":54,"name":"Uncletopia | Warsaw | 6 | Community","name_short":"waw-6","host":"waw-1.pl.uncletopia.com","port":27065,"enabled":true,"region":"eu","cc":"pl","latitude":52.2297,"longitude":21.017532,"reserved":0,"last_update":"0001-01-01T00:00:00Z","name_a2s":"Uncletopia | Warsaw | 6 | Community","protocol":17,"map":"workshop/rd_asteroid_redux_rc9.ugc2154902912","folder":"tf","game":"Team Fortress","app_id":440,"player_count":0,"max_players":24,"Bots":0,"server_type":"Dedicated","server_os":"Linux","password":true,"vac":true,"version":"7742253","steam_id":85568392925397856,"keywords":["beta","nocrits","nodmgspread","rd","uncletopia"],"game_id":440,"stv_port":27066,"stv_name":"Uncletopia | Warsaw | 6 | Community | STV","players":null}]}