{"status":true,"message":"","result":[{"server_id":9,"name":"Uncletopia | Atlanta | 1 | All Maps","name_short":"atl-1","host":"atl-1.us.uncletopia.com","port":27015,"enabled":true,"region":"us-east","cc":"us","latitude":33.753746,"longitude":-84.38633,"reserved":0,"last_update":"0001-01-01T00:00:00Z","name_a2s":"Uncletopia | Atlanta | 1 | All Maps","protocol":17,"map":"pl_barnblitz","folder":"tf","game":"Team Fortress","app_id":440,"player_count":24,"max_players":24,"Bots":0,"server_type":"Dedicated","server_os":"Linux","password":true,"vac":true,"version":"7961495","steam_id":85568392924469982,"keywords":["nocrits","nodmgspread","payload","uncletopia"],"game_id":440,"stv_port":27016,"stv_name":"Uncletopia | Atlanta | 1 | All Maps | STV","players":null},{"server_id":104,"name":"Uncletopia | Atlanta | 2 | All Maps","name_short":"atl-2","host":"atl-1.us.uncletopia.com","port":27025,"enabled":true,"region":"us-east","cc":"us","latitude":33.753746,"longitude":-84.38633,"reserved":0,"last_update":"0001-01-01T00:00:00Z","name_a2s":"Uncletopia | Atlanta | 2 | All Maps","protocol":17,"map":"pl_upward","folder":"tf","game":"Team Fortress","app_id":440,"player_count":22,"max_players":24,"Bots":0,"server_type":"Dedicated","server_os":"Linux","password":true,"vac":true,"version":"7961495","steam_id":85568392924469983,"keywords":["nocrits","nodmgspread","payload","uncletopia"],"game_id":440,"stv_port":27026,"stv_name":"Uncletopia | Atlanta | 2 | All Maps | STV","players":null},{"server_id":400,"name":"Uncletopia | Atlanta | 3 | Stopwatch","name_short":"atl-3","host":"atl-1.us.uncletopia.com","port":27035,"enabled":true,"region":"us-east","cc":"us","latitude":33.753746,"longitude":-84.38633,"reserved":0,"last_update":"0001-01-01T00:00:00Z","name_a2s":"Uncletopia | Atlanta | 3 | Stopwatch","protocol":17,"map":"koth_ashville_final","folder":"tf","game":"Team Fortress","app_id":440,"player_count":0,"max_players":24,"Bots":0,"server_type":"Dedicated","server_os":"Linux","password":true,"vac":true,"version":"7961495","steam_id":85568392924515187,"keywords":["cp","nocrits","nodmgspread","uncletopia"],"game_id":440,"stv_port":27036,"stv_name":"Uncletopia | Atlanta | 3 | Stopwatch | STV","players":null},{"server_id":401,"name":"Uncletopia | Atlanta | 4 | Community","name_short":"atl-4","host":"atl-1.us.uncletopia.com","port":27045,"enabled":true,"region":"us-east","cc":"us","latitude":33.753746,"longitude":-84.38633,"reserved":0,"last_update":"0001-01-01T00:00:00Z","name_a2s":"Uncletopia | Atlanta | 4 | Community","protocol":17,"map":"koth_kemptown_rc1","folder":"tf","game":"Team Fortress","app_id":440,"player_count":0,"max_players":24,"Bots":0,"server_type":"Dedicated","server_os":"Linux","password":true,"vac":true,"version":"7961495","steam_id":85568392924515188,"keywords":["cp","nocrits","nodmgspread","uncletopia"],"game_id":440,"stv_port":27046,"stv_name":"Uncletopia | Atlanta | 4 | Community | STV","players":null},{"server_id":2,"name":"Uncletopia | Chicago | 1 | All Maps","name_short":"chi-1","host":"chi-1.us.uncletopia.com","port":27015,"enabled":true,"region":"us-central","cc":"us","latitude":41.881832,"longitude":-87.62318,"reserved":0,"last_update":"0001-01-01T00:00:00Z","name_a2s":"Uncletopia | Chicago | 1 | All Maps","protocol":17,"map":"pl_badwater","folder":"tf","game":"Team Fortress","app_id":440,"player_count":0,"max_players":24,"Bots":0,"server_type":"Dedicated","server_os":"Linux","password":true,"vac":true,"version":"7961495","steam_id":85568392924469984,"keywords":["nocrits","nodmgspread","payload","uncletopia"],"game_id":440,"stv_port":27016,"stv_name":"Uncletopia | Chicago | 1 | All Maps | STV","players":null},{"server_id":106,"name":"Uncletopia | Chicago | 2 | All Maps","name_short":"chi-2","host":"chi-1.us.uncletopia.com","port":27025,"enabled":true,"region":"us-central","cc":"us","latitude":41.881832,"longitude":-87.62318,"reserved":0,"last_update":"0001-01-01T00:00:00Z","name_a2s":"Uncletopia | Chicago | 2 | All Maps","protocol":17,"map":"pl_borneo","folder":"tf","game":"Team Fortress","app_id":440,"player_count":24,"max_players":24,"Bots":0,"server_type":"Dedicated","server_os":"Linux","password":true,"vac":true,"version":"7961495","steam_id":85568392924469985,"keywords":["nocrits","nodmgspread","payload","uncletopia"],"game_id":440,"stv_port":27026,"stv_name":"Uncletopia | Chicago | 2 | All Maps | STV","players":[{"user_id":799,"name":"imortalproblem","steam_id":76561199222627886,"connected_time":1073000000000,"state":"active","ping":104},{"user_id":795,"name":"Rudy","steam_id":76561198013456828,"connected_time":1165000000000,"state":"active","ping":70},{"user_id":780,"name":"Brawns","steam_id":76561198045190199,"connected_time":1790000000000,"state":"active","ping":78},{"user_id":809,"name":"Pirate™","steam_id":76561198140698982,"connected_time":121000000000,"state":"active","ping":59},{"user_id":794,"name":"Purple Gibbous","steam_id":76561198064883743,"connected_time":1183000000000,"state":"active","ping":70},{"user_id":810,"name":"Howard Hamlin","steam_id":76561198881039861,"connected_time":119000000000,"state":"active","ping":75},{"user_id":767,"name":"uweh","steam_id":76561198113707813,"connected_time":2357000000000,"state":"active","ping":79},{"user_id":788,"name":"Doober","steam_id":76561198056661095,"connected_time":1248000000000,"state":"active","ping":85},{"user_id":757,"name":"IsleBound","steam_id":76561198278451717,"connected_time":2573000000000,"state":"active","ping":63},{"user_id":811,"name":"cam","steam_id":76561199331283116,"connected_time":104000000000,"state":"active","ping":98},{"user_id":797,"name":"ElectronX","steam_id":76561198116034988,"connected_time":1129000000000,"state":"active","ping":102},{"user_id":808,"name":"feenjareen","steam_id":76561198125950530,"connected_time":192000000000,"state":"active","ping":78},{"user_id":802,"name":"serious","steam_id":76561198040671133,"connected_time":911000000000,"state":"active","ping":56},{"user_id":781,"name":"Space Cops","steam_id":76561198032414253,"connected_time":1769000000000,"state":"active","ping":58},{"user_id":803,"name":"cockfighter","steam_id":76561198044268609,"connected_time":895000000000,"state":"active","ping":68},{"user_id":764,"name":"Aspxts","steam_id":76561199125254746,"connected_time":2437000000000,"state":"active","ping":59},{"user_id":779,"name":"Raccoon Wizard","steam_id":76561198072562591,"connected_time":1805000000000,"state":"active","ping":88},{"user_id":804,"name":"stoppen","steam_id":76561197960281482,"connected_time":871000000000,"state":"active","ping":145},{"user_id":786,"name":"i suffer from ligma","steam_id":76561199158496518,"connected_time":1440000000000,"state":"active","ping":117},{"user_id":812,"name":"Abyssion","steam_id":76561198040246963,"connected_time":101000000000,"state":"active","ping":150},{"user_id":806,"name":"ImSoTrash","steam_id":76561199208833677,"connected_time":812000000000,"state":"active","ping":129},{"user_id":771,"name":"Raz","steam_id":76561198879521002,"connected_time":2329000000000,"state":"active","ping":66},{"user_id":813,"name":"The Professor","steam_id":76561198113760863,"connected_time":62000000000,"state":"active","ping":60},{"user_id":789,"name":"Rowdy","steam_id":76561198091758619,"connected_time":1248000000000,"state":"active","ping":98}]},{"server_id":402,"name":"Uncletopia | Chicago | 3 | All Maps","name_short":"chi-3","host":"chi-1.us.uncletopia.com","port":27035,"enabled":true,"region":"us-central","cc":"us","latitude":41.881832,"longitude":-87.62318,"reserved":0,"last_update":"0001-01-01T00:00:00Z","name_a2s":"Uncletopia | Chicago | 3 | All Maps","protocol":17,"map":"pl_upward","folder":"tf","game":"Team Fortress","app_id":440,"player_count":15,"max_players":24,"Bots":0,"server_type":"Dedicated","server_os":"Linux","password":true,"vac":true,"version":"7961495","steam_id":85568392924515191,"keywords":["nocrits","nodmgspread","payload","uncletopia"],"game_id":440,"stv_port":27036,"stv_name":"Uncletopia | Chicago | 3 | All Maps | STV","players":[{"user_id":443,"name":"⛧Demon⛧Mom⛧","steam_id":76561198035741947,"connected_time":222000000000,"state":"active","ping":59},{"user_id":424,"name":"Cosmic sR","steam_id":76561198081738675,"connected_time":1245000000000,"state":"active","ping":73},{"user_id":372,"name":"Saul Goodman","steam_id":76561198157305426,"connected_time":5088000000000,"state":"active","ping":60},{"user_id":442,"name":"cotton candy ghooost","steam_id":76561198058998371,"connected_time":367000000000,"state":"active","ping":61},{"user_id":441,"name":"dunk","steam_id":76561198132476501,"connected_time":444000000000,"state":"active","ping":48},{"user_id":331,"name":"aisu","steam_id":76561198043768507,"connected_time":8753000000000,"state":"active","ping":70},{"user_id":436,"name":"Catfish","steam_id":76561198088009583,"connected_time":604000000000,"state":"active","ping":63},{"user_id":437,"name":"captainskullet","steam_id":76561198314597170,"connected_time":602000000000,"state":"active","ping":67},{"user_id":440,"name":"jon pickle water","steam_id":76561199036212135,"connected_time":476000000000,"state":"active","ping":105},{"user_id":427,"name":"Mr. Sauce","steam_id":76561198055512324,"connected_time":982000000000,"state":"active","ping":73},{"user_id":406,"name":"The Roto Grip Exotic Gem","steam_id":76561197961141994,"connected_time":3157000000000,"state":"active","ping":74},{"user_id":405,"name":"oppenheimer style","steam_id":76561198026664629,"connected_time":3465000000000,"state":"active","ping":59},{"user_id":419,"name":"OliverOyl","steam_id":76561198273781861,"connected_time":2061000000000,"state":"active","ping":73},{"user_id":433,"name":"Xyverle","steam_id":76561198799726415,"connected_time":684000000000,"state":"active","ping":60},{"user_id":439,"name":"Generic Name","steam_id":76561198094225684,"connected_time":594000000000,"state":"active","ping":70}]},{"server_id":403,"name":"Uncletopia | Chicago | 4 | All Maps","name_short":"chi-4","host":"chi-1.us.uncletopia.com","port":27045,"enabled":true,"region":"us-central","cc":"us","latitude":41.881832,"longitude":-87.62318,"reserved":0,"last_update":"0001-01-01T00:00:00Z","name_a2s":"Uncletopia | Chicago | 4 | All Maps","protocol":17,"map":"pl_thundermountain","folder":"tf","game":"Team Fortress","app_id":440,"player_count":24,"max_players":24,"Bots":0,"server_type":"Dedicated","server_os":"Linux","password":true,"vac":true,"version":"7961495","steam_id":85568392924515193,"keywords":["nocrits","nodmgspread","payload","uncletopia"],"game_id":440,"stv_port":27046,"stv_name":"Uncletopia | Chicago | 4 | All Maps | STV","players":[{"user_id":842,"name":"vepis","steam_id":76561198015884720,"connected_time":7000000000,"state":"spawning","ping":65},{"user_id":783,"name":"cofi","steam_id":76561198077504898,"connected_time":3452000000000,"state":"active","ping":64},{"user_id":775,"name":"TheChickenChuck","steam_id":76561199192686708,"connected_time":3820000000000,"state":"active","ping":111},{"user_id":782,"name":"rudy","steam_id":76561198088712799,"connected_time":3466000000000,"state":"active","ping":83},{"user_id":784,"name":"Lummock","steam_id":76561199099083114,"connected_time":3444000000000,"state":"active","ping":99},{"user_id":826,"name":"Antwan","steam_id":76561198246200638,"connected_time":1523000000000,"state":"active","ping":75},{"user_id":828,"name":"Chicken Nugget","steam_id":76561198152437646,"connected_time":1224000000000,"state":"active","ping":65},{"user_id":817,"name":"dulg","steam_id":76561198127640309,"connected_time":1675000000000,"state":"active","ping":88},{"user_id":818,"name":"stormfoam","steam_id":76561198936871387,"connected_time":1666000000000,"state":"active","ping":72},{"user_id":832,"name":"TransPuppygirlWithExtraSad","steam_id":76561198085813708,"connected_time":495000000000,"state":"active","ping":65},{"user_id":790,"name":"Kiradias777","steam_id":76561198067176309,"connected_time":3195000000000,"state":"active","ping":69},{"user_id":820,"name":"women in suits #transrights","steam_id":76561198103901723,"connected_time":1651000000000,"state":"active","ping":77},{"user_id":834,"name":"Kng","steam_id":76561198993248203,"connected_time":425000000000,"state":"active","ping":89},{"user_id":830,"name":";w;","steam_id":76561199058284787,"connected_time":965000000000,"state":"active","ping":76},{"user_id":827,"name":"Syrup_Bottle","steam_id":76561198869174481,"connected_time":1463000000000,"state":"active","ping":89},{"user_id":822,"name":"Truck-kun2107","steam_id":76561199161417910,"connected_time":1639000000000,"state":"active","ping":93},{"user_id":831,"name":"Hovg9000","steam_id":76561199191556710,"connected_time":605000000000,"state":"active","ping":85},{"user_id":796,"name":"Marineland","steam_id":76561198081285187,"connected_time":3078000000000,"state":"active","ping":78},{"user_id":824,"name":"Je","steam_id":76561198060626838,"connected_time":1609000000000,"state":"active","ping":79},{"user_id":836,"name":"Ayylmao","steam_id":76561198104780147,"connected_time":257000000000,"state":"active","ping":45},{"user_id":829,"name":"bird with bad aim","steam_id":76561198062360755,"connected_time":1205000000000,"state":"active","ping":55},{"user_id":800,"name":"Aldinach","steam_id":76561198079912615,"connected_time":2997000000000,"state":"active","ping":48},{"user_id":838,"name":"Commodore","steam_id":76561198042112852,"connected_time":241000000000,"state":"active","ping":79},{"user_id":839,"name":"Joculatrix","steam_id":76561198012795457,"connected_time":239000000000,"state":"active","ping":75}]},{"server_id":36,"name":"Uncletopia | Chicago | 5 | All Maps","name_short":"chi-5","host":"chi-2.us.uncletopia.com","port":27015,"enabled":true,"region":"us-central","cc":"us","latitude":41.881832,"longitude":-87.62318,"reserved":0,"last_update":"0001-01-01T00:00:00Z","name_a2s":"Uncletopia | Chicago | 5 | All Maps","protocol":17,"map":"pl_badwater","folder":"tf","game":"Team Fortress","app_id":440,"player_count":24,"max_players":24,"Bots":0,"server_type":"Dedicated","server_os":"Linux","password":true,"vac":true,"version":"7961495","steam_id":85568392924866362,"keywords":["nocrits","nodmgspread","payload","uncletopia"],"game_id":440,"stv_port":27016,"stv_name":"Uncletopia | Chicago | 5 | All Maps | STV","players":[{"user_id":243,"name":"4 life","steam_id":76561198175961598,"connected_time":2393000000000,"state":"active","ping":116},{"user_id":248,"name":"zpalmtree","steam_id":76561198134307620,"connected_time":2112000000000,"state":"active","ping":59},{"user_id":249,"name":"sixsin","steam_id":76561199215821942,"connected_time":2109000000000,"state":"active","ping":68},{"user_id":247,"name":"Scoops M'Gooch","steam_id":76561198048423812,"connected_time":2283000000000,"state":"active","ping":118},{"user_id":258,"name":"EpsilonEagle","steam_id":76561197999126769,"connected_time":951000000000,"state":"active","ping":102},{"user_id":252,"name":"The Piss Warrior","steam_id":76561198151927029,"connected_time":1314000000000,"state":"active","ping":97},{"user_id":192,"name":"Fudgely","steam_id":76561198039425862,"connected_time":6965000000000,"state":"active","ping":77},{"user_id":253,"name":"Shopkeeper","steam_id":76561198105888756,"connected_time":1302000000000,"state":"active","ping":114},{"user_id":232,"name":"IMM0RTAL","steam_id":76561198013747901,"connected_time":3588000000000,"state":"active","ping":75},{"user_id":259,"name":"SHADOW","steam_id":76561198207768148,"connected_time":779000000000,"state":"active","ping":111},{"user_id":242,"name":"the album dariacore by leroy","steam_id":76561198061497429,"connected_time":2452000000000,"state":"active","ping":67},{"user_id":254,"name":"Tribbies","steam_id":76561198000708696,"connected_time":1297000000000,"state":"active","ping":103},{"user_id":255,"name":"BrownBear77","steam_id":76561198311991104,"connected_time":1277000000000,"state":"active","ping":116},{"user_id":263,"name":"b","steam_id":76561198156336213,"connected_time":395000000000,"state":"active","ping":75},{"user_id":225,"name":"RestingImmortal","steam_id":76561198254240564,"connected_time":4121000000000,"state":"active","ping":72},{"user_id":264,"name":"Folkmar Sigmund","steam_id":76561198061301710,"connected_time":345000000000,"state":"active","ping":64},{"user_id":167,"name":"Gram Tokers Count Doinkula","steam_id":76561198112811565,"connected_time":8834000000000,"state":"active","ping":70},{"user_id":187,"name":"Propaniac Gaming ☑","steam_id":76561198133963270,"connected_time":7126000000000,"state":"active","ping":61},{"user_id":266,"name":"meta dependent merchant","steam_id":76561197962607364,"connected_time":102000000000,"state":"active","ping":79},{"user_id":261,"name":"johankole96","steam_id":76561198179819715,"connected_time":766000000000,"state":"active","ping":74},{"user_id":251,"name":"double xp weekend","steam_id":76561198052950547,"connected_time":1798000000000,"state":"active","ping":44},{"user_id":262,"name":"hashmap","steam_id":76561198043794014,"connected_time":755000000000,"state":"active","ping":56},{"user_id":227,"name":"MrMind","steam_id":76561199321657653,"connected_time":4053000000000,"state":"active","ping":99},{"user_id":233,"name":"Lawlessbacon","steam_id":76561198829997780,"connected_time":3560000000000,"state":"active","ping":83}]},{"server_id":37,"name":"Uncletopia | Chicago | 6 | All Maps","name_short":"chi-6","host":"chi-2.us.uncletopia.com","port":27025,"enabled":true,"region":"us-central","cc":"us","latitude":41.881832,"longitude":-87.62318,"reserved":0,"last_update":"0001-01-01T00:00:00Z","name_a2s":"Uncletopia | Chicago | 6 | All Maps","protocol":17,"map":"pl_swiftwater_final1","folder":"tf","game":"Team Fortress","app_id":440,"player_count":15,"max_players":24,"Bots":0,"server_type":"Dedicated","server_os":"Linux","password":true,"vac":true,"version":"7961495","steam_id":85568392924866363,"keywords":["nocrits","nodmgspread","payload","uncletopia"],"game_id":440,"stv_port":27026,"stv_name":"Uncletopia | Chicago | 6 | All Maps | STV","players":[{"user_id":470,"name":"ElPescador","steam_id":76561198996853480,"connected_time":135000000000,"state":"active","ping":169},{"user_id":453,"name":"\u003c blank \u003e","steam_id":76561198057457717,"connected_time":1961000000000,"state":"active","ping":72},{"user_id":459,"name":"Terminally Online Weeb [Dexgod]","steam_id":76561198017130786,"connected_time":924000000000,"state":"active","ping":83},{"user_id":472,"name":"ElixirMan","steam_id":76561199102118368,"connected_time":97000000000,"state":"active","ping":109},{"user_id":363,"name":"Nillad","steam_id":76561198984334138,"connected_time":8568000000000,"state":"active","ping":77},{"user_id":456,"name":"Goozrat","steam_id":76561198399281848,"connected_time":1054000000000,"state":"active","ping":71},{"user_id":458,"name":"ZorroWithTheWhip","steam_id":76561198317409075,"connected_time":978000000000,"state":"active","ping":121},{"user_id":447,"name":"Dr. Dick","steam_id":76561198138011922,"connected_time":2157000000000,"state":"active","ping":81},{"user_id":442,"name":"Headshotsnake","steam_id":76561198067130248,"connected_time":2466000000000,"state":"active","ping":59},{"user_id":425,"name":"Moonshine Man","steam_id":76561198088010073,"connected_time":3640000000000,"state":"active","ping":75},{"user_id":349,"name":"AL SPUGNAR","steam_id":76561199020253203,"connected_time":9358000000000,"state":"active","ping":117},{"user_id":410,"name":"Chin (SFM Comms Open)","steam_id":76561198953123833,"connected_time":4720000000000,"state":"active","ping":110},{"user_id":428,"name":"poopybutt420","steam_id":76561199000805315,"connected_time":3385000000000,"state":"active","ping":97},{"user_id":347,"name":"ItsThatBear","steam_id":76561198169617659,"connected_time":9376000000000,"state":"active","ping":82},{"user_id":466,"name":"Blitzy","steam_id":76561198149472890,"connected_time":730000000000,"state":"active","ping":70}]},{"server_id":38,"name":"Uncletopia | Chicago | 7 | Stopwatch","name_short":"chi-7","host":"chi-2.us.uncletopia.com","port":27035,"enabled":true,"region":"us-central","cc":"us","latitude":41.881832,"longitude":-87.62318,"reserved":0,"last_update":"0001-01-01T00:00:00Z","name_a2s":"Uncletopia | Chicago | 7 | Stopwatch","protocol":17,"map":"workshop/koth_product_final.ugc454272353","folder":"tf","game":"Team Fortress","app_id":440,"player_count":4,"max_players":24,"Bots":0,"server_type":"Dedicated","server_os":"Linux","password":true,"vac":true,"version":"7961495","steam_id":85568392924866364,"keywords":["cp","nocrits","nodmgspread","uncletopia"],"game_id":440,"stv_port":27036,"stv_name":"Uncletopia | Chicago | 7 | Stopwatch | STV","players":[{"user_id":207,"name":"Zealot wha","steam_id":76561198218369271,"connected_time":1639000000000,"state":"active","ping":60},{"user_id":206,"name":"Mom","steam_id":76561198207936000,"connected_time":2090000000000,"state":"active","ping":85},{"user_id":217,"name":"ZombieSlayer77","steam_id":76561199023974356,"connected_time":211000000000,"state":"active","ping":84},{"user_id":218,"name":"All Tomorrow's Parties","steam_id":76561197995936212,"connected_time":196000000000,"state":"active","ping":44}]},{"server_id":39,"name":"Uncletopia | Chicago | 8 | Community","name_short":"chi-8","host":"chi-2.us.uncletopia.com","port":27045,"enabled":true,"region":"us-central","cc":"us","latitude":41.881832,"longitude":-87.62318,"reserved":0,"last_update":"0001-01-01T00:00:00Z","name_a2s":"Uncletopia | Chicago | 8 | Community","protocol":17,"map":"workshop/cp_coilblaze_rc7.ugc1272700588","folder":"tf","game":"Team Fortress","app_id":440,"player_count":0,"max_players":24,"Bots":0,"server_type":"Dedicated","server_os":"Linux","password":true,"vac":true,"version":"7961495","steam_id":85568392924866365,"keywords":["cp","nocrits","nodmgspread","uncletopia"],"game_id":440,"stv_port":27046,"stv_name":"Uncletopia | Chicago | 8 | Community | STV","players":null},{"server_id":8,"name":"Uncletopia | Dallas | 1 | All Maps","name_short":"dal-1","host":"dal-1.us.uncletopia.com","port":27015,"enabled":true,"region":"us-central","cc":"us","latitude":32.779167,"longitude":-96.80889,"reserved":0,"last_update":"0001-01-01T00:00:00Z","name_a2s":"Uncletopia | Dallas | 1 | All Maps","protocol":17,"map":"koth_lakeside_final","folder":"tf","game":"Team Fortress","app_id":440,"player_count":18,"max_players":24,"Bots":0,"server_type":"Dedicated","server_os":"Linux","password":true,"vac":true,"version":"7961495","steam_id":85568392924469986,"keywords":["cp","nocrits","nodmgspread","uncletopia"],"game_id":440,"stv_port":27016,"stv_name":"Uncletopia | Dallas | 1 | All Maps | STV","players":[{"user_id":579,"name":"LampMan","steam_id":76561198079857527,"connected_time":20000000000,"state":"active","ping":46},{"user_id":578,"name":"YoteDab McFapDab.jpg","steam_id":76561197984870380,"connected_time":451000000000,"state":"active","ping":86},{"user_id":516,"name":"cringeass nae-nae girl","steam_id":76561198108753857,"connected_time":4953000000000,"state":"active","ping":73},{"user_id":572,"name":"Fubarhamm","steam_id":76561198007269231,"connected_time":1150000000000,"state":"active","ping":73},{"user_id":564,"name":"EvilPi99let","steam_id":76561197987243470,"connected_time":1680000000000,"state":"active","ping":75},{"user_id":569,"name":"TruthHut","steam_id":76561198093452436,"connected_time":1303000000000,"state":"active","ping":110},{"user_id":577,"name":"Super Bullshit Man","steam_id":76561198102416507,"connected_time":638000000000,"state":"active","ping":99},{"user_id":542,"name":"Wine, Good sir?","steam_id":76561198413806134,"connected_time":3347000000000,"state":"active","ping":62},{"user_id":550,"name":"9Bendy9","steam_id":76561198164023601,"connected_time":2692000000000,"state":"active","ping":86},{"user_id":553,"name":"BADWOLF42","steam_id":76561198055447523,"connected_time":2210000000000,"state":"active","ping":52},{"user_id":558,"name":"Oatmeal","steam_id":76561198027866416,"connected_time":2069000000000,"state":"active","ping":55},{"user_id":565,"name":"NekoTrap","steam_id":76561198797624241,"connected_time":1541000000000,"state":"active","ping":81},{"user_id":573,"name":"5869","steam_id":76561198799616739,"connected_time":1146000000000,"state":"active","ping":85},{"user_id":499,"name":"Hydroxianchaos","steam_id":76561198043786828,"connected_time":7452000000000,"state":"active","ping":83},{"user_id":554,"name":"GarbbCan","steam_id":76561198927509821,"connected_time":2104000000000,"state":"active","ping":104},{"user_id":551,"name":"Fresh","steam_id":76561199006338675,"connected_time":2666000000000,"state":"active","ping":62},{"user_id":566,"name":"Cat™","steam_id":76561198898241158,"connected_time":1522000000000,"state":"active","ping":124},{"user_id":539,"name":"Borked","steam_id":76561197984964095,"connected_time":3708000000000,"state":"active","ping":80}]},{"server_id":108,"name":"Uncletopia | Dallas | 2 | All Maps","name_short":"dal-2","host":"dal-1.us.uncletopia.com","port":27025,"enabled":true,"region":"us-central","cc":"us","latitude":32.779167,"longitude":-96.80889,"reserved":0,"last_update":"0001-01-01T00:00:00Z","name_a2s":"Uncletopia | Dallas | 2 | All Maps","protocol":17,"map":"pl_upward","folder":"tf","game":"Team Fortress","app_id":440,"player_count":19,"max_players":24,"Bots":0,"server_type":"Dedicated","server_os":"Linux","password":true,"vac":true,"version":"7961495","steam_id":85568392924469988,"keywords":["nocrits","nodmgspread","payload","uncletopia"],"game_id":440,"stv_port":27026,"stv_name":"Uncletopia | Dallas | 2 | All Maps | STV","players":[{"user_id":949,"name":"❤ Dolphiniz ❤","steam_id":76561199093367765,"connected_time":119000000000,"state":"active","ping":74},{"user_id":950,"name":"blue duck the 2nd","steam_id":76561198263142765,"connected_time":86000000000,"state":"active","ping":140},{"user_id":895,"name":"ThiccNicc","steam_id":76561198236828842,"connected_time":3247000000000,"state":"active","ping":86},{"user_id":946,"name":"November","steam_id":76561198131631865,"connected_time":249000000000,"state":"active","ping":76},{"user_id":948,"name":"Lex","steam_id":76561198069948353,"connected_time":151000000000,"state":"active","ping":56},{"user_id":941,"name":"AndyIsVeryHandy","steam_id":76561198120561470,"connected_time":757000000000,"state":"active","ping":56},{"user_id":951,"name":"papi Chulo","steam_id":76561198126274984,"connected_time":58000000000,"state":"active","ping":101},{"user_id":938,"name":"Doctor Emerald(Bison Emperor)","steam_id":76561199123003872,"connected_time":1014000000000,"state":"active","ping":84},{"user_id":927,"name":"THICCBEEF GRANDPA","steam_id":76561197993550572,"connected_time":1516000000000,"state":"active","ping":84},{"user_id":932,"name":"Robbin Games","steam_id":76561198429247914,"connected_time":1383000000000,"state":"active","ping":100},{"user_id":952,"name":"Kamin","steam_id":76561198255299559,"connected_time":13000000000,"state":"active","ping":363},{"user_id":942,"name":"brian","steam_id":76561198192172411,"connected_time":756000000000,"state":"active","ping":106},{"user_id":953,"name":"dave","steam_id":76561198135961731,"connected_time":7000000000,"state":"spawning","ping":48},{"user_id":910,"name":"Wiggle Wiggle","steam_id":76561199053447896,"connected_time":2633000000000,"state":"active","ping":75},{"user_id":931,"name":"soymilksteak","steam_id":76561198001488041,"connected_time":1442000000000,"state":"active","ping":56},{"user_id":936,"name":"SpeedyGongo","steam_id":76561198842946737,"connected_time":1162000000000,"state":"active","ping":102},{"user_id":943,"name":"Ricochet Pro","steam_id":76561198005328215,"connected_time":702000000000,"state":"active","ping":75},{"user_id":922,"name":"Not A Rapper","steam_id":76561198077523537,"connected_time":1835000000000,"state":"active","ping":162},{"user_id":934,"name":"Jokergamma","steam_id":76561198807984541,"connected_time":1360000000000,"state":"active","ping":54}]},{"server_id":404,"name":"Uncletopia | Dallas | 3 | All Maps","name_short":"dal-3","host":"dal-1.us.uncletopia.com","port":27035,"enabled":true,"region":"us-central","cc":"us","latitude":32.779167,"longitude":-96.80889,"reserved":0,"last_update":"0001-01-01T00:00:00Z","name_a2s":"Uncletopia | Dallas | 3 | All Maps","protocol":17,"map":"pl_barnblitz","folder":"tf","game":"Team Fortress","app_id":440,"player_count":24,"max_players":24,"Bots":0,"server_type":"Dedicated","server_os":"Linux","password":true,"vac":true,"version":"7961495","steam_id":85568392924515219,"keywords":["nocrits","nodmgspread","payload","uncletopia"],"game_id":440,"stv_port":27036,"stv_name":"Uncletopia | Dallas | 3 | All Maps | STV","players":[{"user_id":282,"name":"ThatsH","steam_id":76561198832998914,"connected_time":3239000000000,"state":"active","ping":66},{"user_id":320,"name":"Ckcez","steam_id":76561199201651234,"connected_time":238000000000,"state":"active","ping":77},{"user_id":306,"name":"Drained","steam_id":76561198081974528,"connected_time":1682000000000,"state":"active","ping":68},{"user_id":284,"name":"Whyamidoingthisaaaa","steam_id":76561199168837342,"connected_time":3167000000000,"state":"active","ping":91},{"user_id":321,"name":"Meet The Amazing Bret","steam_id":76561198137326099,"connected_time":184000000000,"state":"active","ping":81},{"user_id":322,"name":"Morningstar","steam_id":76561198271620345,"connected_time":137000000000,"state":"active","ping":56},{"user_id":323,"name":"❤ Ashley ❤","steam_id":76561198056428303,"connected_time":131000000000,"state":"active","ping":73},{"user_id":308,"name":"supcupman","steam_id":76561198051513866,"connected_time":1669000000000,"state":"active","ping":103},{"user_id":317,"name":"Jose Gonzalas","steam_id":76561198242572162,"connected_time":850000000000,"state":"active","ping":58},{"user_id":290,"name":"Mr. C","steam_id":76561199174760866,"connected_time":2980000000000,"state":"active","ping":70},{"user_id":304,"name":"Proud Swift City Resident","steam_id":76561198036283992,"connected_time":1871000000000,"state":"active","ping":89},{"user_id":283,"name":"alpharuby","steam_id":76561198051638462,"connected_time":3232000000000,"state":"active","ping":75},{"user_id":248,"name":"self sufficient kitten","steam_id":76561197960592612,"connected_time":5524000000000,"state":"active","ping":105},{"user_id":318,"name":"Shmoopy","steam_id":76561198030459152,"connected_time":789000000000,"state":"active","ping":75},{"user_id":280,"name":"notLoona","steam_id":76561198861851215,"connected_time":3354000000000,"state":"active","ping":70},{"user_id":291,"name":"CHINESE SPY BALLOON OF DEATH","steam_id":76561197975975364,"connected_time":2952000000000,"state":"active","ping":85},{"user_id":324,"name":"Foolie","steam_id":76561198291741747,"connected_time":118000000000,"state":"active","ping":89},{"user_id":325,"name":"Fresh Out The Psych Ward","steam_id":76561198259879621,"connected_time":67000000000,"state":"active","ping":103},{"user_id":303,"name":"Phil Collins","steam_id":76561198068868644,"connected_time":2062000000000,"state":"active","ping":88},{"user_id":326,"name":"St. Michael","steam_id":76561198037611052,"connected_time":50000000000,"state":"active","ping":46},{"user_id":313,"name":"Philo","steam_id":76561198061873341,"connected_time":1443000000000,"state":"active","ping":92},{"user_id":319,"name":"CrazySpace","steam_id":76561198183980530,"connected_time":554000000000,"state":"active","ping":99},{"user_id":302,"name":"donn","steam_id":76561198113080083,"connected_time":2307000000000,"state":"active","ping":78},{"user_id":315,"name":"Freyja","steam_id":76561198207412177,"connected_time":1381000000000,"state":"active","ping":70}]},{"server_id":405,"name":"Uncletopia | Dallas | 4 | Community","name_short":"dal-4","host":"dal-1.us.uncletopia.com","port":27045,"enabled":true,"region":"us-central","cc":"us","latitude":32.779167,"longitude":-96.80889,"reserved":0,"last_update":"0001-01-01T00:00:00Z","name_a2s":"Uncletopia | Dallas | 4 | Community","protocol":17,"map":"workshop/cp_glacier_rc6.ugc2905735376","folder":"tf","game":"Team Fortress","app_id":440,"player_count":0,"max_players":24,"Bots":0,"server_type":"Dedicated","server_os":"Linux","password":true,"vac":true,"version":"7961495","steam_id":85568392924515220,"keywords":["cp","nocrits","nodmgspread","uncletopia"],"game_id":440,"stv_port":27046,"stv_name":"Uncletopia | Dallas | 4 | Community | STV","players":null},{"server_id":5,"name":"Uncletopia | Frankfurt | 1 | All Maps","name_short":"frk-1","host":"frk-1.de.uncletopia.com","port":27015,"enabled":true,"region":"eu","cc":"de","latitude":50.110924,"longitude":8.682127,"reserved":0,"last_update":"0001-01-01T00:00:00Z","name_a2s":"Uncletopia | Frankfurt | 1 | All Maps","protocol":17,"map":"koth_highpass","folder":"tf","game":"Team Fortress","app_id":440,"player_count":0,"max_players":24,"Bots":0,"server_type":"Dedicated","server_os":"Linux","password":true,"vac":true,"version":"7961495","steam_id":85568392924469989,"keywords":["cp","nocrits","nodmgspread","uncletopia"],"game_id":440,"stv_port":27016,"stv_name":"Uncletopia | Frankfurt | 1 | All Maps | STV","players":null},{"server_id":110,"name":"Uncletopia | Frankfurt | 2 | All Maps","name_short":"frk-2","host":"frk-1.de.uncletopia.com","port":27025,"enabled":true,"region":"eu","cc":"de","latitude":50.110924,"longitude":8.682127,"reserved":0,"last_update":"0001-01-01T00:00:00Z","name_a2s":"Uncletopia | Frankfurt | 2 | All Maps","protocol":17,"map":"cp_dustbowl","folder":"tf","game":"Team Fortress","app_id":440,"player_count":0,"max_players":24,"Bots":0,"server_type":"Dedicated","server_os":"Linux","password":true,"vac":true,"version":"7961495","steam_id":85568392924469990,"keywords":["cp","nocrits","nodmgspread","uncletopia"],"game_id":440,"stv_port":27026,"stv_name":"Uncletopia | Frankfurt | 2 | All Maps | STV","players":null},{"server_id":308,"name":"Uncletopia | Frankfurt | 3 | All Maps","name_short":"frk-3","host":"frk-1.de.uncletopia.com","port":27035,"enabled":true,"region":"eu","cc":"de","latitude":50.110924,"longitude":8.682127,"reserved":0,"last_update":"0001-01-01T00:00:00Z","name_a2s":"Uncletopia | Frankfurt | 3 | All Maps","protocol":17,"map":"pl_barnblitz","folder":"tf","game":"Team Fortress","app_id":440,"player_count":0,"max_players":24,"Bots":0,"server_type":"Dedicated","server_os":"Linux","password":true,"vac":true,"version":"7961495","steam_id":85568392924504274,"keywords":["nocrits","nodmgspread","payload","uncletopia"],"game_id":440,"stv_port":27036,"stv_name":"Uncletopia | Frankfurt | 3 | All Maps | STV","players":null},{"server_id":309,"name":"Uncletopia | Frankfurt | 4 | All Maps","name_short":"frk-4","host":"frk-1.de.uncletopia.com","port":27045,"enabled":true,"region":"eu","cc":"de","latitude":50.110924,"longitude":8.682127,"reserved":0,"last_update":"0001-01-01T00:00:00Z","name_a2s":"Uncletopia | Frankfurt | 4 | All Maps","protocol":17,"map":"koth_highpass","folder":"tf","game":"Team Fortress","app_id":440,"player_count":0,"max_players":24,"Bots":0,"server_type":"Dedicated","server_os":"Linux","password":true,"vac":true,"version":"7961495","steam_id":85568392924504275,"keywords":["cp","nocrits","nodmgspread","uncletopia"],"game_id":440,"stv_port":27046,"stv_name":"Uncletopia | Frankfurt | 4 | All Maps | STV","players":null},{"server_id":310,"name":"Uncletopia | Frankfurt | 5 | All Maps","name_short":"frk-5","host":"frk-1.de.uncletopia.com","port":27055,"enabled":true,"region":"eu","cc":"de","latitude":50.110924,"longitude":8.682127,"reserved":0,"last_update":"0001-01-01T00:00:00Z","name_a2s":"Uncletopia | Frankfurt | 5 | All Maps","protocol":17,"map":"pl_badwater","folder":"tf","game":"Team Fortress","app_id":440,"player_count":0,"max_players":24,"Bots":0,"server_type":"Dedicated","server_os":"Linux","password":true,"vac":true,"version":"7961495","steam_id":85568392924504277,"keywords":["nocrits","nodmgspread","payload","uncletopia"],"game_id":440,"stv_port":27056,"stv_name":"Uncletopia | Frankfurt | 5 | All Maps | STV","players":null},{"server_id":311,"name":"Uncletopia | Frankfurt | 6 | All Maps","name_short":"frk-6","host":"frk-1.de.uncletopia.com","port":27065,"enabled":true,"region":"eu","cc":"de","latitude":50.110924,"longitude":8.682127,"reserved":0,"last_update":"0001-01-01T00:00:00Z","name_a2s":"Uncletopia | Frankfurt | 6 | All Maps","protocol":17,"map":"cp_altitude","folder":"tf","game":"Team Fortress","app_id":440,"player_count":0,"max_players":24,"Bots":0,"server_type":"Dedicated","server_os":"Linux","password":true,"vac":true,"version":"7961495","steam_id":85568392924504278,"keywords":["cp","nocrits","nodmgspread","uncletopia"],"game_id":440,"stv_port":27066,"stv_name":"Uncletopia | Frankfurt | 6 | All Maps | STV","players":null},{"server_id":23,"name":"Uncletopia | Frankfurt | 7 | Stopwatch","name_short":"frk-7","host":"frk-1.de.uncletopia.com","port":27075,"enabled":true,"region":"eu","cc":"de","latitude":50.110924,"longitude":8.682127,"reserved":0,"last_update":"0001-01-01T00:00:00Z","name_a2s":"Uncletopia | Frankfurt | 7 | Stopwatch","protocol":17,"map":"pl_frontier_final","folder":"tf","game":"Team Fortress","app_id":440,"player_count":0,"max_players":24,"Bots":0,"server_type":"Dedicated","server_os":"Linux","password":true,"vac":true,"version":"7961495","steam_id":85568392924742827,"keywords":["nocrits","nodmgspread","payload","uncletopia"],"game_id":440,"stv_port":27076,"stv_name":"Uncletopia | Frankfurt | 7 | Stopwatch | STV","players":null},{"server_id":24,"name":"Uncletopia | Frankfurt | 8 | Community","name_short":"frk-8","host":"frk-1.de.uncletopia.com","port":27085,"enabled":true,"region":"eu","cc":"de","latitude":50.110924,"longitude":8.682127,"reserved":0,"last_update":"0001-01-01T00:00:00Z","name_a2s":"Uncletopia | Frankfurt | 8 | Community","protocol":17,"map":"cp_mountainlab","folder":"tf","game":"Team Fortress","app_id":440,"player_count":0,"max_players":24,"Bots":0,"server_type":"Dedicated","server_os":"Linux","password":true,"vac":true,"version":"7961495","steam_id":85568392924742828,"keywords":["cp","nocrits","nodmgspread","uncletopia"],"game_id":440,"stv_port":27086,"stv_name":"Uncletopia | Frankfurt | 8 | Community | STV","players":null},{"server_id":202,"name":"Uncletopia | Hong Kong | 1 | All Maps","name_short":"hgk-1","host":"hgk-1.hk.uncletopia.com","port":27015,"enabled":true,"region":"asia","cc":"hk","latitude":22.302711,"longitude":114.177216,"reserved":0,"last_update":"0001-01-01T00:00:00Z","name_a2s":"Uncletopia | Hong Kong | 1 | All Maps","protocol":17,"map":"pl_borneo","folder":"tf","game":"Team Fortress","app_id":440,"player_count":0,"max_players":24,"Bots":0,"server_type":"Dedicated","server_os":"Linux","password":true,"vac":true,"version":"7961495","steam_id":85568392924494504,"keywords":["nocrits","nodmgspread","payload","uncletopia"],"game_id":440,"stv_port":27016,"stv_name":"Uncletopia | Hong Kong | 1 | All Maps | STV","players":null},{"server_id":1,"name":"Uncletopia | Los Angeles | 1 | All Maps","name_short":"lax-1","host":"lax-1.us.uncletopia.com","port":27015,"enabled":true,"region":"us-west","cc":"us","latitude":33.94279,"longitude":-118.41004,"reserved":0,"last_update":"0001-01-01T00:00:00Z","name_a2s":"Uncletopia | Los Angeles | 1 | All Maps","protocol":17,"map":"pl_pier","folder":"tf","game":"Team Fortress","app_id":440,"player_count":23,"max_players":24,"Bots":0,"server_type":"Dedicated","server_os":"Linux","password":true,"vac":true,"version":"7961495","steam_id":85568392924469991,"keywords":["nocrits","nodmgspread","payload","uncletopia"],"game_id":440,"stv_port":27016,"stv_name":"Uncletopia | Los Angeles | 1 | All Maps | STV","players":[{"user_id":264,"name":"Brandcommand","steam_id":76561198047758422,"connected_time":4505000000000,"state":"active","ping":44},{"user_id":326,"name":"The Senate","steam_id":76561198143882626,"connected_time":1089000000000,"state":"active","ping":87},{"user_id":265,"name":"Squiggly","steam_id":76561198003183167,"connected_time":4494000000000,"state":"active","ping":101},{"user_id":341,"name":"soltuno","steam_id":76561198074430565,"connected_time":398000000000,"state":"active","ping":65},{"user_id":344,"name":"B    U    N    T    A","steam_id":76561198827726493,"connected_time":297000000000,"state":"active","ping":107},{"user_id":346,"name":"them","steam_id":76561198348099428,"connected_time":273000000000,"state":"active","ping":55},{"user_id":309,"name":"jdm","steam_id":76561199497603020,"connected_time":2209000000000,"state":"active","ping":45},{"user_id":282,"name":"Bob","steam_id":76561198225634032,"connected_time":3463000000000,"state":"active","ping":117},{"user_id":350,"name":"R Kay","steam_id":76561199107386147,"connected_time":58000000000,"state":"active","ping":90},{"user_id":315,"name":"Streamline","steam_id":76561198031098638,"connected_time":1816000000000,"state":"active","ping":92},{"user_id":345,"name":"Erntest","steam_id":76561198049499899,"connected_time":278000000000,"state":"active","ping":79},{"user_id":283,"name":"Taxman","steam_id":76561198244002396,"connected_time":3438000000000,"state":"active","ping":103},{"user_id":334,"name":"Lemonade Juice","steam_id":76561198402892608,"connected_time":740000000000,"state":"active","ping":47},{"user_id":335,"name":"ilovevibestoo","steam_id":76561198211061337,"connected_time":731000000000,"state":"active","ping":62},{"user_id":336,"name":"megaroboleg","steam_id":76561198844644993,"connected_time":731000000000,"state":"active","ping":57},{"user_id":348,"name":"buhn","steam_id":76561198106117196,"connected_time":180000000000,"state":"active","ping":56},{"user_id":310,"name":".mp3","steam_id":76561198070710025,"connected_time":2154000000000,"state":"active","ping":91},{"user_id":338,"name":"Red Physical","steam_id":76561198151864382,"connected_time":702000000000,"state":"active","ping":115},{"user_id":320,"name":"Mainyx","steam_id":76561198811844438,"connected_time":1555000000000,"state":"active","ping":58},{"user_id":339,"name":"Pyrotek⁴","steam_id":76561198072747672,"connected_time":699000000000,"state":"active","ping":44},{"user_id":347,"name":"Chalupa Jones","steam_id":76561198335855588,"connected_time":264000000000,"state":"active","ping":49},{"user_id":349,"name":"Red hoodie","steam_id":76561198317820055,"connected_time":153000000000,"state":"active","ping":73},{"user_id":325,"name":"fuck it, we ball","steam_id":76561198451812135,"connected_time":1261000000000,"state":"active","ping":98}]},{"server_id":112,"name":"Uncletopia | Los Angeles | 2 | All Maps","name_short":"lax-2","host":"lax-1.us.uncletopia.com","port":27025,"enabled":true,"region":"us-west","cc":"us","latitude":33.94279,"longitude":-118.41004,"reserved":0,"last_update":"0001-01-01T00:00:00Z","name_a2s":"Uncletopia | Los Angeles | 2 | All Maps","protocol":17,"map":"pl_pier","folder":"tf","game":"Team Fortress","app_id":440,"player_count":24,"max_players":24,"Bots":0,"server_type":"Dedicated","server_os":"Linux","password":true,"vac":true,"version":"7961495","steam_id":85568392924469992,"keywords":["nocrits","nodmgspread","payload","uncletopia"],"game_id":440,"stv_port":27026,"stv_name":"Uncletopia | Los Angeles | 2 | All Maps | STV","players":[{"user_id":359,"name":"Tiparium","steam_id":76561198060021230,"connected_time":632000000000,"state":"active","ping":58},{"user_id":319,"name":"Swag6","steam_id":76561198064110837,"connected_time":3218000000000,"state":"active","ping":54},{"user_id":321,"name":"don't get mad","steam_id":76561198064662875,"connected_time":2789000000000,"state":"active","ping":57},{"user_id":322,"name":"Jubtice","steam_id":76561198995538396,"connected_time":2731000000000,"state":"active","ping":63},{"user_id":351,"name":"bobkattbro","steam_id":76561199009438984,"connected_time":944000000000,"state":"active","ping":97},{"user_id":323,"name":"Skarp129","steam_id":76561198108679057,"connected_time":2660000000000,"state":"active","ping":46},{"user_id":352,"name":"Glue","steam_id":76561198047931749,"connected_time":794000000000,"state":"active","ping":50},{"user_id":365,"name":"Many Bees' Chilling","steam_id":76561198079641282,"connected_time":94000000000,"state":"active","ping":83},{"user_id":354,"name":"PHIL1L1L1L1L","steam_id":76561198309010627,"connected_time":673000000000,"state":"active","ping":69},{"user_id":347,"name":"Anstorner","steam_id":76561198274026015,"connected_time":1594000000000,"state":"active","ping":42},{"user_id":336,"name":"SpeedEagle","steam_id":76561198092623489,"connected_time":2315000000000,"state":"active","ping":59},{"user_id":355,"name":"FunnyGoomba","steam_id":76561198279865229,"connected_time":672000000000,"state":"active","ping":77},{"user_id":296,"name":"Igrium","steam_id":76561198119549811,"connected_time":5697000000000,"state":"active","ping":69},{"user_id":356,"name":"catrinaisahuman","steam_id":76561198281355729,"connected_time":653000000000,"state":"active","ping":87},{"user_id":344,"name":"sola venereum","steam_id":76561198368179166,"connected_time":1841000000000,"state":"active","ping":46},{"user_id":357,"name":"Randle of John","steam_id":76561198328210524,"connected_time":639000000000,"state":"active","ping":58},{"user_id":348,"name":"californjoe","steam_id":76561197965047795,"connected_time":1556000000000,"state":"active","ping":55},{"user_id":275,"name":"Swag5","steam_id":76561198065311356,"connected_time":7567000000000,"state":"active","ping":48},{"user_id":350,"name":"vozz","steam_id":76561198242065410,"connected_time":973000000000,"state":"active","ping":45},{"user_id":358,"name":"solace","steam_id":76561198907663460,"connected_time":639000000000,"state":"active","ping":85},{"user_id":337,"name":"Mo","steam_id":76561198035399708,"connected_time":2311000000000,"state":"active","ping":54},{"user_id":360,"name":"Snizzle","steam_id":76561198883910740,"connected_time":605000000000,"state":"active","ping":77},{"user_id":364,"name":"Strange Potato","steam_id":76561199059013304,"connected_time":109000000000,"state":"active","ping":72},{"user_id":363,"name":"Quantify","steam_id":76561198044400135,"connected_time":222000000000,"state":"active","ping":62}]},{"server_id":324,"name":"Uncletopia | Los Angeles | 3 | All Maps","name_short":"lax-3","host":"lax-1.us.uncletopia.com","port":27035,"enabled":true,"region":"us-west","cc":"us","latitude":33.94279,"longitude":-118.41004,"reserved":0,"last_update":"0001-01-01T00:00:00Z","name_a2s":"Uncletopia | Los Angeles | 3 | All Maps","protocol":17,"map":"pl_swiftwater_final1","folder":"tf","game":"Team Fortress","app_id":440,"player_count":0,"max_players":24,"Bots":0,"server_type":"Dedicated","server_os":"Linux","password":true,"vac":true,"version":"7961495","steam_id":85568392924510198,"keywords":["nocrits","nodmgspread","payload","uncletopia"],"game_id":440,"stv_port":27036,"stv_name":"Uncletopia | Los Angeles | 3 | All Maps | STV","players":null},{"server_id":25,"name":"Uncletopia | Los Angeles | 4 | Stopwatch","name_short":"lax-4","host":"lax-1.us.uncletopia.com","port":27045,"enabled":true,"region":"us-west","cc":"us","latitude":33.94279,"longitude":-118.41004,"reserved":0,"last_update":"0001-01-01T00:00:00Z","name_a2s":"Uncletopia | Los Angeles | 4 | Stopwatch","protocol":17,"map":"workshop/cp_reckoner_rc6.ugc674719999","folder":"tf","game":"Team Fortress","app_id":440,"player_count":16,"max_players":24,"Bots":0,"server_type":"Dedicated","server_os":"Linux","password":true,"vac":true,"version":"7961495","steam_id":85568392924510199,"keywords":["cp","nocrits","nodmgspread","uncletopia"],"game_id":440,"stv_port":27046,"stv_name":"Uncletopia | Los Angeles | 4 | Stopwatch | STV","players":[{"user_id":171,"name":"DaWayOfRockets","steam_id":76561199228437541,"connected_time":3597000000000,"state":"active","ping":174},{"user_id":213,"name":"Squip","steam_id":76561198033355685,"connected_time":437000000000,"state":"spawning","ping":150},{"user_id":192,"name":"poorly stacked bread trays","steam_id":76561198212098488,"connected_time":2327000000000,"state":"spawning","ping":177},{"user_id":198,"name":"The Lord of Bread","steam_id":76561199203901420,"connected_time":1854000000000,"state":"spawning","ping":147},{"user_id":204,"name":"Schully__","steam_id":76561198041329791,"connected_time":1178000000000,"state":"spawning","ping":124},{"user_id":187,"name":"Maid 'n' China","steam_id":76561198423392976,"connected_time":2664000000000,"state":"spawning","ping":121},{"user_id":203,"name":"G i l b e r t","steam_id":76561198072422961,"connected_time":1351000000000,"state":"active","ping":31},{"user_id":218,"name":"mmmmmmmmmmmmmmmmmm","steam_id":76561199267742979,"connected_time":58000000000,"state":"spawning","ping":124},{"user_id":185,"name":"lime creator","steam_id":76561198074047574,"connected_time":2862000000000,"state":"spawning","ping":201},{"user_id":132,"name":"cielael","steam_id":76561198043971956,"connected_time":5897000000000,"state":"active","ping":49},{"user_id":207,"name":"selling rice","steam_id":76561198063357023,"connected_time":1038000000000,"state":"active","ping":46},{"user_id":182,"name":"Alf Creepypasta","steam_id":76561198841844093,"connected_time":3179000000000,"state":"spawning","ping":47},{"user_id":86,"name":"Dongus","steam_id":76561197979056451,"connected_time":9963000000000,"state":"active","ping":63},{"user_id":208,"name":"MR MODE","steam_id":76561198046775352,"connected_time":962000000000,"state":"active","ping":45},{"user_id":170,"name":"Gerbias","steam_id":76561198001002427,"connected_time":3742000000000,"state":"active","ping":52},{"user_id":151,"name":"Lambchop","steam_id":76561198043900363,"connected_time":4553000000000,"state":"active","ping":61}]},{"server_id":11,"name":"Uncletopia | London | 1 | All Maps","name_short":"lon-1","host":"lon-1.uk.uncletopia.com","port":27015,"enabled":true,"region":"eu","cc":"gb","latitude":51.509865,"longitude":-0.118092,"reserved":0,"last_update":"0001-01-01T00:00:00Z","name_a2s":"Uncletopia | London | 1 | All Maps","protocol":17,"map":"cp_snakewater_final1","folder":"tf","game":"Team Fortress","app_id":440,"player_count":0,"max_players":24,"Bots":0,"server_type":"Dedicated","server_os":"Linux","password":true,"vac":true,"version":"7961495","steam_id":85568392924367362,"keywords":["cp","nocrits","nodmgspread","uncletopia"],"game_id":440,"stv_port":27016,"stv_name":"Uncletopia | London | 1 | All Maps | STV","players":null},{"server_id":114,"name":"Uncletopia | London | 2 | All Maps","name_short":"lon-2","host":"lon-1.uk.uncletopia.com","port":27025,"enabled":true,"region":"eu","cc":"gb","latitude":51.509865,"longitude":-0.118092,"reserved":0,"last_update":"0001-01-01T00:00:00Z","name_a2s":"Uncletopia | London | 2 | All Maps","protocol":17,"map":"pl_upward","folder":"tf","game":"Team Fortress","app_id":440,"player_count":0,"max_players":24,"Bots":0,"server_type":"Dedicated","server_os":"Linux","password":true,"vac":true,"version":"7961495","steam_id":85568392924470941,"keywords":["nocrits","nodmgspread","payload","uncletopia"],"game_id":440,"stv_port":27026,"stv_name":"Uncletopia | London | 2 | All Maps | STV","players":null},{"server_id":320,"name":"Uncletopia | London | 3 | All Maps","name_short":"lon-3","host":"lon-1.uk.uncletopia.com","port":27035,"enabled":true,"region":"eu","cc":"gb","latitude":51.509865,"longitude":-0.118092,"reserved":0,"last_update":"0001-01-01T00:00:00Z","name_a2s":"Uncletopia | London | 3 | All Maps","protocol":17,"map":"koth_viaduct","folder":"tf","game":"Team Fortress","app_id":440,"player_count":0,"max_players":24,"Bots":0,"server_type":"Dedicated","server_os":"Linux","password":true,"vac":true,"version":"7961495","steam_id":85568392924510192,"keywords":["cp","nocrits","nodmgspread","uncletopia"],"game_id":440,"stv_port":27036,"stv_name":"Uncletopia | London | 3 | All Maps | STV","players":null},{"server_id":321,"name":"Uncletopia | London | 4 | All Maps","name_short":"lon-4","host":"lon-1.uk.uncletopia.com","port":27045,"enabled":true,"region":"eu","cc":"gb","latitude":51.509865,"longitude":-0.118092,"reserved":0,"last_update":"0001-01-01T00:00:00Z","name_a2s":"Uncletopia | London | 4 | All Maps","protocol":17,"map":"koth_cascade","folder":"tf","game":"Team Fortress","app_id":440,"player_count":0,"max_players":24,"Bots":0,"server_type":"Dedicated","server_os":"Linux","password":true,"vac":true,"version":"7961495","steam_id":85568392924510193,"keywords":["cp","nocrits","nodmgspread","uncletopia"],"game_id":440,"stv_port":27046,"stv_name":"Uncletopia | London | 4 | All Maps | STV","players":null},{"server_id":21,"name":"Uncletopia | London | 5 | All Maps","name_short":"lon-5","host":"lon-1.uk.uncletopia.com","port":27055,"enabled":true,"region":"eu","cc":"gb","latitude":51.509865,"longitude":-0.118092,"reserved":0,"last_update":"0001-01-01T00:00:00Z","name_a2s":"Uncletopia | London | 5 | All Maps","protocol":17,"map":"ctf_2fort","folder":"tf","game":"Team Fortress","app_id":440,"player_count":14,"max_players":24,"Bots":0,"server_type":"Dedicated","server_os":"Linux","password":true,"vac":true,"version":"7961495","steam_id":85568392924742829,"keywords":["ctf","nocrits","nodmgspread","uncletopia"],"game_id":440,"stv_port":27056,"stv_name":"Uncletopia | London | 5 | All Maps | STV","players":[{"user_id":1151,"name":"BoBunny McGlitter","steam_id":76561198057403817,"connected_time":5792000000000,"state":"active","ping":71},{"user_id":1201,"name":"Biscuit","steam_id":76561198034318885,"connected_time":624000000000,"state":"active","ping":44},{"user_id":1195,"name":"noseb","steam_id":76561199480942903,"connected_time":1349000000000,"state":"active","ping":64},{"user_id":1193,"name":"Maks","steam_id":76561198315278876,"connected_time":1740000000000,"state":"active","ping":49},{"user_id":1185,"name":"Mourning","steam_id":76561198156343940,"connected_time":2872000000000,"state":"active","ping":47},{"user_id":1188,"name":"Noam","steam_id":76561198057789807,"connected_time":2775000000000,"state":"active","ping":89},{"user_id":1200,"name":"Marcus","steam_id":76561198205027963,"connected_time":795000000000,"state":"active","ping":67},{"user_id":1204,"name":"nomnom54lolo","steam_id":76561199093745650,"connected_time":75000000000,"state":"active","ping":162},{"user_id":1203,"name":"Fialure5","steam_id":76561199204629124,"connected_time":90000000000,"state":"active","ping":183},{"user_id":1198,"name":"CzechMate #SaveTF2","steam_id":76561198012687703,"connected_time":1240000000000,"state":"active","ping":59},{"user_id":1205,"name":"korniszonsolony0","steam_id":76561199466113256,"connected_time":22000000000,"state":"active","ping":486},{"user_id":1164,"name":"some girl","steam_id":76561198890391967,"connected_time":5094000000000,"state":"active","ping":89},{"user_id":1172,"name":"carl","steam_id":76561198055827003,"connected_time":4424000000000,"state":"active","ping":68},{"user_id":1109,"name":"toomas2018(real)(official)","steam_id":76561199105796083,"connected_time":8934000000000,"state":"active","ping":80}]},{"server_id":22,"name":"Uncletopia | London | 6 | All Maps","name_short":"lon-6","host":"lon-1.uk.uncletopia.com","port":27065,"enabled":true,"region":"eu","cc":"gb","latitude":51.509865,"longitude":-0.118092,"reserved":0,"last_update":"0001-01-01T00:00:00Z","name_a2s":"Uncletopia | London | 6 | All Maps","protocol":17,"map":"pl_barnblitz","folder":"tf","game":"Team Fortress","app_id":440,"player_count":0,"max_players":24,"Bots":0,"server_type":"Dedicated","server_os":"Linux","password":true,"vac":true,"version":"7961495","steam_id":85568392924742830,"keywords":["nocrits","nodmgspread","payload","uncletopia"],"game_id":440,"stv_port":27066,"stv_name":"Uncletopia | London | 6 | All Maps | STV","players":null},{"server_id":40,"name":"Uncletopia | London | 7 | Stopwatch","name_short":"lon-7","host":"lon-1.uk.uncletopia.com","port":27075,"enabled":true,"region":"eu","cc":"gb","latitude":51.509865,"longitude":-0.118092,"reserved":0,"last_update":"0001-01-01T00:00:00Z","name_a2s":"Uncletopia | London | 7 | Stopwatch","protocol":17,"map":"workshop/koth_clearcut_b15.ugc2107050255","folder":"tf","game":"Team Fortress","app_id":440,"player_count":0,"max_players":24,"Bots":0,"server_type":"Dedicated","server_os":"Linux","password":true,"vac":true,"version":"7961495","steam_id":85568392924964314,"keywords":["cp","nocrits","nodmgspread","uncletopia"],"game_id":440,"stv_port":27076,"stv_name":"Uncletopia | London | 7 | Stopwatch | STV","players":null},{"server_id":41,"name":"Uncletopia | London | 8 | Community","name_short":"lon-8","host":"lon-1.uk.uncletopia.com","port":27085,"enabled":true,"region":"eu","cc":"gb","latitude":51.509865,"longitude":-0.118092,"reserved":0,"last_update":"0001-01-01T00:00:00Z","name_a2s":"Uncletopia | London | 8 | Community","protocol":17,"map":"workshop/koth_slaughter_rc1.ugc1712845210","folder":"tf","game":"Team Fortress","app_id":440,"player_count":0,"max_players":24,"Bots":0,"server_type":"Dedicated","server_os":"Linux","password":true,"vac":true,"version":"7961495","steam_id":85568392924964315,"keywords":["cp","nocrits","nodmgspread","uncletopia"],"game_id":440,"stv_port":27086,"stv_name":"Uncletopia | London | 8 | Community | STV","players":null},{"server_id":300,"name":"Uncletopia | Montréal | 1 | One Thousand Uncles","name_short":"mtl-1","host":"mtl-1.ca.uncletopia.com","port":27015,"enabled":true,"region":"us-east","cc":"ca","latitude":45.50889,"longitude":-73.56167,"reserved":0,"last_update":"0001-01-01T00:00:00Z","name_a2s":"","protocol":0,"map":"","folder":"","game":"","app_id":0,"player_count":0,"max_players":0,"Bots":0,"server_type":"","server_os":"","password":false,"vac":false,"version":"","steam_id":0,"keywords":null,"game_id":0,"stv_port":0,"stv_name":"","players":null},{"server_id":301,"name":"Uncletopia | Montréal | 2 | One Thousand Uncles","name_short":"mtl-2","host":"mtl-1.ca.uncletopia.com","port":27025,"enabled":true,"region":"us-east","cc":"ca","latitude":45.50889,"longitude":-73.56167,"reserved":0,"last_update":"0001-01-01T00:00:00Z","name_a2s":"","protocol":0,"map":"","folder":"","game":"","app_id":0,"player_count":1,"max_players":0,"Bots":0,"server_type":"","server_os":"","password":false,"vac":false,"version":"","steam_id":0,"keywords":null,"game_id":0,"stv_port":0,"stv_name":"","players":[{"user_id":57,"name":"Holiday Fartcruise","steam_id":76561198043851584,"connected_time":3268000000000,"state":"active","ping":126}]},{"server_id":302,"name":"Uncletopia | Montréal | 3 | One Thousand Uncles","name_short":"mtl-3","host":"mtl-1.ca.uncletopia.com","port":27035,"enabled":true,"region":"us-east","cc":"ca","latitude":45.50889,"longitude":-73.56167,"reserved":0,"last_update":"0001-01-01T00:00:00Z","name_a2s":"","protocol":0,"map":"","folder":"","game":"","app_id":0,"player_count":0,"max_players":0,"Bots":0,"server_type":"","server_os":"","password":false,"vac":false,"version":"","steam_id":0,"keywords":null,"game_id":0,"stv_port":0,"stv_name":"","players":null},{"server_id":13,"name":"Uncletopia | New York City | 1 | All Maps","name_short":"nyc-1","host":"nyc-1.us.uncletopia.com","port":27015,"enabled":true,"region":"us-east","cc":"us","latitude":40.73061,"longitude":-73.93524,"reserved":0,"last_update":"0001-01-01T00:00:00Z","name_a2s":"Uncletopia | New York City | 1 | All Maps","protocol":17,"map":"pl_snowycoast","folder":"tf","game":"Team Fortress","app_id":440,"player_count":13,"max_players":24,"Bots":0,"server_type":"Dedicated","server_os":"Linux","password":true,"vac":true,"version":"7961495","steam_id":85568392924469993,"keywords":["nocrits","nodmgspread","payload","uncletopia"],"game_id":440,"stv_port":27016,"stv_name":"Uncletopia | New York City | 1 | All Maps | STV","players":[{"user_id":557,"name":"Yesnot","steam_id":76561198814912554,"connected_time":622000000000,"state":"connecting","ping":96},{"user_id":552,"name":"Dyre","steam_id":76561198164674485,"connected_time":1037000000000,"state":"connecting","ping":76},{"user_id":553,"name":"Juri Han","steam_id":76561198041678517,"connected_time":978000000000,"state":"connecting","ping":154},{"user_id":558,"name":"GuyGoom","steam_id":76561198254522178,"connected_time":557000000000,"state":"connecting","ping":100},{"user_id":559,"name":"The_Swan101","steam_id":76561198255629546,"connected_time":554000000000,"state":"connecting","ping":68},{"user_id":563,"name":"STINKLER","steam_id":76561198043320983,"connected_time":397000000000,"state":"connecting","ping":67},{"user_id":515,"name":"Gentoo Linux Gaming","steam_id":76561197999657118,"connected_time":3728000000000,"state":"connecting","ping":67},{"user_id":501,"name":"Grazzunk","steam_id":76561198290227691,"connected_time":5206000000000,"state":"connecting","ping":62},{"user_id":564,"name":"cozy","steam_id":76561198045921067,"connected_time":299000000000,"state":"connecting","ping":75},{"user_id":565,"name":"Minion Bob","steam_id":76561198023938170,"connected_time":281000000000,"state":"connecting","ping":74},{"user_id":568,"name":"Wet","steam_id":76561199474220124,"connected_time":198000000000,"state":"connecting","ping":94},{"user_id":569,"name":"TTV Hunter","steam_id":76561198115812405,"connected_time":150000000000,"state":"connecting","ping":70}]},{"server_id":14,"name":"Uncletopia | New York City | 2 | All Maps","name_short":"nyc-2","host":"nyc-1.us.uncletopia.com","port":27025,"enabled":true,"region":"us-east","cc":"us","latitude":40.73061,"longitude":-73.93524,"reserved":0,"last_update":"0001-01-01T00:00:00Z","name_a2s":"Uncletopia | New York City | 2 | All Maps","protocol":17,"map":"pl_upward","folder":"tf","game":"Team Fortress","app_id":440,"player_count":24,"max_players":24,"Bots":0,"server_type":"Dedicated","server_os":"Linux","password":true,"vac":true,"version":"7961495","steam_id":85568392924469994,"keywords":["nocrits","nodmgspread","payload","uncletopia"],"game_id":440,"stv_port":27026,"stv_name":"Uncletopia | New York City | 2 | All Maps | STV","players":[{"user_id":262,"name":"Lemoncurry","steam_id":76561198045356414,"connected_time":1690000000000,"state":"active","ping":85},{"user_id":139,"name":"Bee_Pirate","steam_id":76561199000599111,"connected_time":13425000000000,"state":"active","ping":55},{"user_id":259,"name":"Timothy Grunclebottoms","steam_id":76561198871450477,"connected_time":2086000000000,"state":"active","ping":70},{"user_id":277,"name":"The Wire Monkey","steam_id":76561198127462448,"connected_time":750000000000,"state":"active","ping":100},{"user_id":265,"name":"ethanf","steam_id":76561198103930234,"connected_time":1608000000000,"state":"active","ping":61},{"user_id":290,"name":"Ashvilliany Legacy","steam_id":76561198111259720,"connected_time":101000000000,"state":"active","ping":86},{"user_id":263,"name":"junebug","steam_id":76561198126662775,"connected_time":1681000000000,"state":"active","ping":67},{"user_id":135,"name":"A Puppy","steam_id":76561198828184456,"connected_time":13823000000000,"state":"active","ping":48},{"user_id":264,"name":"Sceptimus","steam_id":76561198179580927,"connected_time":1664000000000,"state":"active","ping":125},{"user_id":266,"name":"Sintra Olivia Leslie","steam_id":76561198412835748,"connected_time":1545000000000,"state":"active","ping":68},{"user_id":282,"name":"frank","steam_id":76561198045436159,"connected_time":565000000000,"state":"active","ping":57},{"user_id":291,"name":"City City The City City","steam_id":76561198046942778,"connected_time":29000000000,"state":"active","ping":117},{"user_id":269,"name":"HuskedRice","steam_id":76561199110976285,"connected_time":1473000000000,"state":"active","ping":85},{"user_id":140,"name":"ndvr","steam_id":76561199379200102,"connected_time":13009000000000,"state":"active","ping":55},{"user_id":279,"name":"guy","steam_id":76561198079925551,"connected_time":707000000000,"state":"active","ping":48},{"user_id":256,"name":"Frisciaman","steam_id":76561198274287443,"connected_time":2362000000000,"state":"active","ping":68},{"user_id":276,"name":"Bullahorns","steam_id":76561197997138052,"connected_time":906000000000,"state":"active","ping":72},{"user_id":272,"name":"asteriskhearts","steam_id":76561198145619560,"connected_time":1324000000000,"state":"active","ping":96},{"user_id":191,"name":"BlipBloop","steam_id":76561198205320223,"connected_time":10971000000000,"state":"active","ping":75},{"user_id":273,"name":"Verathragna","steam_id":76561198067215453,"connected_time":1315000000000,"state":"active","ping":59},{"user_id":285,"name":"Suck Her Dick Sunday","steam_id":76561198029274581,"connected_time":354000000000,"state":"active","ping":72},{"user_id":284,"name":"_cza","steam_id":76561198079793576,"connected_time":441000000000,"state":"active","ping":122},{"user_id":283,"name":"Satan-2","steam_id":76561199231742764,"connected_time":491000000000,"state":"active","ping":59},{"user_id":292,"name":"Mehlord","steam_id":76561198061371289,"connected_time":14000000000,"state":"spawning","ping":44}]},{"server_id":15,"name":"Uncletopia | New York City | 3 | Stopwatch","name_short":"nyc-3","host":"nyc-1.us.uncletopia.com","port":27035,"enabled":true,"region":"us-east","cc":"us","latitude":40.73061,"longitude":-73.93524,"reserved":0,"last_update":"0001-01-01T00:00:00Z","name_a2s":"Uncletopia | New York City | 3 | Stopwatch","protocol":17,"map":"koth_lakeside_final","folder":"tf","game":"Team Fortress","app_id":440,"player_count":0,"max_players":24,"Bots":0,"server_type":"Dedicated","server_os":"Linux","password":true,"vac":true,"version":"7961495","steam_id":85568392924742820,"keywords":["cp","nocrits","nodmgspread","uncletopia"],"game_id":440,"stv_port":27036,"stv_name":"Uncletopia | New York City | 3 | Stopwatch | STV","players":null},{"server_id":16,"name":"Uncletopia | New York City | 4 | Community","name_short":"nyc-4","host":"nyc-1.us.uncletopia.com","port":27045,"enabled":true,"region":"us-east","cc":"us","latitude":40.73061,"longitude":-73.93524,"reserved":0,"last_update":"0001-01-01T00:00:00Z","name_a2s":"Uncletopia | New York City | 4 | Community","protocol":17,"map":"workshop/cp_bruhstbowl_b6.ugc2878604990","folder":"tf","game":"Team Fortress","app_id":440,"player_count":0,"max_players":24,"Bots":0,"server_type":"Dedicated","server_os":"Linux","password":true,"vac":true,"version":"7961495","steam_id":85568392924742821,"keywords":["cp","nocrits","nodmgspread","uncletopia"],"game_id":440,"stv_port":27046,"stv_name":"Uncletopia | New York City | 4 | Community | STV","players":null},{"server_id":142,"name":"Uncletopia | São Paulo | 1 | All Maps","name_short":"sao-1","host":"sao-1.br.uncletopia.com","port":27015,"enabled":true,"region":"sa","cc":"br","latitude":-23.533773,"longitude":-46.62529,"reserved":0,"last_update":"0001-01-01T00:00:00Z","name_a2s":"Uncletopia | São Paulo | 1 | All Maps","protocol":17,"map":"koth_highpass","folder":"tf","game":"Team Fortress","app_id":440,"player_count":0,"max_players":24,"Bots":0,"server_type":"Dedicated","server_os":"Linux","password":true,"vac":true,"version":"7961495","steam_id":85568392924469996,"keywords":["cp","nocrits","nodmgspread","uncletopia"],"game_id":440,"stv_port":27016,"stv_name":"Uncletopia | São Paulo | 1 | All Maps | STV","players":null},{"server_id":143,"name":"Uncletopia | São Paulo | 2 | Community","name_short":"sao-2","host":"sao-2.br.uncletopia.com","port":27015,"enabled":true,"region":"sa","cc":"br","latitude":-23.533773,"longitude":-46.62529,"reserved":0,"last_update":"0001-01-01T00:00:00Z","name_a2s":"Uncletopia | São Paulo | 2 | Community","protocol":17,"map":"workshop/cp_caldera_rc2.ugc2834196889","folder":"tf","game":"Team Fortress","app_id":440,"player_count":0,"max_players":24,"Bots":0,"server_type":"Dedicated","server_os":"Linux","password":true,"vac":true,"version":"7961495","steam_id":85568392924485349,"keywords":["cp","nocrits","nodmgspread","uncletopia"],"game_id":440,"stv_port":27016,"stv_name":"Uncletopia | São Paulo | 2 | Community | STV","players":null},{"server_id":7,"name":"Uncletopia | Seattle | 1 | All Maps","name_short":"sea-1","host":"sea-1.us.uncletopia.com","port":27015,"enabled":true,"region":"us-west","cc":"us","latitude":47.608013,"longitude":-122.33517,"reserved":0,"last_update":"0001-01-01T00:00:00Z","name_a2s":"Uncletopia | Seattle | 1 | All Maps","protocol":17,"map":"pl_pier","folder":"tf","game":"Team Fortress","app_id":440,"player_count":24,"max_players":24,"Bots":0,"server_type":"Dedicated","server_os":"Linux","password":true,"vac":true,"version":"7961495","steam_id":85568392924469997,"keywords":["nocrits","nodmgspread","payload","uncletopia"],"game_id":440,"stv_port":27016,"stv_name":"Uncletopia | Seattle | 1 | All Maps | STV","players":[{"user_id":579,"name":"Lord Hater","steam_id":76561199158148782,"connected_time":2306000000000,"state":"active","ping":81},{"user_id":597,"name":"Mitchell","steam_id":76561197972922328,"connected_time":690000000000,"state":"active","ping":59},{"user_id":587,"name":"Sweets","steam_id":76561198998446307,"connected_time":1179000000000,"state":"active","ping":60},{"user_id":585,"name":"Skoad","steam_id":76561198104650528,"connected_time":1677000000000,"state":"active","ping":77},{"user_id":566,"name":"Sniff","steam_id":76561198010270922,"connected_time":3655000000000,"state":"active","ping":59},{"user_id":582,"name":"gorlab","steam_id":76561198025089694,"connected_time":2181000000000,"state":"active","ping":74},{"user_id":576,"name":"An Old Lady","steam_id":76561198047480318,"connected_time":2721000000000,"state":"active","ping":69},{"user_id":568,"name":"Apollo","steam_id":76561198162364702,"connected_time":3629000000000,"state":"active","ping":46},{"user_id":596,"name":"William P. Ennis","steam_id":76561198073464877,"connected_time":751000000000,"state":"active","ping":90},{"user_id":594,"name":"Poundcake","steam_id":76561198042196918,"connected_time":1051000000000,"state":"active","ping":45},{"user_id":583,"name":"lasky","steam_id":76561198017030029,"connected_time":2180000000000,"state":"active","ping":64},{"user_id":544,"name":"NEBULA","steam_id":76561198086878595,"connected_time":5021000000000,"state":"active","ping":70},{"user_id":589,"name":"wrench","steam_id":76561198137242573,"connected_time":1169000000000,"state":"active","ping":57},{"user_id":575,"name":"pyroclastic flow","steam_id":76561198095121758,"connected_time":3457000000000,"state":"active","ping":74},{"user_id":538,"name":"Skaði","steam_id":76561198063949642,"connected_time":5564000000000,"state":"active","ping":39},{"user_id":598,"name":"Henchie!","steam_id":76561198047567464,"connected_time":618000000000,"state":"active","ping":88},{"user_id":588,"name":"yogi","steam_id":76561198067986753,"connected_time":1179000000000,"state":"active","ping":72},{"user_id":592,"name":"hazel","steam_id":76561198037292232,"connected_time":1128000000000,"state":"active","ping":120},{"user_id":600,"name":"Gogurt","steam_id":76561198043892147,"connected_time":496000000000,"state":"active","ping":39},{"user_id":601,"name":"rushy :))","steam_id":76561198065825165,"connected_time":384000000000,"state":"active","ping":98},{"user_id":580,"name":"FlamingManiac","steam_id":76561198361996837,"connected_time":2306000000000,"state":"active","ping":105},{"user_id":550,"name":"Quaalude","steam_id":76561198100177449,"connected_time":4734000000000,"state":"active","ping":91},{"user_id":556,"name":"hyphy fungi","steam_id":76561198169755734,"connected_time":4267000000000,"state":"active","ping":62},{"user_id":542,"name":"Kryptonite253","steam_id":76561198019919891,"connected_time":5250000000000,"state":"active","ping":45}]},{"server_id":119,"name":"Uncletopia | Seattle | 2 | All Maps","name_short":"sea-2","host":"sea-1.us.uncletopia.com","port":27025,"enabled":true,"region":"us-west","cc":"us","latitude":47.608013,"longitude":-122.33517,"reserved":0,"last_update":"0001-01-01T00:00:00Z","name_a2s":"Uncletopia | Seattle | 2 | All Maps","protocol":17,"map":"cp_steel","folder":"tf","game":"Team Fortress","app_id":440,"player_count":24,"max_players":24,"Bots":0,"server_type":"Dedicated","server_os":"Linux","password":true,"vac":true,"version":"7961495","steam_id":85568392924469998,"keywords":["cp","nocrits","nodmgspread","uncletopia"],"game_id":440,"stv_port":27026,"stv_name":"Uncletopia | Seattle | 2 | All Maps | STV","players":[{"user_id":384,"name":"Girthworm Jim","steam_id":76561198007433376,"connected_time":1502000000000,"state":"active","ping":119},{"user_id":357,"name":"nøbu","steam_id":76561198100614981,"connected_time":3135000000000,"state":"active","ping":103},{"user_id":389,"name":"Thanks Ants","steam_id":76561197966221018,"connected_time":758000000000,"state":"active","ping":43},{"user_id":380,"name":"Shadow Wizard Money Gang","steam_id":76561199487351992,"connected_time":1561000000000,"state":"active","ping":83},{"user_id":327,"name":"ilun","steam_id":76561198042913843,"connected_time":5275000000000,"state":"active","ping":61},{"user_id":382,"name":"WaffleWithNoToppings","steam_id":76561199088280111,"connected_time":1540000000000,"state":"active","ping":55},{"user_id":272,"name":"killer fish","steam_id":76561198858474714,"connected_time":9657000000000,"state":"active","ping":58},{"user_id":321,"name":"Arkus","steam_id":76561199092478198,"connected_time":5398000000000,"state":"active","ping":45},{"user_id":379,"name":"MyMonkeyBaby","steam_id":76561198046896670,"connected_time":1669000000000,"state":"active","ping":54},{"user_id":356,"name":"COOL master_9","steam_id":76561198073041151,"connected_time":3278000000000,"state":"active","ping":88},{"user_id":393,"name":"your girl♀","steam_id":76561199050118111,"connected_time":593000000000,"state":"active","ping":56},{"user_id":390,"name":"Common","steam_id":76561198041083863,"connected_time":753000000000,"state":"active","ping":56},{"user_id":386,"name":"tender mike","steam_id":76561198058821622,"connected_time":1049000000000,"state":"active","ping":93},{"user_id":281,"name":"TüCold","steam_id":76561198111278197,"connected_time":9346000000000,"state":"active","ping":43},{"user_id":323,"name":"wdylm","steam_id":76561198206523304,"connected_time":5389000000000,"state":"active","ping":44},{"user_id":324,"name":"wile","steam_id":76561198125261443,"connected_time":5388000000000,"state":"active","ping":62},{"user_id":395,"name":"havarti gaming","steam_id":76561198069895678,"connected_time":552000000000,"state":"active","ping":90},{"user_id":388,"name":"Florescentia","steam_id":76561198316535999,"connected_time":786000000000,"state":"active","ping":200},{"user_id":334,"name":"Copy","steam_id":76561198025031590,"connected_time":4487000000000,"state":"active","ping":53},{"user_id":387,"name":"Parlax","steam_id":76561198283514826,"connected_time":935000000000,"state":"active","ping":80},{"user_id":348,"name":"Repeatings","steam_id":76561198209769009,"connected_time":3597000000000,"state":"active","ping":76},{"user_id":326,"name":"a familiar cat","steam_id":76561198080046542,"connected_time":5322000000000,"state":"active","ping":47},{"user_id":394,"name":"SolarusD","steam_id":76561198029279861,"connected_time":583000000000,"state":"active","ping":62},{"user_id":391,"name":"Lily Thorn","steam_id":76561198305488625,"connected_time":753000000000,"state":"active","ping":55}]},{"server_id":406,"name":"Uncletopia | Seattle | 3 | Stopwatch","name_short":"sea-3","host":"sea-1.us.uncletopia.com","port":27035,"enabled":true,"region":"us-west","cc":"us","latitude":47.608013,"longitude":-122.33517,"reserved":0,"last_update":"0001-01-01T00:00:00Z","name_a2s":"Uncletopia | Seattle | 3 | Stopwatch","protocol":17,"map":"pl_upward","folder":"tf","game":"Team Fortress","app_id":440,"player_count":23,"max_players":24,"Bots":0,"server_type":"Dedicated","server_os":"Linux","password":true,"vac":true,"version":"7961495","steam_id":85568392924515217,"keywords":["nocrits","nodmgspread","payload","uncletopia"],"game_id":440,"stv_port":27036,"stv_name":"Uncletopia | Seattle | 3 | Stopwatch | STV","players":[{"user_id":73,"name":"merlin","steam_id":76561198334511480,"connected_time":1604000000000,"state":"active","ping":76},{"user_id":58,"name":"joe","steam_id":76561199048784423,"connected_time":2245000000000,"state":"active","ping":92},{"user_id":92,"name":"pIRO_AGUA","steam_id":76561199041880779,"connected_time":21000000000,"state":"spawning","ping":44},{"user_id":23,"name":"AWildCheeseFish","steam_id":76561198846504974,"connected_time":5346000000000,"state":"active","ping":45},{"user_id":40,"name":"CubeDio","steam_id":76561198403403639,"connected_time":3156000000000,"state":"active","ping":56},{"user_id":87,"name":"ToddieToxic","steam_id":76561198419353276,"connected_time":304000000000,"state":"active","ping":60},{"user_id":41,"name":"Lawyer","steam_id":76561197974126447,"connected_time":3126000000000,"state":"active","ping":111},{"user_id":51,"name":"Day Man","steam_id":76561198067154807,"connected_time":2528000000000,"state":"active","ping":44},{"user_id":59,"name":"Bro D. Foxx","steam_id":76561198859557921,"connected_time":2240000000000,"state":"active","ping":81},{"user_id":78,"name":"dark violet","steam_id":76561198248461754,"connected_time":1029000000000,"state":"active","ping":75},{"user_id":33,"name":"Rommel2007","steam_id":76561198041744631,"connected_time":3306000000000,"state":"active","ping":84},{"user_id":80,"name":"TROY","steam_id":76561197983852176,"connected_time":734000000000,"state":"active","ping":74},{"user_id":62,"name":"CrilberDingleChalk","steam_id":76561199144469582,"connected_time":2067000000000,"state":"active","ping":90},{"user_id":36,"name":"Sudsen","steam_id":76561198370603787,"connected_time":3245000000000,"state":"active","ping":67},{"user_id":89,"name":"KaiserHazard","steam_id":76561198805329287,"connected_time":214000000000,"state":"active","ping":73},{"user_id":90,"name":"J-Prism","steam_id":76561198118214399,"connected_time":209000000000,"state":"active","ping":60},{"user_id":69,"name":"LeefLett","steam_id":76561199166178308,"connected_time":1861000000000,"state":"active","ping":86},{"user_id":47,"name":"_D_I_S_P_E_N_S_E_R_","steam_id":76561199383097700,"connected_time":2804000000000,"state":"active","ping":52},{"user_id":91,"name":"Master Of Whales","steam_id":76561198349104889,"connected_time":205000000000,"state":"active","ping":72},{"user_id":84,"name":"sleePI","steam_id":76561198450073779,"connected_time":512000000000,"state":"active","ping":64},{"user_id":76,"name":"Owner of Serial Experiments Lai","steam_id":76561198160513092,"connected_time":1090000000000,"state":"active","ping":152},{"user_id":61,"name":"D.A.V.I.D","steam_id":76561199443570634,"connected_time":2105000000000,"state":"active","ping":77},{"user_id":82,"name":"Nom Skirrett","steam_id":76561198014600788,"connected_time":621000000000,"state":"active","ping":74}]},{"server_id":17,"name":"Uncletopia | San Francisco | 1 | All Maps","name_short":"sfo-1","host":"sfo-1.us.uncletopia.com","port":27015,"enabled":true,"region":"us-west","cc":"us","latitude":37.77397,"longitude":-122.4313,"reserved":0,"last_update":"0001-01-01T00:00:00Z","name_a2s":"Uncletopia | San Francisco | 1 | All Maps","protocol":17,"map":"cp_steel","folder":"tf","game":"Team Fortress","app_id":440,"player_count":20,"max_players":24,"Bots":0,"server_type":"Dedicated","server_os":"Linux","password":true,"vac":true,"version":"7961495","steam_id":85568392924469999,"keywords":["cp","nocrits","nodmgspread","uncletopia"],"game_id":440,"stv_port":27016,"stv_name":"Uncletopia | San Francisco | 1 | All Maps | STV","players":[{"user_id":205,"name":"Ralph Kramden (Slim Charles)","steam_id":76561197981687895,"connected_time":6978000000000,"state":"active","ping":66},{"user_id":281,"name":"Jeffery","steam_id":76561198352805460,"connected_time":202000000000,"state":"active","ping":94},{"user_id":241,"name":"Diesel","steam_id":76561198448815852,"connected_time":4539000000000,"state":"active","ping":53},{"user_id":282,"name":"MormonDude","steam_id":76561199101985449,"connected_time":36000000000,"state":"active","ping":91},{"user_id":283,"name":"owl","steam_id":76561198088403016,"connected_time":11000000000,"state":"active","ping":164},{"user_id":253,"name":"ohnocringe","steam_id":76561199381232082,"connected_time":2703000000000,"state":"active","ping":103},{"user_id":280,"name":"SneekiCheekiQbone","steam_id":76561198045077980,"connected_time":417000000000,"state":"active","ping":49},{"user_id":270,"name":"Laventhey","steam_id":76561198977523626,"connected_time":1046000000000,"state":"active","ping":62},{"user_id":266,"name":"Melody","steam_id":76561198407789232,"connected_time":1556000000000,"state":"active","ping":76},{"user_id":269,"name":"Amogous Supreme","steam_id":76561198025476774,"connected_time":1070000000000,"state":"active","ping":57},{"user_id":225,"name":"Champagne Supernova","steam_id":76561198918114562,"connected_time":5854000000000,"state":"spawning","ping":300},{"user_id":278,"name":"Branta","steam_id":76561199103842843,"connected_time":701000000000,"state":"active","ping":63},{"user_id":264,"name":"JawnyMac","steam_id":76561198179529599,"connected_time":2077000000000,"state":"active","ping":59},{"user_id":255,"name":"LesserAce","steam_id":76561198153258132,"connected_time":2671000000000,"state":"active","ping":105},{"user_id":258,"name":"B00gal00ga123","steam_id":76561199273507453,"connected_time":2290000000000,"state":"active","ping":89},{"user_id":268,"name":"Brando","steam_id":76561198078306678,"connected_time":1343000000000,"state":"active","ping":73},{"user_id":257,"name":"legalize nuclear bombs","steam_id":76561198418172095,"connected_time":2600000000000,"state":"active","ping":89},{"user_id":234,"name":"CheeseCake488","steam_id":76561199407617942,"connected_time":5161000000000,"state":"active","ping":106},{"user_id":204,"name":"Ian","steam_id":76561198159334435,"connected_time":7267000000000,"state":"active","ping":176},{"user_id":277,"name":"Keamy","steam_id":76561199471434875,"connected_time":785000000000,"state":"active","ping":56}]},{"server_id":18,"name":"Uncletopia | San Francisco | 2 | All Maps","name_short":"sfo-2","host":"sfo-1.us.uncletopia.com","port":27025,"enabled":true,"region":"us-west","cc":"us","latitude":37.77397,"longitude":-122.4313,"reserved":0,"last_update":"0001-01-01T00:00:00Z","name_a2s":"Uncletopia | San Francisco | 2 | All Maps","protocol":17,"map":"koth_viaduct","folder":"tf","game":"Team Fortress","app_id":440,"player_count":0,"max_players":24,"Bots":0,"server_type":"Dedicated","server_os":"Linux","password":true,"vac":true,"version":"7961495","steam_id":85568392924470000,"keywords":["cp","nocrits","nodmgspread","uncletopia"],"game_id":440,"stv_port":27026,"stv_name":"Uncletopia | San Francisco | 2 | All Maps | STV","players":null},{"server_id":19,"name":"Uncletopia | San Francisco | 3 | Stopwatch","name_short":"sfo-3","host":"sfo-1.us.uncletopia.com","port":27035,"enabled":true,"region":"us-west","cc":"us","latitude":37.77397,"longitude":-122.4313,"reserved":0,"last_update":"0001-01-01T00:00:00Z","name_a2s":"Uncletopia | San Francisco | 3 | Stopwatch","protocol":17,"map":"workshop/pl_vigil_rc10.ugc1266210012","folder":"tf","game":"Team Fortress","app_id":440,"player_count":0,"max_players":24,"Bots":0,"server_type":"Dedicated","server_os":"Linux","password":true,"vac":true,"version":"7961495","steam_id":85568392924742824,"keywords":["nocrits","nodmgspread","payload","uncletopia"],"game_id":440,"stv_port":27036,"stv_name":"Uncletopia | San Francisco | 3 | Stopwatch | STV","players":null},{"server_id":20,"name":"Uncletopia | San Francisco | 4 | Community","name_short":"sfo-4","host":"sfo-1.us.uncletopia.com","port":27045,"enabled":true,"region":"us-west","cc":"us","latitude":37.77397,"longitude":-122.4313,"reserved":0,"last_update":"0001-01-01T00:00:00Z","name_a2s":"Uncletopia | San Francisco | 4 | Community","protocol":17,"map":"workshop/cp_hazyfort_rc6.ugc1365963729","folder":"tf","game":"Team Fortress","app_id":440,"player_count":0,"max_players":24,"Bots":0,"server_type":"Dedicated","server_os":"Linux","password":true,"vac":true,"version":"7961495","steam_id":85568392924742826,"keywords":["cp","nocrits","nodmgspread","uncletopia"],"game_id":440,"stv_port":27046,"stv_name":"Uncletopia | San Francisco | 4 | Community | STV","players":null},{"server_id":141,"name":"Uncletopia | Sydney | 1 | All Maps","name_short":"syd-1","host":"syd-1.au.uncletopia.com","port":27015,"enabled":true,"region":"au","cc":"au","latitude":-33.865143,"longitude":151.2099,"reserved":0,"last_update":"0001-01-01T00:00:00Z","name_a2s":"Uncletopia | Sydney | 1 | All Maps","protocol":17,"map":"koth_viaduct","folder":"tf","game":"Team Fortress","app_id":440,"player_count":0,"max_players":24,"Bots":0,"server_type":"Dedicated","server_os":"Linux","password":true,"vac":true,"version":"7961495","steam_id":85568392924470001,"keywords":["cp","nocrits","nodmgspread","uncletopia"],"game_id":440,"stv_port":27016,"stv_name":"Uncletopia | Sydney | 1 | All Maps | STV","players":null},{"server_id":123,"name":"Uncletopia | Sydney | 2 | All Maps","name_short":"syd-2","host":"syd-1.au.uncletopia.com","port":27025,"enabled":true,"region":"au","cc":"au","latitude":-33.865143,"longitude":151.2099,"reserved":0,"last_update":"0001-01-01T00:00:00Z","name_a2s":"Uncletopia | Sydney | 2 | All Maps","protocol":17,"map":"koth_lakeside_final","folder":"tf","game":"Team Fortress","app_id":440,"player_count":0,"max_players":24,"Bots":0,"server_type":"Dedicated","server_os":"Linux","password":true,"vac":true,"version":"7961495","steam_id":85568392924470002,"keywords":["cp","nocrits","nodmgspread","uncletopia"],"game_id":440,"stv_port":27026,"stv_name":"Uncletopia | Sydney | 2 | All Maps | STV","players":null},{"server_id":395,"name":"Uncletopia | Sydney | 3 | All Maps","name_short":"syd-3","host":"syd-1.au.uncletopia.com","port":27035,"enabled":true,"region":"au","cc":"au","latitude":-33.865143,"longitude":151.2099,"reserved":0,"last_update":"0001-01-01T00:00:00Z","name_a2s":"Uncletopia | Sydney | 3 | All Maps","protocol":17,"map":"pl_borneo","folder":"tf","game":"Team Fortress","app_id":440,"player_count":0,"max_players":24,"Bots":0,"server_type":"Dedicated","server_os":"Linux","password":true,"vac":true,"version":"7961495","steam_id":85568392925194467,"keywords":["nocrits","nodmgspread","payload","uncletopia"],"game_id":440,"stv_port":27036,"stv_name":"Uncletopia | Sydney | 3 | All Maps | STV","players":null},{"server_id":396,"name":"Uncletopia | Sydney | 4 | All Maps","name_short":"syd-4","host":"syd-1.au.uncletopia.com","port":27045,"enabled":true,"region":"au","cc":"au","latitude":-33.865143,"longitude":151.2099,"reserved":0,"last_update":"0001-01-01T00:00:00Z","name_a2s":"Uncletopia | Sydney | 4 | All Maps","protocol":17,"map":"cp_process_final","folder":"tf","game":"Team Fortress","app_id":440,"player_count":0,"max_players":24,"Bots":0,"server_type":"Dedicated","server_os":"Linux","password":true,"vac":true,"version":"7961495","steam_id":85568392925397958,"keywords":["cp","nocrits","nodmgspread","uncletopia"],"game_id":440,"stv_port":27046,"stv_name":"Uncletopia | Sydney | 4 | All Maps | STV","players":null},{"server_id":58,"name":"Uncletopia | Sydney | 5 | Stopwatch","name_short":"syd-5","host":"syd-1.au.uncletopia.com","port":27055,"enabled":true,"region":"au","cc":"au","latitude":-33.865143,"longitude":151.2099,"reserved":0,"last_update":"0001-01-01T00:00:00Z","name_a2s":"Uncletopia | Sydney | 5 | Stopwatch","protocol":17,"map":"pl_frontier_final","folder":"tf","game":"Team Fortress","app_id":440,"player_count":0,"max_players":24,"Bots":0,"server_type":"Dedicated","server_os":"Linux","password":true,"vac":true,"version":"7961495","steam_id":85568392925397959,"keywords":["nocrits","nodmgspread","payload","uncletopia"],"game_id":440,"stv_port":27056,"stv_name":"Uncletopia | Sydney | 5 | Stopwatch | STV","players":null},{"server_id":59,"name":"Uncletopia | Sydney | 6 | Community","name_short":"syd-6","host":"syd-1.au.uncletopia.com","port":27065,"enabled":true,"region":"au","cc":"au","latitude":-33.865143,"longitude":151.2099,"reserved":0,"last_update":"0001-01-01T00:00:00Z","name_a2s":"Uncletopia | Sydney | 6 | Community","protocol":17,"map":"cp_sunshine","folder":"tf","game":"Team Fortress","app_id":440,"player_count":0,"max_players":24,"Bots":0,"server_type":"Dedicated","server_os":"Linux","password":true,"vac":true,"version":"7961495","steam_id":85568392925397960,"keywords":["cp","nocrits","nodmgspread","uncletopia"],"game_id":440,"stv_port":27066,"stv_name":"Uncletopia | Sydney | 6 | Community | STV","players":null},{"server_id":49,"name":"Uncletopia | Warsaw | 1 | One Thousand Uncles","name_short":"waw-1","host":"waw-1.pl.uncletopia.com","port":27015,"enabled":true,"region":"eu","cc":"pl","latitude":52.2297,"longitude":21.017532,"reserved":0,"last_update":"0001-01-01T00:00:00Z","name_a2s":"Uncletopia | Warsaw | 1 | One Thousand Uncles","protocol":17,"map":"koth_highpass","folder":"tf","game":"Team Fortress","app_id":440,"player_count":0,"max_players":32,"Bots":0,"server_type":"Dedicated","server_os":"Linux","password":true,"vac":true,"version":"7961495","steam_id":85568392925397850,"keywords":["alltalk","cp","danepve","increased_maxplayers","nocrits","norespawntime","uncletopia"],"game_id":440,"stv_port":0,"stv_name":"","players":null},{"server_id":50,"name":"Uncletopia | Warsaw | 2 | One Thousand Uncles","name_short":"waw-2","host":"waw-1.pl.uncletopia.com","port":27025,"enabled":true,"region":"eu","cc":"pl","latitude":52.2297,"longitude":21.017532,"reserved":0,"last_update":"0001-01-01T00:00:00Z","name_a2s":"Uncletopia | Warsaw | 2 | One Thousand Uncles","protocol":17,"map":"pl_goldrush","folder":"tf","game":"Team Fortress","app_id":440,"player_count":0,"max_players":32,"Bots":0,"server_type":"Dedicated","server_os":"Linux","password":true,"vac":true,"version":"7961495","steam_id":85568392925397851,"keywords":["alltalk","danepve","increased_maxplayers","nocrits","norespawntime","payload","uncletopia"],"game_id":440,"stv_port":0,"stv_name":"","players":null},{"server_id":51,"name":"Uncletopia | Warsaw | 3 | All Maps","name_short":"waw-3","host":"waw-1.pl.uncletopia.com","port":27035,"enabled":true,"region":"eu","cc":"pl","latitude":52.2297,"longitude":21.017532,"reserved":0,"last_update":"0001-01-01T00:00:00Z","name_a2s":"Uncletopia | Warsaw | 3 | All Maps","protocol":17,"map":"plr_pipeline","folder":"tf","game":"Team Fortress","app_id":440,"player_count":0,"max_players":24,"Bots":0,"server_type":"Dedicated","server_os":"Linux","password":true,"vac":true,"version":"7961495","steam_id":85568392925397852,"keywords":["nocrits","nodmgspread","payload","uncletopia"],"game_id":440,"stv_port":27036,"stv_name":"Uncletopia | Warsaw | 3 | All Maps | STV","players":null},{"server_id":52,"name":"Uncletopia | Warsaw | 4 | All Maps","name_short":"waw-4","host":"waw-1.pl.uncletopia.com","port":27045,"enabled":true,"region":"eu","cc":"pl","latitude":52.2297,"longitude":21.017532,"reserved":0,"last_update":"0001-01-01T00:00:00Z","name_a2s":"Uncletopia | Warsaw | 4 | All Maps","protocol":17,"map":"cp_coldfront","folder":"tf","game":"Team Fortress","app_id":440,"player_count":0,"max_players":24,"Bots":0,"server_type":"Dedicated","server_os":"Linux","password":true,"vac":true,"version":"7961495","steam_id":85568392925397853,"keywords":["cp","nocrits","nodmgspread","uncletopia"],"game_id":440,"stv_port":27046,"stv_name":"Uncletopia | Warsaw | 4 | All Maps | STV","players":null},{"server_id":53,"name":"Uncletopia | Warsaw | 5 | Stopwatch","name_short":"waw-5","host":"waw-1.pl.uncletopia.com","port":27055,"enabled":true,"region":"eu","cc":"pl","latitude":52.2297,"longitude":21.017532,"reserved":0,"last_update":"0001-01-01T00:00:00Z","name_a2s":"Uncletopia | Warsaw | 5 | Stopwatch","protocol":17,"map":"workshop/koth_bagel_rc6.ugc2514036946","folder":"tf","game":"Team Fortress","app_id":440,"player_count":0,"max_players":24,"Bots":0,"server_type":"Dedicated","server_os":"Linux","password":true,"vac":true,"version":"7961495","steam_id":85568392925397854,"keywords":["cp","nocrits","nodmgspread","uncletopia"],"game_id":440,"stv_port":27056,"stv_name":"Uncletopia | Warsaw | 5 | Stopwatch | STV","players":null},{"server_id":54,"name":"Uncletopia | Warsaw | 6 | Community","name_short":"waw-6","host":"waw-1.pl.uncletopia.com","port":27065,"enabled":true,"region":"eu","cc":"pl","latitude":52.2297,"longitude":21.017532,"reserved":0,"last_update":"0001-01-01T00:00:00Z","name_a2s":"Uncletopia | Warsaw | 6 | Community","protocol":17,"map":"workshop/pl_badwater_pro_v12.ugc2142942074","folder":"tf","game":"Team Fortress","app_id":440,"player_count":1,"max_players":24,"Bots":0,"server_type":"Dedicated","server_os":"Linux","password":true,"vac":true,"version":"7961495","steam_id":85568392925397856,"keywords":["nocrits","nodmgspread","payload","uncletopia"],"game_id":440,"stv_port":27066,"stv_name":"Uncletopia | Warsaw | 6 | Community | STV","players":[{"user_id":3,"name":"Uncle rain","steam_id":76561199307816655,"connected_time":93000000000,"state":"active","ping":211}]}]}