{"status":true,"message":"","result":[{"server_id":9,"name":"Uncletopia | Atlanta | 1 | All Maps","name_short":"atl-1","host":"atl-1.us.uncletopia.com","port":27015,"enabled":true,"region":"us-east","cc":"us","latitude":33.753746,"longitude":-84.38633,"reserved":0,"last_update":"0001-01-01T00:00:00Z","name_a2s":"Uncletopia | Atlanta | 1 | All Maps","protocol":17,"map":"pl_upward","folder":"tf","game":"Team Fortress","app_id":440,"player_count":24,"max_players":24,"Bots":0,"server_type":"Dedicated","server_os":"Linux","password":true,"vac":true,"version":"7882260","steam_id":85568392924469982,"keywords":["nocrits","nodmgspread","payload","uncletopia"],"game_id":440,"stv_port":27016,"stv_name":"Uncletopia | Atlanta | 1 | All Maps | STV","players":[{"user_id":627,"name":"kite","steam_id":76561198346516392,"connected_time":625000000000,"state":"active","ping":82},{"user_id":631,"name":"Shuu","steam_id":76561199199180558,"connected_time":299000000000,"state":"active","ping":65},{"user_id":400,"name":"eish","steam_id":76561198089463603,"connected_time":13377000000000,"state":"active","ping":112},{"user_id":632,"name":"Trepan Stan","steam_id":76561198103243847,"connected_time":293000000000,"state":"active","ping":90},{"user_id":633,"name":"Dr. Dingus PhD","steam_id":76561199209834538,"connected_time":286000000000,"state":"active","ping":57},{"user_id":634,"name":"WhoIsFrosty","steam_id":76561198880588117,"connected_time":280000000000,"state":"active","ping":70},{"user_id":638,"name":"Franz","steam_id":76561198041929745,"connected_time":99000000000,"state":"active","ping":110},{"user_id":607,"name":"pogo","steam_id":76561198148913461,"connected_time":2186000000000,"state":"active","ping":60},{"user_id":628,"name":"Thingy","steam_id":76561198140161202,"connected_time":468000000000,"state":"active","ping":72},{"user_id":596,"name":"cola","steam_id":76561198374390458,"connected_time":2827000000000,"state":"active","ping":62},{"user_id":626,"name":"bencil sharpinero","steam_id":76561198381136912,"connected_time":633000000000,"state":"active","ping":77},{"user_id":635,"name":"xZackAttack27x","steam_id":76561198035446639,"connected_time":264000000000,"state":"active","ping":60},{"user_id":617,"name":"Racer X","steam_id":76561198073613932,"connected_time":1410000000000,"state":"active","ping":89},{"user_id":619,"name":"hidden_games","steam_id":76561198149683392,"connected_time":1187000000000,"state":"active","ping":59},{"user_id":625,"name":"emily","steam_id":76561198148132163,"connected_time":968000000000,"state":"active","ping":80},{"user_id":618,"name":"dddumb510","steam_id":76561198030793492,"connected_time":1188000000000,"state":"active","ping":146},{"user_id":595,"name":"morphine","steam_id":76561198072124799,"connected_time":2843000000000,"state":"active","ping":79},{"user_id":636,"name":"Galaxy_42","steam_id":76561198845514831,"connected_time":262000000000,"state":"active","ping":56},{"user_id":614,"name":"(TTV) The_Astrum_Guardian","steam_id":76561198130134103,"connected_time":1537000000000,"state":"active","ping":41},{"user_id":615,"name":"ArrSayingPirate","steam_id":76561197997567278,"connected_time":1534000000000,"state":"active","ping":71},{"user_id":637,"name":"Lord Of Cinders","steam_id":76561198086318360,"connected_time":254000000000,"state":"active","ping":45},{"user_id":629,"name":"Azuras","steam_id":76561198156416843,"connected_time":423000000000,"state":"active","ping":70},{"user_id":616,"name":"I\u003c3 DUSTBOWL STEEL AND VANGUARD","steam_id":76561198333513882,"connected_time":1532000000000,"state":"active","ping":74},{"user_id":594,"name":"Idiotden","steam_id":76561199340950135,"connected_time":3006000000000,"state":"active","ping":101}]},{"server_id":104,"name":"Uncletopia | Atlanta | 2 | All Maps","name_short":"atl-2","host":"atl-1.us.uncletopia.com","port":27025,"enabled":true,"region":"us-east","cc":"us","latitude":33.753746,"longitude":-84.38633,"reserved":0,"last_update":"0001-01-01T00:00:00Z","name_a2s":"Uncletopia | Atlanta | 2 | All Maps","protocol":17,"map":"cp_dustbowl","folder":"tf","game":"Team Fortress","app_id":440,"player_count":23,"max_players":24,"Bots":0,"server_type":"Dedicated","server_os":"Linux","password":true,"vac":true,"version":"7882260","steam_id":85568392924469983,"keywords":["cp","nocrits","nodmgspread","uncletopia"],"game_id":440,"stv_port":27026,"stv_name":"Uncletopia | Atlanta | 2 | All Maps | STV","players":[{"user_id":275,"name":"Lt.Felipe","steam_id":76561198098597557,"connected_time":733000000000,"state":"active","ping":122},{"user_id":263,"name":"Oopsie Daisy ‚ùã","steam_id":76561198042144492,"connected_time":1924000000000,"state":"active","ping":56},{"user_id":266,"name":"gon","steam_id":76561198341171295,"connected_time":1702000000000,"state":"active","ping":88},{"user_id":284,"name":"hashmap","steam_id":76561198043794014,"connected_time":238000000000,"state":"active","ping":67},{"user_id":295,"name":"Sozeash","steam_id":76561198207795512,"connected_time":29000000000,"state":"active","ping":80},{"user_id":279,"name":"RarestGuide","steam_id":76561198050338923,"connected_time":524000000000,"state":"active","ping":63},{"user_id":277,"name":"Ramin Jamin","steam_id":76561198086516541,"connected_time":587000000000,"state":"active","ping":70},{"user_id":281,"name":"Homosexual Warmachine","steam_id":76561198040425096,"connected_time":342000000000,"state":"active","ping":51},{"user_id":292,"name":"bendera","steam_id":76561197965486503,"connected_time":76000000000,"state":"active","ping":85},{"user_id":285,"name":"BOTANIST","steam_id":76561198024224294,"connected_time":215000000000,"state":"active","ping":60},{"user_id":237,"name":"Fracthalls","steam_id":76561199275031859,"connected_time":3835000000000,"state":"active","ping":96},{"user_id":268,"name":".-.","steam_id":76561198820617005,"connected_time":1693000000000,"state":"active","ping":100},{"user_id":220,"name":"‚ù§Flaxks‚ù§","steam_id":76561198410260447,"connected_time":4973000000000,"state":"active","ping":79},{"user_id":286,"name":"¬øskitt1eS?","steam_id":76561198330093211,"connected_time":190000000000,"state":"active","ping":42},{"user_id":290,"name":"getback","steam_id":76561198185115143,"connected_time":95000000000,"state":"active","ping":84},{"user_id":287,"name":"RaTtYc","steam_id":76561198954419354,"connected_time":185000000000,"state":"active","ping":138},{"user_id":289,"name":"Flyingten","steam_id":76561198021264697,"connected_time":131000000000,"state":"active","ping":75},{"user_id":225,"name":"Chhaam","steam_id":76561198058508132,"connected_time":4693000000000,"state":"active","ping":55},{"user_id":193,"name":"Jesse","steam_id":76561198157305426,"connected_time":7119000000000,"state":"active","ping":38},{"user_id":104,"name":"AlcoholicDad454","steam_id":76561198157414556,"connected_time":11249000000000,"state":"active","ping":71},{"user_id":291,"name":"Lobc0","steam_id":76561199243800888,"connected_time":82000000000,"state":"active","ping":76},{"user_id":283,"name":"Not Guztaf","steam_id":76561198334924763,"connected_time":332000000000,"state":"active","ping":77},{"user_id":261,"name":"Tan_Rat","steam_id":76561198313629344,"connected_time":2049000000000,"state":"active","ping":99}]},{"server_id":400,"name":"Uncletopia | Atlanta | 3 | Community","name_short":"atl-3","host":"atl-1.us.uncletopia.com","port":27035,"enabled":true,"region":"us-east","cc":"us","latitude":33.753746,"longitude":-84.38633,"reserved":0,"last_update":"0001-01-01T00:00:00Z","name_a2s":"Uncletopia | Atlanta | 3 | Community","protocol":17,"map":"workshop/pl_divulgence_b4b.ugc2884808746","folder":"tf","game":"Team Fortress","app_id":440,"player_count":0,"max_players":24,"Bots":0,"server_type":"Dedicated","server_os":"Linux","password":true,"vac":true,"version":"7882260","steam_id":85568392924515187,"keywords":["nocrits","nodmgspread","payload","uncletopia"],"game_id":440,"stv_port":27036,"stv_name":"Uncletopia | Atlanta | 3 | Community | STV","players":null},{"server_id":401,"name":"Uncletopia | Atlanta | 4 | No Payload","name_short":"atl-4","host":"atl-1.us.uncletopia.com","port":27045,"enabled":true,"region":"us-east","cc":"us","latitude":33.753746,"longitude":-84.38633,"reserved":0,"last_update":"0001-01-01T00:00:00Z","name_a2s":"","protocol":0,"map":"","folder":"","game":"","app_id":0,"player_count":0,"max_players":0,"Bots":0,"server_type":"","server_os":"","password":false,"vac":false,"version":"","steam_id":0,"keywords":null,"game_id":0,"stv_port":0,"stv_name":"","players":null},{"server_id":2,"name":"Uncletopia | Chicago | 1 | All Maps","name_short":"chi-1","host":"chi-1.us.uncletopia.com","port":27015,"enabled":true,"region":"us-central","cc":"us","latitude":41.881832,"longitude":-87.62318,"reserved":0,"last_update":"0001-01-01T00:00:00Z","name_a2s":"Uncletopia | Chicago | 1 | All Maps","protocol":17,"map":"pl_upward","folder":"tf","game":"Team Fortress","app_id":440,"player_count":24,"max_players":24,"Bots":0,"server_type":"Dedicated","server_os":"Linux","password":true,"vac":true,"version":"7882260","steam_id":85568392924469984,"keywords":["nocrits","nodmgspread","payload","uncletopia"],"game_id":440,"stv_port":27016,"stv_name":"Uncletopia | Chicago | 1 | All Maps | STV","players":[{"user_id":722,"name":"HOTA","steam_id":76561199002778841,"connected_time":475000000000,"state":"active","ping":73},{"user_id":723,"name":"Iceman10a","steam_id":76561198171922098,"connected_time":474000000000,"state":"active","ping":113},{"user_id":686,"name":".JIFF","steam_id":76561198045181760,"connected_time":3486000000000,"state":"active","ping":55},{"user_id":725,"name":"Mister Rattlebones","steam_id":76561198065560157,"connected_time":418000000000,"state":"active","ping":50},{"user_id":704,"name":"daithy","steam_id":76561198168295777,"connected_time":1686000000000,"state":"active","ping":109},{"user_id":678,"name":"x‚ù§x_1337_VVeed_VVizard_x‚ù§x","steam_id":76561198067436825,"connected_time":4392000000000,"state":"active","ping":87},{"user_id":661,"name":"Protato","steam_id":76561198061182563,"connected_time":4713000000000,"state":"active","ping":74},{"user_id":717,"name":"Shakey","steam_id":76561198012340821,"connected_time":825000000000,"state":"active","ping":146},{"user_id":712,"name":"Drewp","steam_id":76561198856700517,"connected_time":1401000000000,"state":"active","ping":70},{"user_id":728,"name":"Dr. Dick","steam_id":76561198138011922,"connected_time":234000000000,"state":"active","ping":73},{"user_id":635,"name":"Zoot","steam_id":76561198121944243,"connected_time":6311000000000,"state":"active","ping":77},{"user_id":724,"name":"artichoke","steam_id":76561198980994364,"connected_time":462000000000,"state":"active","ping":92},{"user_id":711,"name":"Hylic","steam_id":76561199051314589,"connected_time":1408000000000,"state":"active","ping":60},{"user_id":703,"name":"CuteWinFail","steam_id":76561198018801418,"connected_time":1775000000000,"state":"active","ping":90},{"user_id":726,"name":"Nigel Powers","steam_id":76561198107382571,"connected_time":321000000000,"state":"active","ping":130},{"user_id":709,"name":"herb","steam_id":76561198185980055,"connected_time":1575000000000,"state":"active","ping":72},{"user_id":643,"name":"im sorry","steam_id":76561198116821551,"connected_time":5330000000000,"state":"active","ping":59},{"user_id":727,"name":"Donkski","steam_id":76561198406895347,"connected_time":286000000000,"state":"active","ping":71},{"user_id":706,"name":"Takyon","steam_id":76561198172075186,"connected_time":1663000000000,"state":"active","ping":171},{"user_id":645,"name":"rocketrocketrocketship","steam_id":76561198120710051,"connected_time":5316000000000,"state":"active","ping":90},{"user_id":705,"name":"Noodle","steam_id":76561198040872617,"connected_time":1686000000000,"state":"active","ping":98},{"user_id":715,"name":"richard clock","steam_id":76561198048455671,"connected_time":1272000000000,"state":"active","ping":58},{"user_id":721,"name":"Maverick","steam_id":76561198322829814,"connected_time":490000000000,"state":"active","ping":78},{"user_id":625,"name":"Astoriae!","steam_id":76561199090168858,"connected_time":6851000000000,"state":"active","ping":70}]},{"server_id":106,"name":"Uncletopia | Chicago | 2 | All Maps","name_short":"chi-2","host":"chi-1.us.uncletopia.com","port":27025,"enabled":true,"region":"us-central","cc":"us","latitude":41.881832,"longitude":-87.62318,"reserved":0,"last_update":"0001-01-01T00:00:00Z","name_a2s":"Uncletopia | Chicago | 2 | All Maps","protocol":17,"map":"pl_pier","folder":"tf","game":"Team Fortress","app_id":440,"player_count":24,"max_players":24,"Bots":0,"server_type":"Dedicated","server_os":"Linux","password":true,"vac":true,"version":"7882260","steam_id":85568392924469985,"keywords":["nocrits","nodmgspread","payload","uncletopia"],"game_id":440,"stv_port":27026,"stv_name":"Uncletopia | Chicago | 2 | All Maps | STV","players":[{"user_id":452,"name":"ATastyDonut","steam_id":76561198984819894,"connected_time":249000000000,"state":"active","ping":65},{"user_id":409,"name":"-œÄ- BakaD","steam_id":76561197960559169,"connected_time":3414000000000,"state":"active","ping":57},{"user_id":431,"name":"Holp","steam_id":76561199019186848,"connected_time":1441000000000,"state":"active","ping":117},{"user_id":424,"name":"meownt evewest :3","steam_id":76561198017686306,"connected_time":1778000000000,"state":"active","ping":151},{"user_id":438,"name":"Creeperlad 33","steam_id":76561199027120873,"connected_time":487000000000,"state":"active","ping":82},{"user_id":412,"name":"Famelegion","steam_id":76561198958341424,"connected_time":3120000000000,"state":"active","ping":98},{"user_id":441,"name":"Peepster","steam_id":76561198297854733,"connected_time":474000000000,"state":"active","ping":70},{"user_id":442,"name":"Maid 'n' China","steam_id":76561198423392976,"connected_time":441000000000,"state":"active","ping":98},{"user_id":443,"name":"the duke","steam_id":76561199198633203,"connected_time":440000000000,"state":"active","ping":88},{"user_id":444,"name":"FUSION","steam_id":76561197972659738,"connected_time":438000000000,"state":"active","ping":59},{"user_id":375,"name":"jpuzza","steam_id":76561198035535731,"connected_time":6422000000000,"state":"active","ping":74},{"user_id":403,"name":"Final_MarioXD","steam_id":76561199184862419,"connected_time":3706000000000,"state":"active","ping":91},{"user_id":445,"name":"Lightish Red","steam_id":76561198060879701,"connected_time":434000000000,"state":"active","ping":45},{"user_id":446,"name":"Ceiling Man","steam_id":76561198003959902,"connected_time":413000000000,"state":"active","ping":62},{"user_id":432,"name":"Tara","steam_id":76561198020696265,"connected_time":1437000000000,"state":"active","ping":64},{"user_id":376,"name":"the real babytron","steam_id":76561197989627918,"connected_time":6404000000000,"state":"active","ping":89},{"user_id":425,"name":"Rukks","steam_id":76561197993918954,"connected_time":1755000000000,"state":"active","ping":90},{"user_id":423,"name":"Walkiing","steam_id":76561198074473413,"connected_time":1808000000000,"state":"active","ping":45},{"user_id":454,"name":"A Duck Phone!?","steam_id":76561198044707749,"connected_time":135000000000,"state":"active","ping":60},{"user_id":448,"name":"nalezinik","steam_id":76561198030026119,"connected_time":405000000000,"state":"active","ping":63},{"user_id":449,"name":"LIL BEAN","steam_id":76561198115403223,"connected_time":377000000000,"state":"active","ping":62},{"user_id":428,"name":"Robin","steam_id":76561198121165149,"connected_time":1601000000000,"state":"active","ping":43},{"user_id":422,"name":"z","steam_id":76561198126358045,"connected_time":1941000000000,"state":"active","ping":76},{"user_id":453,"name":"[INSERT NAME HERE]","steam_id":76561199099885529,"connected_time":154000000000,"state":"active","ping":131}]},{"server_id":402,"name":"Uncletopia | Chicago | 3 | All Maps","name_short":"chi-3","host":"chi-1.us.uncletopia.com","port":27035,"enabled":true,"region":"us-central","cc":"us","latitude":41.881832,"longitude":-87.62318,"reserved":0,"last_update":"0001-01-01T00:00:00Z","name_a2s":"Uncletopia | Chicago | 3 | All Maps","protocol":17,"map":"cp_sunshine","folder":"tf","game":"Team Fortress","app_id":440,"player_count":23,"max_players":24,"Bots":0,"server_type":"Dedicated","server_os":"Linux","password":true,"vac":true,"version":"7882260","steam_id":85568392924515191,"keywords":["cp","nocrits","nodmgspread","uncletopia"],"game_id":440,"stv_port":27036,"stv_name":"Uncletopia | Chicago | 3 | All Maps | STV","players":[{"user_id":554,"name":"Giggles‚Ñ¢","steam_id":76561198058708019,"connected_time":2499000000000,"state":"active","ping":53},{"user_id":570,"name":"Mr.Poopy Pants","steam_id":76561199037703635,"connected_time":852000000000,"state":"active","ping":72},{"user_id":573,"name":"Emder","steam_id":76561198260747931,"connected_time":449000000000,"state":"active","ping":61},{"user_id":565,"name":"Red on Red","steam_id":76561198802356746,"connected_time":1225000000000,"state":"active","ping":90},{"user_id":551,"name":"CyberZayne","steam_id":76561198002351356,"connected_time":2686000000000,"state":"active","ping":88},{"user_id":495,"name":"jolo","steam_id":76561198042831480,"connected_time":6649000000000,"state":"active","ping":74},{"user_id":568,"name":"H C N","steam_id":76561198106290021,"connected_time":1019000000000,"state":"active","ping":68},{"user_id":575,"name":"Xander","steam_id":76561199100623603,"connected_time":410000000000,"state":"active","ping":62},{"user_id":562,"name":"TV12Lime","steam_id":76561199036195384,"connected_time":1253000000000,"state":"active","ping":74},{"user_id":586,"name":"CrackedSanity","steam_id":76561198279841251,"connected_time":76000000000,"state":"active","ping":91},{"user_id":577,"name":"socializedCryptid","steam_id":76561198991665007,"connected_time":346000000000,"state":"active","ping":47},{"user_id":583,"name":"dankman","steam_id":76561198977064186,"connected_time":139000000000,"state":"active","ping":59},{"user_id":572,"name":"sexgaming_","steam_id":76561198245994746,"connected_time":682000000000,"state":"active","ping":44},{"user_id":557,"name":"Mysterious Stranger","steam_id":76561198074990070,"connected_time":1720000000000,"state":"active","ping":37},{"user_id":582,"name":"heritage","steam_id":76561198108685037,"connected_time":160000000000,"state":"active","ping":71},{"user_id":556,"name":"Peter Popoff","steam_id":76561198027171160,"connected_time":2029000000000,"state":"active","ping":32},{"user_id":558,"name":"Fredfredfood","steam_id":76561198072824802,"connected_time":1279000000000,"state":"active","ping":57},{"user_id":499,"name":"Bread Zoo","steam_id":76561198013732450,"connected_time":6588000000000,"state":"active","ping":57},{"user_id":589,"name":"Queen Frau the Round","steam_id":76561197999942134,"connected_time":18000000000,"state":"active","ping":46},{"user_id":525,"name":"D(b) Hell","steam_id":76561198067869016,"connected_time":4852000000000,"state":"active","ping":44},{"user_id":580,"name":"MrJolly","steam_id":76561198417637965,"connected_time":248000000000,"state":"active","ping":70},{"user_id":581,"name":"Rukh","steam_id":76561197999361315,"connected_time":223000000000,"state":"active","ping":100},{"user_id":526,"name":":)","steam_id":76561198093921290,"connected_time":4852000000000,"state":"active","ping":49}]},{"server_id":403,"name":"Uncletopia | Chicago | 4 | All Maps","name_short":"chi-4","host":"chi-1.us.uncletopia.com","port":27045,"enabled":true,"region":"us-central","cc":"us","latitude":41.881832,"longitude":-87.62318,"reserved":0,"last_update":"0001-01-01T00:00:00Z","name_a2s":"Uncletopia | Chicago | 4 | All Maps","protocol":17,"map":"cp_sunshine","folder":"tf","game":"Team Fortress","app_id":440,"player_count":24,"max_players":24,"Bots":0,"server_type":"Dedicated","server_os":"Linux","password":true,"vac":true,"version":"7882260","steam_id":85568392924515193,"keywords":["cp","nocrits","nodmgspread","uncletopia"],"game_id":440,"stv_port":27046,"stv_name":"Uncletopia | Chicago | 4 | All Maps | STV","players":[{"user_id":698,"name":"OpenDown","steam_id":76561198064132688,"connected_time":588000000000,"state":"active","ping":57},{"user_id":643,"name":"MankTKO","steam_id":76561198189421005,"connected_time":5695000000000,"state":"active","ping":59},{"user_id":699,"name":"graggle simpson","steam_id":76561198840210218,"connected_time":562000000000,"state":"active","ping":107},{"user_id":663,"name":"MEATBALL","steam_id":76561198028499312,"connected_time":4644000000000,"state":"active","ping":60},{"user_id":651,"name":"Merapsco","steam_id":76561198029898337,"connected_time":5259000000000,"state":"active","ping":87},{"user_id":704,"name":"precious","steam_id":76561198224614084,"connected_time":27000000000,"state":"active","ping":60},{"user_id":407,"name":"WALL-E","steam_id":76561198154701370,"connected_time":23974000000000,"state":"active","ping":84},{"user_id":685,"name":"Erectile Dysfunction Gaming","steam_id":76561198349437251,"connected_time":1943000000000,"state":"active","ping":76},{"user_id":703,"name":"Kretim","steam_id":76561199204273483,"connected_time":107000000000,"state":"active","ping":66},{"user_id":675,"name":"TURTLEPOOL21","steam_id":76561198278212264,"connected_time":3559000000000,"state":"active","ping":59},{"user_id":636,"name":"‚ô¶‚ô£Quadric‚ô•‚ô†","steam_id":76561198061003853,"connected_time":6206000000000,"state":"active","ping":64},{"user_id":691,"name":"canakblasteran","steam_id":76561199472518822,"connected_time":1727000000000,"state":"active","ping":99},{"user_id":665,"name":"Colin102004","steam_id":76561198202384334,"connected_time":4422000000000,"state":"active","ping":54},{"user_id":686,"name":"JayArr","steam_id":76561198124371253,"connected_time":1937000000000,"state":"active","ping":45},{"user_id":683,"name":"Nate_Bit","steam_id":76561198302313038,"connected_time":1997000000000,"state":"active","ping":69},{"user_id":669,"name":"Plimbo","steam_id":76561198286939146,"connected_time":3862000000000,"state":"active","ping":69},{"user_id":680,"name":"Borj42","steam_id":76561197995538676,"connected_time":2008000000000,"state":"active","ping":86},{"user_id":695,"name":"goliath birdeater","steam_id":76561198089852954,"connected_time":1360000000000,"state":"active","ping":76},{"user_id":687,"name":"maS","steam_id":76561198033846407,"connected_time":1931000000000,"state":"active","ping":58},{"user_id":657,"name":"phone","steam_id":76561198029268743,"connected_time":5218000000000,"state":"active","ping":61},{"user_id":693,"name":"JACOB","steam_id":76561198211874895,"connected_time":1495000000000,"state":"active","ping":78},{"user_id":681,"name":"WE LOVE CASTING SPELLSüíØüíØ\ufffd","steam_id":76561198056871257,"connected_time":2006000000000,"state":"active","ping":63},{"user_id":702,"name":"Strangelove","steam_id":76561198353773611,"connected_time":175000000000,"state":"active","ping":72},{"user_id":696,"name":"Harpua","steam_id":76561197988020228,"connected_time":1000000000000,"state":"active","ping":63}]},{"server_id":36,"name":"Uncletopia | Chicago | 5 | All Maps","name_short":"chi-5","host":"chi-2.us.uncletopia.com","port":27015,"enabled":true,"region":"us-central","cc":"us","latitude":41.881832,"longitude":-87.62318,"reserved":0,"last_update":"0001-01-01T00:00:00Z","name_a2s":"Uncletopia | Chicago | 5 | All Maps","protocol":17,"map":"plr_hightower","folder":"tf","game":"Team Fortress","app_id":440,"player_count":22,"max_players":24,"Bots":0,"server_type":"Dedicated","server_os":"Linux","password":true,"vac":true,"version":"7882260","steam_id":85568392924866362,"keywords":["nocrits","nodmgspread","payload","uncletopia"],"game_id":440,"stv_port":27016,"stv_name":"Uncletopia | Chicago | 5 | All Maps | STV","players":[{"user_id":339,"name":"French Toast","steam_id":76561198057059783,"connected_time":3773000000000,"state":"active","ping":75},{"user_id":393,"name":"jerma but crying and lesbian","steam_id":76561198110661425,"connected_time":548000000000,"state":"active","ping":46},{"user_id":389,"name":"Bl0ckhead123","steam_id":76561198283536929,"connected_time":852000000000,"state":"active","ping":114},{"user_id":398,"name":"Dededoo","steam_id":76561198279033471,"connected_time":101000000000,"state":"active","ping":88},{"user_id":403,"name":"Tick","steam_id":76561198184161214,"connected_time":11000000000,"state":"spawning","ping":45},{"user_id":394,"name":"huh6750","steam_id":76561199094058555,"connected_time":543000000000,"state":"active","ping":47},{"user_id":401,"name":"Dauntless Duelist","steam_id":76561198025056018,"connected_time":30000000000,"state":"connecting","ping":86},{"user_id":372,"name":"Sentry Gun Main Man","steam_id":76561198327938247,"connected_time":1194000000000,"state":"active","ping":87},{"user_id":399,"name":"Literally a Trans Woman","steam_id":76561198054639925,"connected_time":80000000000,"state":"active","ping":89},{"user_id":397,"name":"faye","steam_id":76561198044176988,"connected_time":274000000000,"state":"active","ping":49},{"user_id":386,"name":"5$ Biggie Bag","steam_id":76561198298310744,"connected_time":912000000000,"state":"active","ping":68},{"user_id":387,"name":"LooperDooper","steam_id":76561198162464484,"connected_time":903000000000,"state":"active","ping":77},{"user_id":388,"name":"carp","steam_id":76561198042865147,"connected_time":862000000000,"state":"active","ping":47},{"user_id":337,"name":"„ÅÑ„Å°„Åî„Åæ„Çç","steam_id":76561198166100997,"connected_time":3780000000000,"state":"active","ping":73},{"user_id":390,"name":"zareski29","steam_id":76561199239730098,"connected_time":826000000000,"state":"spawning","ping":67},{"user_id":391,"name":"forp","steam_id":76561198822007289,"connected_time":785000000000,"state":"active","ping":49},{"user_id":344,"name":"Chin","steam_id":76561198247426906,"connected_time":3681000000000,"state":"active","ping":61},{"user_id":300,"name":"[GUT] 13","steam_id":76561197985209820,"connected_time":7506000000000,"state":"active","ping":59},{"user_id":402,"name":"Father Jon","steam_id":76561198324730919,"connected_time":30000000000,"state":"connecting","ping":85},{"user_id":308,"name":"[GUT] RiDiK¬Æ","steam_id":76561197969756446,"connected_time":7363000000000,"state":"active","ping":55},{"user_id":379,"name":"Pika","steam_id":76561198068063436,"connected_time":1067000000000,"state":"active","ping":53},{"user_id":361,"name":"Fermenting Kiwi","steam_id":76561198253303497,"connected_time":2254000000000,"state":"active","ping":74}]},{"server_id":37,"name":"Uncletopia | Chicago | 6 | All Maps","name_short":"chi-6","host":"chi-2.us.uncletopia.com","port":27025,"enabled":true,"region":"us-central","cc":"us","latitude":41.881832,"longitude":-87.62318,"reserved":0,"last_update":"0001-01-01T00:00:00Z","name_a2s":"Uncletopia | Chicago | 6 | All Maps","protocol":17,"map":"pl_barnblitz","folder":"tf","game":"Team Fortress","app_id":440,"player_count":24,"max_players":24,"Bots":0,"server_type":"Dedicated","server_os":"Linux","password":true,"vac":true,"version":"7882260","steam_id":85568392924866363,"keywords":["nocrits","nodmgspread","payload","uncletopia"],"game_id":440,"stv_port":27026,"stv_name":"Uncletopia | Chicago | 6 | All Maps | STV","players":[{"user_id":224,"name":"Texas_Courier","steam_id":76561199146133828,"connected_time":824000000000,"state":"active","ping":80},{"user_id":225,"name":"Rawhate","steam_id":76561198079736945,"connected_time":805000000000,"state":"active","ping":72},{"user_id":214,"name":"45 Cent","steam_id":76561198048690188,"connected_time":1239000000000,"state":"active","ping":69},{"user_id":231,"name":"ryghehn","steam_id":76561198195359229,"connected_time":249000000000,"state":"active","ping":89},{"user_id":218,"name":"Person","steam_id":76561198093244204,"connected_time":949000000000,"state":"active","ping":72},{"user_id":220,"name":"Titan Exodos","steam_id":76561198063852935,"connected_time":863000000000,"state":"active","ping":118},{"user_id":164,"name":"SpecialForce19","steam_id":76561198120974644,"connected_time":4834000000000,"state":"active","ping":76},{"user_id":221,"name":"An Unhinged Meat Bicycle","steam_id":76561198358757709,"connected_time":838000000000,"state":"active","ping":98},{"user_id":209,"name":"Ta5K","steam_id":76561198939558155,"connected_time":1338000000000,"state":"active","ping":45},{"user_id":206,"name":"dough","steam_id":76561198122474413,"connected_time":1485000000000,"state":"active","ping":63},{"user_id":226,"name":"Biggles","steam_id":76561198126576389,"connected_time":804000000000,"state":"active","ping":68},{"user_id":149,"name":"Blue-Lobster-Gaming","steam_id":76561199220578772,"connected_time":5775000000000,"state":"active","ping":86},{"user_id":227,"name":"Wan Shi Tong","steam_id":76561198076441225,"connected_time":775000000000,"state":"active","ping":70},{"user_id":185,"name":"ghastlierest gamer","steam_id":76561198057374871,"connected_time":3166000000000,"state":"active","ping":64},{"user_id":138,"name":"Dustin Cheeks","steam_id":76561198040936008,"connected_time":6735000000000,"state":"active","ping":78},{"user_id":222,"name":"Halibard","steam_id":76561198011239659,"connected_time":837000000000,"state":"active","ping":67},{"user_id":199,"name":"scrotal recall","steam_id":76561198135945598,"connected_time":2648000000000,"state":"active","ping":83},{"user_id":200,"name":"Mr_Hoogie","steam_id":76561198999931266,"connected_time":2440000000000,"state":"active","ping":56},{"user_id":182,"name":"the \"Goofy Giggler\"","steam_id":76561198083175190,"connected_time":3189000000000,"state":"active","ping":66},{"user_id":216,"name":"Mug Moment Gaming","steam_id":76561198233098136,"connected_time":1151000000000,"state":"active","ping":60},{"user_id":196,"name":"va l v's melee hit registration","steam_id":76561199039152146,"connected_time":2776000000000,"state":"active","ping":75},{"user_id":228,"name":"Quilifer","steam_id":76561198138835562,"connected_time":621000000000,"state":"active","ping":102},{"user_id":230,"name":"Dylanardo","steam_id":76561198294726950,"connected_time":350000000000,"state":"active","ping":103},{"user_id":229,"name":"silvanae324","steam_id":76561199150642573,"connected_time":369000000000,"state":"active","ping":114}]},{"server_id":38,"name":"Uncletopia | Chicago | 7 | Stopwatch Beta","name_short":"chi-7","host":"chi-2.us.uncletopia.com","port":27035,"enabled":true,"region":"us-central","cc":"us","latitude":41.881832,"longitude":-87.62318,"reserved":0,"last_update":"0001-01-01T00:00:00Z","name_a2s":"Uncletopia | Chicago | 7 | Stopwatch Beta","protocol":17,"map":"pl_borneo","folder":"tf","game":"Team Fortress","app_id":440,"player_count":0,"max_players":24,"Bots":0,"server_type":"Dedicated","server_os":"Linux","password":true,"vac":true,"version":"7882260","steam_id":85568392924866364,"keywords":["nocrits","nodmgspread","payload","uncletopia"],"game_id":440,"stv_port":27036,"stv_name":"Uncletopia | Chicago | 7 | Stopwatch Beta | STV","players":null},{"server_id":39,"name":"Uncletopia | Chicago | 8 | Community","name_short":"chi-8","host":"chi-2.us.uncletopia.com","port":27045,"enabled":true,"region":"us-central","cc":"us","latitude":41.881832,"longitude":-87.62318,"reserved":0,"last_update":"0001-01-01T00:00:00Z","name_a2s":"Uncletopia | Chicago | 8 | Community","protocol":17,"map":"workshop/koth_synthetic_rc6a.ugc1549817316","folder":"tf","game":"Team Fortress","app_id":440,"player_count":0,"max_players":24,"Bots":0,"server_type":"Dedicated","server_os":"Linux","password":true,"vac":true,"version":"7882260","steam_id":85568392924866365,"keywords":["cp","nocrits","nodmgspread","uncletopia"],"game_id":440,"stv_port":27046,"stv_name":"Uncletopia | Chicago | 8 | Community | STV","players":null},{"server_id":8,"name":"Uncletopia | Dallas | 1 | All Maps","name_short":"dal-1","host":"dal-1.us.uncletopia.com","port":27015,"enabled":true,"region":"us-central","cc":"us","latitude":32.779167,"longitude":-96.80889,"reserved":0,"last_update":"0001-01-01T00:00:00Z","name_a2s":"Uncletopia | Dallas | 1 | All Maps","protocol":17,"map":"pl_snowycoast","folder":"tf","game":"Team Fortress","app_id":440,"player_count":24,"max_players":24,"Bots":0,"server_type":"Dedicated","server_os":"Linux","password":true,"vac":true,"version":"7882260","steam_id":85568392924469986,"keywords":["nocrits","nodmgspread","payload","uncletopia"],"game_id":440,"stv_port":27016,"stv_name":"Uncletopia | Dallas | 1 | All Maps | STV","players":[{"user_id":487,"name":"¬øsoup?","steam_id":76561198121042852,"connected_time":2058000000000,"state":"active","ping":101},{"user_id":455,"name":"MEOW!MEOW!MEOW!OORAH!","steam_id":76561198105359319,"connected_time":3385000000000,"state":"active","ping":73},{"user_id":538,"name":"EvilPigglet","steam_id":76561197987243470,"connected_time":114000000000,"state":"active","ping":77},{"user_id":498,"name":"S H I T K I C K E R","steam_id":76561198063381214,"connected_time":1674000000000,"state":"active","ping":87},{"user_id":447,"name":"lyingdyingwonderbody2","steam_id":76561199039366017,"connected_time":3875000000000,"state":"active","ping":49},{"user_id":535,"name":"Xeno808","steam_id":76561198103758081,"connected_time":279000000000,"state":"active","ping":39},{"user_id":499,"name":"Dreamzapp","steam_id":76561199084936632,"connected_time":1657000000000,"state":"active","ping":98},{"user_id":526,"name":"Pile of Spinach","steam_id":76561198043068841,"connected_time":834000000000,"state":"active","ping":61},{"user_id":453,"name":"webaline","steam_id":76561199052450127,"connected_time":3734000000000,"state":"active","ping":90},{"user_id":530,"name":"Drilly22","steam_id":76561198068838338,"connected_time":707000000000,"state":"active","ping":76},{"user_id":484,"name":"derdds","steam_id":76561198034339940,"connected_time":2179000000000,"state":"active","ping":77},{"user_id":495,"name":"Ballista","steam_id":76561197983182562,"connected_time":1699000000000,"state":"active","ping":54},{"user_id":531,"name":"Vit","steam_id":76561198044101991,"connected_time":697000000000,"state":"active","ping":66},{"user_id":537,"name":"faka","steam_id":76561199093280815,"connected_time":235000000000,"state":"active","ping":107},{"user_id":532,"name":"Orbs","steam_id":76561198075938744,"connected_time":677000000000,"state":"active","ping":79},{"user_id":534,"name":"The idiot sponge man","steam_id":76561198831912024,"connected_time":642000000000,"state":"active","ping":46},{"user_id":533,"name":"posting fail","steam_id":76561198066619792,"connected_time":673000000000,"state":"active","ping":66},{"user_id":528,"name":"Sup m8","steam_id":76561198081659121,"connected_time":815000000000,"state":"active","ping":44},{"user_id":529,"name":"reymundo","steam_id":76561197989412830,"connected_time":812000000000,"state":"active","ping":96},{"user_id":505,"name":"soda drink","steam_id":76561198092422065,"connected_time":1478000000000,"state":"active","ping":87},{"user_id":541,"name":"laoshu50500fangrl","steam_id":76561198008264703,"connected_time":28000000000,"state":"active","ping":93},{"user_id":540,"name":"Cofi","steam_id":76561199026721822,"connected_time":75000000000,"state":"active","ping":86},{"user_id":508,"name":"MaximumEffortX5","steam_id":76561199478262054,"connected_time":1249000000000,"state":"active","ping":57},{"user_id":482,"name":"DiabetesMan","steam_id":76561198075668940,"connected_time":2223000000000,"state":"active","ping":86}]},{"server_id":108,"name":"Uncletopia | Dallas | 2 | All Maps","name_short":"dal-2","host":"dal-1.us.uncletopia.com","port":27025,"enabled":true,"region":"us-central","cc":"us","latitude":32.779167,"longitude":-96.80889,"reserved":0,"last_update":"0001-01-01T00:00:00Z","name_a2s":"Uncletopia | Dallas | 2 | All Maps","protocol":17,"map":"plr_pipeline","folder":"tf","game":"Team Fortress","app_id":440,"player_count":24,"max_players":24,"Bots":0,"server_type":"Dedicated","server_os":"Linux","password":true,"vac":true,"version":"7882260","steam_id":85568392924469988,"keywords":["nocrits","nodmgspread","payload","uncletopia"],"game_id":440,"stv_port":27026,"stv_name":"Uncletopia | Dallas | 2 | All Maps | STV","players":[{"user_id":396,"name":"J.G. Klaus","steam_id":76561198001111196,"connected_time":655000000000,"state":"active","ping":56},{"user_id":315,"name":"The Texan Inconvenience","steam_id":76561198958125792,"connected_time":5017000000000,"state":"active","ping":116},{"user_id":387,"name":"DylChill616","steam_id":76561198194576953,"connected_time":1008000000000,"state":"active","ping":94},{"user_id":388,"name":"radicalPolio","steam_id":76561197961561855,"connected_time":972000000000,"state":"active","ping":45},{"user_id":393,"name":"Humon Player","steam_id":76561198013593178,"connected_time":717000000000,"state":"active","ping":59},{"user_id":298,"name":"hforce11","steam_id":76561198087647130,"connected_time":6443000000000,"state":"active","ping":67},{"user_id":355,"name":"Boomer Gaming","steam_id":76561198037803087,"connected_time":2926000000000,"state":"active","ping":68},{"user_id":384,"name":"jregueiro08","steam_id":76561199251785909,"connected_time":1353000000000,"state":"active","ping":58},{"user_id":399,"name":"moisture","steam_id":76561198150914868,"connected_time":228000000000,"state":"active","ping":98},{"user_id":373,"name":"Centipede on a Game Boy","steam_id":76561199016285746,"connected_time":1687000000000,"state":"active","ping":76},{"user_id":318,"name":"Zero","steam_id":76561199383267408,"connected_time":4897000000000,"state":"active","ping":49},{"user_id":392,"name":"HEAVY PIN","steam_id":76561199060062825,"connected_time":729000000000,"state":"active","ping":95},{"user_id":383,"name":"corncakecoolcat","steam_id":76561198090716968,"connected_time":1421000000000,"state":"active","ping":83},{"user_id":361,"name":"Maya Kawatome (Luna)","steam_id":76561198130526540,"connected_time":2174000000000,"state":"active","ping":99},{"user_id":360,"name":"ilikeballs","steam_id":76561198249980016,"connected_time":2227000000000,"state":"active","ping":92},{"user_id":369,"name":"—Å—á–∏–∑—è—≥","steam_id":76561199182960322,"connected_time":1854000000000,"state":"active","ping":52},{"user_id":400,"name":"denzell05","steam_id":76561198086987061,"connected_time":198000000000,"state":"active","ping":84},{"user_id":283,"name":"TG_16","steam_id":76561199109196768,"connected_time":6965000000000,"state":"active","ping":53},{"user_id":378,"name":"Caoticaos","steam_id":76561198114800227,"connected_time":1510000000000,"state":"active","ping":153},{"user_id":272,"name":"Glaceon","steam_id":76561198177715869,"connected_time":7374000000000,"state":"active","ping":67},{"user_id":363,"name":"Grendar","steam_id":76561198823384034,"connected_time":2140000000000,"state":"active","ping":90},{"user_id":366,"name":"I am a mooshroom","steam_id":76561198104198295,"connected_time":2074000000000,"state":"active","ping":66},{"user_id":395,"name":"Alf Creepypasta","steam_id":76561198841844093,"connected_time":711000000000,"state":"active","ping":79},{"user_id":397,"name":"nothowon","steam_id":76561198937601452,"connected_time":606000000000,"state":"active","ping":81}]},{"server_id":5,"name":"Uncletopia | Frankfurt | 1 | All Maps","name_short":"frk-1","host":"frk-1.de.uncletopia.com","port":27015,"enabled":true,"region":"eu","cc":"de","latitude":50.110924,"longitude":8.682127,"reserved":0,"last_update":"0001-01-01T00:00:00Z","name_a2s":"Uncletopia | Frankfurt | 1 | All Maps","protocol":17,"map":"koth_cascade","folder":"tf","game":"Team Fortress","app_id":440,"player_count":0,"max_players":24,"Bots":0,"server_type":"Dedicated","server_os":"Linux","password":true,"vac":true,"version":"7882260","steam_id":85568392924469989,"keywords":["cp","nocrits","nodmgspread","uncletopia"],"game_id":440,"stv_port":27016,"stv_name":"Uncletopia | Frankfurt | 1 | All Maps | STV","players":null},{"server_id":110,"name":"Uncletopia | Frankfurt | 2 | All Maps","name_short":"frk-2","host":"frk-1.de.uncletopia.com","port":27025,"enabled":true,"region":"eu","cc":"de","latitude":50.110924,"longitude":8.682127,"reserved":0,"last_update":"0001-01-01T00:00:00Z","name_a2s":"Uncletopia | Frankfurt | 2 | All Maps","protocol":17,"map":"pl_badwater","folder":"tf","game":"Team Fortress","app_id":440,"player_count":15,"max_players":24,"Bots":0,"server_type":"Dedicated","server_os":"Linux","password":true,"vac":true,"version":"7882260","steam_id":85568392924469990,"keywords":["nocrits","nodmgspread","payload","uncletopia"],"game_id":440,"stv_port":27026,"stv_name":"Uncletopia | Frankfurt | 2 | All Maps | STV","players":[{"user_id":714,"name":"lilbozolily","steam_id":76561199480621798,"connected_time":573000000000,"state":"active","ping":230},{"user_id":704,"name":"varsity athlete","steam_id":76561198058656179,"connected_time":1612000000000,"state":"active","ping":60},{"user_id":713,"name":"Danipp","steam_id":76561198027147377,"connected_time":851000000000,"state":"active","ping":61},{"user_id":715,"name":"Devious","steam_id":76561198035576811,"connected_time":416000000000,"state":"active","ping":49},{"user_id":717,"name":"chase","steam_id":76561198269544238,"connected_time":106000000000,"state":"active","ping":208},{"user_id":593,"name":"‚ô•","steam_id":76561198411841477,"connected_time":10764000000000,"state":"active","ping":75},{"user_id":595,"name":"biggie cheese","steam_id":76561198119633223,"connected_time":10652000000000,"state":"active","ping":85},{"user_id":707,"name":"AmBush","steam_id":76561198092063715,"connected_time":1413000000000,"state":"active","ping":45},{"user_id":716,"name":"Welsh Corgi","steam_id":76561198367800260,"connected_time":380000000000,"state":"active","ping":58},{"user_id":675,"name":"rozen","steam_id":76561198119167317,"connected_time":4009000000000,"state":"active","ping":56},{"user_id":686,"name":"zoinks!","steam_id":76561198068645362,"connected_time":3406000000000,"state":"active","ping":51},{"user_id":687,"name":"Nunya","steam_id":76561198198691921,"connected_time":3402000000000,"state":"active","ping":91},{"user_id":697,"name":"Flying Menace","steam_id":76561198114747737,"connected_time":3042000000000,"state":"active","ping":46},{"user_id":699,"name":"jmp","steam_id":76561198168283286,"connected_time":2978000000000,"state":"active","ping":68},{"user_id":655,"name":"fb","steam_id":76561197988802856,"connected_time":6290000000000,"state":"active","ping":59}]},{"server_id":308,"name":"Uncletopia | Frankfurt | 3 | All Maps","name_short":"frk-3","host":"frk-1.de.uncletopia.com","port":27035,"enabled":true,"region":"eu","cc":"de","latitude":50.110924,"longitude":8.682127,"reserved":0,"last_update":"0001-01-01T00:00:00Z","name_a2s":"Uncletopia | Frankfurt | 3 | All Maps","protocol":17,"map":"koth_viaduct","folder":"tf","game":"Team Fortress","app_id":440,"player_count":0,"max_players":24,"Bots":0,"server_type":"Dedicated","server_os":"Linux","password":true,"vac":true,"version":"7882260","steam_id":85568392924504274,"keywords":["cp","nocrits","nodmgspread","uncletopia"],"game_id":440,"stv_port":27036,"stv_name":"Uncletopia | Frankfurt | 3 | All Maps | STV","players":null},{"server_id":309,"name":"Uncletopia | Frankfurt | 4 | All Maps","name_short":"frk-4","host":"frk-1.de.uncletopia.com","port":27045,"enabled":true,"region":"eu","cc":"de","latitude":50.110924,"longitude":8.682127,"reserved":0,"last_update":"0001-01-01T00:00:00Z","name_a2s":"Uncletopia | Frankfurt | 4 | All Maps","protocol":17,"map":"pl_upward","folder":"tf","game":"Team Fortress","app_id":440,"player_count":0,"max_players":24,"Bots":0,"server_type":"Dedicated","server_os":"Linux","password":true,"vac":true,"version":"7882260","steam_id":85568392924504275,"keywords":["nocrits","nodmgspread","payload","uncletopia"],"game_id":440,"stv_port":27046,"stv_name":"Uncletopia | Frankfurt | 4 | All Maps | STV","players":null},{"server_id":310,"name":"Uncletopia | Frankfurt | 5 | All Maps","name_short":"frk-5","host":"frk-1.de.uncletopia.com","port":27055,"enabled":true,"region":"eu","cc":"de","latitude":50.110924,"longitude":8.682127,"reserved":0,"last_update":"0001-01-01T00:00:00Z","name_a2s":"Uncletopia | Frankfurt | 5 | All Maps","protocol":17,"map":"cp_mountainlab","folder":"tf","game":"Team Fortress","app_id":440,"player_count":0,"max_players":24,"Bots":0,"server_type":"Dedicated","server_os":"Linux","password":true,"vac":true,"version":"7882260","steam_id":85568392924504277,"keywords":["cp","nocrits","nodmgspread","uncletopia"],"game_id":440,"stv_port":27056,"stv_name":"Uncletopia | Frankfurt | 5 | All Maps | STV","players":null},{"server_id":311,"name":"Uncletopia | Frankfurt | 6 | All Maps","name_short":"frk-6","host":"frk-1.de.uncletopia.com","port":27065,"enabled":true,"region":"eu","cc":"de","latitude":50.110924,"longitude":8.682127,"reserved":0,"last_update":"0001-01-01T00:00:00Z","name_a2s":"Uncletopia | Frankfurt | 6 | All Maps","protocol":17,"map":"pl_barnblitz","folder":"tf","game":"Team Fortress","app_id":440,"player_count":0,"max_players":24,"Bots":0,"server_type":"Dedicated","server_os":"Linux","password":true,"vac":true,"version":"7882260","steam_id":85568392924504278,"keywords":["nocrits","nodmgspread","payload","uncletopia"],"game_id":440,"stv_port":27066,"stv_name":"Uncletopia | Frankfurt | 6 | All Maps | STV","players":null},{"server_id":23,"name":"Uncletopia | Frankfurt | 7 | Stopwatch Beta","name_short":"frk-7","host":"frk-1.de.uncletopia.com","port":27075,"enabled":true,"region":"eu","cc":"de","latitude":50.110924,"longitude":8.682127,"reserved":0,"last_update":"0001-01-01T00:00:00Z","name_a2s":"Uncletopia | Frankfurt | 7 | Stopwatch Beta","protocol":17,"map":"workshop/pl_badwater_pro_v12.ugc2142942074","folder":"tf","game":"Team Fortress","app_id":440,"player_count":0,"max_players":24,"Bots":0,"server_type":"Dedicated","server_os":"Linux","password":true,"vac":true,"version":"7882260","steam_id":85568392924742827,"keywords":["nocrits","nodmgspread","payload","uncletopia"],"game_id":440,"stv_port":27076,"stv_name":"Uncletopia | Frankfurt | 7 | Stopwatch Beta | STV","players":null},{"server_id":24,"name":"Uncletopia | Frankfurt | 8 | Community","name_short":"frk-8","host":"frk-1.de.uncletopia.com","port":27085,"enabled":true,"region":"eu","cc":"de","latitude":50.110924,"longitude":8.682127,"reserved":0,"last_update":"0001-01-01T00:00:00Z","name_a2s":"Uncletopia | Frankfurt | 8 | Community","protocol":17,"map":"workshop/koth_trenchfoot_b1a.ugc731436616","folder":"tf","game":"Team Fortress","app_id":440,"player_count":0,"max_players":24,"Bots":0,"server_type":"Dedicated","server_os":"Linux","password":true,"vac":true,"version":"7882260","steam_id":85568392924742828,"keywords":["cp","nocrits","nodmgspread","uncletopia"],"game_id":440,"stv_port":27086,"stv_name":"Uncletopia | Frankfurt | 8 | Community | STV","players":null},{"server_id":202,"name":"Uncletopia | Hong Kong | 1 | All Maps","name_short":"hgk-1","host":"hgk-1.hk.uncletopia.com","port":27015,"enabled":true,"region":"asia","cc":"hk","latitude":22.302711,"longitude":114.177216,"reserved":0,"last_update":"0001-01-01T00:00:00Z","name_a2s":"Uncletopia | Hong Kong | 1 | All Maps","protocol":17,"map":"koth_highpass","folder":"tf","game":"Team Fortress","app_id":440,"player_count":0,"max_players":24,"Bots":0,"server_type":"Dedicated","server_os":"Linux","password":true,"vac":true,"version":"7882260","steam_id":85568392924494504,"keywords":["cp","nocrits","nodmgspread","uncletopia"],"game_id":440,"stv_port":27016,"stv_name":"Uncletopia | Hong Kong | 1 | All Maps | STV","players":null},{"server_id":1,"name":"Uncletopia | Los Angeles | 1 | All Maps","name_short":"lax-1","host":"lax-1.us.uncletopia.com","port":27015,"enabled":true,"region":"us-west","cc":"us","latitude":33.94279,"longitude":-118.41004,"reserved":0,"last_update":"0001-01-01T00:00:00Z","name_a2s":"Uncletopia | Los Angeles | 1 | All Maps","protocol":17,"map":"koth_lakeside_final","folder":"tf","game":"Team Fortress","app_id":440,"player_count":24,"max_players":24,"Bots":0,"server_type":"Dedicated","server_os":"Linux","password":true,"vac":true,"version":"7882260","steam_id":85568392924469991,"keywords":["cp","nocrits","nodmgspread","uncletopia"],"game_id":440,"stv_port":27016,"stv_name":"Uncletopia | Los Angeles | 1 | All Maps | STV","players":[{"user_id":502,"name":"Joker","steam_id":76561198251373190,"connected_time":632000000000,"state":"active","ping":98},{"user_id":505,"name":"Smittywerbenjager-manjenson","steam_id":76561198067060742,"connected_time":542000000000,"state":"active","ping":68},{"user_id":512,"name":"Avem","steam_id":76561198058763710,"connected_time":157000000000,"state":"active","ping":45},{"user_id":508,"name":"BAD TO THE BONE","steam_id":76561199059733640,"connected_time":323000000000,"state":"active","ping":61},{"user_id":509,"name":"Jeff the 19th","steam_id":76561198189315491,"connected_time":297000000000,"state":"active","ping":83},{"user_id":492,"name":"Buswolley","steam_id":76561197995205571,"connected_time":1527000000000,"state":"active","ping":65},{"user_id":469,"name":"shadow wizard money gang","steam_id":76561198089421742,"connected_time":1883000000000,"state":"active","ping":72},{"user_id":470,"name":"luigineer tf2 (real)","steam_id":76561198864531992,"connected_time":1867000000000,"state":"active","ping":83},{"user_id":507,"name":"A Can of Arizona Green Tea","steam_id":76561198062481133,"connected_time":340000000000,"state":"active","ping":96},{"user_id":363,"name":"BoX_hEaD101","steam_id":76561198200875467,"connected_time":6538000000000,"state":"active","ping":68},{"user_id":493,"name":"Spectre1578","steam_id":76561198953243633,"connected_time":1505000000000,"state":"active","ping":64},{"user_id":472,"name":"Sgt. Satire","steam_id":76561198104193483,"connected_time":1859000000000,"state":"active","ping":70},{"user_id":506,"name":"King Louis IX","steam_id":76561198080283962,"connected_time":510000000000,"state":"active","ping":104},{"user_id":495,"name":"Benis Gonzalez","steam_id":76561198799391259,"connected_time":1458000000000,"state":"active","ping":56},{"user_id":496,"name":"Ekuseebia","steam_id":76561198037504112,"connected_time":1176000000000,"state":"active","ping":79},{"user_id":497,"name":"H2OBourne","steam_id":76561198396293109,"connected_time":1173000000000,"state":"active","ping":96},{"user_id":484,"name":"yaoi 2.0","steam_id":76561198123527383,"connected_time":1698000000000,"state":"active","ping":70},{"user_id":481,"name":"AmBoxReally","steam_id":76561198200640118,"connected_time":1724000000000,"state":"active","ping":71},{"user_id":511,"name":"John Wick's puppy","steam_id":76561198064662875,"connected_time":194000000000,"state":"active","ping":54},{"user_id":510,"name":"Bloodgoat","steam_id":76561198047407295,"connected_time":233000000000,"state":"active","ping":68},{"user_id":379,"name":"Slasherknight","steam_id":76561198373768228,"connected_time":5364000000000,"state":"active","ping":70},{"user_id":488,"name":"SexyBootsHaver","steam_id":76561198202018494,"connected_time":1680000000000,"state":"active","ping":45},{"user_id":489,"name":"Lucille II","steam_id":76561198138543746,"connected_time":1669000000000,"state":"active","ping":133},{"user_id":501,"name":"Rodiisss","steam_id":76561198931321068,"connected_time":957000000000,"state":"active","ping":53}]},{"server_id":112,"name":"Uncletopia | Los Angeles | 2 | All Maps","name_short":"lax-2","host":"lax-1.us.uncletopia.com","port":27025,"enabled":true,"region":"us-west","cc":"us","latitude":33.94279,"longitude":-118.41004,"reserved":0,"last_update":"0001-01-01T00:00:00Z","name_a2s":"Uncletopia | Los Angeles | 2 | All Maps","protocol":17,"map":"pl_thundermountain","folder":"tf","game":"Team Fortress","app_id":440,"player_count":24,"max_players":24,"Bots":0,"server_type":"Dedicated","server_os":"Linux","password":true,"vac":true,"version":"7882260","steam_id":85568392924469992,"keywords":["nocrits","nodmgspread","payload","uncletopia"],"game_id":440,"stv_port":27026,"stv_name":"Uncletopia | Los Angeles | 2 | All Maps | STV","players":[{"user_id":123,"name":"JON","steam_id":76561198057971005,"connected_time":4658000000000,"state":"active","ping":73},{"user_id":186,"name":"Manchurian Bandit","steam_id":76561198072410042,"connected_time":834000000000,"state":"active","ping":48},{"user_id":159,"name":"REALLINUSJEWTIP.","steam_id":76561198056647983,"connected_time":3086000000000,"state":"active","ping":125},{"user_id":131,"name":"Bluedemon","steam_id":76561199212058684,"connected_time":3960000000000,"state":"active","ping":60},{"user_id":173,"name":"pan","steam_id":76561198093968095,"connected_time":2464000000000,"state":"active","ping":52},{"user_id":187,"name":"A UsedNom","steam_id":76561198402832756,"connected_time":649000000000,"state":"active","ping":46},{"user_id":154,"name":"Gaming123","steam_id":76561198801780168,"connected_time":3164000000000,"state":"active","ping":110},{"user_id":182,"name":"KitKats","steam_id":76561198201069328,"connected_time":1694000000000,"state":"active","ping":90},{"user_id":176,"name":"Gabe","steam_id":76561198081153719,"connected_time":1947000000000,"state":"active","ping":69},{"user_id":177,"name":"hiddenpants","steam_id":76561198145461702,"connected_time":1942000000000,"state":"active","ping":58},{"user_id":169,"name":"Cave Dweller","steam_id":76561198374825685,"connected_time":2899000000000,"state":"active","ping":73},{"user_id":188,"name":"Wandering dwarf miner","steam_id":76561198208996573,"connected_time":159000000000,"state":"active","ping":60},{"user_id":153,"name":"yahweh","steam_id":76561198347225801,"connected_time":3242000000000,"state":"active","ping":84},{"user_id":111,"name":"Evanb","steam_id":76561198042057792,"connected_time":4847000000000,"state":"active","ping":66},{"user_id":175,"name":"Djlumo18","steam_id":76561199191221872,"connected_time":1949000000000,"state":"active","ping":61},{"user_id":141,"name":"Iron Argus","steam_id":76561198181088245,"connected_time":3641000000000,"state":"active","ping":119},{"user_id":185,"name":"i'm not gonna sugarcoat it","steam_id":76561199117157198,"connected_time":1562000000000,"state":"active","ping":73},{"user_id":160,"name":"pai-sano","steam_id":76561198065575472,"connected_time":3081000000000,"state":"active","ping":106},{"user_id":136,"name":"Qrow","steam_id":76561198410238166,"connected_time":3860000000000,"state":"active","ping":114},{"user_id":167,"name":"G. Howard Dee","steam_id":76561198058382812,"connected_time":2946000000000,"state":"active","ping":53},{"user_id":161,"name":"bingabooga","steam_id":76561198101057741,"connected_time":3075000000000,"state":"active","ping":86},{"user_id":184,"name":"thumb","steam_id":76561198353762582,"connected_time":1642000000000,"state":"active","ping":78},{"user_id":163,"name":"roanoke‚Ä∫","steam_id":76561198048007844,"connected_time":3056000000000,"state":"active","ping":59},{"user_id":181,"name":"Doge Dgo","steam_id":76561198153140854,"connected_time":1863000000000,"state":"active","ping":118}]},{"server_id":324,"name":"Uncletopia | Los Angeles | 3 | All Maps","name_short":"lax-3","host":"lax-1.us.uncletopia.com","port":27035,"enabled":true,"region":"us-west","cc":"us","latitude":33.94279,"longitude":-118.41004,"reserved":0,"last_update":"0001-01-01T00:00:00Z","name_a2s":"Uncletopia | Los Angeles | 3 | All Maps","protocol":17,"map":"cp_mountainlab","folder":"tf","game":"Team Fortress","app_id":440,"player_count":23,"max_players":24,"Bots":0,"server_type":"Dedicated","server_os":"Linux","password":true,"vac":true,"version":"7882260","steam_id":85568392924510198,"keywords":["cp","nocrits","nodmgspread","uncletopia"],"game_id":440,"stv_port":27036,"stv_name":"Uncletopia | Los Angeles | 3 | All Maps | STV","players":[{"user_id":149,"name":"Jard","steam_id":76561199224513814,"connected_time":1291000000000,"state":"active","ping":50},{"user_id":153,"name":"Marz","steam_id":76561198799364911,"connected_time":535000000000,"state":"active","ping":72},{"user_id":119,"name":"MayaBon","steam_id":76561198797968261,"connected_time":3271000000000,"state":"active","ping":75},{"user_id":142,"name":"***** beheader","steam_id":76561199395351700,"connected_time":1794000000000,"state":"active","ping":57},{"user_id":160,"name":"leumas","steam_id":76561198240408540,"connected_time":277000000000,"state":"active","ping":99},{"user_id":161,"name":"old birb man","steam_id":76561199410269097,"connected_time":250000000000,"state":"active","ping":110},{"user_id":145,"name":"Dr. Doctor","steam_id":76561198240900958,"connected_time":1616000000000,"state":"active","ping":61},{"user_id":155,"name":"(√î)√î)Wandering Singer(√î(√î)","steam_id":76561198126477141,"connected_time":484000000000,"state":"active","ping":131},{"user_id":139,"name":"Solidus Joe","steam_id":76561198452540197,"connected_time":1974000000000,"state":"active","ping":74},{"user_id":116,"name":"Linalool900","steam_id":76561198172050477,"connected_time":3391000000000,"state":"active","ping":69},{"user_id":129,"name":"blossomdemoman","steam_id":76561198042735130,"connected_time":2668000000000,"state":"active","ping":79},{"user_id":156,"name":"AST Sir Pantoja","steam_id":76561198118858300,"connected_time":482000000000,"state":"active","ping":69},{"user_id":141,"name":"LITCH","steam_id":76561198033075871,"connected_time":1905000000000,"state":"active","ping":98},{"user_id":150,"name":"litcherally in vents","steam_id":76561199169558959,"connected_time":998000000000,"state":"active","ping":75},{"user_id":157,"name":"Tech Deck","steam_id":76561199070437675,"connected_time":480000000000,"state":"active","ping":59},{"user_id":132,"name":"TheRealChizz","steam_id":76561198016055769,"connected_time":2547000000000,"state":"active","ping":68},{"user_id":46,"name":"Sprit ‚ô•","steam_id":76561198268780781,"connected_time":7573000000000,"state":"active","ping":95},{"user_id":47,"name":"Goldensliv","steam_id":76561198161673891,"connected_time":7573000000000,"state":"active","ping":32},{"user_id":146,"name":"Star","steam_id":76561198187728043,"connected_time":1424000000000,"state":"active","ping":46},{"user_id":124,"name":"FI LO","steam_id":76561198976530881,"connected_time":3059000000000,"state":"active","ping":40},{"user_id":133,"name":"JeffNotGeoff","steam_id":76561198088656972,"connected_time":2325000000000,"state":"active","ping":72},{"user_id":159,"name":"Antis","steam_id":76561198055790522,"connected_time":326000000000,"state":"active","ping":48},{"user_id":148,"name":"cringy","steam_id":76561198323000455,"connected_time":1308000000000,"state":"active","ping":66}]},{"server_id":25,"name":"Uncletopia | Los Angeles | 4 | Stopwatch Beta","name_short":"lax-4","host":"lax-1.us.uncletopia.com","port":27045,"enabled":true,"region":"us-west","cc":"us","latitude":33.94279,"longitude":-118.41004,"reserved":0,"last_update":"0001-01-01T00:00:00Z","name_a2s":"Uncletopia | Los Angeles | 4 | Stopwatch Beta","protocol":17,"map":"workshop/koth_ashville_final.ugc2130459942","folder":"tf","game":"Team Fortress","app_id":440,"player_count":24,"max_players":24,"Bots":0,"server_type":"Dedicated","server_os":"Linux","password":true,"vac":true,"version":"7882260","steam_id":85568392924510199,"keywords":["cp","nocrits","nodmgspread","uncletopia"],"game_id":440,"stv_port":27046,"stv_name":"Uncletopia | Los Angeles | 4 | Stopwatch Beta | STV","players":[{"user_id":115,"name":"Funky 3GG","steam_id":76561199181214507,"connected_time":87000000000,"state":"active","ping":83},{"user_id":100,"name":"the giggle monkey","steam_id":76561199085304592,"connected_time":1286000000000,"state":"active","ping":57},{"user_id":101,"name":"kjorbjort","steam_id":76561198855201444,"connected_time":1247000000000,"state":"active","ping":84},{"user_id":27,"name":"AudaCD","steam_id":76561198202775853,"connected_time":3968000000000,"state":"active","ping":103},{"user_id":113,"name":"do not the dog","steam_id":76561199055667840,"connected_time":142000000000,"state":"active","ping":112},{"user_id":116,"name":"Socialism Enjoyer","steam_id":76561197991817974,"connected_time":48000000000,"state":"active","ping":55},{"user_id":97,"name":"im active","steam_id":76561198841016072,"connected_time":1460000000000,"state":"active","ping":85},{"user_id":83,"name":"enderlaptop_minecrafter3","steam_id":76561199161322235,"connected_time":2596000000000,"state":"active","ping":46},{"user_id":110,"name":"TractorKid45","steam_id":76561198087472085,"connected_time":726000000000,"state":"active","ping":54},{"user_id":85,"name":"Autogyro","steam_id":76561198047943679,"connected_time":2373000000000,"state":"active","ping":74},{"user_id":35,"name":"dzcreeper","steam_id":76561198072250723,"connected_time":3697000000000,"state":"active","ping":87},{"user_id":103,"name":"Halp!","steam_id":76561198357868383,"connected_time":1212000000000,"state":"active","ping":175},{"user_id":75,"name":"kommando1911","steam_id":76561198121455141,"connected_time":2778000000000,"state":"active","ping":55},{"user_id":114,"name":"big fish","steam_id":76561198186479818,"connected_time":113000000000,"state":"active","ping":55},{"user_id":39,"name":"neet","steam_id":76561197968115168,"connected_time":3607000000000,"state":"active","ping":90},{"user_id":40,"name":"orio","steam_id":76561198116550170,"connected_time":3519000000000,"state":"active","ping":54},{"user_id":93,"name":"FRED.JOHNSHON2007","steam_id":76561198138221795,"connected_time":2234000000000,"state":"active","ping":101},{"user_id":46,"name":"Doony","steam_id":76561198073472571,"connected_time":3360000000000,"state":"active","ping":75},{"user_id":106,"name":"Board","steam_id":76561198134326473,"connected_time":1137000000000,"state":"active","ping":81},{"user_id":60,"name":"Tyiuer","steam_id":76561198059741489,"connected_time":3180000000000,"state":"active","ping":64},{"user_id":61,"name":"Victrok","steam_id":76561199441398791,"connected_time":3164000000000,"state":"active","ping":88},{"user_id":87,"name":"Royal Birb","steam_id":76561198124184158,"connected_time":2355000000000,"state":"active","ping":58},{"user_id":111,"name":"StarLy","steam_id":76561198174428289,"connected_time":726000000000,"state":"active","ping":107},{"user_id":65,"name":"MR MODE","steam_id":76561198046775352,"connected_time":3119000000000,"state":"active","ping":56}]},{"server_id":11,"name":"Uncletopia | London | 1 | All Maps","name_short":"lon-1","host":"lon-1.uk.uncletopia.com","port":27015,"enabled":true,"region":"eu","cc":"gb","latitude":51.509865,"longitude":-0.118092,"reserved":0,"last_update":"0001-01-01T00:00:00Z","name_a2s":"Uncletopia | London | 1 | All Maps","protocol":17,"map":"pl_pier","folder":"tf","game":"Team Fortress","app_id":440,"player_count":7,"max_players":24,"Bots":0,"server_type":"Dedicated","server_os":"Linux","password":true,"vac":true,"version":"7882260","steam_id":85568392924367362,"keywords":["nocrits","nodmgspread","payload","uncletopia"],"game_id":440,"stv_port":27016,"stv_name":"Uncletopia | London | 1 | All Maps | STV","players":[{"user_id":614,"name":"SuperBob103","steam_id":76561199175360012,"connected_time":116000000000,"state":"active","ping":59},{"user_id":610,"name":"Michael","steam_id":76561199013107272,"connected_time":536000000000,"state":"active","ping":194},{"user_id":534,"name":"beebo","steam_id":76561199120277007,"connected_time":6362000000000,"state":"active","ping":38},{"user_id":611,"name":"Averagemicrowavedchickenstick","steam_id":76561199128225865,"connected_time":420000000000,"state":"active","ping":185},{"user_id":601,"name":"DDUUCCKK","steam_id":76561198141953050,"connected_time":1703000000000,"state":"active","ping":45},{"user_id":612,"name":"jonbob","steam_id":76561197963506620,"connected_time":338000000000,"state":"active","ping":49},{"user_id":607,"name":"Isaac Clarke","steam_id":76561198317662346,"connected_time":795000000000,"state":"active","ping":164}]},{"server_id":114,"name":"Uncletopia | London | 2 | All Maps","name_short":"lon-2","host":"lon-1.uk.uncletopia.com","port":27025,"enabled":true,"region":"eu","cc":"gb","latitude":51.509865,"longitude":-0.118092,"reserved":0,"last_update":"0001-01-01T00:00:00Z","name_a2s":"Uncletopia | London | 2 | All Maps","protocol":17,"map":"koth_cascade","folder":"tf","game":"Team Fortress","app_id":440,"player_count":0,"max_players":24,"Bots":0,"server_type":"Dedicated","server_os":"Linux","password":true,"vac":true,"version":"7882260","steam_id":85568392924470941,"keywords":["cp","nocrits","nodmgspread","uncletopia"],"game_id":440,"stv_port":27026,"stv_name":"Uncletopia | London | 2 | All Maps | STV","players":null},{"server_id":320,"name":"Uncletopia | London | 3 | All Maps","name_short":"lon-3","host":"lon-1.uk.uncletopia.com","port":27035,"enabled":true,"region":"eu","cc":"gb","latitude":51.509865,"longitude":-0.118092,"reserved":0,"last_update":"0001-01-01T00:00:00Z","name_a2s":"Uncletopia | London | 3 | All Maps","protocol":17,"map":"cp_mountainlab","folder":"tf","game":"Team Fortress","app_id":440,"player_count":0,"max_players":24,"Bots":0,"server_type":"Dedicated","server_os":"Linux","password":true,"vac":true,"version":"7882260","steam_id":85568392924510192,"keywords":["cp","nocrits","nodmgspread","uncletopia"],"game_id":440,"stv_port":27036,"stv_name":"Uncletopia | London | 3 | All Maps | STV","players":null},{"server_id":321,"name":"Uncletopia | London | 4 | All Maps","name_short":"lon-4","host":"lon-1.uk.uncletopia.com","port":27045,"enabled":true,"region":"eu","cc":"gb","latitude":51.509865,"longitude":-0.118092,"reserved":0,"last_update":"0001-01-01T00:00:00Z","name_a2s":"Uncletopia | London | 4 | All Maps","protocol":17,"map":"pl_snowycoast","folder":"tf","game":"Team Fortress","app_id":440,"player_count":24,"max_players":24,"Bots":0,"server_type":"Dedicated","server_os":"Linux","password":true,"vac":true,"version":"7882260","steam_id":85568392924510193,"keywords":["nocrits","nodmgspread","payload","uncletopia"],"game_id":440,"stv_port":27046,"stv_name":"Uncletopia | London | 4 | All Maps | STV","players":[{"user_id":444,"name":"reformed i swear","steam_id":76561198152392309,"connected_time":2330000000000,"state":"active","ping":44},{"user_id":461,"name":"KittyKate ‚ù§","steam_id":76561198116340817,"connected_time":996000000000,"state":"active","ping":60},{"user_id":471,"name":"Flopphalla","steam_id":76561198160705564,"connected_time":260000000000,"state":"active","ping":62},{"user_id":446,"name":"senior pomidor","steam_id":76561198123659806,"connected_time":1961000000000,"state":"active","ping":96},{"user_id":434,"name":"Devvy","steam_id":76561198073636421,"connected_time":3772000000000,"state":"active","ping":52},{"user_id":451,"name":"SK","steam_id":76561198351389571,"connected_time":1680000000000,"state":"active","ping":87},{"user_id":462,"name":"shits in urinals","steam_id":76561199480942903,"connected_time":730000000000,"state":"active","ping":75},{"user_id":466,"name":"Behn","steam_id":76561198113310001,"connected_time":477000000000,"state":"active","ping":51},{"user_id":463,"name":"i forgor","steam_id":76561199120622265,"connected_time":634000000000,"state":"active","ping":157},{"user_id":465,"name":"dirty rascal","steam_id":76561198000871038,"connected_time":521000000000,"state":"active","ping":45},{"user_id":442,"name":"I'm not gonna sugarcoat it","steam_id":76561198144597089,"connected_time":2639000000000,"state":"active","ping":56},{"user_id":431,"name":"AllPantsNoSkill","steam_id":76561198049655464,"connected_time":3943000000000,"state":"active","ping":162},{"user_id":435,"name":"Aetroc Star","steam_id":76561199258997471,"connected_time":3676000000000,"state":"active","ping":148},{"user_id":453,"name":"Mr. Fox","steam_id":76561198803610709,"connected_time":1633000000000,"state":"active","ping":113},{"user_id":467,"name":"[Kry]","steam_id":76561198145756066,"connected_time":442000000000,"state":"active","ping":44},{"user_id":469,"name":"Melford","steam_id":76561198319650677,"connected_time":404000000000,"state":"active","ping":172},{"user_id":475,"name":"Hoxton","steam_id":76561198129209505,"connected_time":178000000000,"state":"active","ping":71},{"user_id":415,"name":"emerge","steam_id":76561198186882891,"connected_time":5874000000000,"state":"active","ping":156},{"user_id":470,"name":"Zaz","steam_id":76561198031864970,"connected_time":391000000000,"state":"active","ping":125},{"user_id":455,"name":"Meow Meow","steam_id":76561198413264446,"connected_time":1622000000000,"state":"active","ping":68},{"user_id":476,"name":"i n n o","steam_id":76561199230689289,"connected_time":125000000000,"state":"active","ping":85},{"user_id":473,"name":"Hivel","steam_id":76561198151390773,"connected_time":205000000000,"state":"active","ping":96},{"user_id":459,"name":"GAYTITS SUPREME","steam_id":76561197977122134,"connected_time":1353000000000,"state":"active","ping":62},{"user_id":474,"name":"icy_spicy","steam_id":76561199481524657,"connected_time":198000000000,"state":"active","ping":63}]},{"server_id":21,"name":"Uncletopia | London | 5 | All Maps","name_short":"lon-5","host":"lon-1.uk.uncletopia.com","port":27055,"enabled":true,"region":"eu","cc":"gb","latitude":51.509865,"longitude":-0.118092,"reserved":0,"last_update":"0001-01-01T00:00:00Z","name_a2s":"Uncletopia | London | 5 | All Maps","protocol":17,"map":"koth_lakeside_final","folder":"tf","game":"Team Fortress","app_id":440,"player_count":0,"max_players":24,"Bots":0,"server_type":"Dedicated","server_os":"Linux","password":true,"vac":true,"version":"7882260","steam_id":85568392924742829,"keywords":["cp","nocrits","nodmgspread","uncletopia"],"game_id":440,"stv_port":27056,"stv_name":"Uncletopia | London | 5 | All Maps | STV","players":null},{"server_id":22,"name":"Uncletopia | London | 6 | All Maps","name_short":"lon-6","host":"lon-1.uk.uncletopia.com","port":27065,"enabled":true,"region":"eu","cc":"gb","latitude":51.509865,"longitude":-0.118092,"reserved":0,"last_update":"0001-01-01T00:00:00Z","name_a2s":"Uncletopia | London | 6 | All Maps","protocol":17,"map":"koth_harvest_final","folder":"tf","game":"Team Fortress","app_id":440,"player_count":2,"max_players":24,"Bots":0,"server_type":"Dedicated","server_os":"Linux","password":true,"vac":true,"version":"7882260","steam_id":85568392924742830,"keywords":["cp","nocrits","nodmgspread","uncletopia"],"game_id":440,"stv_port":27066,"stv_name":"Uncletopia | London | 6 | All Maps | STV","players":[{"user_id":709,"name":"ham","steam_id":76561198981917711,"connected_time":4620000000000,"state":"active","ping":173},{"user_id":725,"name":"Billy McWilly","steam_id":76561198002882318,"connected_time":3627000000000,"state":"active","ping":154}]},{"server_id":40,"name":"Uncletopia | London | 7 | No Payload","name_short":"lon-7","host":"lon-1.uk.uncletopia.com","port":27075,"enabled":true,"region":"eu","cc":"gb","latitude":51.509865,"longitude":-0.118092,"reserved":0,"last_update":"0001-01-01T00:00:00Z","name_a2s":"Uncletopia | London | 7 | No Payload","protocol":17,"map":"koth_viaduct","folder":"tf","game":"Team Fortress","app_id":440,"player_count":0,"max_players":24,"Bots":0,"server_type":"Dedicated","server_os":"Linux","password":true,"vac":true,"version":"7882260","steam_id":85568392924964314,"keywords":["cp","nocrits","nodmgspread","uncletopia"],"game_id":440,"stv_port":27076,"stv_name":"Uncletopia | London | 7 | No Payload | STV","players":null},{"server_id":41,"name":"Uncletopia | London | 8 | Community","name_short":"lon-8","host":"lon-1.uk.uncletopia.com","port":27085,"enabled":true,"region":"eu","cc":"gb","latitude":51.509865,"longitude":-0.118092,"reserved":0,"last_update":"0001-01-01T00:00:00Z","name_a2s":"Uncletopia | London | 8 | Community","protocol":17,"map":"workshop/koth_kemptown_rc1.ugc767410655","folder":"tf","game":"Team Fortress","app_id":440,"player_count":0,"max_players":24,"Bots":0,"server_type":"Dedicated","server_os":"Linux","password":true,"vac":true,"version":"7882260","steam_id":85568392924964315,"keywords":["cp","nocrits","nodmgspread","uncletopia"],"game_id":440,"stv_port":27086,"stv_name":"Uncletopia | London | 8 | Community | STV","players":null},{"server_id":300,"name":"Uncletopia | Montr√©al | 1 | All Maps","name_short":"mtl-1","host":"mtl-1.ca.uncletopia.com","port":27015,"enabled":true,"region":"us-east","cc":"ca","latitude":45.50889,"longitude":-73.56167,"reserved":0,"last_update":"0001-01-01T00:00:00Z","name_a2s":"Uncletopia | Montr√©al | 1 | All Maps","protocol":17,"map":"pl_upward","folder":"tf","game":"Team Fortress","app_id":440,"player_count":21,"max_players":24,"Bots":0,"server_type":"Dedicated","server_os":"Linux","password":true,"vac":true,"version":"7882260","steam_id":85568392924500087,"keywords":["nocrits","nodmgspread","payload","uncletopia"],"game_id":440,"stv_port":27016,"stv_name":"Uncletopia | Montr√©al | 1 | All Maps | STV","players":[{"user_id":85,"name":"jackhane109","steam_id":76561199076232027,"connected_time":1160000000000,"state":"active","ping":79},{"user_id":98,"name":"Mediocre Gaming","steam_id":76561199230467980,"connected_time":313000000000,"state":"active","ping":91},{"user_id":100,"name":"jer bear","steam_id":76561198025559073,"connected_time":66000000000,"state":"active","ping":106},{"user_id":99,"name":"thundah!","steam_id":76561199159928133,"connected_time":229000000000,"state":"active","ping":50},{"user_id":77,"name":"202442022024420220244202","steam_id":76561198165567310,"connected_time":1850000000000,"state":"active","ping":54},{"user_id":101,"name":"Potato","steam_id":76561198115604238,"connected_time":25000000000,"state":"active","ping":119},{"user_id":102,"name":"A Black Square","steam_id":76561198043570320,"connected_time":21000000000,"state":"active","ping":93},{"user_id":103,"name":"Smoothicc","steam_id":76561197980790325,"connected_time":3000000000,"state":"spawning","ping":73},{"user_id":96,"name":"Papillon","steam_id":76561198049725849,"connected_time":359000000000,"state":"active","ping":84},{"user_id":104,"name":"Toolman0114","steam_id":76561198395994076,"connected_time":3000000000,"state":"spawning","ping":67},{"user_id":68,"name":"grate_warior-232","steam_id":76561198073424589,"connected_time":2772000000000,"state":"active","ping":58},{"user_id":88,"name":"Furple Plurp","steam_id":76561198050582941,"connected_time":909000000000,"state":"active","ping":75},{"user_id":79,"name":"SireOfTheSun","steam_id":76561199049465503,"connected_time":1661000000000,"state":"active","ping":57},{"user_id":97,"name":"Random","steam_id":76561198318879454,"connected_time":333000000000,"state":"active","ping":74},{"user_id":47,"name":"Battery Acid Slurper","steam_id":76561198439793697,"connected_time":4173000000000,"state":"active","ping":78},{"user_id":81,"name":"Kronk","steam_id":76561198063092125,"connected_time":1636000000000,"state":"active","ping":79},{"user_id":58,"name":"bobbymcbobington","steam_id":76561199089411172,"connected_time":3767000000000,"state":"active","ping":135},{"user_id":50,"name":"Dusted Pyro","steam_id":76561198106949905,"connected_time":4117000000000,"state":"active","ping":71},{"user_id":69,"name":"1001NinjaDucks","steam_id":76561198058169660,"connected_time":2768000000000,"state":"active","ping":59},{"user_id":90,"name":"Goose of Wisdom","steam_id":76561198233465044,"connected_time":860000000000,"state":"active","ping":116},{"user_id":76,"name":"YesMargaret","steam_id":76561198127971751,"connected_time":1962000000000,"state":"active","ping":56}]},{"server_id":301,"name":"Uncletopia | Montr√©al | 2 | All Maps","name_short":"mtl-2","host":"mtl-1.ca.uncletopia.com","port":27025,"enabled":true,"region":"us-east","cc":"ca","latitude":45.50889,"longitude":-73.56167,"reserved":0,"last_update":"0001-01-01T00:00:00Z","name_a2s":"Uncletopia | Montr√©al | 2 | All Maps","protocol":17,"map":"koth_highpass","folder":"tf","game":"Team Fortress","app_id":440,"player_count":20,"max_players":24,"Bots":0,"server_type":"Dedicated","server_os":"Linux","password":true,"vac":true,"version":"7882260","steam_id":85568392924500088,"keywords":["cp","nocrits","nodmgspread","uncletopia"],"game_id":440,"stv_port":27026,"stv_name":"Uncletopia | Montr√©al | 2 | All Maps | STV","players":[{"user_id":195,"name":"TJThomas","steam_id":76561198038292405,"connected_time":1893000000000,"state":"active","ping":53},{"user_id":219,"name":"Bottled Water","steam_id":76561198129546878,"connected_time":49000000000,"state":"active","ping":67},{"user_id":202,"name":"Live Rodent","steam_id":76561198170027465,"connected_time":1220000000000,"state":"active","ping":74},{"user_id":220,"name":"Kasodani Kyouko","steam_id":76561198023178589,"connected_time":17000000000,"state":"active","ping":81},{"user_id":204,"name":"BallBreaker","steam_id":76561198237263498,"connected_time":1085000000000,"state":"active","ping":122},{"user_id":196,"name":"2008 Toyota Corolla","steam_id":76561198210247443,"connected_time":1774000000000,"state":"active","ping":45},{"user_id":157,"name":"Fiendish Frog","steam_id":76561198029478821,"connected_time":3851000000000,"state":"active","ping":59},{"user_id":216,"name":"CheeseLikeSubstance","steam_id":76561197977170646,"connected_time":409000000000,"state":"active","ping":45},{"user_id":211,"name":"Paragon","steam_id":76561198274263793,"connected_time":570000000000,"state":"active","ping":67},{"user_id":186,"name":"sock","steam_id":76561199117597830,"connected_time":2414000000000,"state":"active","ping":71},{"user_id":201,"name":"Urethra Franklin","steam_id":76561198269033403,"connected_time":1493000000000,"state":"active","ping":125},{"user_id":212,"name":"BombWolf","steam_id":76561198289812368,"connected_time":527000000000,"state":"active","ping":130},{"user_id":166,"name":"AceRepublicRT","steam_id":76561198362676166,"connected_time":3575000000000,"state":"active","ping":140},{"user_id":213,"name":"viper","steam_id":76561198839942937,"connected_time":505000000000,"state":"active","ping":72},{"user_id":200,"name":"Fashion","steam_id":76561198056788026,"connected_time":1531000000000,"state":"active","ping":73},{"user_id":191,"name":"Johnny Peepance","steam_id":76561198056271809,"connected_time":2277000000000,"state":"active","ping":57},{"user_id":192,"name":"Asanez3","steam_id":76561198037381436,"connected_time":2276000000000,"state":"active","ping":69},{"user_id":214,"name":"Mr.Philosoraptor","steam_id":76561198192838687,"connected_time":495000000000,"state":"active","ping":78},{"user_id":197,"name":"vi","steam_id":76561198388123421,"connected_time":1774000000000,"state":"active","ping":133}]},{"server_id":302,"name":"Uncletopia | Montr√©al | 3 | All Maps","name_short":"mtl-3","host":"mtl-1.ca.uncletopia.com","port":27035,"enabled":true,"region":"us-east","cc":"ca","latitude":45.50889,"longitude":-73.56167,"reserved":0,"last_update":"0001-01-01T00:00:00Z","name_a2s":"Uncletopia | Montr√©al | 3 | All Maps","protocol":17,"map":"koth_lakeside_final","folder":"tf","game":"Team Fortress","app_id":440,"player_count":0,"max_players":24,"Bots":0,"server_type":"Dedicated","server_os":"Linux","password":true,"vac":true,"version":"7882260","steam_id":85568392924500089,"keywords":["cp","nocrits","nodmgspread","uncletopia"],"game_id":440,"stv_port":27036,"stv_name":"Uncletopia | Montr√©al | 3 | All Maps | STV","players":null},{"server_id":303,"name":"Uncletopia | Montr√©al | 4 | No Payload","name_short":"mtl-4","host":"mtl-1.ca.uncletopia.com","port":27045,"enabled":true,"region":"us-east","cc":"ca","latitude":45.50889,"longitude":-73.56167,"reserved":0,"last_update":"0001-01-01T00:00:00Z","name_a2s":"Uncletopia | Montr√©al | 4 | No Payload","protocol":17,"map":"cp_altitude","folder":"tf","game":"Team Fortress","app_id":440,"player_count":0,"max_players":24,"Bots":0,"server_type":"Dedicated","server_os":"Linux","password":true,"vac":true,"version":"7882260","steam_id":85568392924500090,"keywords":["cp","nocrits","nodmgspread","uncletopia"],"game_id":440,"stv_port":27046,"stv_name":"Uncletopia | Montr√©al | 4 | No Payload | STV","players":null},{"server_id":13,"name":"Uncletopia | New York City | 1 | All Maps","name_short":"nyc-1","host":"nyc-1.us.uncletopia.com","port":27015,"enabled":true,"region":"us-east","cc":"us","latitude":40.73061,"longitude":-73.93524,"reserved":0,"last_update":"0001-01-01T00:00:00Z","name_a2s":"Uncletopia | New York City | 1 | All Maps","protocol":17,"map":"cp_coldfront","folder":"tf","game":"Team Fortress","app_id":440,"player_count":24,"max_players":24,"Bots":0,"server_type":"Dedicated","server_os":"Linux","password":true,"vac":true,"version":"7882260","steam_id":85568392924469993,"keywords":["cp","nocrits","nodmgspread","uncletopia"],"game_id":440,"stv_port":27016,"stv_name":"Uncletopia | New York City | 1 | All Maps | STV","players":[{"user_id":259,"name":"tesagi","steam_id":76561198026664629,"connected_time":4813000000000,"state":"active","ping":45},{"user_id":319,"name":"Pabl0 #stizzygod","steam_id":76561198065570956,"connected_time":834000000000,"state":"active","ping":54},{"user_id":274,"name":"Reisen Udongein Inaba","steam_id":76561198051082314,"connected_time":3761000000000,"state":"active","ping":137},{"user_id":303,"name":"Duchess","steam_id":76561198042490743,"connected_time":1795000000000,"state":"active","ping":45},{"user_id":308,"name":"Wique","steam_id":76561198071217597,"connected_time":1692000000000,"state":"active","ping":76},{"user_id":335,"name":"CorruptedWrath","steam_id":76561198021952400,"connected_time":211000000000,"state":"active","ping":79},{"user_id":273,"name":"the-willy12","steam_id":76561199145029672,"connected_time":3764000000000,"state":"active","ping":69},{"user_id":318,"name":"turd ferguson","steam_id":76561198071620782,"connected_time":1003000000000,"state":"active","ping":64},{"user_id":333,"name":"Blackbird","steam_id":76561198127818333,"connected_time":315000000000,"state":"active","ping":70},{"user_id":323,"name":"dongwater","steam_id":76561198186629499,"connected_time":548000000000,"state":"active","ping":89},{"user_id":251,"name":"BasicPeaches","steam_id":76561198190890150,"connected_time":5117000000000,"state":"active","ping":73},{"user_id":315,"name":"Havok","steam_id":76561198063455003,"connected_time":1104000000000,"state":"active","ping":56},{"user_id":312,"name":"Anthoneeee","steam_id":76561199209220671,"connected_time":1342000000000,"state":"active","ping":127},{"user_id":282,"name":"Junko","steam_id":76561198146089003,"connected_time":3162000000000,"state":"active","ping":30},{"user_id":316,"name":"Maxie","steam_id":76561198164472773,"connected_time":1051000000000,"state":"active","ping":117},{"user_id":279,"name":"AveraGeo","steam_id":76561198216949631,"connected_time":3721000000000,"state":"active","ping":101},{"user_id":321,"name":"Alejandro","steam_id":76561198097730927,"connected_time":699000000000,"state":"active","ping":92},{"user_id":329,"name":"It's Jover","steam_id":76561199291431188,"connected_time":371000000000,"state":"active","ping":52},{"user_id":317,"name":"DaÃµksuki","steam_id":76561198084127751,"connected_time":1046000000000,"state":"active","ping":90},{"user_id":324,"name":"gurney_halleck","steam_id":76561198061841423,"connected_time":543000000000,"state":"active","ping":73},{"user_id":294,"name":"SgtHotLead","steam_id":76561197995477998,"connected_time":2528000000000,"state":"active","ping":121},{"user_id":233,"name":"Baron von Whoopsie","steam_id":76561197996691013,"connected_time":5858000000000,"state":"active","ping":59},{"user_id":263,"name":"Yoshimelon","steam_id":76561198253054325,"connected_time":4774000000000,"state":"active","ping":85},{"user_id":272,"name":"Cookie","steam_id":76561198283317413,"connected_time":3835000000000,"state":"active","ping":72}]},{"server_id":14,"name":"Uncletopia | New York City | 2 | All Maps","name_short":"nyc-2","host":"nyc-1.us.uncletopia.com","port":27025,"enabled":true,"region":"us-east","cc":"us","latitude":40.73061,"longitude":-73.93524,"reserved":0,"last_update":"0001-01-01T00:00:00Z","name_a2s":"Uncletopia | New York City | 2 | All Maps","protocol":17,"map":"pl_pier","folder":"tf","game":"Team Fortress","app_id":440,"player_count":24,"max_players":24,"Bots":0,"server_type":"Dedicated","server_os":"Linux","password":true,"vac":true,"version":"7882260","steam_id":85568392924469994,"keywords":["nocrits","nodmgspread","payload","uncletopia"],"game_id":440,"stv_port":27026,"stv_name":"Uncletopia | New York City | 2 | All Maps | STV","players":[{"user_id":179,"name":"Mr Happy","steam_id":76561198067689328,"connected_time":325000000000,"state":"active","ping":72},{"user_id":197,"name":"BTS | sat","steam_id":76561198084311006,"connected_time":83000000000,"state":"active","ping":70},{"user_id":178,"name":"pinkissocool {f2p}","steam_id":76561198989599828,"connected_time":363000000000,"state":"active","ping":41},{"user_id":126,"name":"Ferguson","steam_id":76561198121349387,"connected_time":5244000000000,"state":"active","ping":82},{"user_id":180,"name":"Nerrrd_","steam_id":76561198870129960,"connected_time":324000000000,"state":"active","ping":45},{"user_id":172,"name":"Sangghis Khaan","steam_id":76561198029933798,"connected_time":734000000000,"state":"active","ping":80},{"user_id":190,"name":"Blk_Mage_Ctype","steam_id":76561198041290184,"connected_time":168000000000,"state":"active","ping":54},{"user_id":183,"name":"Big Ears","steam_id":76561198851363077,"connected_time":299000000000,"state":"active","ping":74},{"user_id":142,"name":"what","steam_id":76561198082336619,"connected_time":2939000000000,"state":"active","ping":59},{"user_id":124,"name":"Monsieur l'INGENIEUR","steam_id":76561198090504334,"connected_time":5495000000000,"state":"active","ping":67},{"user_id":184,"name":"Blobbyfish","steam_id":76561198822962650,"connected_time":290000000000,"state":"active","ping":50},{"user_id":185,"name":"Fizzin_Pop","steam_id":76561198197503446,"connected_time":250000000000,"state":"active","ping":59},{"user_id":194,"name":"CoziestGlobe","steam_id":76561198199237735,"connected_time":128000000000,"state":"active","ping":79},{"user_id":191,"name":"Murrdogg","steam_id":76561198210491188,"connected_time":168000000000,"state":"active","ping":79},{"user_id":159,"name":"riSygneD","steam_id":76561198331618687,"connected_time":1914000000000,"state":"active","ping":107},{"user_id":187,"name":"Kamin","steam_id":76561198255299559,"connected_time":231000000000,"state":"active","ping":110},{"user_id":177,"name":"Daddys Home","steam_id":76561198034702011,"connected_time":503000000000,"state":"active","ping":62},{"user_id":188,"name":"StraySheep","steam_id":76561198256003811,"connected_time":224000000000,"state":"active","ping":55},{"user_id":192,"name":"warrior","steam_id":76561198074500319,"connected_time":160000000000,"state":"active","ping":128},{"user_id":193,"name":"creeeeeee","steam_id":76561198392539722,"connected_time":144000000000,"state":"active","ping":103},{"user_id":196,"name":"Lane","steam_id":76561197965828506,"connected_time":112000000000,"state":"active","ping":66},{"user_id":170,"name":"HK‚Ñ¢","steam_id":76561198196793415,"connected_time":1006000000000,"state":"active","ping":126},{"user_id":195,"name":"The Notorious P.U.E.R.","steam_id":76561198046715542,"connected_time":124000000000,"state":"active","ping":51},{"user_id":198,"name":"b4rry","steam_id":76561198365887154,"connected_time":47000000000,"state":"active","ping":59}]},{"server_id":15,"name":"Uncletopia | New York City | 3 | Stopwatch Beta","name_short":"nyc-3","host":"nyc-1.us.uncletopia.com","port":27035,"enabled":true,"region":"us-east","cc":"us","latitude":40.73061,"longitude":-73.93524,"reserved":0,"last_update":"0001-01-01T00:00:00Z","name_a2s":"Uncletopia | New York City | 3 | Stopwatch Beta","protocol":17,"map":"workshop/koth_ashville_final.ugc2130459942","folder":"tf","game":"Team Fortress","app_id":440,"player_count":12,"max_players":24,"Bots":0,"server_type":"Dedicated","server_os":"Linux","password":true,"vac":true,"version":"7882260","steam_id":85568392924742820,"keywords":["cp","nocrits","nodmgspread","uncletopia"],"game_id":440,"stv_port":27036,"stv_name":"Uncletopia | New York City | 3 | Stopwatch Beta | STV","players":[{"user_id":12,"name":"Amoongium-Z","steam_id":76561198950102312,"connected_time":1132000000000,"state":"active","ping":53},{"user_id":13,"name":"loonce119","steam_id":76561198886240696,"connected_time":1030000000000,"state":"active","ping":66},{"user_id":14,"name":"Oppresed_Gamer","steam_id":76561198306263040,"connected_time":1026000000000,"state":"active","ping":84},{"user_id":15,"name":"MutedSparrow","steam_id":76561199064848240,"connected_time":972000000000,"state":"active","ping":68},{"user_id":16,"name":"Dinoman1995","steam_id":76561198244642140,"connected_time":932000000000,"state":"active","ping":138},{"user_id":17,"name":"Gamer","steam_id":76561199157361352,"connected_time":881000000000,"state":"active","ping":163},{"user_id":18,"name":"Anxiety","steam_id":76561198365627687,"connected_time":585000000000,"state":"active","ping":129},{"user_id":19,"name":"Sentient Trash Can","steam_id":76561199438622491,"connected_time":491000000000,"state":"active","ping":120},{"user_id":22,"name":"MondoDong","steam_id":76561197991400109,"connected_time":220000000000,"state":"active","ping":43},{"user_id":21,"name":"too deep for most to understand","steam_id":76561198022636144,"connected_time":321000000000,"state":"active","ping":52},{"user_id":24,"name":"Menacing Pile of Frogs","steam_id":76561198360134800,"connected_time":64000000000,"state":"active","ping":58},{"user_id":25,"name":"bepo","steam_id":76561199029030831,"connected_time":17000000000,"state":"active","ping":68}]},{"server_id":16,"name":"Uncletopia | New York City | 4 | Community","name_short":"nyc-4","host":"nyc-1.us.uncletopia.com","port":27045,"enabled":true,"region":"us-east","cc":"us","latitude":40.73061,"longitude":-73.93524,"reserved":0,"last_update":"0001-01-01T00:00:00Z","name_a2s":"Uncletopia | New York City | 4 | Community","protocol":17,"map":"workshop/pl_fifthcurve_rc1.ugc648227046","folder":"tf","game":"Team Fortress","app_id":440,"player_count":24,"max_players":24,"Bots":0,"server_type":"Dedicated","server_os":"Linux","password":true,"vac":true,"version":"7882260","steam_id":85568392924742821,"keywords":["nocrits","nodmgspread","payload","uncletopia"],"game_id":440,"stv_port":27046,"stv_name":"Uncletopia | New York City | 4 | Community | STV","players":[{"user_id":177,"name":"Urist Hammerbeard","steam_id":76561198056169782,"connected_time":1026000000000,"state":"active","ping":100},{"user_id":166,"name":"crashymicsplody","steam_id":76561198213916765,"connected_time":1448000000000,"state":"active","ping":89},{"user_id":155,"name":"DeckofDragons","steam_id":76561198057398213,"connected_time":2191000000000,"state":"active","ping":92},{"user_id":167,"name":"Ginger Jesus","steam_id":76561198052386458,"connected_time":1410000000000,"state":"active","ping":44},{"user_id":157,"name":"VexT","steam_id":76561199471734115,"connected_time":2037000000000,"state":"active","ping":96},{"user_id":197,"name":"Vani","steam_id":76561198089874662,"connected_time":193000000000,"state":"active","ping":91},{"user_id":191,"name":"batasy","steam_id":76561198044767185,"connected_time":572000000000,"state":"active","ping":71},{"user_id":165,"name":"pixeldonkey1923","steam_id":76561198929880594,"connected_time":1528000000000,"state":"active","ping":142},{"user_id":194,"name":"sid67crowe","steam_id":76561198069746696,"connected_time":353000000000,"state":"active","ping":58},{"user_id":169,"name":"josie","steam_id":76561198170848553,"connected_time":1373000000000,"state":"active","ping":106},{"user_id":174,"name":"Comfy Monkey","steam_id":76561197998434936,"connected_time":1222000000000,"state":"active","ping":76},{"user_id":184,"name":"GamerMan","steam_id":76561199058616824,"connected_time":804000000000,"state":"active","ping":90},{"user_id":187,"name":"Huey","steam_id":76561198972816386,"connected_time":664000000000,"state":"active","ping":82},{"user_id":108,"name":"SuperBlaze","steam_id":76561198095196411,"connected_time":5427000000000,"state":"active","ping":79},{"user_id":190,"name":"nothing burger eater","steam_id":76561198046201690,"connected_time":617000000000,"state":"active","ping":135},{"user_id":179,"name":"Zelith","steam_id":76561198234980480,"connected_time":985000000000,"state":"active","ping":63},{"user_id":195,"name":"Kathy Bates","steam_id":76561198066958280,"connected_time":241000000000,"state":"active","ping":58},{"user_id":180,"name":"P1asmash0cker","steam_id":76561198066191563,"connected_time":966000000000,"state":"active","ping":82},{"user_id":189,"name":"Lynx181","steam_id":76561198090949585,"connected_time":648000000000,"state":"active","ping":68},{"user_id":149,"name":"Barry","steam_id":76561198371953939,"connected_time":2962000000000,"state":"active","ping":66},{"user_id":183,"name":"smuffy","steam_id":76561198091459506,"connected_time":910000000000,"state":"active","ping":45},{"user_id":192,"name":"SentientKitKatBar(F2P)","steam_id":76561198842149924,"connected_time":570000000000,"state":"active","ping":187},{"user_id":186,"name":"codswallopslurp","steam_id":76561197972601902,"connected_time":779000000000,"state":"active","ping":105},{"user_id":193,"name":"Sonnyonline","steam_id":76561199103927912,"connected_time":570000000000,"state":"active","ping":145}]},{"server_id":142,"name":"Uncletopia | S√£o Paulo | 1 | All Maps","name_short":"sao-1","host":"sao-1.br.uncletopia.com","port":27015,"enabled":true,"region":"sa","cc":"br","latitude":-23.533773,"longitude":-46.62529,"reserved":0,"last_update":"0001-01-01T00:00:00Z","name_a2s":"Uncletopia | S√£o Paulo | 1 | All Maps","protocol":17,"map":"koth_viaduct","folder":"tf","game":"Team Fortress","app_id":440,"player_count":0,"max_players":24,"Bots":0,"server_type":"Dedicated","server_os":"Linux","password":true,"vac":true,"version":"7882260","steam_id":85568392924469996,"keywords":["cp","nocrits","nodmgspread","uncletopia"],"game_id":440,"stv_port":27016,"stv_name":"Uncletopia | S√£o Paulo | 1 | All Maps | STV","players":null},{"server_id":143,"name":"Uncletopia | S√£o Paulo | 2 | All Maps","name_short":"sao-2","host":"sao-2.br.uncletopia.com","port":27015,"enabled":true,"region":"sa","cc":"br","latitude":-23.533773,"longitude":-46.62529,"reserved":0,"last_update":"0001-01-01T00:00:00Z","name_a2s":"Uncletopia | S√£o Paulo | 2 | All Maps","protocol":17,"map":"pl_borneo","folder":"tf","game":"Team Fortress","app_id":440,"player_count":14,"max_players":24,"Bots":0,"server_type":"Dedicated","server_os":"Linux","password":true,"vac":true,"version":"7882260","steam_id":85568392924485349,"keywords":["nocrits","nodmgspread","payload","uncletopia"],"game_id":440,"stv_port":27016,"stv_name":"Uncletopia | S√£o Paulo | 2 | All Maps | STV","players":[{"user_id":212,"name":"ArielGuer #SaveTF2","steam_id":76561198824250184,"connected_time":1480000000000,"state":"active","ping":74},{"user_id":187,"name":"Pathetic","steam_id":76561198051056987,"connected_time":2664000000000,"state":"active","ping":53},{"user_id":233,"name":"Engineer Gaming","steam_id":76561199386119444,"connected_time":74000000000,"state":"active","ping":171},{"user_id":229,"name":"Gordo Hombre Libre","steam_id":76561198848553661,"connected_time":246000000000,"state":"active","ping":96},{"user_id":220,"name":"Monsa","steam_id":76561198154717396,"connected_time":967000000000,"state":"active","ping":74},{"user_id":86,"name":"flamingo","steam_id":76561198854099251,"connected_time":8932000000000,"state":"active","ping":75},{"user_id":230,"name":"HeadShotGamerBR","steam_id":76561198116856702,"connected_time":186000000000,"state":"active","ping":63},{"user_id":192,"name":"titostacos1","steam_id":76561198846568243,"connected_time":2398000000000,"state":"active","ping":175},{"user_id":223,"name":"sawdust","steam_id":76561199229883371,"connected_time":528000000000,"state":"active","ping":187},{"user_id":226,"name":"Miserable little pile of secret","steam_id":76561199225238384,"connected_time":372000000000,"state":"active","ping":205},{"user_id":204,"name":"PI RA CAN JU BA","steam_id":76561198145232554,"connected_time":1953000000000,"state":"active","ping":72},{"user_id":232,"name":"Mig","steam_id":76561199160582392,"connected_time":107000000000,"state":"spawning","ping":105},{"user_id":195,"name":"Kakaroto 286","steam_id":76561199006539437,"connected_time":2315000000000,"state":"active","ping":52},{"user_id":205,"name":"Naj√∫","steam_id":76561198195319259,"connected_time":1914000000000,"state":"active","ping":61}]},{"server_id":7,"name":"Uncletopia | Seattle | 1 | All Maps","name_short":"sea-1","host":"sea-1.us.uncletopia.com","port":27015,"enabled":true,"region":"us-west","cc":"us","latitude":47.608013,"longitude":-122.33517,"reserved":0,"last_update":"0001-01-01T00:00:00Z","name_a2s":"Uncletopia | Seattle | 1 | All Maps","protocol":17,"map":"pl_barnblitz","folder":"tf","game":"Team Fortress","app_id":440,"player_count":24,"max_players":24,"Bots":0,"server_type":"Dedicated","server_os":"Linux","password":true,"vac":true,"version":"7882260","steam_id":85568392924469997,"keywords":["nocrits","nodmgspread","payload","uncletopia"],"game_id":440,"stv_port":27016,"stv_name":"Uncletopia | Seattle | 1 | All Maps | STV","players":[{"user_id":527,"name":"Tex","steam_id":76561198096441577,"connected_time":759000000000,"state":"active","ping":106},{"user_id":530,"name":"Greskrendtregk","steam_id":76561197969553142,"connected_time":477000000000,"state":"active","ping":49},{"user_id":520,"name":"Forty","steam_id":76561198257410181,"connected_time":1528000000000,"state":"active","ping":52},{"user_id":489,"name":"Goodra Is The Best Dragon Type","steam_id":76561199194702127,"connected_time":4800000000000,"state":"active","ping":105},{"user_id":528,"name":"Cobalt-60","steam_id":76561199121908507,"connected_time":628000000000,"state":"active","ping":120},{"user_id":519,"name":"Hassium","steam_id":76561198162541373,"connected_time":1959000000000,"state":"active","ping":59},{"user_id":443,"name":"MCman","steam_id":76561198412110305,"connected_time":8129000000000,"state":"active","ping":72},{"user_id":509,"name":"lil uzi vert","steam_id":76561198326466375,"connected_time":2454000000000,"state":"active","ping":78},{"user_id":459,"name":"jacix3 [gay wolfgirl]{she/it}","steam_id":76561198205004165,"connected_time":7135000000000,"state":"active","ping":65},{"user_id":497,"name":"Strikerbolt","steam_id":76561199095622897,"connected_time":4172000000000,"state":"active","ping":76},{"user_id":501,"name":"iaPK","steam_id":76561198056618642,"connected_time":3093000000000,"state":"active","ping":81},{"user_id":529,"name":"HiFivr","steam_id":76561198285190162,"connected_time":524000000000,"state":"active","ping":72},{"user_id":472,"name":"pastaroasta","steam_id":76561198302965298,"connected_time":6067000000000,"state":"active","ping":103},{"user_id":514,"name":"PopcornBucketGames","steam_id":76561199089562026,"connected_time":2220000000000,"state":"active","ping":52},{"user_id":502,"name":"Drake from State Farm","steam_id":76561199069029812,"connected_time":3087000000000,"state":"active","ping":79},{"user_id":511,"name":"Fh","steam_id":76561198000903511,"connected_time":2428000000000,"state":"active","ping":65},{"user_id":524,"name":"tconnors1976","steam_id":76561198840033336,"connected_time":1216000000000,"state":"active","ping":61},{"user_id":531,"name":"level 7 firemancer","steam_id":76561198209571677,"connected_time":352000000000,"state":"active","ping":126},{"user_id":525,"name":"Rain","steam_id":76561198065612273,"connected_time":957000000000,"state":"active","ping":47},{"user_id":508,"name":"Apollo","steam_id":76561198162364702,"connected_time":2465000000000,"state":"active","ping":45},{"user_id":521,"name":"Tungsten","steam_id":76561198312854342,"connected_time":1422000000000,"state":"active","ping":60},{"user_id":522,"name":"Fire_box41238","steam_id":76561199185673650,"connected_time":1230000000000,"state":"active","ping":54},{"user_id":533,"name":"An Old Lady","steam_id":76561198047480318,"connected_time":246000000000,"state":"active","ping":78},{"user_id":535,"name":"KnotsAreUs","steam_id":76561198306522669,"connected_time":158000000000,"state":"active","ping":84}]},{"server_id":119,"name":"Uncletopia | Seattle | 2 | All Maps","name_short":"sea-2","host":"sea-1.us.uncletopia.com","port":27025,"enabled":true,"region":"us-west","cc":"us","latitude":47.608013,"longitude":-122.33517,"reserved":0,"last_update":"0001-01-01T00:00:00Z","name_a2s":"Uncletopia | Seattle | 2 | All Maps","protocol":17,"map":"pl_barnblitz","folder":"tf","game":"Team Fortress","app_id":440,"player_count":24,"max_players":24,"Bots":0,"server_type":"Dedicated","server_os":"Linux","password":true,"vac":true,"version":"7882260","steam_id":85568392924469998,"keywords":["nocrits","nodmgspread","payload","uncletopia"],"game_id":440,"stv_port":27026,"stv_name":"Uncletopia | Seattle | 2 | All Maps | STV","players":[{"user_id":455,"name":"Dive(z)","steam_id":76561198140843225,"connected_time":82000000000,"state":"active","ping":111},{"user_id":374,"name":"jBracko","steam_id":76561198019261602,"connected_time":6690000000000,"state":"active","ping":60},{"user_id":434,"name":"wlfgng","steam_id":76561198316639499,"connected_time":2070000000000,"state":"active","ping":59},{"user_id":456,"name":"giveit5","steam_id":76561198030815437,"connected_time":80000000000,"state":"active","ping":76},{"user_id":457,"name":"SHADOW (he/him)","steam_id":76561198207768148,"connected_time":74000000000,"state":"active","ping":73},{"user_id":452,"name":"Pasta Enthusiast","steam_id":76561198306393090,"connected_time":224000000000,"state":"active","ping":117},{"user_id":420,"name":"Nolan","steam_id":76561198169648081,"connected_time":2514000000000,"state":"active","ping":95},{"user_id":448,"name":"gung6n","steam_id":76561198099843841,"connected_time":647000000000,"state":"active","ping":95},{"user_id":439,"name":"Owl of Delos","steam_id":76561198437116566,"connected_time":1926000000000,"state":"active","ping":61},{"user_id":355,"name":"some nerd","steam_id":76561198297272878,"connected_time":7706000000000,"state":"active","ping":64},{"user_id":428,"name":"Sly Marbo","steam_id":76561198135271741,"connected_time":2273000000000,"state":"active","ping":61},{"user_id":401,"name":"chunkysquare","steam_id":76561199076468383,"connected_time":4143000000000,"state":"active","ping":57},{"user_id":459,"name":"99bears","steam_id":76561198114766915,"connected_time":17000000000,"state":"active","ping":164},{"user_id":441,"name":"Drapph","steam_id":76561199384213314,"connected_time":1455000000000,"state":"active","ping":99},{"user_id":444,"name":"Keamy","steam_id":76561199471434875,"connected_time":1139000000000,"state":"active","ping":40},{"user_id":380,"name":"carpet","steam_id":76561198207881077,"connected_time":5712000000000,"state":"active","ping":97},{"user_id":454,"name":"Caterpillar Friend","steam_id":76561198044298346,"connected_time":150000000000,"state":"active","ping":85},{"user_id":393,"name":"Jacob Highrise","steam_id":76561198346327753,"connected_time":4867000000000,"state":"active","ping":57},{"user_id":453,"name":"Urbanzpinapple","steam_id":76561198115426938,"connected_time":197000000000,"state":"active","ping":100},{"user_id":449,"name":"Idontknow","steam_id":76561199207044048,"connected_time":418000000000,"state":"active","ping":49},{"user_id":412,"name":"ether","steam_id":76561198210322871,"connected_time":3234000000000,"state":"active","ping":75},{"user_id":458,"name":"viciousbeatmaker","steam_id":76561198086876652,"connected_time":62000000000,"state":"active","ping":74},{"user_id":436,"name":"CTOAN","steam_id":76561198958617680,"connected_time":2056000000000,"state":"active","ping":86},{"user_id":437,"name":"CranAppleGaming","steam_id":76561198398206209,"connected_time":2024000000000,"state":"active","ping":91}]},{"server_id":406,"name":"Uncletopia | Seattle | 3 | Stopwatch Beta","name_short":"sea-3","host":"sea-1.us.uncletopia.com","port":27035,"enabled":true,"region":"us-west","cc":"us","latitude":47.608013,"longitude":-122.33517,"reserved":0,"last_update":"0001-01-01T00:00:00Z","name_a2s":"Uncletopia | Seattle | 3 | Stopwatch Beta","protocol":17,"map":"workshop/pl_badwater_pro_v12.ugc2142942074","folder":"tf","game":"Team Fortress","app_id":440,"player_count":0,"max_players":24,"Bots":0,"server_type":"Dedicated","server_os":"Linux","password":true,"vac":true,"version":"7882260","steam_id":85568392924515217,"keywords":["nocrits","nodmgspread","payload","uncletopia"],"game_id":440,"stv_port":27036,"stv_name":"Uncletopia | Seattle | 3 | Stopwatch Beta | STV","players":null},{"server_id":17,"name":"Uncletopia | San Francisco | 1 | All Maps","name_short":"sfo-1","host":"sfo-1.us.uncletopia.com","port":27015,"enabled":true,"region":"us-west","cc":"us","latitude":37.77397,"longitude":-122.4313,"reserved":0,"last_update":"0001-01-01T00:00:00Z","name_a2s":"Uncletopia | San Francisco | 1 | All Maps","protocol":17,"map":"cp_process_final","folder":"tf","game":"Team Fortress","app_id":440,"player_count":0,"max_players":24,"Bots":0,"server_type":"Dedicated","server_os":"Linux","password":true,"vac":true,"version":"7757534","steam_id":85568392924469999,"keywords":["cp","nocrits","nodmgspread","uncletopia"],"game_id":440,"stv_port":27016,"stv_name":"Uncletopia | San Francisco | 1 | All Maps | STV","players":null},{"server_id":18,"name":"Uncletopia | San Francisco | 2 | All Maps","name_short":"sfo-2","host":"sfo-1.us.uncletopia.com","port":27025,"enabled":true,"region":"us-west","cc":"us","latitude":37.77397,"longitude":-122.4313,"reserved":0,"last_update":"0001-01-01T00:00:00Z","name_a2s":"Uncletopia | San Francisco | 2 | All Maps","protocol":17,"map":"koth_highpass","folder":"tf","game":"Team Fortress","app_id":440,"player_count":0,"max_players":24,"Bots":0,"server_type":"Dedicated","server_os":"Linux","password":true,"vac":true,"version":"7757534","steam_id":85568392924470000,"keywords":["cp","nocrits","nodmgspread","uncletopia"],"game_id":440,"stv_port":27026,"stv_name":"Uncletopia | San Francisco | 2 | All Maps | STV","players":null},{"server_id":19,"name":"Uncletopia | San Francisco | 3 | Stopwatch Beta","name_short":"sfo-3","host":"sfo-1.us.uncletopia.com","port":27035,"enabled":true,"region":"us-west","cc":"us","latitude":37.77397,"longitude":-122.4313,"reserved":0,"last_update":"0001-01-01T00:00:00Z","name_a2s":"Uncletopia | San Francisco | 3 | Stopwatch Beta","protocol":17,"map":"koth_lakeside_final","folder":"tf","game":"Team Fortress","app_id":440,"player_count":0,"max_players":24,"Bots":0,"server_type":"Dedicated","server_os":"Linux","password":true,"vac":true,"version":"7757534","steam_id":85568392924742824,"keywords":["cp","nocrits","nodmgspread","uncletopia"],"game_id":440,"stv_port":27036,"stv_name":"Uncletopia | San Francisco | 3 | Stopwatch Beta | STV","players":null},{"server_id":20,"name":"Uncletopia | San Francisco | 4 | Community","name_short":"sfo-4","host":"sfo-1.us.uncletopia.com","port":27045,"enabled":true,"region":"us-west","cc":"us","latitude":37.77397,"longitude":-122.4313,"reserved":0,"last_update":"0001-01-01T00:00:00Z","name_a2s":"Uncletopia | San Francisco | 4 | Community","protocol":17,"map":"cp_altitude","folder":"tf","game":"Team Fortress","app_id":440,"player_count":0,"max_players":24,"Bots":0,"server_type":"Dedicated","server_os":"Linux","password":true,"vac":true,"version":"7757534","steam_id":85568392924742826,"keywords":["cp","nocrits","nodmgspread","uncletopia"],"game_id":440,"stv_port":27046,"stv_name":"Uncletopia | San Francisco | 4 | Community | STV","players":null},{"server_id":141,"name":"Uncletopia | Sydney | 1 | All Maps","name_short":"syd-1","host":"syd-1.au.uncletopia.com","port":27015,"enabled":true,"region":"au","cc":"au","latitude":-33.865143,"longitude":151.2099,"reserved":0,"last_update":"0001-01-01T00:00:00Z","name_a2s":"Uncletopia | Sydney | 1 | All Maps","protocol":17,"map":"koth_viaduct","folder":"tf","game":"Team Fortress","app_id":440,"player_count":0,"max_players":24,"Bots":0,"server_type":"Dedicated","server_os":"Linux","password":true,"vac":true,"version":"7882260","steam_id":85568392924470001,"keywords":["cp","nocrits","nodmgspread","uncletopia"],"game_id":440,"stv_port":27016,"stv_name":"Uncletopia | Sydney | 1 | All Maps | STV","players":null},{"server_id":123,"name":"Uncletopia | Sydney | 2 | All Maps","name_short":"syd-2","host":"syd-1.au.uncletopia.com","port":27025,"enabled":true,"region":"au","cc":"au","latitude":-33.865143,"longitude":151.2099,"reserved":0,"last_update":"0001-01-01T00:00:00Z","name_a2s":"Uncletopia | Sydney | 2 | All Maps","protocol":17,"map":"koth_viaduct","folder":"tf","game":"Team Fortress","app_id":440,"player_count":0,"max_players":24,"Bots":0,"server_type":"Dedicated","server_os":"Linux","password":true,"vac":true,"version":"7882260","steam_id":85568392924470002,"keywords":["cp","nocrits","nodmgspread","uncletopia"],"game_id":440,"stv_port":27026,"stv_name":"Uncletopia | Sydney | 2 | All Maps | STV","players":null},{"server_id":395,"name":"Uncletopia | Sydney | 3 | All Maps","name_short":"syd-3","host":"syd-1.au.uncletopia.com","port":27035,"enabled":true,"region":"au","cc":"au","latitude":-33.865143,"longitude":151.2099,"reserved":0,"last_update":"0001-01-01T00:00:00Z","name_a2s":"Uncletopia | Sydney | 3 | All Maps","protocol":17,"map":"pl_badwater","folder":"tf","game":"Team Fortress","app_id":440,"player_count":0,"max_players":24,"Bots":0,"server_type":"Dedicated","server_os":"Linux","password":true,"vac":true,"version":"7882260","steam_id":85568392925194467,"keywords":["nocrits","nodmgspread","payload","uncletopia"],"game_id":440,"stv_port":27036,"stv_name":"Uncletopia | Sydney | 3 | All Maps | STV","players":null},{"server_id":396,"name":"Uncletopia | Sydney | 4 | All Maps","name_short":"syd-4","host":"syd-1.au.uncletopia.com","port":27045,"enabled":true,"region":"au","cc":"au","latitude":-33.865143,"longitude":151.2099,"reserved":0,"last_update":"0001-01-01T00:00:00Z","name_a2s":"Uncletopia | Sydney | 4 | All Maps","protocol":17,"map":"cp_dustbowl","folder":"tf","game":"Team Fortress","app_id":440,"player_count":0,"max_players":24,"Bots":0,"server_type":"Dedicated","server_os":"Linux","password":true,"vac":true,"version":"7882260","steam_id":85568392925397958,"keywords":["cp","nocrits","nodmgspread","uncletopia"],"game_id":440,"stv_port":27046,"stv_name":"Uncletopia | Sydney | 4 | All Maps | STV","players":null},{"server_id":58,"name":"Uncletopia | Sydney | 5 | Stopwatch Beta","name_short":"syd-5","host":"syd-1.au.uncletopia.com","port":27055,"enabled":true,"region":"au","cc":"au","latitude":-33.865143,"longitude":151.2099,"reserved":0,"last_update":"0001-01-01T00:00:00Z","name_a2s":"Uncletopia | Sydney | 5 | Stopwatch Beta","protocol":17,"map":"cp_snakewater_final1","folder":"tf","game":"Team Fortress","app_id":440,"player_count":0,"max_players":24,"Bots":0,"server_type":"Dedicated","server_os":"Linux","password":true,"vac":true,"version":"7882260","steam_id":85568392925397959,"keywords":["cp","nocrits","nodmgspread","uncletopia"],"game_id":440,"stv_port":27056,"stv_name":"Uncletopia | Sydney | 5 | Stopwatch Beta | STV","players":null},{"server_id":59,"name":"Uncletopia | Sydney | 6 | Community","name_short":"syd-6","host":"syd-1.au.uncletopia.com","port":27065,"enabled":true,"region":"au","cc":"au","latitude":-33.865143,"longitude":151.2099,"reserved":0,"last_update":"0001-01-01T00:00:00Z","name_a2s":"Uncletopia | Sydney | 6 | Community","protocol":17,"map":"workshop/koth_ramjam_rc1.ugc459778887","folder":"tf","game":"Team Fortress","app_id":440,"player_count":0,"max_players":24,"Bots":0,"server_type":"Dedicated","server_os":"Linux","password":true,"vac":true,"version":"7882260","steam_id":85568392925397960,"keywords":["cp","nocrits","nodmgspread","uncletopia"],"game_id":440,"stv_port":27066,"stv_name":"Uncletopia | Sydney | 6 | Community | STV","players":null},{"server_id":49,"name":"Uncletopia | Warsaw | 1 | All Maps","name_short":"waw-1","host":"waw-1.pl.uncletopia.com","port":27015,"enabled":true,"region":"eu","cc":"pl","latitude":52.2297,"longitude":21.017532,"reserved":0,"last_update":"0001-01-01T00:00:00Z","name_a2s":"","protocol":0,"map":"","folder":"","game":"","app_id":0,"player_count":0,"max_players":0,"Bots":0,"server_type":"","server_os":"","password":false,"vac":false,"version":"","steam_id":0,"keywords":null,"game_id":0,"stv_port":0,"stv_name":"","players":null},{"server_id":50,"name":"Uncletopia | Warsaw | 2 | All Maps","name_short":"waw-2","host":"waw-1.pl.uncletopia.com","port":27025,"enabled":true,"region":"eu","cc":"pl","latitude":52.2297,"longitude":21.017532,"reserved":0,"last_update":"0001-01-01T00:00:00Z","name_a2s":"Uncletopia | Warsaw | 2 | All Maps","protocol":17,"map":"cp_snakewater_final1","folder":"tf","game":"Team Fortress","app_id":440,"player_count":0,"max_players":24,"Bots":0,"server_type":"Dedicated","server_os":"Linux","password":true,"vac":true,"version":"7882260","steam_id":85568392925397851,"keywords":["cp","nocrits","nodmgspread","uncletopia"],"game_id":440,"stv_port":27026,"stv_name":"Uncletopia | Warsaw | 2 | All Maps | STV","players":null},{"server_id":51,"name":"Uncletopia | Warsaw | 3 | All Maps","name_short":"waw-3","host":"waw-1.pl.uncletopia.com","port":27035,"enabled":true,"region":"eu","cc":"pl","latitude":52.2297,"longitude":21.017532,"reserved":0,"last_update":"0001-01-01T00:00:00Z","name_a2s":"Uncletopia | Warsaw | 3 | All Maps","protocol":17,"map":"koth_lakeside_final","folder":"tf","game":"Team Fortress","app_id":440,"player_count":0,"max_players":24,"Bots":0,"server_type":"Dedicated","server_os":"Linux","password":true,"vac":true,"version":"7882260","steam_id":85568392925397852,"keywords":["cp","nocrits","nodmgspread","uncletopia"],"game_id":440,"stv_port":27036,"stv_name":"Uncletopia | Warsaw | 3 | All Maps | STV","players":null},{"server_id":52,"name":"Uncletopia | Warsaw | 4 | All Maps","name_short":"waw-4","host":"waw-1.pl.uncletopia.com","port":27045,"enabled":true,"region":"eu","cc":"pl","latitude":52.2297,"longitude":21.017532,"reserved":0,"last_update":"0001-01-01T00:00:00Z","name_a2s":"Uncletopia | Warsaw | 4 | All Maps","protocol":17,"map":"koth_highpass","folder":"tf","game":"Team Fortress","app_id":440,"player_count":0,"max_players":24,"Bots":0,"server_type":"Dedicated","server_os":"Linux","password":true,"vac":true,"version":"7882260","steam_id":85568392925397853,"keywords":["cp","nocrits","nodmgspread","uncletopia"],"game_id":440,"stv_port":27046,"stv_name":"Uncletopia | Warsaw | 4 | All Maps | STV","players":null},{"server_id":53,"name":"Uncletopia | Warsaw | 5 | Stopwatch Beta","name_short":"waw-5","host":"waw-1.pl.uncletopia.com","port":27055,"enabled":true,"region":"eu","cc":"pl","latitude":52.2297,"longitude":21.017532,"reserved":0,"last_update":"0001-01-01T00:00:00Z","name_a2s":"Uncletopia | Warsaw | 5 | Stopwatch Beta","protocol":17,"map":"cp_mountainlab","folder":"tf","game":"Team Fortress","app_id":440,"player_count":0,"max_players":24,"Bots":0,"server_type":"Dedicated","server_os":"Linux","password":true,"vac":true,"version":"7882260","steam_id":85568392925397854,"keywords":["cp","nocrits","nodmgspread","uncletopia"],"game_id":440,"stv_port":27056,"stv_name":"Uncletopia | Warsaw | 5 | Stopwatch Beta | STV","players":null},{"server_id":54,"name":"Uncletopia | Warsaw | 6 | Community","name_short":"waw-6","host":"waw-1.pl.uncletopia.com","port":27065,"enabled":true,"region":"eu","cc":"pl","latitude":52.2297,"longitude":21.017532,"reserved":0,"last_update":"0001-01-01T00:00:00Z","name_a2s":"Uncletopia | Warsaw | 6 | Community","protocol":17,"map":"workshop/cp_villa_b19.ugc2113052569","folder":"tf","game":"Team Fortress","app_id":440,"player_count":0,"max_players":24,"Bots":0,"server_type":"Dedicated","server_os":"Linux","password":true,"vac":true,"version":"7882260","steam_id":85568392925397856,"keywords":["cp","nocrits","nodmgspread","uncletopia"],"game_id":440,"stv_port":27066,"stv_name":"Uncletopia | Warsaw | 6 | Community | STV","players":null}]}