{"status":true,"message":"","result":[{"server_id":9,"name":"Uncletopia | Atlanta | 1 | All Maps","name_short":"atl-1","host":"atl-1.us.uncletopia.com","port":27015,"enabled":true,"region":"us-east","cc":"us","latitude":33.753746,"longitude":-84.38633,"reserved":0,"last_update":"0001-01-01T00:00:00Z","name_a2s":"Uncletopia | Atlanta | 1 | All Maps","protocol":17,"map":"pl_badwater","folder":"tf","game":"Team Fortress","app_id":440,"player_count":24,"max_players":24,"Bots":0,"server_type":"Dedicated","server_os":"Linux","password":true,"vac":true,"version":"7757534","steam_id":85568392924469982,"keywords":["nocrits","nodmgspread","payload","uncletopia"],"game_id":440,"stv_port":27016,"stv_name":"Uncletopia | Atlanta | 1 | All Maps | STV","players":[{"user_id":313,"name":"astrophobic","steam_id":76561198838757422,"connected_time":5140000000000,"state":"active","ping":81},{"user_id":302,"name":"ATL1 | Sunny004","steam_id":76561198105397410,"connected_time":5717000000000,"state":"active","ping":46},{"user_id":348,"name":"Spiderfight1","steam_id":76561199189991528,"connected_time":1492000000000,"state":"active","ping":78},{"user_id":323,"name":"kohlhagen","steam_id":76561198120440587,"connected_time":4003000000000,"state":"active","ping":48},{"user_id":203,"name":"com lag","steam_id":76561198019019392,"connected_time":8326000000000,"state":"active","ping":62},{"user_id":106,"name":"8,000,000 merged Chihuahuas","steam_id":76561198130772096,"connected_time":16170000000000,"state":"active","ping":48},{"user_id":355,"name":"butterbutt!","steam_id":76561198038160740,"connected_time":714000000000,"state":"active","ping":54},{"user_id":333,"name":"truundrscr","steam_id":76561198213525809,"connected_time":2890000000000,"state":"active","ping":114},{"user_id":341,"name":"nemo","steam_id":76561198319990195,"connected_time":1744000000000,"state":"active","ping":84},{"user_id":343,"name":"Shame","steam_id":76561198100490994,"connected_time":1568000000000,"state":"active","ping":61},{"user_id":271,"name":"Motreir","steam_id":76561198151717946,"connected_time":6583000000000,"state":"active","ping":78},{"user_id":332,"name":"Broken Cereal√","steam_id":76561198087489795,"connected_time":2916000000000,"state":"active","ping":71},{"user_id":338,"name":"mau","steam_id":76561198354473513,"connected_time":2669000000000,"state":"active","ping":73},{"user_id":326,"name":"lil hog","steam_id":76561199230929836,"connected_time":3627000000000,"state":"active","ping":77},{"user_id":315,"name":"Grandpa´s Last Drop of Cum","steam_id":76561198079516696,"connected_time":4765000000000,"state":"active","ping":107},{"user_id":329,"name":"Der Munchkin[2098]","steam_id":76561197998833309,"connected_time":2937000000000,"state":"active","ping":60},{"user_id":356,"name":"Inky (Coolest)","steam_id":76561198968337022,"connected_time":615000000000,"state":"active","ping":59},{"user_id":295,"name":"M@verick","steam_id":76561198006363519,"connected_time":5957000000000,"state":"active","ping":84},{"user_id":351,"name":"uknowhatimsayin¿","steam_id":76561198397009880,"connected_time":827000000000,"state":"active","ping":52},{"user_id":314,"name":"Intro Bonito","steam_id":76561198119478838,"connected_time":5034000000000,"state":"active","ping":48},{"user_id":346,"name":"ash","steam_id":76561198127890645,"connected_time":1511000000000,"state":"active","ping":74},{"user_id":354,"name":"eish","steam_id":76561198089463603,"connected_time":728000000000,"state":"active","ping":123},{"user_id":310,"name":"mrcatman","steam_id":76561198358434883,"connected_time":5283000000000,"state":"active","ping":81},{"user_id":331,"name":"Bali","steam_id":76561198038693845,"connected_time":2937000000000,"state":"active","ping":82}]},{"server_id":400,"name":"Uncletopia | Atlanta | 3 | Community","name_short":"atl-3","host":"atl-1.us.uncletopia.com","port":27035,"enabled":true,"region":"us-east","cc":"us","latitude":33.753746,"longitude":-84.38633,"reserved":0,"last_update":"0001-01-01T00:00:00Z","name_a2s":"Uncletopia | Atlanta | 3 | Community","protocol":17,"map":"workshop/koth_bagel_rc6.ugc2514036946","folder":"tf","game":"Team Fortress","app_id":440,"player_count":23,"max_players":24,"Bots":0,"server_type":"Dedicated","server_os":"Linux","password":true,"vac":true,"version":"7757534","steam_id":85568392924515187,"keywords":["cp","nocrits","nodmgspread","uncletopia"],"game_id":440,"stv_port":27036,"stv_name":"Uncletopia | Atlanta | 3 | Community | STV","players":[{"user_id":264,"name":"churumusco","steam_id":76561199084254755,"connected_time":459000000000,"state":"active","ping":82},{"user_id":238,"name":"Aristotle Voulton","steam_id":76561198100174923,"connected_time":1416000000000,"state":"active","ping":83},{"user_id":274,"name":"axelwashed","steam_id":76561198101196930,"connected_time":87000000000,"state":"active","ping":59},{"user_id":240,"name":"Schpungus, Lord of The Fungus","steam_id":76561198883762078,"connected_time":1339000000000,"state":"active","ping":111},{"user_id":275,"name":"dorito","steam_id":76561198354931947,"connected_time":40000000000,"state":"active","ping":45},{"user_id":242,"name":"Oni","steam_id":76561198112066584,"connected_time":1296000000000,"state":"active","ping":57},{"user_id":263,"name":"GenericMaleGamer","steam_id":76561198257271858,"connected_time":598000000000,"state":"active","ping":84},{"user_id":266,"name":"the great gungus","steam_id":76561198095191444,"connected_time":375000000000,"state":"active","ping":67},{"user_id":245,"name":"Yayboo Bear","steam_id":76561197990770266,"connected_time":1220000000000,"state":"active","ping":76},{"user_id":246,"name":"Lucy","steam_id":76561198032590343,"connected_time":1210000000000,"state":"active","ping":74},{"user_id":276,"name":"Towns","steam_id":76561198984662863,"connected_time":14000000000,"state":"spawning","ping":160},{"user_id":269,"name":"Jaydyn","steam_id":76561198140326797,"connected_time":293000000000,"state":"active","ping":84},{"user_id":277,"name":"The Sydney Sleeper Itself","steam_id":76561198180251763,"connected_time":5000000000,"state":"spawning","ping":58},{"user_id":219,"name":"Claw Finger","steam_id":76561198116408865,"connected_time":2970000000000,"state":"active","ping":70},{"user_id":220,"name":"Blare","steam_id":76561198023669032,"connected_time":2723000000000,"state":"active","ping":115},{"user_id":255,"name":"ƞøτ_ǝɯ","steam_id":76561199063941100,"connected_time":914000000000,"state":"active","ping":130},{"user_id":236,"name":"TF2 Scout","steam_id":76561199211023244,"connected_time":1535000000000,"state":"active","ping":191},{"user_id":193,"name":"fruitlogic","steam_id":76561198071251588,"connected_time":5076000000000,"state":"active","ping":70},{"user_id":197,"name":"Fk it we Ball","steam_id":76561198078421075,"connected_time":4589000000000,"state":"active","ping":57},{"user_id":260,"name":"worst scout ever","steam_id":76561198383509659,"connected_time":787000000000,"state":"active","ping":95},{"user_id":261,"name":"Alixxers","steam_id":76561198864148043,"connected_time":771000000000,"state":"active","ping":65},{"user_id":270,"name":"Scut","steam_id":76561198973734291,"connected_time":287000000000,"state":"active","ping":106},{"user_id":271,"name":"Scab Collector","steam_id":76561198346425545,"connected_time":287000000000,"state":"active","ping":72}]},{"server_id":401,"name":"Uncletopia | Atlanta | 4 | No Payload","name_short":"atl-4","host":"atl-1.us.uncletopia.com","port":27045,"enabled":true,"region":"us-east","cc":"us","latitude":33.753746,"longitude":-84.38633,"reserved":0,"last_update":"0001-01-01T00:00:00Z","name_a2s":"","protocol":0,"map":"","folder":"","game":"","app_id":0,"player_count":0,"max_players":0,"Bots":0,"server_type":"","server_os":"","password":false,"vac":false,"version":"","steam_id":0,"keywords":null,"game_id":0,"stv_port":0,"stv_name":"","players":null},{"server_id":2,"name":"Uncletopia | Chicago | 1 | All Maps","name_short":"chi-1","host":"chi-1.us.uncletopia.com","port":27015,"enabled":true,"region":"us-central","cc":"us","latitude":41.881832,"longitude":-87.62318,"reserved":0,"last_update":"0001-01-01T00:00:00Z","name_a2s":"Uncletopia | Chicago | 1 | All Maps","protocol":17,"map":"pl_barnblitz","folder":"tf","game":"Team Fortress","app_id":440,"player_count":24,"max_players":24,"Bots":0,"server_type":"Dedicated","server_os":"Linux","password":true,"vac":true,"version":"7757534","steam_id":85568392924469984,"keywords":["nocrits","nodmgspread","payload","uncletopia"],"game_id":440,"stv_port":27016,"stv_name":"Uncletopia | Chicago | 1 | All Maps | STV","players":[{"user_id":360,"name":"HATEWORK.","steam_id":76561198286792807,"connected_time":788000000000,"state":"active","ping":62},{"user_id":264,"name":"Astoriae!","steam_id":76561199090168858,"connected_time":8182000000000,"state":"active","ping":76},{"user_id":361,"name":"FieryRainbowDog","steam_id":76561199047810065,"connected_time":778000000000,"state":"active","ping":64},{"user_id":321,"name":"crayonnipple","steam_id":76561198070253331,"connected_time":4030000000000,"state":"active","ping":77},{"user_id":320,"name":"Isn't Water","steam_id":76561199253511650,"connected_time":4103000000000,"state":"active","ping":152},{"user_id":313,"name":"Shmebulock","steam_id":76561198046941925,"connected_time":4665000000000,"state":"active","ping":58},{"user_id":357,"name":"OhFuckOhGodFuckFuckFuck","steam_id":76561198114934927,"connected_time":929000000000,"state":"active","ping":73},{"user_id":362,"name":"John Dungus (the real one)","steam_id":76561198049191027,"connected_time":771000000000,"state":"active","ping":54},{"user_id":323,"name":"egyptiangodcard","steam_id":76561198855935442,"connected_time":3997000000000,"state":"active","ping":74},{"user_id":363,"name":"NGsterson","steam_id":76561198162108154,"connected_time":765000000000,"state":"active","ping":102},{"user_id":375,"name":"hart","steam_id":76561198046073848,"connected_time":147000000000,"state":"active","ping":91},{"user_id":299,"name":"Sebi","steam_id":76561198182090858,"connected_time":5585000000000,"state":"active","ping":44},{"user_id":366,"name":"Genius Meme","steam_id":76561198162911254,"connected_time":697000000000,"state":"active","ping":107},{"user_id":368,"name":"supcupman","steam_id":76561198051513866,"connected_time":549000000000,"state":"active","ping":107},{"user_id":376,"name":"jabbar","steam_id":76561198379290041,"connected_time":96000000000,"state":"active","ping":74},{"user_id":364,"name":"DocLucky","steam_id":76561199093899249,"connected_time":761000000000,"state":"active","ping":160},{"user_id":365,"name":"Bunker Hill","steam_id":76561198067984147,"connected_time":741000000000,"state":"active","ping":95},{"user_id":317,"name":"weeb_whacker#Jenius#Hateologist","steam_id":76561198187098041,"connected_time":4443000000000,"state":"active","ping":54},{"user_id":371,"name":"Saikyo","steam_id":76561198212461467,"connected_time":536000000000,"state":"active","ping":74},{"user_id":319,"name":"Hob-Goblin Jim The IV","steam_id":76561199046650666,"connected_time":4222000000000,"state":"active","ping":56},{"user_id":369,"name":"Juubers","steam_id":76561198088229792,"connected_time":549000000000,"state":"active","ping":51},{"user_id":373,"name":"xiii","steam_id":76561198079416036,"connected_time":447000000000,"state":"active","ping":44},{"user_id":345,"name":"THROAT HUGGER #Hateology","steam_id":76561198046870291,"connected_time":2214000000000,"state":"active","ping":64},{"user_id":254,"name":"Training Arc","steam_id":76561198038832034,"connected_time":8737000000000,"state":"active","ping":107}]},{"server_id":106,"name":"Uncletopia | Chicago | 2 | All Maps","name_short":"chi-2","host":"chi-1.us.uncletopia.com","port":27025,"enabled":true,"region":"us-central","cc":"us","latitude":41.881832,"longitude":-87.62318,"reserved":0,"last_update":"0001-01-01T00:00:00Z","name_a2s":"Uncletopia | Chicago | 2 | All Maps","protocol":17,"map":"pl_frontier_final","folder":"tf","game":"Team Fortress","app_id":440,"player_count":0,"max_players":24,"Bots":0,"server_type":"Dedicated","server_os":"Linux","password":true,"vac":true,"version":"7757534","steam_id":85568392924469985,"keywords":["nocrits","nodmgspread","payload","uncletopia"],"game_id":440,"stv_port":27026,"stv_name":"Uncletopia | Chicago | 2 | All Maps | STV","players":null},{"server_id":402,"name":"Uncletopia | Chicago | 3 | All Maps","name_short":"chi-3","host":"chi-1.us.uncletopia.com","port":27035,"enabled":true,"region":"us-central","cc":"us","latitude":41.881832,"longitude":-87.62318,"reserved":0,"last_update":"0001-01-01T00:00:00Z","name_a2s":"Uncletopia | Chicago | 3 | All Maps","protocol":17,"map":"pl_rumford_event","folder":"tf","game":"Team Fortress","app_id":440,"player_count":24,"max_players":24,"Bots":0,"server_type":"Dedicated","server_os":"Linux","password":true,"vac":true,"version":"7757534","steam_id":85568392924515191,"keywords":["nocrits","nodmgspread","payload","uncletopia"],"game_id":440,"stv_port":27036,"stv_name":"Uncletopia | Chicago | 3 | All Maps | STV","players":[{"user_id":210,"name":"Ocra","steam_id":76561199085256400,"connected_time":125000000000,"state":"active","ping":130},{"user_id":211,"name":"FoodzAreGoodz","steam_id":76561198309262052,"connected_time":87000000000,"state":"active","ping":105},{"user_id":177,"name":"shalankawanak","steam_id":76561198987719376,"connected_time":2228000000000,"state":"active","ping":61},{"user_id":110,"name":"he drove a series ten cadillac","steam_id":76561198142756572,"connected_time":7100000000000,"state":"active","ping":69},{"user_id":186,"name":"chaffy","steam_id":76561198021754567,"connected_time":1274000000000,"state":"active","ping":53},{"user_id":206,"name":"squaggles!","steam_id":76561197994995011,"connected_time":382000000000,"state":"active","ping":59},{"user_id":185,"name":"Doubting Dave","steam_id":76561198066410749,"connected_time":2001000000000,"state":"active","ping":65},{"user_id":199,"name":"BeeMoe","steam_id":76561198002100697,"connected_time":623000000000,"state":"active","ping":63},{"user_id":192,"name":"Deathpill","steam_id":76561197994404793,"connected_time":1180000000000,"state":"active","ping":74},{"user_id":200,"name":"Carson","steam_id":76561198076771071,"connected_time":611000000000,"state":"active","ping":49},{"user_id":209,"name":"AnonymousCritter","steam_id":76561198864475187,"connected_time":254000000000,"state":"active","ping":48},{"user_id":212,"name":"firetamer2","steam_id":76561198040886980,"connected_time":85000000000,"state":"active","ping":61},{"user_id":188,"name":"LegendaryMister151","steam_id":76561198064890524,"connected_time":1272000000000,"state":"active","ping":91},{"user_id":184,"name":"wiiblob","steam_id":76561198109106242,"connected_time":2014000000000,"state":"active","ping":136},{"user_id":201,"name":"Le0901","steam_id":76561198372891244,"connected_time":606000000000,"state":"active","ping":55},{"user_id":157,"name":"MAJICBUCKET","steam_id":76561198825268471,"connected_time":3352000000000,"state":"active","ping":73},{"user_id":198,"name":"MeatShield 2000","steam_id":76561199375192850,"connected_time":784000000000,"state":"active","ping":91},{"user_id":202,"name":"Glitchpower64","steam_id":76561198994710718,"connected_time":605000000000,"state":"active","ping":157},{"user_id":168,"name":"Zigadox","steam_id":76561198079813479,"connected_time":3143000000000,"state":"active","ping":91},{"user_id":208,"name":"dirty dank","steam_id":76561198360904432,"connected_time":282000000000,"state":"active","ping":68},{"user_id":179,"name":"TheSnipersHat","steam_id":76561198057684066,"connected_time":2225000000000,"state":"active","ping":62},{"user_id":194,"name":"gps","steam_id":76561198067492304,"connected_time":1154000000000,"state":"active","ping":79},{"user_id":189,"name":"Ace","steam_id":76561198309637160,"connected_time":1270000000000,"state":"active","ping":47},{"user_id":213,"name":"Dinosaur","steam_id":76561198854695804,"connected_time":50000000000,"state":"active","ping":74}]},{"server_id":403,"name":"Uncletopia | Chicago | 4 | All Maps","name_short":"chi-4","host":"chi-1.us.uncletopia.com","port":27045,"enabled":true,"region":"us-central","cc":"us","latitude":41.881832,"longitude":-87.62318,"reserved":0,"last_update":"0001-01-01T00:00:00Z","name_a2s":"Uncletopia | Chicago | 4 | All Maps","protocol":17,"map":"koth_cascade","folder":"tf","game":"Team Fortress","app_id":440,"player_count":0,"max_players":24,"Bots":0,"server_type":"Dedicated","server_os":"Linux","password":true,"vac":true,"version":"7757534","steam_id":85568392924515193,"keywords":["cp","nocrits","nodmgspread","uncletopia"],"game_id":440,"stv_port":27046,"stv_name":"Uncletopia | Chicago | 4 | All Maps | STV","players":null},{"server_id":36,"name":"Uncletopia | Chicago | 5 | All Maps","name_short":"chi-5","host":"chi-2.us.uncletopia.com","port":27015,"enabled":true,"region":"us-central","cc":"us","latitude":41.881832,"longitude":-87.62318,"reserved":0,"last_update":"0001-01-01T00:00:00Z","name_a2s":"Uncletopia | Chicago | 5 | All Maps","protocol":17,"map":"koth_lakeside_final","folder":"tf","game":"Team Fortress","app_id":440,"player_count":0,"max_players":24,"Bots":0,"server_type":"Dedicated","server_os":"Linux","password":true,"vac":true,"version":"7757534","steam_id":85568392924866362,"keywords":["cp","nocrits","nodmgspread","uncletopia"],"game_id":440,"stv_port":27016,"stv_name":"Uncletopia | Chicago | 5 | All Maps | STV","players":null},{"server_id":37,"name":"Uncletopia | Chicago | 6 | All Maps","name_short":"chi-6","host":"chi-2.us.uncletopia.com","port":27025,"enabled":true,"region":"us-central","cc":"us","latitude":41.881832,"longitude":-87.62318,"reserved":0,"last_update":"0001-01-01T00:00:00Z","name_a2s":"Uncletopia | Chicago | 6 | All Maps","protocol":17,"map":"koth_cascade","folder":"tf","game":"Team Fortress","app_id":440,"player_count":2,"max_players":24,"Bots":0,"server_type":"Dedicated","server_os":"Linux","password":true,"vac":true,"version":"7757534","steam_id":85568392924866363,"keywords":["cp","nocrits","nodmgspread","uncletopia"],"game_id":440,"stv_port":27026,"stv_name":"Uncletopia | Chicago | 6 | All Maps | STV","players":[{"user_id":9,"name":"kirbo","steam_id":76561198057895955,"connected_time":920000000000,"state":"active","ping":74},{"user_id":10,"name":"that_guyfire","steam_id":76561198799564934,"connected_time":821000000000,"state":"active","ping":64}]},{"server_id":38,"name":"Uncletopia | Chicago | 7 | Stopwatch Beta","name_short":"chi-7","host":"chi-2.us.uncletopia.com","port":27035,"enabled":true,"region":"us-central","cc":"us","latitude":41.881832,"longitude":-87.62318,"reserved":0,"last_update":"0001-01-01T00:00:00Z","name_a2s":"Uncletopia | Chicago | 7 | Stopwatch Beta","protocol":17,"map":"cp_sunshine","folder":"tf","game":"Team Fortress","app_id":440,"player_count":24,"max_players":24,"Bots":0,"server_type":"Dedicated","server_os":"Linux","password":true,"vac":true,"version":"7757534","steam_id":85568392924866364,"keywords":["cp","nocrits","nodmgspread","uncletopia"],"game_id":440,"stv_port":27036,"stv_name":"Uncletopia | Chicago | 7 | Stopwatch Beta | STV","players":[{"user_id":8,"name":"Bern","steam_id":76561198294032289,"connected_time":5966000000000,"state":"active","ping":52},{"user_id":76,"name":"lost in spaaaaace","steam_id":76561199085974120,"connected_time":1990000000000,"state":"active","ping":72},{"user_id":13,"name":"Thomas Goblin-man Yorke","steam_id":76561197999658755,"connected_time":5022000000000,"state":"active","ping":47},{"user_id":96,"name":"Infinitytacos","steam_id":76561198884260211,"connected_time":801000000000,"state":"active","ping":47},{"user_id":59,"name":"nickles","steam_id":76561199177498487,"connected_time":2610000000000,"state":"active","ping":72},{"user_id":99,"name":"choi","steam_id":76561198053669887,"connected_time":755000000000,"state":"active","ping":119},{"user_id":87,"name":"Literally a Trans Woman","steam_id":76561198054639925,"connected_time":1273000000000,"state":"active","ping":68},{"user_id":83,"name":"Magnus1738","steam_id":76561198330283667,"connected_time":1465000000000,"state":"active","ping":113},{"user_id":85,"name":"[DEEP] Danmar33","steam_id":76561198056453091,"connected_time":1422000000000,"state":"active","ping":55},{"user_id":19,"name":"Risguy","steam_id":76561198256419746,"connected_time":4250000000000,"state":"active","ping":110},{"user_id":97,"name":"dr sex, md (sexologist)","steam_id":76561198115874625,"connected_time":800000000000,"state":"active","ping":72},{"user_id":98,"name":"[DEEP] Roz257","steam_id":76561198842844532,"connected_time":791000000000,"state":"active","ping":65},{"user_id":89,"name":"Octavia","steam_id":76561198035475444,"connected_time":1217000000000,"state":"active","ping":59},{"user_id":103,"name":"John Stossel","steam_id":76561198066821270,"connected_time":390000000000,"state":"active","ping":52},{"user_id":101,"name":"kivee","steam_id":76561198838223023,"connected_time":711000000000,"state":"active","ping":49},{"user_id":102,"name":"radiohead enjoyer","steam_id":76561198397662124,"connected_time":497000000000,"state":"active","ping":90},{"user_id":50,"name":"Dive(z)","steam_id":76561198140843225,"connected_time":3383000000000,"state":"active","ping":115},{"user_id":32,"name":"Massive Conquistador","steam_id":76561197961138002,"connected_time":4092000000000,"state":"active","ping":82},{"user_id":91,"name":"Ramses the Tomcat","steam_id":76561199200480562,"connected_time":1177000000000,"state":"active","ping":108},{"user_id":60,"name":"Tom Crúaich","steam_id":76561197999439911,"connected_time":2484000000000,"state":"active","ping":73},{"user_id":71,"name":"Zoawsome","steam_id":76561198018758753,"connected_time":2206000000000,"state":"active","ping":54},{"user_id":73,"name":"shadow6","steam_id":76561197979807910,"connected_time":2158000000000,"state":"active","ping":167},{"user_id":84,"name":"delusional schizophrenic","steam_id":76561198323435040,"connected_time":1430000000000,"state":"active","ping":60},{"user_id":94,"name":"blobb","steam_id":76561198950448488,"connected_time":892000000000,"state":"active","ping":56}]},{"server_id":39,"name":"Uncletopia | Chicago | 8 | Community","name_short":"chi-8","host":"chi-2.us.uncletopia.com","port":27045,"enabled":true,"region":"us-central","cc":"us","latitude":41.881832,"longitude":-87.62318,"reserved":0,"last_update":"0001-01-01T00:00:00Z","name_a2s":"Uncletopia | Chicago | 8 | Community","protocol":17,"map":"koth_lakeside_final","folder":"tf","game":"Team Fortress","app_id":440,"player_count":0,"max_players":24,"Bots":0,"server_type":"Dedicated","server_os":"Linux","password":true,"vac":true,"version":"7757534","steam_id":85568392924866365,"keywords":["cp","nocrits","nodmgspread","uncletopia"],"game_id":440,"stv_port":27046,"stv_name":"Uncletopia | Chicago | 8 | Community | STV","players":null},{"server_id":8,"name":"Uncletopia | Dallas | 1 | All Maps","name_short":"dal-1","host":"dal-1.us.uncletopia.com","port":27015,"enabled":true,"region":"us-central","cc":"us","latitude":32.779167,"longitude":-96.80889,"reserved":0,"last_update":"0001-01-01T00:00:00Z","name_a2s":"Uncletopia | Dallas | 1 | All Maps","protocol":17,"map":"koth_highpass","folder":"tf","game":"Team Fortress","app_id":440,"player_count":0,"max_players":24,"Bots":0,"server_type":"Dedicated","server_os":"Linux","password":true,"vac":true,"version":"7757534","steam_id":85568392924469986,"keywords":["cp","nocrits","nodmgspread","uncletopia"],"game_id":440,"stv_port":27016,"stv_name":"Uncletopia | Dallas | 1 | All Maps | STV","players":null},{"server_id":108,"name":"Uncletopia | Dallas | 2 | All Maps","name_short":"dal-2","host":"dal-1.us.uncletopia.com","port":27025,"enabled":true,"region":"us-central","cc":"us","latitude":32.779167,"longitude":-96.80889,"reserved":0,"last_update":"0001-01-01T00:00:00Z","name_a2s":"Uncletopia | Dallas | 2 | All Maps","protocol":17,"map":"cp_gorge","folder":"tf","game":"Team Fortress","app_id":440,"player_count":24,"max_players":24,"Bots":0,"server_type":"Dedicated","server_os":"Linux","password":true,"vac":true,"version":"7757534","steam_id":85568392924469988,"keywords":["cp","nocrits","nodmgspread","uncletopia"],"game_id":440,"stv_port":27026,"stv_name":"Uncletopia | Dallas | 2 | All Maps | STV","players":[{"user_id":550,"name":"Fresh Lychee","steam_id":76561198045399559,"connected_time":6120000000000,"state":"active","ping":73},{"user_id":612,"name":"Ghaeril","steam_id":76561198047880019,"connected_time":441000000000,"state":"active","ping":59},{"user_id":584,"name":"demolition man team fortress","steam_id":76561198101971132,"connected_time":3443000000000,"state":"active","ping":58},{"user_id":607,"name":"Noble Sax","steam_id":76561198183283495,"connected_time":750000000000,"state":"active","ping":65},{"user_id":548,"name":"jturner1nm","steam_id":76561198344493652,"connected_time":6444000000000,"state":"active","ping":95},{"user_id":601,"name":"tie dye die guy","steam_id":76561198049845337,"connected_time":1962000000000,"state":"active","ping":91},{"user_id":597,"name":"Dictator Noodle","steam_id":76561198277243768,"connected_time":2005000000000,"state":"active","ping":78},{"user_id":600,"name":"ally of big tobacco","steam_id":76561198169927835,"connected_time":1988000000000,"state":"active","ping":67},{"user_id":546,"name":"tekan","steam_id":76561199077174231,"connected_time":6605000000000,"state":"active","ping":92},{"user_id":613,"name":"Mellou","steam_id":76561198212048740,"connected_time":388000000000,"state":"active","ping":56},{"user_id":544,"name":"The World's Softest Sandwich","steam_id":76561198015577707,"connected_time":7122000000000,"state":"active","ping":72},{"user_id":591,"name":"Lezabel","steam_id":76561198970753261,"connected_time":3004000000000,"state":"active","ping":69},{"user_id":576,"name":"[LINUX] Purple Penguin Pybro","steam_id":76561198093538786,"connected_time":3917000000000,"state":"active","ping":56},{"user_id":618,"name":"evan_is_sauce","steam_id":76561199086802383,"connected_time":190000000000,"state":"active","ping":57},{"user_id":615,"name":"AlphonsetheFish","steam_id":76561198038020208,"connected_time":329000000000,"state":"active","ping":92},{"user_id":599,"name":"br brbm urhrm gowogw","steam_id":76561198822069026,"connected_time":2004000000000,"state":"active","ping":109},{"user_id":608,"name":"Outlander","steam_id":76561197998995746,"connected_time":750000000000,"state":"active","ping":91},{"user_id":579,"name":"ChottoAMinute","steam_id":76561198873157775,"connected_time":3762000000000,"state":"active","ping":42},{"user_id":620,"name":"Shaquille Oatmeal","steam_id":76561198186835074,"connected_time":68000000000,"state":"active","ping":71},{"user_id":593,"name":"james may","steam_id":76561198043857339,"connected_time":2460000000000,"state":"active","ping":71},{"user_id":553,"name":"King Baldski","steam_id":76561198359568400,"connected_time":6071000000000,"state":"active","ping":146},{"user_id":617,"name":"Полковник Mоль","steam_id":76561198120551680,"connected_time":253000000000,"state":"active","ping":68},{"user_id":606,"name":"ShaggyRed","steam_id":76561198046996355,"connected_time":1485000000000,"state":"active","ping":84},{"user_id":574,"name":"DJ Tigress","steam_id":76561198065005979,"connected_time":4099000000000,"state":"active","ping":85}]},{"server_id":5,"name":"Uncletopia | Frankfurt | 1 | All Maps","name_short":"frk-1","host":"frk-1.de.uncletopia.com","port":27015,"enabled":true,"region":"eu","cc":"de","latitude":50.110924,"longitude":8.682127,"reserved":0,"last_update":"0001-01-01T00:00:00Z","name_a2s":"Uncletopia | Frankfurt | 1 | All Maps","protocol":17,"map":"pl_badwater","folder":"tf","game":"Team Fortress","app_id":440,"player_count":24,"max_players":24,"Bots":0,"server_type":"Dedicated","server_os":"Linux","password":true,"vac":true,"version":"7757534","steam_id":85568392924469989,"keywords":["nocrits","nodmgspread","payload","uncletopia"],"game_id":440,"stv_port":27016,"stv_name":"Uncletopia | Frankfurt | 1 | All Maps | STV","players":[{"user_id":471,"name":"ldshwt","steam_id":76561198090364357,"connected_time":5075000000000,"state":"active","ping":59},{"user_id":532,"name":"Jag är ett anka","steam_id":76561198059978438,"connected_time":2075000000000,"state":"active","ping":49},{"user_id":511,"name":"Alura","steam_id":76561198122379430,"connected_time":3271000000000,"state":"active","ping":79},{"user_id":482,"name":"REN","steam_id":76561198000596385,"connected_time":4222000000000,"state":"active","ping":67},{"user_id":506,"name":"boofing prozac","steam_id":76561198851157897,"connected_time":3558000000000,"state":"active","ping":74},{"user_id":539,"name":"big tiddy goth bf","steam_id":76561198170609049,"connected_time":1590000000000,"state":"active","ping":61},{"user_id":547,"name":"AverageJohn","steam_id":76561198085507990,"connected_time":350000000000,"state":"active","ping":89},{"user_id":538,"name":"big tiddy goth gf","steam_id":76561198097507847,"connected_time":1601000000000,"state":"active","ping":74},{"user_id":540,"name":"FJADL","steam_id":76561198237008214,"connected_time":1587000000000,"state":"active","ping":58},{"user_id":527,"name":"meatsoupcube","steam_id":76561198276802249,"connected_time":2570000000000,"state":"active","ping":107},{"user_id":541,"name":"Looking for Goth with tiddies!?","steam_id":76561198067204908,"connected_time":1583000000000,"state":"active","ping":72},{"user_id":466,"name":"jones","steam_id":76561198044434971,"connected_time":5343000000000,"state":"active","ping":58},{"user_id":485,"name":"MGE Bro","steam_id":76561198796600155,"connected_time":4189000000000,"state":"active","ping":80},{"user_id":486,"name":"Badass gangnam style minion","steam_id":76561198297602677,"connected_time":4180000000000,"state":"active","ping":84},{"user_id":501,"name":"Crims0n","steam_id":76561198110735434,"connected_time":3710000000000,"state":"active","ping":59},{"user_id":545,"name":"addicted","steam_id":76561199129801006,"connected_time":600000000000,"state":"active","ping":54},{"user_id":525,"name":"Bonca","steam_id":76561198137503531,"connected_time":2575000000000,"state":"active","ping":81},{"user_id":503,"name":"Bocchi the Cock o_0","steam_id":76561198051862530,"connected_time":3582000000000,"state":"active","ping":70},{"user_id":543,"name":"relic_","steam_id":76561199053114167,"connected_time":1510000000000,"state":"active","ping":149},{"user_id":537,"name":"♫★Xriasp★♫","steam_id":76561198104721321,"connected_time":1626000000000,"state":"active","ping":74},{"user_id":490,"name":"rob","steam_id":76561198122211848,"connected_time":4144000000000,"state":"active","ping":107},{"user_id":544,"name":"ᴘɪᴏΛ ƎꞍ⊥","steam_id":76561198276912938,"connected_time":743000000000,"state":"active","ping":187},{"user_id":548,"name":"Carry Krypl","steam_id":76561198136938121,"connected_time":32000000000,"state":"active","ping":57},{"user_id":546,"name":"Rops","steam_id":76561198031608011,"connected_time":599000000000,"state":"active","ping":88}]},{"server_id":110,"name":"Uncletopia | Frankfurt | 2 | All Maps","name_short":"frk-2","host":"frk-1.de.uncletopia.com","port":27025,"enabled":true,"region":"eu","cc":"de","latitude":50.110924,"longitude":8.682127,"reserved":0,"last_update":"0001-01-01T00:00:00Z","name_a2s":"Uncletopia | Frankfurt | 2 | All Maps","protocol":17,"map":"koth_lakeside_final","folder":"tf","game":"Team Fortress","app_id":440,"player_count":0,"max_players":24,"Bots":0,"server_type":"Dedicated","server_os":"Linux","password":true,"vac":true,"version":"7757534","steam_id":85568392924469990,"keywords":["cp","nocrits","nodmgspread","uncletopia"],"game_id":440,"stv_port":27026,"stv_name":"Uncletopia | Frankfurt | 2 | All Maps | STV","players":null},{"server_id":308,"name":"Uncletopia | Frankfurt | 3 | All Maps","name_short":"frk-3","host":"frk-1.de.uncletopia.com","port":27035,"enabled":true,"region":"eu","cc":"de","latitude":50.110924,"longitude":8.682127,"reserved":0,"last_update":"0001-01-01T00:00:00Z","name_a2s":"Uncletopia | Frankfurt | 3 | All Maps","protocol":17,"map":"cp_sunshine","folder":"tf","game":"Team Fortress","app_id":440,"player_count":21,"max_players":24,"Bots":0,"server_type":"Dedicated","server_os":"Linux","password":true,"vac":true,"version":"7757534","steam_id":85568392924504274,"keywords":["cp","nocrits","nodmgspread","uncletopia"],"game_id":440,"stv_port":27036,"stv_name":"Uncletopia | Frankfurt | 3 | All Maps | STV","players":[{"user_id":264,"name":"just do it","steam_id":76561199052690012,"connected_time":1824000000000,"state":"active","ping":93},{"user_id":256,"name":"Filleman","steam_id":76561198159386946,"connected_time":2386000000000,"state":"active","ping":65},{"user_id":300,"name":"sokof63357","steam_id":76561199397932924,"connected_time":779000000000,"state":"active","ping":70},{"user_id":290,"name":"local man","steam_id":76561198004303915,"connected_time":921000000000,"state":"active","ping":78},{"user_id":307,"name":"★poyo★","steam_id":76561198150078959,"connected_time":564000000000,"state":"active","ping":72},{"user_id":260,"name":"J005KE","steam_id":76561198815127418,"connected_time":2109000000000,"state":"active","ping":90},{"user_id":302,"name":"Dziadu","steam_id":76561198295864208,"connected_time":769000000000,"state":"active","ping":81},{"user_id":312,"name":"0","steam_id":76561198335304615,"connected_time":142000000000,"state":"active","ping":80},{"user_id":311,"name":"killer croc","steam_id":76561198261795972,"connected_time":172000000000,"state":"active","ping":66},{"user_id":313,"name":"shiki293","steam_id":76561198966212762,"connected_time":56000000000,"state":"active","ping":76},{"user_id":304,"name":"Jcombo","steam_id":76561198272604916,"connected_time":698000000000,"state":"active","ping":74},{"user_id":275,"name":"Dzan50","steam_id":76561198059758591,"connected_time":1421000000000,"state":"active","ping":89},{"user_id":279,"name":"Chill Spirit","steam_id":76561198845001725,"connected_time":1300000000000,"state":"active","ping":45},{"user_id":296,"name":"толя","steam_id":76561199098518615,"connected_time":855000000000,"state":"active","ping":85},{"user_id":309,"name":"Dozer","steam_id":76561197998742338,"connected_time":405000000000,"state":"active","ping":64},{"user_id":286,"name":"EEEEEH","steam_id":76561198126717413,"connected_time":1055000000000,"state":"active","ping":81},{"user_id":289,"name":"DinBin","steam_id":76561198801591466,"connected_time":960000000000,"state":"active","ping":94},{"user_id":285,"name":"gerösteteKürbiskerne","steam_id":76561198077484975,"connected_time":1117000000000,"state":"active","ping":64},{"user_id":291,"name":"Paul Bäumer","steam_id":76561198308302932,"connected_time":914000000000,"state":"active","ping":101},{"user_id":293,"name":"dIT_TIb","steam_id":76561198095698655,"connected_time":896000000000,"state":"active","ping":132},{"user_id":306,"name":"Banana Dispenser","steam_id":76561198446549451,"connected_time":655000000000,"state":"active","ping":79}]},{"server_id":309,"name":"Uncletopia | Frankfurt | 4 | All Maps","name_short":"frk-4","host":"frk-1.de.uncletopia.com","port":27045,"enabled":true,"region":"eu","cc":"de","latitude":50.110924,"longitude":8.682127,"reserved":0,"last_update":"0001-01-01T00:00:00Z","name_a2s":"Uncletopia | Frankfurt | 4 | All Maps","protocol":17,"map":"pl_frontier_final","folder":"tf","game":"Team Fortress","app_id":440,"player_count":23,"max_players":24,"Bots":0,"server_type":"Dedicated","server_os":"Linux","password":true,"vac":true,"version":"7757534","steam_id":85568392924504275,"keywords":["nocrits","nodmgspread","payload","uncletopia"],"game_id":440,"stv_port":27046,"stv_name":"Uncletopia | Frankfurt | 4 | All Maps | STV","players":[{"user_id":133,"name":"Kestrel","steam_id":76561198144033005,"connected_time":1268000000000,"state":"active","ping":61},{"user_id":128,"name":"piotrpiotrek003","steam_id":76561199029189261,"connected_time":1943000000000,"state":"active","ping":74},{"user_id":120,"name":"Fofenho","steam_id":76561198436817109,"connected_time":2338000000000,"state":"active","ping":68},{"user_id":149,"name":"Deacon Dracul","steam_id":76561198046880663,"connected_time":114000000000,"state":"active","ping":100},{"user_id":150,"name":"Vitamin Weee","steam_id":76561199183937747,"connected_time":79000000000,"state":"active","ping":84},{"user_id":141,"name":"KaasKrans","steam_id":76561198240451972,"connected_time":634000000000,"state":"active","ping":62},{"user_id":75,"name":"galaxy","steam_id":76561198164819022,"connected_time":4217000000000,"state":"active","ping":62},{"user_id":126,"name":"Peter Cipher","steam_id":76561198078944963,"connected_time":2087000000000,"state":"active","ping":54},{"user_id":132,"name":"moody blues","steam_id":76561198444036574,"connected_time":1353000000000,"state":"active","ping":60},{"user_id":95,"name":"Proto-arc","steam_id":76561198012776747,"connected_time":3543000000000,"state":"active","ping":60},{"user_id":137,"name":"Puro ♥","steam_id":76561198039016765,"connected_time":861000000000,"state":"active","ping":89},{"user_id":138,"name":"avenje","steam_id":76561198155824845,"connected_time":792000000000,"state":"active","ping":62},{"user_id":134,"name":"Bobirulez","steam_id":76561198009125458,"connected_time":1118000000000,"state":"active","ping":74},{"user_id":142,"name":"Washburne","steam_id":76561198032810579,"connected_time":618000000000,"state":"active","ping":56},{"user_id":143,"name":"muZ","steam_id":76561198060145190,"connected_time":582000000000,"state":"active","ping":52},{"user_id":147,"name":"Egtu","steam_id":76561198013757235,"connected_time":269000000000,"state":"active","ping":61},{"user_id":96,"name":"Carrot Arc","steam_id":76561198164957006,"connected_time":3530000000000,"state":"active","ping":95},{"user_id":125,"name":"Joking Julz","steam_id":76561198020746298,"connected_time":2134000000000,"state":"active","ping":67},{"user_id":127,"name":"RadialMount","steam_id":76561198063002562,"connected_time":1980000000000,"state":"active","ping":59},{"user_id":144,"name":"Zelius","steam_id":76561198367608786,"connected_time":575000000000,"state":"active","ping":70},{"user_id":81,"name":"Rusty Shackleford","steam_id":76561198069226593,"connected_time":4182000000000,"state":"active","ping":58},{"user_id":82,"name":"Atypical♱Rila","steam_id":76561198244277732,"connected_time":4174000000000,"state":"active","ping":59},{"user_id":97,"name":"Gio'sMonkey","steam_id":76561198892432223,"connected_time":3484000000000,"state":"active","ping":88}]},{"server_id":310,"name":"Uncletopia | Frankfurt | 5 | All Maps","name_short":"frk-5","host":"frk-1.de.uncletopia.com","port":27055,"enabled":true,"region":"eu","cc":"de","latitude":50.110924,"longitude":8.682127,"reserved":0,"last_update":"0001-01-01T00:00:00Z","name_a2s":"Uncletopia | Frankfurt | 5 | All Maps","protocol":17,"map":"koth_highpass","folder":"tf","game":"Team Fortress","app_id":440,"player_count":0,"max_players":24,"Bots":0,"server_type":"Dedicated","server_os":"Linux","password":true,"vac":true,"version":"7757534","steam_id":85568392924504277,"keywords":["cp","nocrits","nodmgspread","uncletopia"],"game_id":440,"stv_port":27056,"stv_name":"Uncletopia | Frankfurt | 5 | All Maps | STV","players":null},{"server_id":311,"name":"Uncletopia | Frankfurt | 6 | All Maps","name_short":"frk-6","host":"frk-1.de.uncletopia.com","port":27065,"enabled":true,"region":"eu","cc":"de","latitude":50.110924,"longitude":8.682127,"reserved":0,"last_update":"0001-01-01T00:00:00Z","name_a2s":"Uncletopia | Frankfurt | 6 | All Maps","protocol":17,"map":"pl_pier","folder":"tf","game":"Team Fortress","app_id":440,"player_count":23,"max_players":24,"Bots":0,"server_type":"Dedicated","server_os":"Linux","password":true,"vac":true,"version":"7757534","steam_id":85568392924504278,"keywords":["nocrits","nodmgspread","payload","uncletopia"],"game_id":440,"stv_port":27066,"stv_name":"Uncletopia | Frankfurt | 6 | All Maps | STV","players":[{"user_id":86,"name":"Piteras","steam_id":76561198858532207,"connected_time":950000000000,"state":"active","ping":74},{"user_id":79,"name":"Ansari","steam_id":76561198074982971,"connected_time":1458000000000,"state":"active","ping":52},{"user_id":25,"name":"antlionguard","steam_id":76561198072747143,"connected_time":3662000000000,"state":"active","ping":88},{"user_id":85,"name":"ScarredPixel123","steam_id":76561199165112703,"connected_time":1002000000000,"state":"active","ping":76},{"user_id":91,"name":"SlwoFø","steam_id":76561198049663931,"connected_time":544000000000,"state":"active","ping":60},{"user_id":83,"name":"Tobb_Harvard","steam_id":76561199222100485,"connected_time":1102000000000,"state":"active","ping":81},{"user_id":97,"name":"Gosha","steam_id":76561198254179260,"connected_time":123000000000,"state":"active","ping":83},{"user_id":80,"name":"A 7/4 Time Signature (SWTZR)","steam_id":76561198049823315,"connected_time":1336000000000,"state":"active","ping":90},{"user_id":49,"name":"cat (they/them)","steam_id":76561198416657815,"connected_time":2717000000000,"state":"active","ping":74},{"user_id":70,"name":"moser23","steam_id":76561197960543171,"connected_time":1662000000000,"state":"active","ping":49},{"user_id":36,"name":"Datenegassie","steam_id":76561198089417032,"connected_time":3204000000000,"state":"active","ping":69},{"user_id":51,"name":"teddyswk","steam_id":76561198404939571,"connected_time":2659000000000,"state":"active","ping":88},{"user_id":52,"name":"Robin BPR","steam_id":76561198433123666,"connected_time":2659000000000,"state":"active","ping":103},{"user_id":71,"name":"ricorno","steam_id":76561199441603388,"connected_time":1662000000000,"state":"active","ping":87},{"user_id":94,"name":"Sputnik","steam_id":76561198138660241,"connected_time":312000000000,"state":"active","ping":74},{"user_id":77,"name":"X45Y","steam_id":76561198112534025,"connected_time":1543000000000,"state":"active","ping":45},{"user_id":89,"name":"Cosmonaut","steam_id":76561198239514504,"connected_time":795000000000,"state":"active","ping":83},{"user_id":59,"name":"Batman DNR","steam_id":76561199004923871,"connected_time":2566000000000,"state":"active","ping":98},{"user_id":96,"name":"The Original Aboriginal","steam_id":76561198341886313,"connected_time":291000000000,"state":"active","ping":87},{"user_id":98,"name":"non_ai","steam_id":76561198270951938,"connected_time":102000000000,"state":"active","ping":134},{"user_id":66,"name":"Thors","steam_id":76561197968739075,"connected_time":2264000000000,"state":"active","ping":45},{"user_id":99,"name":"Skuth","steam_id":76561198041470939,"connected_time":61000000000,"state":"active","ping":143},{"user_id":100,"name":"Not a dolphin #savetf2","steam_id":76561199119369490,"connected_time":56000000000,"state":"active","ping":76}]},{"server_id":23,"name":"Uncletopia | Frankfurt | 7 | Stopwatch Beta","name_short":"frk-7","host":"frk-1.de.uncletopia.com","port":27075,"enabled":true,"region":"eu","cc":"de","latitude":50.110924,"longitude":8.682127,"reserved":0,"last_update":"0001-01-01T00:00:00Z","name_a2s":"Uncletopia | Frankfurt | 7 | Stopwatch Beta","protocol":17,"map":"koth_highpass","folder":"tf","game":"Team Fortress","app_id":440,"player_count":0,"max_players":24,"Bots":0,"server_type":"Dedicated","server_os":"Linux","password":true,"vac":true,"version":"7757534","steam_id":85568392924742827,"keywords":["cp","nocrits","nodmgspread","uncletopia"],"game_id":440,"stv_port":27076,"stv_name":"Uncletopia | Frankfurt | 7 | Stopwatch Beta | STV","players":null},{"server_id":24,"name":"Uncletopia | Frankfurt | 8 | Community","name_short":"frk-8","host":"frk-1.de.uncletopia.com","port":27085,"enabled":true,"region":"eu","cc":"de","latitude":50.110924,"longitude":8.682127,"reserved":0,"last_update":"0001-01-01T00:00:00Z","name_a2s":"Uncletopia | Frankfurt | 8 | Community","protocol":17,"map":"workshop/koth_product_final.ugc454272353","folder":"tf","game":"Team Fortress","app_id":440,"player_count":0,"max_players":24,"Bots":0,"server_type":"Dedicated","server_os":"Linux","password":true,"vac":true,"version":"7757534","steam_id":85568392924742828,"keywords":["cp","nocrits","nodmgspread","uncletopia"],"game_id":440,"stv_port":27086,"stv_name":"Uncletopia | Frankfurt | 8 | Community | STV","players":null},{"server_id":202,"name":"Uncletopia | Hong Kong | 1 | All Maps","name_short":"hgk-1","host":"hgk-1.hk.uncletopia.com","port":27015,"enabled":true,"region":"asia","cc":"hk","latitude":22.302711,"longitude":114.177216,"reserved":0,"last_update":"0001-01-01T00:00:00Z","name_a2s":"Uncletopia | Hong Kong | 1 | All Maps","protocol":17,"map":"cp_process_final","folder":"tf","game":"Team Fortress","app_id":440,"player_count":0,"max_players":24,"Bots":0,"server_type":"Dedicated","server_os":"Linux","password":true,"vac":true,"version":"7757534","steam_id":85568392924494504,"keywords":["cp","nocrits","nodmgspread","uncletopia"],"game_id":440,"stv_port":27016,"stv_name":"Uncletopia | Hong Kong | 1 | All Maps | STV","players":null},{"server_id":1,"name":"Uncletopia | Los Angeles | 1 | All Maps","name_short":"lax-1","host":"lax-1.us.uncletopia.com","port":27015,"enabled":true,"region":"us-west","cc":"us","latitude":33.94279,"longitude":-118.41004,"reserved":0,"last_update":"0001-01-01T00:00:00Z","name_a2s":"Uncletopia | Los Angeles | 1 | All Maps","protocol":17,"map":"cp_snakewater_final1","folder":"tf","game":"Team Fortress","app_id":440,"player_count":3,"max_players":24,"Bots":0,"server_type":"Dedicated","server_os":"Linux","password":true,"vac":true,"version":"7757534","steam_id":85568392924469991,"keywords":["cp","nocrits","nodmgspread","uncletopia"],"game_id":440,"stv_port":27016,"stv_name":"Uncletopia | Los Angeles | 1 | All Maps | STV","players":[{"user_id":12,"name":"TM64G","steam_id":76561198333102772,"connected_time":867000000000,"state":"active","ping":185},{"user_id":13,"name":"RaZor","steam_id":76561198065747094,"connected_time":812000000000,"state":"active","ping":101},{"user_id":17,"name":"tudor c-stick","steam_id":76561199036389181,"connected_time":165000000000,"state":"active","ping":221}]},{"server_id":112,"name":"Uncletopia | Los Angeles | 2 | All Maps","name_short":"lax-2","host":"lax-1.us.uncletopia.com","port":27025,"enabled":true,"region":"us-west","cc":"us","latitude":33.94279,"longitude":-118.41004,"reserved":0,"last_update":"0001-01-01T00:00:00Z","name_a2s":"Uncletopia | Los Angeles | 2 | All Maps","protocol":17,"map":"koth_viaduct","folder":"tf","game":"Team Fortress","app_id":440,"player_count":0,"max_players":24,"Bots":0,"server_type":"Dedicated","server_os":"Linux","password":true,"vac":true,"version":"7757534","steam_id":85568392924469992,"keywords":["cp","nocrits","nodmgspread","uncletopia"],"game_id":440,"stv_port":27026,"stv_name":"Uncletopia | Los Angeles | 2 | All Maps | STV","players":null},{"server_id":324,"name":"Uncletopia | Los Angeles | 3 | All Maps","name_short":"lax-3","host":"lax-1.us.uncletopia.com","port":27035,"enabled":true,"region":"us-west","cc":"us","latitude":33.94279,"longitude":-118.41004,"reserved":0,"last_update":"0001-01-01T00:00:00Z","name_a2s":"Uncletopia | Los Angeles | 3 | All Maps","protocol":17,"map":"cp_altitude","folder":"tf","game":"Team Fortress","app_id":440,"player_count":0,"max_players":24,"Bots":0,"server_type":"Dedicated","server_os":"Linux","password":true,"vac":true,"version":"7757534","steam_id":85568392924510198,"keywords":["cp","nocrits","nodmgspread","uncletopia"],"game_id":440,"stv_port":27036,"stv_name":"Uncletopia | Los Angeles | 3 | All Maps | STV","players":null},{"server_id":25,"name":"Uncletopia | Los Angeles | 4 | Stopwatch Beta","name_short":"lax-4","host":"lax-1.us.uncletopia.com","port":27045,"enabled":true,"region":"us-west","cc":"us","latitude":33.94279,"longitude":-118.41004,"reserved":0,"last_update":"0001-01-01T00:00:00Z","name_a2s":"Uncletopia | Los Angeles | 4 | Stopwatch Beta","protocol":17,"map":"cp_dustbowl","folder":"tf","game":"Team Fortress","app_id":440,"player_count":0,"max_players":24,"Bots":0,"server_type":"Dedicated","server_os":"Linux","password":true,"vac":true,"version":"7757534","steam_id":85568392924510199,"keywords":["cp","nocrits","nodmgspread","uncletopia"],"game_id":440,"stv_port":27046,"stv_name":"Uncletopia | Los Angeles | 4 | Stopwatch Beta | STV","players":null},{"server_id":11,"name":"Uncletopia | London | 1 | All Maps","name_short":"lon-1","host":"lon-1.uk.uncletopia.com","port":27015,"enabled":true,"region":"eu","cc":"gb","latitude":51.509865,"longitude":-0.118092,"reserved":0,"last_update":"0001-01-01T00:00:00Z","name_a2s":"Uncletopia | London | 1 | All Maps","protocol":17,"map":"pl_frontier_final","folder":"tf","game":"Team Fortress","app_id":440,"player_count":21,"max_players":24,"Bots":0,"server_type":"Dedicated","server_os":"Linux","password":true,"vac":true,"version":"7757534","steam_id":85568392924367362,"keywords":["nocrits","nodmgspread","payload","uncletopia"],"game_id":440,"stv_port":27016,"stv_name":"Uncletopia | London | 1 | All Maps | STV","players":[{"user_id":529,"name":"Juice_Fritzer","steam_id":76561199045783027,"connected_time":76000000000,"state":"active","ping":42},{"user_id":527,"name":"saum22222222","steam_id":76561198880569323,"connected_time":106000000000,"state":"active","ping":148},{"user_id":507,"name":"JOHN GAMING (based)","steam_id":76561199085822219,"connected_time":2053000000000,"state":"active","ping":77},{"user_id":493,"name":"New","steam_id":76561198402195911,"connected_time":3389000000000,"state":"active","ping":116},{"user_id":470,"name":"SKFBoge","steam_id":76561198269038278,"connected_time":5266000000000,"state":"active","ping":68},{"user_id":528,"name":"Parapluie","steam_id":76561197971640301,"connected_time":94000000000,"state":"active","ping":40},{"user_id":416,"name":"dane uncle","steam_id":76561199374351531,"connected_time":7853000000000,"state":"active","ping":56},{"user_id":497,"name":"wasto-/-™","steam_id":76561198102888038,"connected_time":3004000000000,"state":"active","ping":52},{"user_id":439,"name":"Raymus","steam_id":76561198021330407,"connected_time":5933000000000,"state":"active","ping":47},{"user_id":530,"name":"vinnie","steam_id":76561198157450688,"connected_time":53000000000,"state":"active","ping":55},{"user_id":532,"name":"Yowwo Sholmes","steam_id":76561198121881938,"connected_time":12000000000,"state":"spawning","ping":123},{"user_id":521,"name":"Caerot","steam_id":76561198839000676,"connected_time":763000000000,"state":"active","ping":70},{"user_id":523,"name":"Zombi3","steam_id":76561198326290621,"connected_time":462000000000,"state":"active","ping":51},{"user_id":531,"name":"T K","steam_id":76561198134256917,"connected_time":46000000000,"state":"active","ping":72},{"user_id":499,"name":"⎝⧹polar_bear⧸⎠","steam_id":76561198409154467,"connected_time":2972000000000,"state":"active","ping":135},{"user_id":519,"name":"sv_opor 13123","steam_id":76561198002229612,"connected_time":1006000000000,"state":"active","ping":80},{"user_id":525,"name":"viora","steam_id":76561198054979849,"connected_time":323000000000,"state":"active","ping":33},{"user_id":533,"name":"The real Postal Dude","steam_id":76561198799097492,"connected_time":11000000000,"state":"active","ping":49},{"user_id":496,"name":"Jamie","steam_id":76561198007043853,"connected_time":3086000000000,"state":"active","ping":64},{"user_id":508,"name":"Nebe0","steam_id":76561199133770186,"connected_time":1982000000000,"state":"active","ping":160},{"user_id":512,"name":"Katie","steam_id":76561198056193753,"connected_time":1612000000000,"state":"active","ping":38}]},{"server_id":114,"name":"Uncletopia | London | 2 | All Maps","name_short":"lon-2","host":"lon-1.uk.uncletopia.com","port":27025,"enabled":true,"region":"eu","cc":"gb","latitude":51.509865,"longitude":-0.118092,"reserved":0,"last_update":"0001-01-01T00:00:00Z","name_a2s":"Uncletopia | London | 2 | All Maps","protocol":17,"map":"pl_swiftwater_final1","folder":"tf","game":"Team Fortress","app_id":440,"player_count":24,"max_players":24,"Bots":0,"server_type":"Dedicated","server_os":"Linux","password":true,"vac":true,"version":"7757534","steam_id":85568392924470941,"keywords":["nocrits","nodmgspread","payload","uncletopia"],"game_id":440,"stv_port":27026,"stv_name":"Uncletopia | London | 2 | All Maps | STV","players":[{"user_id":676,"name":"Nifi","steam_id":76561198102682566,"connected_time":7221000000000,"state":"active","ping":75},{"user_id":701,"name":"ghost","steam_id":76561198189940229,"connected_time":5904000000000,"state":"active","ping":49},{"user_id":773,"name":"Serradoss","steam_id":76561198029367233,"connected_time":190000000000,"state":"active","ping":89},{"user_id":748,"name":"Max Andrew","steam_id":76561198158955194,"connected_time":1574000000000,"state":"active","ping":74},{"user_id":737,"name":"gibb (official)","steam_id":76561198074097655,"connected_time":2709000000000,"state":"active","ping":44},{"user_id":766,"name":"Polygunner","steam_id":76561199165741650,"connected_time":751000000000,"state":"active","ping":130},{"user_id":753,"name":"LarsInABox","steam_id":76561198028329262,"connected_time":1248000000000,"state":"active","ping":71},{"user_id":742,"name":"Pestdoktor","steam_id":76561198058159271,"connected_time":2371000000000,"state":"active","ping":72},{"user_id":772,"name":"yayam abalenda","steam_id":76561198047828651,"connected_time":219000000000,"state":"active","ping":48},{"user_id":727,"name":"Sarah Obama Michella","steam_id":76561198078996559,"connected_time":4028000000000,"state":"active","ping":84},{"user_id":756,"name":"Archer","steam_id":76561198132860299,"connected_time":1216000000000,"state":"active","ping":61},{"user_id":774,"name":"Bel s1mpel","steam_id":76561198272809526,"connected_time":184000000000,"state":"active","ping":59},{"user_id":757,"name":"mumbler","steam_id":76561197970641239,"connected_time":1214000000000,"state":"active","ping":64},{"user_id":761,"name":"CarBombEnthusiast","steam_id":76561199448185434,"connected_time":1066000000000,"state":"active","ping":70},{"user_id":771,"name":"Thalgorock","steam_id":76561198195315022,"connected_time":328000000000,"state":"active","ping":82},{"user_id":752,"name":"Kris","steam_id":76561198240638652,"connected_time":1255000000000,"state":"active","ping":46},{"user_id":639,"name":"Serton♝","steam_id":76561198011061126,"connected_time":9678000000000,"state":"active","ping":72},{"user_id":751,"name":"Dr.Sees [F2P]","steam_id":76561199219233587,"connected_time":1397000000000,"state":"active","ping":79},{"user_id":770,"name":"EdSuedi","steam_id":76561199387956486,"connected_time":407000000000,"state":"active","ping":62},{"user_id":775,"name":"Nitrogue","steam_id":76561198349928418,"connected_time":174000000000,"state":"active","ping":39},{"user_id":764,"name":"After8","steam_id":76561198090750865,"connected_time":850000000000,"state":"active","ping":75},{"user_id":710,"name":"Sloneczku","steam_id":76561198032886890,"connected_time":4932000000000,"state":"active","ping":98},{"user_id":674,"name":"✪ qua ✪","steam_id":76561198066408333,"connected_time":7316000000000,"state":"active","ping":81},{"user_id":760,"name":"poliakov.noam","steam_id":76561199259322961,"connected_time":1191000000000,"state":"active","ping":105}]},{"server_id":320,"name":"Uncletopia | London | 3 | All Maps","name_short":"lon-3","host":"lon-1.uk.uncletopia.com","port":27035,"enabled":true,"region":"eu","cc":"gb","latitude":51.509865,"longitude":-0.118092,"reserved":0,"last_update":"0001-01-01T00:00:00Z","name_a2s":"Uncletopia | London | 3 | All Maps","protocol":17,"map":"koth_viaduct","folder":"tf","game":"Team Fortress","app_id":440,"player_count":24,"max_players":24,"Bots":0,"server_type":"Dedicated","server_os":"Linux","password":true,"vac":true,"version":"7757534","steam_id":85568392924510192,"keywords":["cp","nocrits","nodmgspread","uncletopia"],"game_id":440,"stv_port":27036,"stv_name":"Uncletopia | London | 3 | All Maps | STV","players":[{"user_id":442,"name":"plazma","steam_id":76561198886594048,"connected_time":370000000000,"state":"active","ping":113},{"user_id":441,"name":"V","steam_id":76561199006462039,"connected_time":391000000000,"state":"active","ping":73},{"user_id":393,"name":"British Disapproval","steam_id":76561198001375260,"connected_time":3940000000000,"state":"active","ping":64},{"user_id":411,"name":"Solarium","steam_id":76561198083941858,"connected_time":2858000000000,"state":"active","ping":44},{"user_id":425,"name":"Gonubax","steam_id":76561198192843133,"connected_time":1503000000000,"state":"active","ping":60},{"user_id":443,"name":"Pancakes","steam_id":76561198196259989,"connected_time":162000000000,"state":"active","ping":48},{"user_id":419,"name":"✪ Danny","steam_id":76561198104483241,"connected_time":2183000000000,"state":"active","ping":51},{"user_id":429,"name":"FUKTARD2005","steam_id":76561198839121591,"connected_time":1037000000000,"state":"active","ping":61},{"user_id":430,"name":"Charrky","steam_id":76561198054398642,"connected_time":1008000000000,"state":"active","ping":60},{"user_id":401,"name":"Dorich","steam_id":76561198287126217,"connected_time":3625000000000,"state":"active","ping":66},{"user_id":420,"name":"FreeMarket","steam_id":76561198029916416,"connected_time":2152000000000,"state":"active","ping":66},{"user_id":402,"name":"Ash","steam_id":76561198110133179,"connected_time":3303000000000,"state":"active","ping":47},{"user_id":426,"name":"MitzoAtlas","steam_id":76561198160890702,"connected_time":1239000000000,"state":"active","ping":121},{"user_id":432,"name":"Menace activities","steam_id":76561198328805441,"connected_time":955000000000,"state":"active","ping":111},{"user_id":433,"name":"Mi Manchi","steam_id":76561198171573129,"connected_time":810000000000,"state":"active","ping":72},{"user_id":364,"name":"Smiffsmiffwild3","steam_id":76561199097073780,"connected_time":6270000000000,"state":"active","ping":78},{"user_id":431,"name":"☞LaZe☜","steam_id":76561198202191400,"connected_time":994000000000,"state":"active","ping":53},{"user_id":436,"name":"Yangus","steam_id":76561198147796010,"connected_time":753000000000,"state":"active","ping":60},{"user_id":417,"name":"Vladimir Chirgin","steam_id":76561198170035235,"connected_time":2583000000000,"state":"active","ping":135},{"user_id":330,"name":"Waltcha","steam_id":76561198007691468,"connected_time":8104000000000,"state":"active","ping":69},{"user_id":418,"name":"Vershal Smershal","steam_id":76561198116223995,"connected_time":2269000000000,"state":"active","ping":53},{"user_id":339,"name":"d00bie","steam_id":76561198025295218,"connected_time":7682000000000,"state":"active","ping":78},{"user_id":437,"name":"Craig","steam_id":76561198059158095,"connected_time":751000000000,"state":"active","ping":73},{"user_id":439,"name":"Bagel","steam_id":76561198372722828,"connected_time":592000000000,"state":"active","ping":404}]},{"server_id":321,"name":"Uncletopia | London | 4 | All Maps","name_short":"lon-4","host":"lon-1.uk.uncletopia.com","port":27045,"enabled":true,"region":"eu","cc":"gb","latitude":51.509865,"longitude":-0.118092,"reserved":0,"last_update":"0001-01-01T00:00:00Z","name_a2s":"Uncletopia | London | 4 | All Maps","protocol":17,"map":"pl_swiftwater_final1","folder":"tf","game":"Team Fortress","app_id":440,"player_count":24,"max_players":24,"Bots":0,"server_type":"Dedicated","server_os":"Linux","password":true,"vac":true,"version":"7757534","steam_id":85568392924510193,"keywords":["nocrits","nodmgspread","payload","uncletopia"],"game_id":440,"stv_port":27046,"stv_name":"Uncletopia | London | 4 | All Maps | STV","players":[{"user_id":654,"name":"Faucheur51","steam_id":76561198857596658,"connected_time":747000000000,"state":"active","ping":72},{"user_id":661,"name":"Pepegi","steam_id":76561198001230113,"connected_time":558000000000,"state":"active","ping":86},{"user_id":627,"name":"Anonymous47007","steam_id":76561199005211417,"connected_time":1997000000000,"state":"active","ping":72},{"user_id":663,"name":"Gormbrain","steam_id":76561198020079511,"connected_time":381000000000,"state":"active","ping":31},{"user_id":655,"name":"Dragul","steam_id":76561198032885938,"connected_time":744000000000,"state":"active","ping":62},{"user_id":650,"name":"d u k k i","steam_id":76561198071807437,"connected_time":857000000000,"state":"active","ping":88},{"user_id":645,"name":"Syd","steam_id":76561198020515027,"connected_time":884000000000,"state":"active","ping":79},{"user_id":665,"name":"Riel","steam_id":76561198066017633,"connected_time":58000000000,"state":"active","ping":66},{"user_id":646,"name":"Okuu","steam_id":76561198093035602,"connected_time":873000000000,"state":"active","ping":45},{"user_id":662,"name":"jovi_","steam_id":76561198449280552,"connected_time":487000000000,"state":"active","ping":50},{"user_id":613,"name":"Certified Hood pybro (ua)","steam_id":76561198970562699,"connected_time":2453000000000,"state":"active","ping":60},{"user_id":648,"name":"Hercules","steam_id":76561198041164170,"connected_time":862000000000,"state":"active","ping":65},{"user_id":649,"name":"Cheayan219","steam_id":76561199087845015,"connected_time":860000000000,"state":"active","ping":164},{"user_id":664,"name":"Slipskip","steam_id":76561198018493540,"connected_time":173000000000,"state":"active","ping":54},{"user_id":618,"name":"Ged","steam_id":76561198079288943,"connected_time":2168000000000,"state":"active","ping":157},{"user_id":653,"name":"Qwichi","steam_id":76561198264893430,"connected_time":793000000000,"state":"active","ping":100},{"user_id":628,"name":"Big Knoxy","steam_id":76561198291107227,"connected_time":1996000000000,"state":"active","ping":69},{"user_id":619,"name":"Kotlet schabowy","steam_id":76561198048983509,"connected_time":2167000000000,"state":"active","ping":87},{"user_id":638,"name":"Dolcelatte","steam_id":76561198038501770,"connected_time":1525000000000,"state":"active","ping":60},{"user_id":656,"name":"painting4","steam_id":76561198067554256,"connected_time":694000000000,"state":"active","ping":54},{"user_id":657,"name":"Diggity","steam_id":76561198297157085,"connected_time":677000000000,"state":"active","ping":40},{"user_id":609,"name":"nachtraaf","steam_id":76561197960473205,"connected_time":3335000000000,"state":"active","ping":57},{"user_id":658,"name":"Neoplix","steam_id":76561199012756422,"connected_time":676000000000,"state":"active","ping":121},{"user_id":659,"name":"Soup Dog","steam_id":76561198237878322,"connected_time":673000000000,"state":"active","ping":77}]},{"server_id":21,"name":"Uncletopia | London | 5 | All Maps","name_short":"lon-5","host":"lon-1.uk.uncletopia.com","port":27055,"enabled":true,"region":"eu","cc":"gb","latitude":51.509865,"longitude":-0.118092,"reserved":0,"last_update":"0001-01-01T00:00:00Z","name_a2s":"Uncletopia | London | 5 | All Maps","protocol":17,"map":"cp_steel","folder":"tf","game":"Team Fortress","app_id":440,"player_count":24,"max_players":24,"Bots":0,"server_type":"Dedicated","server_os":"Linux","password":true,"vac":true,"version":"7757534","steam_id":85568392924742829,"keywords":["cp","nocrits","nodmgspread","uncletopia"],"game_id":440,"stv_port":27056,"stv_name":"Uncletopia | London | 5 | All Maps | STV","players":[{"user_id":236,"name":"pfear","steam_id":76561197999207328,"connected_time":4054000000000,"state":"active","ping":89},{"user_id":271,"name":"lambrusco di sorbara","steam_id":76561198066071855,"connected_time":1386000000000,"state":"active","ping":70},{"user_id":223,"name":"WAPtrick star","steam_id":76561198133532980,"connected_time":5733000000000,"state":"active","ping":45},{"user_id":288,"name":"Rockcrusher","steam_id":76561199012666353,"connected_time":325000000000,"state":"active","ping":144},{"user_id":280,"name":"frosty","steam_id":76561198094560834,"connected_time":500000000000,"state":"active","ping":47},{"user_id":273,"name":"satire (f2p)","steam_id":76561199404665460,"connected_time":1127000000000,"state":"active","ping":52},{"user_id":286,"name":"quickfast","steam_id":76561199438900919,"connected_time":390000000000,"state":"active","ping":41},{"user_id":287,"name":"F","steam_id":76561199149462792,"connected_time":343000000000,"state":"active","ping":63},{"user_id":282,"name":"ムGeRmAn |×UA×ム","steam_id":76561199044754898,"connected_time":494000000000,"state":"active","ping":83},{"user_id":224,"name":"Fat Pigeon","steam_id":76561198817940142,"connected_time":5724000000000,"state":"active","ping":45},{"user_id":258,"name":"Egor Pomidor","steam_id":76561199175688390,"connected_time":2026000000000,"state":"active","ping":82},{"user_id":230,"name":"Milca_11 [Wrench Aficionado]","steam_id":76561198848650365,"connected_time":5096000000000,"state":"active","ping":91},{"user_id":291,"name":"Borat","steam_id":76561198122226417,"connected_time":64000000000,"state":"active","ping":27},{"user_id":289,"name":"Shynii","steam_id":76561198194682105,"connected_time":221000000000,"state":"active","ping":66},{"user_id":248,"name":"Ecton","steam_id":76561198025103720,"connected_time":3222000000000,"state":"active","ping":56},{"user_id":284,"name":"Boardie","steam_id":76561198215700300,"connected_time":441000000000,"state":"active","ping":54},{"user_id":246,"name":"LoganMega","steam_id":76561199169420356,"connected_time":3237000000000,"state":"active","ping":84},{"user_id":250,"name":"Endi","steam_id":76561198914938199,"connected_time":3205000000000,"state":"active","ping":100},{"user_id":275,"name":"Harpenden, Harpenden, Harpenden","steam_id":76561198118138546,"connected_time":1098000000000,"state":"active","ping":44},{"user_id":290,"name":"makiverem","steam_id":76561198425866216,"connected_time":131000000000,"state":"active","ping":76},{"user_id":272,"name":"randompixel","steam_id":76561198003941207,"connected_time":1217000000000,"state":"active","ping":58},{"user_id":276,"name":"DooWooD","steam_id":76561198335810106,"connected_time":1075000000000,"state":"active","ping":75},{"user_id":285,"name":"1 toke 4 mars bars","steam_id":76561198056460000,"connected_time":439000000000,"state":"active","ping":51},{"user_id":278,"name":"the inventor of Sex, Pisslord","steam_id":76561198074624639,"connected_time":911000000000,"state":"active","ping":136}]},{"server_id":22,"name":"Uncletopia | London | 6 | All Maps","name_short":"lon-6","host":"lon-1.uk.uncletopia.com","port":27065,"enabled":true,"region":"eu","cc":"gb","latitude":51.509865,"longitude":-0.118092,"reserved":0,"last_update":"0001-01-01T00:00:00Z","name_a2s":"Uncletopia | London | 6 | All Maps","protocol":17,"map":"pl_thundermountain","folder":"tf","game":"Team Fortress","app_id":440,"player_count":23,"max_players":24,"Bots":0,"server_type":"Dedicated","server_os":"Linux","password":true,"vac":true,"version":"7757534","steam_id":85568392924742830,"keywords":["nocrits","nodmgspread","payload","uncletopia"],"game_id":440,"stv_port":27066,"stv_name":"Uncletopia | London | 6 | All Maps | STV","players":[{"user_id":541,"name":"fifionet","steam_id":76561198026618085,"connected_time":2475000000000,"state":"active","ping":87},{"user_id":554,"name":"MpJens","steam_id":76561198000347669,"connected_time":1842000000000,"state":"active","ping":48},{"user_id":558,"name":"DumDum","steam_id":76561198836275186,"connected_time":1722000000000,"state":"active","ping":86},{"user_id":563,"name":"jefe","steam_id":76561199380849468,"connected_time":1360000000000,"state":"active","ping":62},{"user_id":514,"name":"reik","steam_id":76561198075239099,"connected_time":4001000000000,"state":"active","ping":76},{"user_id":559,"name":"row lft","steam_id":76561198053400769,"connected_time":1712000000000,"state":"active","ping":53},{"user_id":583,"name":"LegitACarWithAGun","steam_id":76561198081742337,"connected_time":110000000000,"state":"active","ping":102},{"user_id":584,"name":"shavedmyheadchangedmyname","steam_id":76561199042470246,"connected_time":85000000000,"state":"active","ping":60},{"user_id":577,"name":"galad.game","steam_id":76561198336324159,"connected_time":675000000000,"state":"active","ping":67},{"user_id":578,"name":"GrzMik","steam_id":76561198061951968,"connected_time":673000000000,"state":"active","ping":90},{"user_id":574,"name":"Baba Sraka","steam_id":76561198128292318,"connected_time":1021000000000,"state":"active","ping":632},{"user_id":525,"name":"maslowski02","steam_id":76561199410835527,"connected_time":2942000000000,"state":"active","ping":99},{"user_id":575,"name":"Camo Leaf","steam_id":76561197999456575,"connected_time":928000000000,"state":"active","ping":34},{"user_id":568,"name":"stinkyshitass","steam_id":76561198816594501,"connected_time":1198000000000,"state":"active","ping":76},{"user_id":569,"name":"hades","steam_id":76561199435854673,"connected_time":1174000000000,"state":"active","ping":45},{"user_id":570,"name":"NitPig","steam_id":76561198212991935,"connected_time":1164000000000,"state":"active","ping":97},{"user_id":539,"name":"Timber","steam_id":76561198024886009,"connected_time":2664000000000,"state":"active","ping":168},{"user_id":545,"name":"sex havin'","steam_id":76561198169857427,"connected_time":2236000000000,"state":"active","ping":75},{"user_id":542,"name":"***** ***","steam_id":76561198048037379,"connected_time":2438000000000,"state":"active","ping":86},{"user_id":571,"name":"gGABEsz","steam_id":76561198117199068,"connected_time":1162000000000,"state":"active","ping":75},{"user_id":572,"name":"Hindmost","steam_id":76561199081837220,"connected_time":1148000000000,"state":"active","ping":175},{"user_id":581,"name":"ninjadogs14","steam_id":76561198144983985,"connected_time":419000000000,"state":"active","ping":50},{"user_id":576,"name":"LiterallyRyanGosling","steam_id":76561199017856691,"connected_time":859000000000,"state":"active","ping":57}]},{"server_id":40,"name":"Uncletopia | London | 7 | No Payload","name_short":"lon-7","host":"lon-1.uk.uncletopia.com","port":27075,"enabled":true,"region":"eu","cc":"gb","latitude":51.509865,"longitude":-0.118092,"reserved":0,"last_update":"0001-01-01T00:00:00Z","name_a2s":"Uncletopia | London | 7 | No Payload","protocol":17,"map":"koth_harvest_final","folder":"tf","game":"Team Fortress","app_id":440,"player_count":9,"max_players":24,"Bots":0,"server_type":"Dedicated","server_os":"Linux","password":true,"vac":true,"version":"7757534","steam_id":85568392924964314,"keywords":["cp","nocrits","nodmgspread","uncletopia"],"game_id":440,"stv_port":27076,"stv_name":"Uncletopia | London | 7 | No Payload | STV","players":[{"user_id":36,"name":"Pinkchup","steam_id":76561198106802803,"connected_time":2199000000000,"state":"active","ping":78},{"user_id":37,"name":"Minimi","steam_id":76561198873850443,"connected_time":2193000000000,"state":"active","ping":40},{"user_id":38,"name":"Kraiti","steam_id":76561198847296908,"connected_time":2185000000000,"state":"active","ping":79},{"user_id":40,"name":"AwterSix","steam_id":76561198042561678,"connected_time":1137000000000,"state":"active","ping":56},{"user_id":44,"name":"ran is running","steam_id":76561199443185667,"connected_time":680000000000,"state":"active","ping":141},{"user_id":42,"name":"Warpzel65","steam_id":76561198799303596,"connected_time":947000000000,"state":"active","ping":103},{"user_id":43,"name":"justin_ (f2p) (real)","steam_id":76561198839843428,"connected_time":868000000000,"state":"active","ping":118},{"user_id":46,"name":"Mirson","steam_id":76561198216819539,"connected_time":392000000000,"state":"active","ping":61},{"user_id":47,"name":"☆MiNTERRRRR☆","steam_id":76561198799866156,"connected_time":238000000000,"state":"active","ping":125}]},{"server_id":41,"name":"Uncletopia | London | 8 | Community","name_short":"lon-8","host":"lon-1.uk.uncletopia.com","port":27085,"enabled":true,"region":"eu","cc":"gb","latitude":51.509865,"longitude":-0.118092,"reserved":0,"last_update":"0001-01-01T00:00:00Z","name_a2s":"Uncletopia | London | 8 | Community","protocol":17,"map":"workshop/pl_corrode_rc2.ugc546577989","folder":"tf","game":"Team Fortress","app_id":440,"player_count":9,"max_players":24,"Bots":0,"server_type":"Dedicated","server_os":"Linux","password":true,"vac":true,"version":"7757534","steam_id":85568392924964315,"keywords":["nocrits","nodmgspread","payload","uncletopia"],"game_id":440,"stv_port":27086,"stv_name":"Uncletopia | London | 8 | Community | STV","players":[{"user_id":151,"name":"Icetanker","steam_id":76561198094189764,"connected_time":1795000000000,"state":"active","ping":53},{"user_id":124,"name":"Mr.Fosty","steam_id":76561198045212783,"connected_time":3547000000000,"state":"active","ping":87},{"user_id":172,"name":"John Combine","steam_id":76561199212273303,"connected_time":483000000000,"state":"active","ping":82},{"user_id":153,"name":"silicon based life form","steam_id":76561199127121346,"connected_time":1769000000000,"state":"active","ping":55},{"user_id":161,"name":"JOÃO MIGUEL","steam_id":76561198066297489,"connected_time":1650000000000,"state":"active","ping":65},{"user_id":175,"name":"hipster_doofus","steam_id":76561197970902697,"connected_time":404000000000,"state":"active","ping":56},{"user_id":166,"name":"Снюсоед","steam_id":76561198835078059,"connected_time":1500000000000,"state":"active","ping":113},{"user_id":140,"name":"Dr. Uberschwein","steam_id":76561198111367431,"connected_time":2373000000000,"state":"active","ping":58},{"user_id":165,"name":"tj #MISSLADY","steam_id":76561198161926133,"connected_time":1537000000000,"state":"active","ping":68}]},{"server_id":300,"name":"Uncletopia | Montréal | 1 | All Maps","name_short":"mtl-1","host":"mtl-1.ca.uncletopia.com","port":27015,"enabled":true,"region":"us-east","cc":"ca","latitude":45.50889,"longitude":-73.56167,"reserved":0,"last_update":"0001-01-01T00:00:00Z","name_a2s":"Uncletopia | Montréal | 1 | All Maps","protocol":17,"map":"pl_swiftwater_final1","folder":"tf","game":"Team Fortress","app_id":440,"player_count":24,"max_players":24,"Bots":0,"server_type":"Dedicated","server_os":"Linux","password":true,"vac":true,"version":"7757534","steam_id":85568392924500087,"keywords":["nocrits","nodmgspread","payload","uncletopia"],"game_id":440,"stv_port":27016,"stv_name":"Uncletopia | Montréal | 1 | All Maps | STV","players":[{"user_id":4,"name":"t.tv/stabslive","steam_id":76561198293116584,"connected_time":2912000000000,"state":"active","ping":77},{"user_id":40,"name":"a_person_159","steam_id":76561199024416326,"connected_time":900000000000,"state":"active","ping":57},{"user_id":6,"name":"minion lover","steam_id":76561198202990635,"connected_time":2899000000000,"state":"active","ping":150},{"user_id":7,"name":"thomasdee725","steam_id":76561199189526173,"connected_time":2890000000000,"state":"active","ping":72},{"user_id":8,"name":"kebo","steam_id":76561198237159430,"connected_time":2889000000000,"state":"active","ping":132},{"user_id":9,"name":":]","steam_id":76561198271892201,"connected_time":2872000000000,"state":"active","ping":135},{"user_id":10,"name":"Jared In Target","steam_id":76561198372449718,"connected_time":2852000000000,"state":"active","ping":86},{"user_id":42,"name":"Taco","steam_id":76561198158621392,"connected_time":674000000000,"state":"active","ping":56},{"user_id":43,"name":"CCdukes","steam_id":76561199200448760,"connected_time":649000000000,"state":"active","ping":74},{"user_id":48,"name":"DJ Chalice","steam_id":76561197974872458,"connected_time":329000000000,"state":"active","ping":67},{"user_id":31,"name":"Jikusen","steam_id":76561198143055842,"connected_time":2308000000000,"state":"active","ping":81},{"user_id":44,"name":"Eosson","steam_id":76561198108642113,"connected_time":645000000000,"state":"active","ping":106},{"user_id":21,"name":"doctor sex md","steam_id":76561198150678175,"connected_time":2688000000000,"state":"active","ping":131},{"user_id":36,"name":"Jadthegamerofgames","steam_id":76561198310575719,"connected_time":1779000000000,"state":"active","ping":40},{"user_id":19,"name":"Duo34","steam_id":76561198000464258,"connected_time":2726000000000,"state":"active","ping":73},{"user_id":20,"name":"Dictatorial Karelian","steam_id":76561198196736457,"connected_time":2697000000000,"state":"active","ping":168},{"user_id":23,"name":"Oganesson","steam_id":76561198334899723,"connected_time":2641000000000,"state":"active","ping":60},{"user_id":38,"name":"Kasane","steam_id":76561198209006780,"connected_time":1490000000000,"state":"active","ping":74},{"user_id":47,"name":"21ST CENTURY SCHIZOID MAN","steam_id":76561198081681647,"connected_time":419000000000,"state":"active","ping":96},{"user_id":26,"name":"Pescavelho","steam_id":76561198267897588,"connected_time":2532000000000,"state":"active","ping":155},{"user_id":37,"name":"Testosteroblerone","steam_id":76561199031278496,"connected_time":1778000000000,"state":"active","ping":92},{"user_id":28,"name":"Arbiter Soul","steam_id":76561198067798973,"connected_time":2487000000000,"state":"active","ping":138},{"user_id":35,"name":"Bernie Sanders","steam_id":76561199035800539,"connected_time":1793000000000,"state":"active","ping":48},{"user_id":39,"name":"captain come on","steam_id":76561199090438928,"connected_time":1420000000000,"state":"active","ping":65}]},{"server_id":301,"name":"Uncletopia | Montréal | 2 | All Maps","name_short":"mtl-2","host":"mtl-1.ca.uncletopia.com","port":27025,"enabled":true,"region":"us-east","cc":"ca","latitude":45.50889,"longitude":-73.56167,"reserved":0,"last_update":"0001-01-01T00:00:00Z","name_a2s":"Uncletopia | Montréal | 2 | All Maps","protocol":17,"map":"cp_sunshine","folder":"tf","game":"Team Fortress","app_id":440,"player_count":0,"max_players":24,"Bots":0,"server_type":"Dedicated","server_os":"Linux","password":true,"vac":true,"version":"7757534","steam_id":85568392924500088,"keywords":["cp","nocrits","nodmgspread","uncletopia"],"game_id":440,"stv_port":27026,"stv_name":"Uncletopia | Montréal | 2 | All Maps | STV","players":null},{"server_id":302,"name":"Uncletopia | Montréal | 3 | All Maps","name_short":"mtl-3","host":"mtl-1.ca.uncletopia.com","port":27035,"enabled":true,"region":"us-east","cc":"ca","latitude":45.50889,"longitude":-73.56167,"reserved":0,"last_update":"0001-01-01T00:00:00Z","name_a2s":"Uncletopia | Montréal | 3 | All Maps","protocol":17,"map":"pl_frontier_final","folder":"tf","game":"Team Fortress","app_id":440,"player_count":0,"max_players":24,"Bots":0,"server_type":"Dedicated","server_os":"Linux","password":true,"vac":true,"version":"7757534","steam_id":85568392924500089,"keywords":["nocrits","nodmgspread","payload","uncletopia"],"game_id":440,"stv_port":27036,"stv_name":"Uncletopia | Montréal | 3 | All Maps | STV","players":null},{"server_id":303,"name":"Uncletopia | Montréal | 4 | No Payload","name_short":"mtl-4","host":"mtl-1.ca.uncletopia.com","port":27045,"enabled":true,"region":"us-east","cc":"ca","latitude":45.50889,"longitude":-73.56167,"reserved":0,"last_update":"0001-01-01T00:00:00Z","name_a2s":"Uncletopia | Montréal | 4 | No Payload","protocol":17,"map":"cp_well","folder":"tf","game":"Team Fortress","app_id":440,"player_count":0,"max_players":24,"Bots":0,"server_type":"Dedicated","server_os":"Linux","password":true,"vac":true,"version":"7757534","steam_id":85568392924500090,"keywords":["cp","nocrits","nodmgspread","uncletopia"],"game_id":440,"stv_port":27046,"stv_name":"Uncletopia | Montréal | 4 | No Payload | STV","players":null},{"server_id":13,"name":"Uncletopia | New York City | 1 | All Maps","name_short":"nyc-1","host":"nyc-1.us.uncletopia.com","port":27015,"enabled":true,"region":"us-east","cc":"us","latitude":40.73061,"longitude":-73.93524,"reserved":0,"last_update":"0001-01-01T00:00:00Z","name_a2s":"Uncletopia | New York City | 1 | All Maps","protocol":17,"map":"pl_upward","folder":"tf","game":"Team Fortress","app_id":440,"player_count":24,"max_players":24,"Bots":0,"server_type":"Dedicated","server_os":"Linux","password":true,"vac":true,"version":"7757534","steam_id":85568392924469993,"keywords":["nocrits","nodmgspread","payload","uncletopia"],"game_id":440,"stv_port":27016,"stv_name":"Uncletopia | New York City | 1 | All Maps | STV","players":[{"user_id":230,"name":"Cubeet","steam_id":76561199114808836,"connected_time":159000000000,"state":"active","ping":174},{"user_id":205,"name":"AFunkyPigeon","steam_id":76561199350099870,"connected_time":2255000000000,"state":"active","ping":88},{"user_id":222,"name":"rollsroycekibby","steam_id":76561198991982630,"connected_time":1257000000000,"state":"active","ping":45},{"user_id":229,"name":"♡Alyx♡","steam_id":76561198024303978,"connected_time":366000000000,"state":"active","ping":55},{"user_id":231,"name":"Treeckogeek","steam_id":76561198453328078,"connected_time":121000000000,"state":"active","ping":75},{"user_id":226,"name":"RibRubz","steam_id":76561199024487700,"connected_time":813000000000,"state":"active","ping":134},{"user_id":188,"name":"I can't heal","steam_id":76561198039763676,"connected_time":3471000000000,"state":"active","ping":72},{"user_id":234,"name":"Saristan","steam_id":76561198093346048,"connected_time":17000000000,"state":"active","ping":36},{"user_id":212,"name":"Ros","steam_id":76561199055963822,"connected_time":1610000000000,"state":"active","ping":72},{"user_id":218,"name":"Asourcious","steam_id":76561198101635322,"connected_time":1485000000000,"state":"active","ping":72},{"user_id":217,"name":"Enron Hubbard","steam_id":76561198012951411,"connected_time":1504000000000,"state":"active","ping":78},{"user_id":208,"name":"mayoratheone","steam_id":76561199013353434,"connected_time":1831000000000,"state":"active","ping":121},{"user_id":220,"name":"xen","steam_id":76561198048568188,"connected_time":1284000000000,"state":"active","ping":48},{"user_id":219,"name":"Pockets","steam_id":76561198001742296,"connected_time":1421000000000,"state":"active","ping":81},{"user_id":232,"name":"Mr. Dick™","steam_id":76561198047309044,"connected_time":111000000000,"state":"active","ping":63},{"user_id":228,"name":"Comfy","steam_id":76561198008818346,"connected_time":554000000000,"state":"active","ping":42},{"user_id":200,"name":"Jackleg Joel","steam_id":76561198271636476,"connected_time":2426000000000,"state":"active","ping":131},{"user_id":100,"name":"Adventurematt","steam_id":76561199302420877,"connected_time":9345000000000,"state":"active","ping":64},{"user_id":213,"name":"banana97286","steam_id":76561199367847817,"connected_time":1596000000000,"state":"active","ping":54},{"user_id":214,"name":"yaldabaoth","steam_id":76561198084606869,"connected_time":1588000000000,"state":"active","ping":64},{"user_id":215,"name":"DiscoTraveler","steam_id":76561199240168088,"connected_time":1581000000000,"state":"active","ping":37},{"user_id":216,"name":"evnobev","steam_id":76561198038966462,"connected_time":1573000000000,"state":"active","ping":42},{"user_id":204,"name":"Leftshadows","steam_id":76561199089515791,"connected_time":2302000000000,"state":"active","ping":140},{"user_id":235,"name":"shokolad","steam_id":76561198431770137,"connected_time":1000000000,"state":"spawning","ping":43}]},{"server_id":14,"name":"Uncletopia | New York City | 2 | All Maps","name_short":"nyc-2","host":"nyc-1.us.uncletopia.com","port":27025,"enabled":true,"region":"us-east","cc":"us","latitude":40.73061,"longitude":-73.93524,"reserved":0,"last_update":"0001-01-01T00:00:00Z","name_a2s":"Uncletopia | New York City | 2 | All Maps","protocol":17,"map":"cp_powerhouse","folder":"tf","game":"Team Fortress","app_id":440,"player_count":24,"max_players":24,"Bots":0,"server_type":"Dedicated","server_os":"Linux","password":true,"vac":true,"version":"7757534","steam_id":85568392924469994,"keywords":["cp","nocrits","nodmgspread","uncletopia"],"game_id":440,"stv_port":27026,"stv_name":"Uncletopia | New York City | 2 | All Maps | STV","players":[{"user_id":172,"name":"Snowy Squill","steam_id":76561198073504207,"connected_time":63000000000,"state":"active","ping":150},{"user_id":164,"name":"quint","steam_id":76561198046797995,"connected_time":733000000000,"state":"active","ping":74},{"user_id":103,"name":"Skullypoo","steam_id":76561198067912022,"connected_time":3659000000000,"state":"active","ping":73},{"user_id":149,"name":"Zen Skye","steam_id":76561198114452552,"connected_time":1615000000000,"state":"active","ping":84},{"user_id":94,"name":"rivera","steam_id":76561198051058706,"connected_time":4333000000000,"state":"active","ping":35},{"user_id":171,"name":"StraySheep","steam_id":76561198256003811,"connected_time":172000000000,"state":"active","ping":56},{"user_id":151,"name":"crabapples","steam_id":76561198075818655,"connected_time":1583000000000,"state":"active","ping":63},{"user_id":101,"name":"gghfgfgfg","steam_id":76561198064823861,"connected_time":3699000000000,"state":"active","ping":59},{"user_id":150,"name":"nefarious criminal","steam_id":76561198077506415,"connected_time":1606000000000,"state":"active","ping":44},{"user_id":162,"name":"ExtraSoap","steam_id":76561198008712409,"connected_time":791000000000,"state":"active","ping":45},{"user_id":117,"name":"Giddy","steam_id":76561198129732108,"connected_time":3217000000000,"state":"active","ping":100},{"user_id":169,"name":"SavageLucario39","steam_id":76561199455012132,"connected_time":385000000000,"state":"active","ping":94},{"user_id":140,"name":"faxxy","steam_id":76561198079621240,"connected_time":1739000000000,"state":"active","ping":81},{"user_id":55,"name":"B","steam_id":76561198015740144,"connected_time":7054000000000,"state":"active","ping":81},{"user_id":156,"name":"lynt","steam_id":76561198988333976,"connected_time":1254000000000,"state":"active","ping":51},{"user_id":138,"name":"thecal","steam_id":76561198307893384,"connected_time":1850000000000,"state":"active","ping":73},{"user_id":160,"name":"Frimpimy","steam_id":76561198142605675,"connected_time":810000000000,"state":"active","ping":74},{"user_id":148,"name":"Riandox","steam_id":76561198130577326,"connected_time":1626000000000,"state":"active","ping":76},{"user_id":166,"name":"Pixeled","steam_id":76561198088917077,"connected_time":720000000000,"state":"active","ping":84},{"user_id":158,"name":"Recursive Gamer","steam_id":76561198042102952,"connected_time":944000000000,"state":"active","ping":90},{"user_id":167,"name":"floppy muppet","steam_id":76561198003076261,"connected_time":668000000000,"state":"active","ping":85},{"user_id":106,"name":"Sam","steam_id":76561198079393512,"connected_time":3613000000000,"state":"active","ping":62},{"user_id":130,"name":"\\|)=|_|=(|/","steam_id":76561198171491110,"connected_time":2228000000000,"state":"active","ping":56},{"user_id":131,"name":"Fiendish Frog","steam_id":76561198029478821,"connected_time":2228000000000,"state":"active","ping":52}]},{"server_id":15,"name":"Uncletopia | New York City | 3 | Stopwatch Beta","name_short":"nyc-3","host":"nyc-1.us.uncletopia.com","port":27035,"enabled":true,"region":"us-east","cc":"us","latitude":40.73061,"longitude":-73.93524,"reserved":0,"last_update":"0001-01-01T00:00:00Z","name_a2s":"Uncletopia | New York City | 3 | Stopwatch Beta","protocol":17,"map":"cp_sunshine","folder":"tf","game":"Team Fortress","app_id":440,"player_count":24,"max_players":24,"Bots":0,"server_type":"Dedicated","server_os":"Linux","password":true,"vac":true,"version":"7757534","steam_id":85568392924742820,"keywords":["cp","nocrits","nodmgspread","uncletopia"],"game_id":440,"stv_port":27036,"stv_name":"Uncletopia | New York City | 3 | Stopwatch Beta | STV","players":[{"user_id":52,"name":"heimdall","steam_id":76561198069380992,"connected_time":565000000000,"state":"active","ping":102},{"user_id":29,"name":"dwarf guy","steam_id":76561198993740818,"connected_time":1877000000000,"state":"active","ping":71},{"user_id":51,"name":"Dragonsofdra","steam_id":76561198253369292,"connected_time":653000000000,"state":"active","ping":118},{"user_id":19,"name":"Tre3","steam_id":76561198054795379,"connected_time":2230000000000,"state":"active","ping":134},{"user_id":24,"name":"Chao","steam_id":76561198834293382,"connected_time":1976000000000,"state":"active","ping":114},{"user_id":49,"name":"Red_Hatkins","steam_id":76561198214004105,"connected_time":808000000000,"state":"active","ping":85},{"user_id":21,"name":"Zwiess","steam_id":76561198091711177,"connected_time":2180000000000,"state":"active","ping":91},{"user_id":18,"name":"alcohol","steam_id":76561198328109873,"connected_time":2335000000000,"state":"active","ping":54},{"user_id":22,"name":"Forgetful_Gamer","steam_id":76561198172779746,"connected_time":2177000000000,"state":"active","ping":135},{"user_id":56,"name":"Ceiling Man","steam_id":76561198003959902,"connected_time":402000000000,"state":"active","ping":41},{"user_id":59,"name":"ark","steam_id":76561198041066271,"connected_time":87000000000,"state":"active","ping":90},{"user_id":26,"name":"VanillaWoof","steam_id":76561198158343951,"connected_time":1948000000000,"state":"active","ping":133},{"user_id":27,"name":"Strike","steam_id":76561197974662975,"connected_time":1942000000000,"state":"active","ping":146},{"user_id":42,"name":"Mr_Frosty","steam_id":76561199380389079,"connected_time":1148000000000,"state":"active","ping":98},{"user_id":32,"name":"|WS| Don't_Taze_Me_Bro","steam_id":76561198043289495,"connected_time":1712000000000,"state":"active","ping":73},{"user_id":43,"name":"DAMN DANIEL AR AR AR AR AR","steam_id":76561198314941120,"connected_time":1080000000000,"state":"active","ping":93},{"user_id":55,"name":"gay people","steam_id":76561198249206656,"connected_time":450000000000,"state":"active","ping":75},{"user_id":41,"name":"Ronnie McNutt","steam_id":76561198453543661,"connected_time":1327000000000,"state":"active","ping":83},{"user_id":36,"name":"BasicPeaches","steam_id":76561198190890150,"connected_time":1597000000000,"state":"active","ping":65},{"user_id":38,"name":"dairy","steam_id":76561198117033273,"connected_time":1498000000000,"state":"active","ping":123},{"user_id":54,"name":"بارك الله فيbodyshot","steam_id":76561198103496593,"connected_time":526000000000,"state":"active","ping":66},{"user_id":40,"name":"oreo mcflurry with caramel","steam_id":76561198143132686,"connected_time":1445000000000,"state":"active","ping":113},{"user_id":50,"name":"breadroll","steam_id":76561198039506482,"connected_time":670000000000,"state":"active","ping":44},{"user_id":58,"name":"Lzuli","steam_id":76561198799610915,"connected_time":133000000000,"state":"active","ping":94}]},{"server_id":16,"name":"Uncletopia | New York City | 4 | Community","name_short":"nyc-4","host":"nyc-1.us.uncletopia.com","port":27045,"enabled":true,"region":"us-east","cc":"us","latitude":40.73061,"longitude":-73.93524,"reserved":0,"last_update":"0001-01-01T00:00:00Z","name_a2s":"Uncletopia | New York City | 4 | Community","protocol":17,"map":"workshop/pl_divulgence_b4b.ugc2884808746","folder":"tf","game":"Team Fortress","app_id":440,"player_count":0,"max_players":24,"Bots":0,"server_type":"Dedicated","server_os":"Linux","password":true,"vac":true,"version":"7757534","steam_id":85568392924742821,"keywords":["nocrits","nodmgspread","payload","uncletopia"],"game_id":440,"stv_port":27046,"stv_name":"Uncletopia | New York City | 4 | Community | STV","players":null},{"server_id":142,"name":"Uncletopia | São Paulo | 1 | All Maps","name_short":"sao-1","host":"sao-1.br.uncletopia.com","port":27015,"enabled":true,"region":"sa","cc":"br","latitude":-23.533773,"longitude":-46.62529,"reserved":0,"last_update":"0001-01-01T00:00:00Z","name_a2s":"Uncletopia | São Paulo | 1 | All Maps","protocol":17,"map":"koth_cascade","folder":"tf","game":"Team Fortress","app_id":440,"player_count":1,"max_players":24,"Bots":0,"server_type":"Dedicated","server_os":"Linux","password":true,"vac":true,"version":"7757534","steam_id":85568392924469996,"keywords":["cp","nocrits","nodmgspread","uncletopia"],"game_id":440,"stv_port":27016,"stv_name":"Uncletopia | São Paulo | 1 | All Maps | STV","players":[{"user_id":16,"name":"CJAIME01345","steam_id":76561199091599141,"connected_time":183000000000,"state":"active","ping":87}]},{"server_id":143,"name":"Uncletopia | São Paulo | 2 | All Maps","name_short":"sao-2","host":"sao-2.br.uncletopia.com","port":27015,"enabled":true,"region":"sa","cc":"br","latitude":-23.533773,"longitude":-46.62529,"reserved":0,"last_update":"0001-01-01T00:00:00Z","name_a2s":"Uncletopia | São Paulo | 2 | All Maps","protocol":17,"map":"koth_viaduct","folder":"tf","game":"Team Fortress","app_id":440,"player_count":0,"max_players":24,"Bots":0,"server_type":"Dedicated","server_os":"Linux","password":true,"vac":true,"version":"7757534","steam_id":85568392924485349,"keywords":["cp","nocrits","nodmgspread","uncletopia"],"game_id":440,"stv_port":27016,"stv_name":"Uncletopia | São Paulo | 2 | All Maps | STV","players":null},{"server_id":7,"name":"Uncletopia | Seattle | 1 | All Maps","name_short":"sea-1","host":"sea-1.us.uncletopia.com","port":27015,"enabled":true,"region":"us-west","cc":"us","latitude":47.608013,"longitude":-122.33517,"reserved":0,"last_update":"0001-01-01T00:00:00Z","name_a2s":"Uncletopia | Seattle | 1 | All Maps","protocol":17,"map":"pl_badwater","folder":"tf","game":"Team Fortress","app_id":440,"player_count":25,"max_players":24,"Bots":0,"server_type":"Dedicated","server_os":"Linux","password":true,"vac":true,"version":"7757534","steam_id":85568392924469997,"keywords":["nocrits","nodmgspread","payload","uncletopia"],"game_id":440,"stv_port":27016,"stv_name":"Uncletopia | Seattle | 1 | All Maps | STV","players":[{"user_id":284,"name":"T.T","steam_id":76561198041907345,"connected_time":984000000000,"state":"active","ping":85},{"user_id":234,"name":"ShidFard|RayWilliamJohnsonGamin","steam_id":76561198207800784,"connected_time":1817000000000,"state":"active","ping":53},{"user_id":324,"name":"Rat Bastard -{A★T}-","steam_id":76561197979905804,"connected_time":156000000000,"state":"active","ping":102},{"user_id":323,"name":"Tungsten","steam_id":76561198312854342,"connected_time":165000000000,"state":"active","ping":54},{"user_id":282,"name":"BLU3","steam_id":76561198059652670,"connected_time":1009000000000,"state":"active","ping":46},{"user_id":285,"name":"blah","steam_id":76561197980327249,"connected_time":983000000000,"state":"active","ping":61},{"user_id":222,"name":"Sprucelass","steam_id":76561197998391724,"connected_time":3033000000000,"state":"active","ping":97},{"user_id":238,"name":"gatorbelt","steam_id":76561198145784505,"connected_time":1754000000000,"state":"active","ping":76},{"user_id":241,"name":"[SFG] Sirebellum","steam_id":76561199012778952,"connected_time":1659000000000,"state":"active","ping":107},{"user_id":217,"name":"WACKY JIM","steam_id":76561198961641122,"connected_time":3238000000000,"state":"active","ping":55},{"user_id":196,"name":"DoctorHa","steam_id":76561198044026008,"connected_time":5999000000000,"state":"active","ping":98},{"user_id":213,"name":"Local","steam_id":76561198170915102,"connected_time":4338000000000,"state":"active","ping":52},{"user_id":288,"name":"indyjacob","steam_id":76561198065158713,"connected_time":923000000000,"state":"active","ping":102},{"user_id":251,"name":"yayayuyu121","steam_id":76561199271895855,"connected_time":1395000000000,"state":"active","ping":123},{"user_id":273,"name":"Sticky Ethan","steam_id":76561198277211625,"connected_time":1065000000000,"state":"active","ping":73},{"user_id":239,"name":"THE Bucket Man","steam_id":76561198851816161,"connected_time":1751000000000,"state":"active","ping":106},{"user_id":206,"name":"Agent86","steam_id":76561198046794593,"connected_time":5264000000000,"state":"active","ping":97},{"user_id":240,"name":"RaTtYc","steam_id":76561198954419354,"connected_time":1706000000000,"state":"active","ping":145},{"user_id":243,"name":"Dargoos","steam_id":76561198366212046,"connected_time":1644000000000,"state":"active","ping":76},{"user_id":186,"name":"iamsohardrn","steam_id":76561199147510427,"connected_time":6960000000000,"state":"active","ping":89},{"user_id":246,"name":"ORANGE","steam_id":76561198000401769,"connected_time":1558000000000,"state":"active","ping":47},{"user_id":256,"name":"Зайчик","steam_id":76561198058590461,"connected_time":1304000000000,"state":"active","ping":129},{"user_id":248,"name":"Morse","steam_id":76561198039944542,"connected_time":1436000000000,"state":"active","ping":53},{"user_id":320,"name":"vncnt","steam_id":76561198046113319,"connected_time":208000000000,"state":"active","ping":90},{"user_id":333,"name":"robbiebelcher08","steam_id":76561199474716496,"connected_time":4000000000,"state":"spawning","ping":71}]},{"server_id":119,"name":"Uncletopia | Seattle | 2 | All Maps","name_short":"sea-2","host":"sea-1.us.uncletopia.com","port":27025,"enabled":true,"region":"us-west","cc":"us","latitude":47.608013,"longitude":-122.33517,"reserved":0,"last_update":"0001-01-01T00:00:00Z","name_a2s":"Uncletopia | Seattle | 2 | All Maps","protocol":17,"map":"pl_borneo","folder":"tf","game":"Team Fortress","app_id":440,"player_count":24,"max_players":24,"Bots":0,"server_type":"Dedicated","server_os":"Linux","password":true,"vac":true,"version":"7757534","steam_id":85568392924469998,"keywords":["nocrits","nodmgspread","payload","uncletopia"],"game_id":440,"stv_port":27026,"stv_name":"Uncletopia | Seattle | 2 | All Maps | STV","players":[{"user_id":198,"name":"sneaky snitch 🀥🀈🀛🀓","steam_id":76561198313088312,"connected_time":876000000000,"state":"active","ping":66},{"user_id":205,"name":"Chadley","steam_id":76561198066933113,"connected_time":628000000000,"state":"active","ping":99},{"user_id":183,"name":"Keekiizz","steam_id":76561198317177149,"connected_time":1938000000000,"state":"active","ping":90},{"user_id":195,"name":"Gato","steam_id":76561198063521721,"connected_time":1366000000000,"state":"active","ping":105},{"user_id":160,"name":"Mr. Feline","steam_id":76561198090704790,"connected_time":3059000000000,"state":"active","ping":104},{"user_id":209,"name":"A Duck With Socks","steam_id":76561198018844227,"connected_time":449000000000,"state":"active","ping":55},{"user_id":188,"name":"EEBIGAA","steam_id":76561198056535988,"connected_time":1840000000000,"state":"active","ping":73},{"user_id":212,"name":"Battle Pope","steam_id":76561198059627663,"connected_time":43000000000,"state":"active","ping":90},{"user_id":210,"name":"lili","steam_id":76561199391478575,"connected_time":307000000000,"state":"active","ping":70},{"user_id":192,"name":"squid game","steam_id":76561199248960166,"connected_time":1514000000000,"state":"active","ping":43},{"user_id":185,"name":"isy","steam_id":76561198068017860,"connected_time":1920000000000,"state":"active","ping":78},{"user_id":211,"name":"Starpillow ♡","steam_id":76561198095034817,"connected_time":84000000000,"state":"active","ping":58},{"user_id":163,"name":"ulti_fd","steam_id":76561198050926014,"connected_time":2973000000000,"state":"active","ping":120},{"user_id":197,"name":"j","steam_id":76561198162075431,"connected_time":890000000000,"state":"active","ping":87},{"user_id":199,"name":"Lord_Gamer_106","steam_id":76561198364158550,"connected_time":876000000000,"state":"active","ping":56},{"user_id":169,"name":"dust | she/it","steam_id":76561198045218909,"connected_time":2620000000000,"state":"active","ping":36},{"user_id":206,"name":"shy guy","steam_id":76561198151246059,"connected_time":582000000000,"state":"active","ping":73},{"user_id":213,"name":"bodi","steam_id":76561199062396598,"connected_time":29000000000,"state":"active","ping":123},{"user_id":190,"name":"greens beans","steam_id":76561198153611491,"connected_time":1649000000000,"state":"active","ping":45},{"user_id":214,"name":"Keamy","steam_id":76561199471434875,"connected_time":23000000000,"state":"active","ping":36},{"user_id":208,"name":"thelegoman890","steam_id":76561198417463803,"connected_time":491000000000,"state":"active","ping":86},{"user_id":168,"name":"--)YawgMoss(-- \"The Salt\"","steam_id":76561198072971649,"connected_time":2714000000000,"state":"active","ping":65},{"user_id":149,"name":"boulder","steam_id":76561198347225801,"connected_time":3547000000000,"state":"active","ping":54},{"user_id":156,"name":"soldlemon","steam_id":76561199034747133,"connected_time":3467000000000,"state":"active","ping":84}]},{"server_id":406,"name":"Uncletopia | Seattle | 3 | Stopwatch Beta","name_short":"sea-3","host":"sea-1.us.uncletopia.com","port":27035,"enabled":true,"region":"us-west","cc":"us","latitude":47.608013,"longitude":-122.33517,"reserved":0,"last_update":"0001-01-01T00:00:00Z","name_a2s":"Uncletopia | Seattle | 3 | Stopwatch Beta","protocol":17,"map":"workshop/pl_barnblitz_pro7.ugc582280235","folder":"tf","game":"Team Fortress","app_id":440,"player_count":0,"max_players":24,"Bots":0,"server_type":"Dedicated","server_os":"Linux","password":true,"vac":true,"version":"7757534","steam_id":85568392924515217,"keywords":["nocrits","nodmgspread","payload","uncletopia"],"game_id":440,"stv_port":27036,"stv_name":"Uncletopia | Seattle | 3 | Stopwatch Beta | STV","players":null},{"server_id":17,"name":"Uncletopia | San Francisco | 1 | All Maps","name_short":"sfo-1","host":"sfo-1.us.uncletopia.com","port":27015,"enabled":true,"region":"us-west","cc":"us","latitude":37.77397,"longitude":-122.4313,"reserved":0,"last_update":"0001-01-01T00:00:00Z","name_a2s":"Uncletopia | San Francisco | 1 | All Maps","protocol":17,"map":"ctf_doublecross","folder":"tf","game":"Team Fortress","app_id":440,"player_count":24,"max_players":24,"Bots":0,"server_type":"Dedicated","server_os":"Linux","password":true,"vac":true,"version":"7757534","steam_id":85568392924469999,"keywords":["ctf","nocrits","nodmgspread","uncletopia"],"game_id":440,"stv_port":27016,"stv_name":"Uncletopia | San Francisco | 1 | All Maps | STV","players":[{"user_id":88,"name":"chaos","steam_id":76561198055462404,"connected_time":4975000000000,"state":"active","ping":46},{"user_id":159,"name":"Ulrich Stern","steam_id":76561198101739682,"connected_time":923000000000,"state":"active","ping":112},{"user_id":124,"name":"Slugma","steam_id":76561198048544669,"connected_time":2734000000000,"state":"active","ping":129},{"user_id":163,"name":"Mc_griddle_goblin","steam_id":76561199068696545,"connected_time":750000000000,"state":"active","ping":127},{"user_id":145,"name":"bowling","steam_id":76561198854571744,"connected_time":1680000000000,"state":"active","ping":57},{"user_id":156,"name":"Uprightmoss7528","steam_id":76561199200138486,"connected_time":1024000000000,"state":"active","ping":72},{"user_id":182,"name":"jackhillard83","steam_id":76561199057098390,"connected_time":10000000000,"state":"spawning","ping":173},{"user_id":155,"name":"Alpharius","steam_id":76561197996284353,"connected_time":1133000000000,"state":"active","ping":88},{"user_id":164,"name":"zzZZzz","steam_id":76561198346823843,"connected_time":742000000000,"state":"active","ping":81},{"user_id":169,"name":"They could be starlings","steam_id":76561198441020995,"connected_time":553000000000,"state":"active","ping":59},{"user_id":144,"name":"MarcusDragon11","steam_id":76561198071836719,"connected_time":1707000000000,"state":"active","ping":102},{"user_id":180,"name":"rmbl","steam_id":76561198150137369,"connected_time":69000000000,"state":"active","ping":67},{"user_id":157,"name":"M4_Patriot","steam_id":76561198380134648,"connected_time":983000000000,"state":"active","ping":60},{"user_id":149,"name":"Haywood Jablowme","steam_id":76561198097721532,"connected_time":1429000000000,"state":"active","ping":64},{"user_id":152,"name":"E-ferret","steam_id":76561198394134715,"connected_time":1360000000000,"state":"active","ping":125},{"user_id":172,"name":"You Know What You Did","steam_id":76561198218558897,"connected_time":479000000000,"state":"active","ping":110},{"user_id":170,"name":":3 (Registered Terrorist)","steam_id":76561198866678182,"connected_time":516000000000,"state":"active","ping":111},{"user_id":171,"name":"How to Make SLIME for Beginners","steam_id":76561198123993540,"connected_time":485000000000,"state":"active","ping":149},{"user_id":181,"name":"Nelson","steam_id":76561198036822957,"connected_time":36000000000,"state":"spawning","ping":115},{"user_id":167,"name":"StatesideSnake","steam_id":76561198272957048,"connected_time":706000000000,"state":"active","ping":102},{"user_id":137,"name":"Nibotshooter","steam_id":76561199284825579,"connected_time":2303000000000,"state":"active","ping":84},{"user_id":174,"name":"user10","steam_id":76561198184814466,"connected_time":418000000000,"state":"active","ping":52},{"user_id":132,"name":"Fluffy \u003c3 [HUGS]","steam_id":76561198119444962,"connected_time":2665000000000,"state":"active","ping":81},{"user_id":141,"name":"BoX_hEaD101","steam_id":76561198200875467,"connected_time":1851000000000,"state":"active","ping":69}]},{"server_id":18,"name":"Uncletopia | San Francisco | 2 | All Maps","name_short":"sfo-2","host":"sfo-1.us.uncletopia.com","port":27025,"enabled":true,"region":"us-west","cc":"us","latitude":37.77397,"longitude":-122.4313,"reserved":0,"last_update":"0001-01-01T00:00:00Z","name_a2s":"Uncletopia | San Francisco | 2 | All Maps","protocol":17,"map":"koth_viaduct","folder":"tf","game":"Team Fortress","app_id":440,"player_count":0,"max_players":24,"Bots":0,"server_type":"Dedicated","server_os":"Linux","password":true,"vac":true,"version":"7757534","steam_id":85568392924470000,"keywords":["cp","nocrits","nodmgspread","uncletopia"],"game_id":440,"stv_port":27026,"stv_name":"Uncletopia | San Francisco | 2 | All Maps | STV","players":null},{"server_id":19,"name":"Uncletopia | San Francisco | 3 | Stopwatch Beta","name_short":"sfo-3","host":"sfo-1.us.uncletopia.com","port":27035,"enabled":true,"region":"us-west","cc":"us","latitude":37.77397,"longitude":-122.4313,"reserved":0,"last_update":"0001-01-01T00:00:00Z","name_a2s":"Uncletopia | San Francisco | 3 | Stopwatch Beta","protocol":17,"map":"cp_snakewater_final1","folder":"tf","game":"Team Fortress","app_id":440,"player_count":0,"max_players":24,"Bots":0,"server_type":"Dedicated","server_os":"Linux","password":true,"vac":true,"version":"7757534","steam_id":85568392924742824,"keywords":["cp","nocrits","nodmgspread","uncletopia"],"game_id":440,"stv_port":27036,"stv_name":"Uncletopia | San Francisco | 3 | Stopwatch Beta | STV","players":null},{"server_id":20,"name":"Uncletopia | San Francisco | 4 | Community","name_short":"sfo-4","host":"sfo-1.us.uncletopia.com","port":27045,"enabled":true,"region":"us-west","cc":"us","latitude":37.77397,"longitude":-122.4313,"reserved":0,"last_update":"0001-01-01T00:00:00Z","name_a2s":"Uncletopia | San Francisco | 4 | Community","protocol":17,"map":"workshop/pl_divulgence_b4b.ugc2884808746","folder":"tf","game":"Team Fortress","app_id":440,"player_count":0,"max_players":24,"Bots":0,"server_type":"Dedicated","server_os":"Linux","password":true,"vac":true,"version":"7757534","steam_id":85568392924742826,"keywords":["nocrits","nodmgspread","payload","uncletopia"],"game_id":440,"stv_port":27046,"stv_name":"Uncletopia | San Francisco | 4 | Community | STV","players":null},{"server_id":141,"name":"Uncletopia | Sydney | 1 | All Maps","name_short":"syd-1","host":"syd-1.au.uncletopia.com","port":27015,"enabled":true,"region":"au","cc":"au","latitude":-33.865143,"longitude":151.2099,"reserved":0,"last_update":"0001-01-01T00:00:00Z","name_a2s":"Uncletopia | Sydney | 1 | All Maps","protocol":17,"map":"pl_borneo","folder":"tf","game":"Team Fortress","app_id":440,"player_count":1,"max_players":24,"Bots":0,"server_type":"Dedicated","server_os":"Linux","password":true,"vac":true,"version":"7757534","steam_id":85568392924470001,"keywords":["nocrits","nodmgspread","payload","uncletopia"],"game_id":440,"stv_port":27016,"stv_name":"Uncletopia | Sydney | 1 | All Maps | STV","players":[{"user_id":3,"name":"Cyborgcupine","steam_id":76561198257389366,"connected_time":3000000000,"state":"spawning","ping":97}]},{"server_id":123,"name":"Uncletopia | Sydney | 2 | All Maps","name_short":"syd-2","host":"syd-1.au.uncletopia.com","port":27025,"enabled":true,"region":"au","cc":"au","latitude":-33.865143,"longitude":151.2099,"reserved":0,"last_update":"0001-01-01T00:00:00Z","name_a2s":"Uncletopia | Sydney | 2 | All Maps","protocol":17,"map":"cp_snakewater_final1","folder":"tf","game":"Team Fortress","app_id":440,"player_count":0,"max_players":24,"Bots":0,"server_type":"Dedicated","server_os":"Linux","password":true,"vac":true,"version":"7757534","steam_id":85568392924470002,"keywords":["cp","nocrits","nodmgspread","uncletopia"],"game_id":440,"stv_port":27026,"stv_name":"Uncletopia | Sydney | 2 | All Maps | STV","players":null},{"server_id":395,"name":"Uncletopia | Sydney | 3 | All Maps","name_short":"syd-3","host":"syd-1.au.uncletopia.com","port":27035,"enabled":true,"region":"au","cc":"au","latitude":-33.865143,"longitude":151.2099,"reserved":0,"last_update":"0001-01-01T00:00:00Z","name_a2s":"Uncletopia | Sydney | 3 | All Maps","protocol":17,"map":"pl_borneo","folder":"tf","game":"Team Fortress","app_id":440,"player_count":0,"max_players":24,"Bots":0,"server_type":"Dedicated","server_os":"Linux","password":true,"vac":true,"version":"7757534","steam_id":85568392925194467,"keywords":["nocrits","nodmgspread","payload","uncletopia"],"game_id":440,"stv_port":27036,"stv_name":"Uncletopia | Sydney | 3 | All Maps | STV","players":null},{"server_id":396,"name":"Uncletopia | Sydney | 4 | All Maps","name_short":"syd-4","host":"syd-1.au.uncletopia.com","port":27045,"enabled":true,"region":"au","cc":"au","latitude":-33.865143,"longitude":151.2099,"reserved":0,"last_update":"0001-01-01T00:00:00Z","name_a2s":"Uncletopia | Sydney | 4 | All Maps","protocol":17,"map":"cp_process_final","folder":"tf","game":"Team Fortress","app_id":440,"player_count":0,"max_players":24,"Bots":0,"server_type":"Dedicated","server_os":"Linux","password":true,"vac":true,"version":"7757534","steam_id":85568392925397958,"keywords":["cp","nocrits","nodmgspread","uncletopia"],"game_id":440,"stv_port":27046,"stv_name":"Uncletopia | Sydney | 4 | All Maps | STV","players":null},{"server_id":58,"name":"Uncletopia | Sydney | 5 | Stopwatch Beta","name_short":"syd-5","host":"syd-1.au.uncletopia.com","port":27055,"enabled":true,"region":"au","cc":"au","latitude":-33.865143,"longitude":151.2099,"reserved":0,"last_update":"0001-01-01T00:00:00Z","name_a2s":"Uncletopia | Sydney | 5 | Stopwatch Beta","protocol":17,"map":"koth_cascade","folder":"tf","game":"Team Fortress","app_id":440,"player_count":0,"max_players":24,"Bots":0,"server_type":"Dedicated","server_os":"Linux","password":true,"vac":true,"version":"7757534","steam_id":85568392925397959,"keywords":["cp","nocrits","nodmgspread","uncletopia"],"game_id":440,"stv_port":27056,"stv_name":"Uncletopia | Sydney | 5 | Stopwatch Beta | STV","players":null},{"server_id":59,"name":"Uncletopia | Sydney | 6 | Community","name_short":"syd-6","host":"syd-1.au.uncletopia.com","port":27065,"enabled":true,"region":"au","cc":"au","latitude":-33.865143,"longitude":151.2099,"reserved":0,"last_update":"0001-01-01T00:00:00Z","name_a2s":"Uncletopia | Sydney | 6 | Community","protocol":17,"map":"pl_badwater","folder":"tf","game":"Team Fortress","app_id":440,"player_count":0,"max_players":24,"Bots":0,"server_type":"Dedicated","server_os":"Linux","password":true,"vac":true,"version":"7757534","steam_id":85568392925397960,"keywords":["nocrits","nodmgspread","payload","uncletopia"],"game_id":440,"stv_port":27066,"stv_name":"Uncletopia | Sydney | 6 | Community | STV","players":null},{"server_id":49,"name":"Uncletopia | Warsaw | 1 | All Maps","name_short":"waw-1","host":"waw-1.pl.uncletopia.com","port":27015,"enabled":true,"region":"eu","cc":"pl","latitude":52.2297,"longitude":21.017532,"reserved":0,"last_update":"0001-01-01T00:00:00Z","name_a2s":"","protocol":0,"map":"","folder":"","game":"","app_id":0,"player_count":0,"max_players":0,"Bots":0,"server_type":"","server_os":"","password":false,"vac":false,"version":"","steam_id":0,"keywords":null,"game_id":0,"stv_port":0,"stv_name":"","players":null},{"server_id":50,"name":"Uncletopia | Warsaw | 2 | All Maps","name_short":"waw-2","host":"waw-1.pl.uncletopia.com","port":27025,"enabled":true,"region":"eu","cc":"pl","latitude":52.2297,"longitude":21.017532,"reserved":0,"last_update":"0001-01-01T00:00:00Z","name_a2s":"Uncletopia | Warsaw | 2 | All Maps","protocol":17,"map":"pl_upward","folder":"tf","game":"Team Fortress","app_id":440,"player_count":0,"max_players":24,"Bots":0,"server_type":"Dedicated","server_os":"Linux","password":true,"vac":true,"version":"7757534","steam_id":85568392925397851,"keywords":["nocrits","nodmgspread","payload","uncletopia"],"game_id":440,"stv_port":27026,"stv_name":"Uncletopia | Warsaw | 2 | All Maps | STV","players":null},{"server_id":51,"name":"Uncletopia | Warsaw | 3 | All Maps","name_short":"waw-3","host":"waw-1.pl.uncletopia.com","port":27035,"enabled":true,"region":"eu","cc":"pl","latitude":52.2297,"longitude":21.017532,"reserved":0,"last_update":"0001-01-01T00:00:00Z","name_a2s":"Uncletopia | Warsaw | 3 | All Maps","protocol":17,"map":"cp_mountainlab","folder":"tf","game":"Team Fortress","app_id":440,"player_count":0,"max_players":24,"Bots":0,"server_type":"Dedicated","server_os":"Linux","password":true,"vac":true,"version":"7757534","steam_id":85568392925397852,"keywords":["cp","nocrits","nodmgspread","uncletopia"],"game_id":440,"stv_port":27036,"stv_name":"Uncletopia | Warsaw | 3 | All Maps | STV","players":null},{"server_id":52,"name":"Uncletopia | Warsaw | 4 | All Maps","name_short":"waw-4","host":"waw-1.pl.uncletopia.com","port":27045,"enabled":true,"region":"eu","cc":"pl","latitude":52.2297,"longitude":21.017532,"reserved":0,"last_update":"0001-01-01T00:00:00Z","name_a2s":"Uncletopia | Warsaw | 4 | All Maps","protocol":17,"map":"pl_borneo","folder":"tf","game":"Team Fortress","app_id":440,"player_count":0,"max_players":24,"Bots":0,"server_type":"Dedicated","server_os":"Linux","password":true,"vac":true,"version":"7757534","steam_id":85568392925397853,"keywords":["nocrits","nodmgspread","payload","uncletopia"],"game_id":440,"stv_port":27046,"stv_name":"Uncletopia | Warsaw | 4 | All Maps | STV","players":null},{"server_id":53,"name":"Uncletopia | Warsaw | 5 | Stopwatch Beta","name_short":"waw-5","host":"waw-1.pl.uncletopia.com","port":27055,"enabled":true,"region":"eu","cc":"pl","latitude":52.2297,"longitude":21.017532,"reserved":0,"last_update":"0001-01-01T00:00:00Z","name_a2s":"Uncletopia | Warsaw | 5 | Stopwatch Beta","protocol":17,"map":"pl_pier","folder":"tf","game":"Team Fortress","app_id":440,"player_count":0,"max_players":24,"Bots":0,"server_type":"Dedicated","server_os":"Linux","password":true,"vac":true,"version":"7757534","steam_id":85568392925397854,"keywords":["nocrits","nodmgspread","payload","uncletopia"],"game_id":440,"stv_port":27056,"stv_name":"Uncletopia | Warsaw | 5 | Stopwatch Beta | STV","players":null},{"server_id":54,"name":"Uncletopia | Warsaw | 6 | Community","name_short":"waw-6","host":"waw-1.pl.uncletopia.com","port":27065,"enabled":true,"region":"eu","cc":"pl","latitude":52.2297,"longitude":21.017532,"reserved":0,"last_update":"0001-01-01T00:00:00Z","name_a2s":"Uncletopia | Warsaw | 6 | Community","protocol":17,"map":"koth_highpass","folder":"tf","game":"Team Fortress","app_id":440,"player_count":0,"max_players":24,"Bots":0,"server_type":"Dedicated","server_os":"Linux","password":true,"vac":true,"version":"7757534","steam_id":85568392925397856,"keywords":["cp","nocrits","nodmgspread","uncletopia"],"game_id":440,"stv_port":27066,"stv_name":"Uncletopia | Warsaw | 6 | Community | STV","players":null}]}