{"status":true,"message":"","result":[{"server_id":9,"name":"Uncletopia | Atlanta | 1 | All Maps","name_short":"atl-1","host":"atl-1.us.uncletopia.com","port":27015,"enabled":true,"region":"us-east","cc":"us","latitude":33.753746,"longitude":-84.38633,"reserved":0,"last_update":"0001-01-01T00:00:00Z","name_a2s":"Uncletopia | Atlanta | 1 | All Maps","protocol":17,"map":"koth_lakeside_final","folder":"tf","game":"Team Fortress","app_id":440,"player_count":0,"max_players":24,"Bots":0,"server_type":"Dedicated","server_os":"Linux","password":true,"vac":true,"version":"7961495","steam_id":85568392924469982,"keywords":["cp","nocrits","nodmgspread","uncletopia"],"game_id":440,"stv_port":27016,"stv_name":"Uncletopia | Atlanta | 1 | All Maps | STV","players":null},{"server_id":104,"name":"Uncletopia | Atlanta | 2 | All Maps","name_short":"atl-2","host":"atl-1.us.uncletopia.com","port":27025,"enabled":true,"region":"us-east","cc":"us","latitude":33.753746,"longitude":-84.38633,"reserved":0,"last_update":"0001-01-01T00:00:00Z","name_a2s":"Uncletopia | Atlanta | 2 | All Maps","protocol":17,"map":"koth_cascade","folder":"tf","game":"Team Fortress","app_id":440,"player_count":0,"max_players":24,"Bots":0,"server_type":"Dedicated","server_os":"Linux","password":true,"vac":true,"version":"7961495","steam_id":85568392924469983,"keywords":["cp","nocrits","nodmgspread","uncletopia"],"game_id":440,"stv_port":27026,"stv_name":"Uncletopia | Atlanta | 2 | All Maps | STV","players":null},{"server_id":400,"name":"Uncletopia | Atlanta | 3 | Stopwatch","name_short":"atl-3","host":"atl-1.us.uncletopia.com","port":27035,"enabled":true,"region":"us-east","cc":"us","latitude":33.753746,"longitude":-84.38633,"reserved":0,"last_update":"0001-01-01T00:00:00Z","name_a2s":"Uncletopia | Atlanta | 3 | Stopwatch","protocol":17,"map":"pl_badwater","folder":"tf","game":"Team Fortress","app_id":440,"player_count":0,"max_players":24,"Bots":0,"server_type":"Dedicated","server_os":"Linux","password":true,"vac":true,"version":"7961495","steam_id":85568392924515187,"keywords":["nocrits","nodmgspread","payload","uncletopia"],"game_id":440,"stv_port":27036,"stv_name":"Uncletopia | Atlanta | 3 | Stopwatch | STV","players":null},{"server_id":401,"name":"Uncletopia | Atlanta | 4 | Community","name_short":"atl-4","host":"atl-1.us.uncletopia.com","port":27045,"enabled":true,"region":"us-east","cc":"us","latitude":33.753746,"longitude":-84.38633,"reserved":0,"last_update":"0001-01-01T00:00:00Z","name_a2s":"Uncletopia | Atlanta | 4 | Community","protocol":17,"map":"cp_propaganda_b18","folder":"tf","game":"Team Fortress","app_id":440,"player_count":0,"max_players":24,"Bots":0,"server_type":"Dedicated","server_os":"Linux","password":true,"vac":true,"version":"7961495","steam_id":85568392924515188,"keywords":["cp","nocrits","nodmgspread","uncletopia"],"game_id":440,"stv_port":27046,"stv_name":"Uncletopia | Atlanta | 4 | Community | STV","players":null},{"server_id":2,"name":"Uncletopia | Chicago | 1 | All Maps","name_short":"chi-1","host":"chi-1.us.uncletopia.com","port":27015,"enabled":true,"region":"us-central","cc":"us","latitude":41.881832,"longitude":-87.62318,"reserved":0,"last_update":"0001-01-01T00:00:00Z","name_a2s":"Uncletopia | Chicago | 1 | All Maps","protocol":17,"map":"cp_dustbowl","folder":"tf","game":"Team Fortress","app_id":440,"player_count":24,"max_players":24,"Bots":0,"server_type":"Dedicated","server_os":"Linux","password":true,"vac":true,"version":"7961495","steam_id":85568392924469984,"keywords":["cp","nocrits","nodmgspread","uncletopia"],"game_id":440,"stv_port":27016,"stv_name":"Uncletopia | Chicago | 1 | All Maps | STV","players":[{"user_id":171,"name":"Ockulus","steam_id":76561199069638460,"connected_time":2021000000000,"state":"active","ping":97},{"user_id":190,"name":"baaa","steam_id":76561198208369443,"connected_time":726000000000,"state":"active","ping":58},{"user_id":119,"name":"Dutch","steam_id":76561198040969743,"connected_time":4692000000000,"state":"active","ping":78},{"user_id":191,"name":"slayerluggyII","steam_id":76561198048104611,"connected_time":128000000000,"state":"active","ping":70},{"user_id":142,"name":"Impresio","steam_id":76561198129127347,"connected_time":2876000000000,"state":"active","ping":69},{"user_id":144,"name":"Dragus","steam_id":76561198032967285,"connected_time":2843000000000,"state":"active","ping":51},{"user_id":58,"name":"The Great Eagle Scourge of 1822","steam_id":76561198325086209,"connected_time":9914000000000,"state":"active","ping":115},{"user_id":186,"name":"THORNFIELDGAMER","steam_id":76561199087167473,"connected_time":1121000000000,"state":"active","ping":86},{"user_id":124,"name":"❶rye_die","steam_id":76561198069436648,"connected_time":4430000000000,"state":"active","ping":76},{"user_id":145,"name":"mechiimi","steam_id":76561198321627268,"connected_time":2840000000000,"state":"active","ping":130},{"user_id":192,"name":"Sideways Whoopi Goldberg","steam_id":76561198003736560,"connected_time":122000000000,"state":"active","ping":60},{"user_id":187,"name":"some tree","steam_id":76561198166093346,"connected_time":1034000000000,"state":"active","ping":59},{"user_id":136,"name":"Rhia","steam_id":76561197963378019,"connected_time":3136000000000,"state":"active","ping":62},{"user_id":113,"name":"flappyflap2","steam_id":76561198285048973,"connected_time":4719000000000,"state":"active","ping":65},{"user_id":97,"name":"majorbobfunction","steam_id":76561198042464632,"connected_time":6403000000000,"state":"active","ping":59},{"user_id":86,"name":"Animal Slices","steam_id":76561198137545511,"connected_time":7337000000000,"state":"active","ping":61},{"user_id":188,"name":"Smelvster","steam_id":76561198368704086,"connected_time":867000000000,"state":"active","ping":69},{"user_id":134,"name":"Yam Jazzy Jim","steam_id":76561198000788950,"connected_time":3294000000000,"state":"active","ping":74},{"user_id":137,"name":"thepokeyen","steam_id":76561198236847572,"connected_time":3124000000000,"state":"active","ping":71},{"user_id":173,"name":"KingCrawful","steam_id":76561198104291657,"connected_time":1879000000000,"state":"active","ping":56},{"user_id":184,"name":"Shooter of Walls","steam_id":76561197988105207,"connected_time":1225000000000,"state":"active","ping":75},{"user_id":167,"name":"freeyja","steam_id":76561198249206656,"connected_time":2400000000000,"state":"active","ping":60},{"user_id":140,"name":"DoomedMakwa","steam_id":76561198167053158,"connected_time":3098000000000,"state":"active","ping":71},{"user_id":66,"name":"NikoOS (NO SOUND)","steam_id":76561198180020521,"connected_time":9504000000000,"state":"active","ping":112}]},{"server_id":106,"name":"Uncletopia | Chicago | 2 | All Maps","name_short":"chi-2","host":"chi-1.us.uncletopia.com","port":27025,"enabled":true,"region":"us-central","cc":"us","latitude":41.881832,"longitude":-87.62318,"reserved":0,"last_update":"0001-01-01T00:00:00Z","name_a2s":"Uncletopia | Chicago | 2 | All Maps","protocol":17,"map":"cp_dustbowl","folder":"tf","game":"Team Fortress","app_id":440,"player_count":24,"max_players":24,"Bots":0,"server_type":"Dedicated","server_os":"Linux","password":true,"vac":true,"version":"7961495","steam_id":85568392924469985,"keywords":["cp","nocrits","nodmgspread","uncletopia"],"game_id":440,"stv_port":27026,"stv_name":"Uncletopia | Chicago | 2 | All Maps | STV","players":[{"user_id":259,"name":"goober","steam_id":76561198032675272,"connected_time":527000000000,"state":"active","ping":61},{"user_id":185,"name":"taigaxx","steam_id":76561198202669250,"connected_time":5688000000000,"state":"active","ping":73},{"user_id":250,"name":"Primal","steam_id":76561197983118203,"connected_time":858000000000,"state":"active","ping":77},{"user_id":233,"name":"Stupid Rat","steam_id":76561198149202596,"connected_time":2297000000000,"state":"active","ping":79},{"user_id":244,"name":"Oopsie Daisy ❋","steam_id":76561198042144492,"connected_time":1612000000000,"state":"active","ping":80},{"user_id":251,"name":"TruffShuff","steam_id":76561198055869160,"connected_time":853000000000,"state":"active","ping":45},{"user_id":256,"name":"Dark Saturday","steam_id":76561198152056777,"connected_time":637000000000,"state":"active","ping":84},{"user_id":234,"name":"Nyle","steam_id":76561198045652639,"connected_time":2272000000000,"state":"active","ping":122},{"user_id":242,"name":"Owen","steam_id":76561198126511851,"connected_time":1797000000000,"state":"active","ping":68},{"user_id":237,"name":"gamerlegend47","steam_id":76561198122776598,"connected_time":2237000000000,"state":"active","ping":71},{"user_id":241,"name":"That Guy","steam_id":76561198074138740,"connected_time":1865000000000,"state":"active","ping":82},{"user_id":196,"name":"Chimpish","steam_id":76561199263493270,"connected_time":4781000000000,"state":"active","ping":95},{"user_id":252,"name":"rock raiders enjoyer","steam_id":76561198139718219,"connected_time":766000000000,"state":"active","ping":71},{"user_id":261,"name":"FlameWear (part 2)","steam_id":76561198965198292,"connected_time":343000000000,"state":"active","ping":85},{"user_id":245,"name":"DJTricky","steam_id":76561197968204263,"connected_time":1599000000000,"state":"active","ping":64},{"user_id":254,"name":"Octto","steam_id":76561198070124921,"connected_time":732000000000,"state":"active","ping":84},{"user_id":255,"name":"Mirelas","steam_id":76561198839360212,"connected_time":717000000000,"state":"active","ping":91},{"user_id":246,"name":"LFTHeavyMainBerner415TTV","steam_id":76561198082334363,"connected_time":1576000000000,"state":"active","ping":104},{"user_id":257,"name":"MikuViku","steam_id":76561198389247480,"connected_time":600000000000,"state":"active","ping":164},{"user_id":260,"name":"ash","steam_id":76561198127890645,"connected_time":468000000000,"state":"active","ping":75},{"user_id":193,"name":"doydoydoydoydoy","steam_id":76561198037803087,"connected_time":5176000000000,"state":"active","ping":68},{"user_id":253,"name":"Flowers","steam_id":76561198031669899,"connected_time":740000000000,"state":"active","ping":88},{"user_id":219,"name":"coolkid","steam_id":76561198072600034,"connected_time":3235000000000,"state":"active","ping":119},{"user_id":195,"name":"squart guy","steam_id":76561199411560141,"connected_time":4831000000000,"state":"active","ping":98}]},{"server_id":402,"name":"Uncletopia | Chicago | 3 | All Maps","name_short":"chi-3","host":"chi-1.us.uncletopia.com","port":27035,"enabled":true,"region":"us-central","cc":"us","latitude":41.881832,"longitude":-87.62318,"reserved":0,"last_update":"0001-01-01T00:00:00Z","name_a2s":"Uncletopia | Chicago | 3 | All Maps","protocol":17,"map":"pl_barnblitz","folder":"tf","game":"Team Fortress","app_id":440,"player_count":24,"max_players":24,"Bots":0,"server_type":"Dedicated","server_os":"Linux","password":true,"vac":true,"version":"7961495","steam_id":85568392924515191,"keywords":["nocrits","nodmgspread","payload","uncletopia"],"game_id":440,"stv_port":27036,"stv_name":"Uncletopia | Chicago | 3 | All Maps | STV","players":[{"user_id":140,"name":"Sky Tree","steam_id":76561198027103242,"connected_time":1001000000000,"state":"active","ping":59},{"user_id":110,"name":"Cocksneed Fartin","steam_id":76561198126675787,"connected_time":3236000000000,"state":"active","ping":74},{"user_id":143,"name":"Shitsack the Indomitable","steam_id":76561198408159536,"connected_time":307000000000,"state":"active","ping":48},{"user_id":147,"name":"twitch.tvByteMyASCII","steam_id":76561198063644848,"connected_time":112000000000,"state":"active","ping":136},{"user_id":145,"name":"☂","steam_id":76561198001263590,"connected_time":197000000000,"state":"active","ping":85},{"user_id":74,"name":"LunarrD","steam_id":76561198811220107,"connected_time":6038000000000,"state":"active","ping":87},{"user_id":151,"name":".#1 farter SE USA","steam_id":76561198057076267,"connected_time":59000000000,"state":"active","ping":93},{"user_id":84,"name":"Rornir","steam_id":76561198081829615,"connected_time":4835000000000,"state":"active","ping":39},{"user_id":41,"name":"DragonJimmy","steam_id":76561198272966565,"connected_time":8091000000000,"state":"active","ping":84},{"user_id":141,"name":"Kim Wexler","steam_id":76561198964107245,"connected_time":872000000000,"state":"active","ping":93},{"user_id":148,"name":"Karemaki","steam_id":76561198128541391,"connected_time":93000000000,"state":"active","ping":283},{"user_id":99,"name":"HOODOO_LOVER_2007","steam_id":76561199087691214,"connected_time":3809000000000,"state":"active","ping":84},{"user_id":122,"name":"msay","steam_id":76561198170888029,"connected_time":1498000000000,"state":"active","ping":101},{"user_id":149,"name":"songcreator","steam_id":76561198076822464,"connected_time":88000000000,"state":"active","ping":50},{"user_id":121,"name":"Carson","steam_id":76561198076771071,"connected_time":1624000000000,"state":"active","ping":46},{"user_id":116,"name":"tydogzilla","steam_id":76561198054254518,"connected_time":2428000000000,"state":"active","ping":68},{"user_id":150,"name":"Artgrendadier","steam_id":76561198063305359,"connected_time":86000000000,"state":"active","ping":69},{"user_id":142,"name":"Ejaculation Zach","steam_id":76561198203765200,"connected_time":396000000000,"state":"active","ping":61},{"user_id":130,"name":"Bee_Pirate","steam_id":76561199000599111,"connected_time":1380000000000,"state":"active","ping":55},{"user_id":134,"name":"Garfield Expert","steam_id":76561198092452824,"connected_time":1292000000000,"state":"active","ping":109},{"user_id":120,"name":"chabotnick","steam_id":76561198010729008,"connected_time":2209000000000,"state":"active","ping":70},{"user_id":132,"name":"I ate all the cheese","steam_id":76561198993205822,"connected_time":1378000000000,"state":"active","ping":60},{"user_id":80,"name":"StaigerDuck","steam_id":76561199190706582,"connected_time":5052000000000,"state":"active","ping":94},{"user_id":139,"name":"Joshy","steam_id":76561198061405421,"connected_time":1077000000000,"state":"active","ping":88}]},{"server_id":403,"name":"Uncletopia | Chicago | 4 | All Maps","name_short":"chi-4","host":"chi-1.us.uncletopia.com","port":27045,"enabled":true,"region":"us-central","cc":"us","latitude":41.881832,"longitude":-87.62318,"reserved":0,"last_update":"0001-01-01T00:00:00Z","name_a2s":"Uncletopia | Chicago | 4 | All Maps","protocol":17,"map":"koth_cascade","folder":"tf","game":"Team Fortress","app_id":440,"player_count":0,"max_players":24,"Bots":0,"server_type":"Dedicated","server_os":"Linux","password":true,"vac":true,"version":"7961495","steam_id":85568392924515193,"keywords":["cp","nocrits","nodmgspread","uncletopia"],"game_id":440,"stv_port":27046,"stv_name":"Uncletopia | Chicago | 4 | All Maps | STV","players":null},{"server_id":36,"name":"Uncletopia | Chicago | 5 | All Maps","name_short":"chi-5","host":"chi-2.us.uncletopia.com","port":27015,"enabled":true,"region":"us-central","cc":"us","latitude":41.881832,"longitude":-87.62318,"reserved":0,"last_update":"0001-01-01T00:00:00Z","name_a2s":"Uncletopia | Chicago | 5 | All Maps","protocol":17,"map":"pl_swiftwater_final1","folder":"tf","game":"Team Fortress","app_id":440,"player_count":0,"max_players":24,"Bots":0,"server_type":"Dedicated","server_os":"Linux","password":true,"vac":true,"version":"7961495","steam_id":85568392924866362,"keywords":["nocrits","nodmgspread","payload","uncletopia"],"game_id":440,"stv_port":27016,"stv_name":"Uncletopia | Chicago | 5 | All Maps | STV","players":null},{"server_id":37,"name":"Uncletopia | Chicago | 6 | All Maps","name_short":"chi-6","host":"chi-2.us.uncletopia.com","port":27025,"enabled":true,"region":"us-central","cc":"us","latitude":41.881832,"longitude":-87.62318,"reserved":0,"last_update":"0001-01-01T00:00:00Z","name_a2s":"Uncletopia | Chicago | 6 | All Maps","protocol":17,"map":"pl_frontier_final","folder":"tf","game":"Team Fortress","app_id":440,"player_count":0,"max_players":24,"Bots":0,"server_type":"Dedicated","server_os":"Linux","password":true,"vac":true,"version":"7961495","steam_id":85568392924866363,"keywords":["nocrits","nodmgspread","payload","uncletopia"],"game_id":440,"stv_port":27026,"stv_name":"Uncletopia | Chicago | 6 | All Maps | STV","players":null},{"server_id":38,"name":"Uncletopia | Chicago | 7 | Stopwatch","name_short":"chi-7","host":"chi-2.us.uncletopia.com","port":27035,"enabled":true,"region":"us-central","cc":"us","latitude":41.881832,"longitude":-87.62318,"reserved":0,"last_update":"0001-01-01T00:00:00Z","name_a2s":"Uncletopia | Chicago | 7 | Stopwatch","protocol":17,"map":"pl_badwater","folder":"tf","game":"Team Fortress","app_id":440,"player_count":0,"max_players":24,"Bots":0,"server_type":"Dedicated","server_os":"Linux","password":true,"vac":true,"version":"7961495","steam_id":85568392924866364,"keywords":["nocrits","nodmgspread","payload","uncletopia"],"game_id":440,"stv_port":27036,"stv_name":"Uncletopia | Chicago | 7 | Stopwatch | STV","players":null},{"server_id":39,"name":"Uncletopia | Chicago | 8 | Community","name_short":"chi-8","host":"chi-2.us.uncletopia.com","port":27045,"enabled":true,"region":"us-central","cc":"us","latitude":41.881832,"longitude":-87.62318,"reserved":0,"last_update":"0001-01-01T00:00:00Z","name_a2s":"Uncletopia | Chicago | 8 | Community","protocol":17,"map":"pl_pier","folder":"tf","game":"Team Fortress","app_id":440,"player_count":0,"max_players":24,"Bots":0,"server_type":"Dedicated","server_os":"Linux","password":true,"vac":true,"version":"7961495","steam_id":85568392924866365,"keywords":["nocrits","nodmgspread","payload","uncletopia"],"game_id":440,"stv_port":27046,"stv_name":"Uncletopia | Chicago | 8 | Community | STV","players":null},{"server_id":8,"name":"Uncletopia | Dallas | 1 | All Maps","name_short":"dal-1","host":"dal-1.us.uncletopia.com","port":27015,"enabled":true,"region":"us-central","cc":"us","latitude":32.779167,"longitude":-96.80889,"reserved":0,"last_update":"0001-01-01T00:00:00Z","name_a2s":"Uncletopia | Dallas | 1 | All Maps","protocol":17,"map":"pl_badwater","folder":"tf","game":"Team Fortress","app_id":440,"player_count":24,"max_players":24,"Bots":0,"server_type":"Dedicated","server_os":"Linux","password":true,"vac":true,"version":"7961495","steam_id":85568392924469986,"keywords":["nocrits","nodmgspread","payload","uncletopia"],"game_id":440,"stv_port":27016,"stv_name":"Uncletopia | Dallas | 1 | All Maps | STV","players":[{"user_id":306,"name":"Underwear Monster","steam_id":76561198175742775,"connected_time":1603000000000,"state":"active","ping":78},{"user_id":301,"name":"summerlis","steam_id":76561198165324438,"connected_time":1757000000000,"state":"active","ping":65},{"user_id":311,"name":"bingus","steam_id":76561198161403931,"connected_time":1438000000000,"state":"active","ping":34},{"user_id":327,"name":"Úntermensch","steam_id":76561198149634242,"connected_time":216000000000,"state":"active","ping":123},{"user_id":321,"name":"Samwise565","steam_id":76561197996819083,"connected_time":757000000000,"state":"active","ping":74},{"user_id":285,"name":"Whompert","steam_id":76561198042939624,"connected_time":3026000000000,"state":"active","ping":86},{"user_id":284,"name":"Burnt Toast","steam_id":76561198174761155,"connected_time":3083000000000,"state":"active","ping":85},{"user_id":329,"name":"GayVikingLady","steam_id":76561199274191548,"connected_time":89000000000,"state":"active","ping":106},{"user_id":294,"name":"Moonflower ✦","steam_id":76561198191782483,"connected_time":2402000000000,"state":"active","ping":51},{"user_id":303,"name":"LordOfTheNoobs","steam_id":76561197962697523,"connected_time":1748000000000,"state":"active","ping":70},{"user_id":315,"name":"luddy","steam_id":76561198348018572,"connected_time":981000000000,"state":"active","ping":71},{"user_id":279,"name":"Lemonade Juice","steam_id":76561198402892608,"connected_time":3553000000000,"state":"active","ping":72},{"user_id":307,"name":"Gotta Move That Gear Up","steam_id":76561197993467034,"connected_time":1588000000000,"state":"active","ping":75},{"user_id":316,"name":"Floating Peasant","steam_id":76561198000183671,"connected_time":917000000000,"state":"active","ping":75},{"user_id":324,"name":"Franz","steam_id":76561198041929745,"connected_time":618000000000,"state":"active","ping":77},{"user_id":309,"name":"Seris","steam_id":76561199220902360,"connected_time":1491000000000,"state":"active","ping":60},{"user_id":310,"name":"_Lusty_","steam_id":76561198876948142,"connected_time":1490000000000,"state":"active","ping":60},{"user_id":317,"name":"marty","steam_id":76561198032782746,"connected_time":914000000000,"state":"active","ping":84},{"user_id":318,"name":"Tommy Pickles (Very Cool)","steam_id":76561198391261463,"connected_time":911000000000,"state":"active","ping":90},{"user_id":269,"name":"gooch_masta","steam_id":76561198151578423,"connected_time":4796000000000,"state":"active","ping":86},{"user_id":319,"name":"KATSURB","steam_id":76561199172118456,"connected_time":901000000000,"state":"active","ping":65},{"user_id":322,"name":"tiredfisherman69","steam_id":76561199228963816,"connected_time":726000000000,"state":"active","ping":74},{"user_id":291,"name":"Pyuku","steam_id":76561198811554257,"connected_time":2880000000000,"state":"active","ping":84},{"user_id":304,"name":"Kuyumiester","steam_id":76561198126835302,"connected_time":1748000000000,"state":"active","ping":61}]},{"server_id":108,"name":"Uncletopia | Dallas | 2 | All Maps","name_short":"dal-2","host":"dal-1.us.uncletopia.com","port":27025,"enabled":true,"region":"us-central","cc":"us","latitude":32.779167,"longitude":-96.80889,"reserved":0,"last_update":"0001-01-01T00:00:00Z","name_a2s":"Uncletopia | Dallas | 2 | All Maps","protocol":17,"map":"pl_badwater","folder":"tf","game":"Team Fortress","app_id":440,"player_count":6,"max_players":24,"Bots":0,"server_type":"Dedicated","server_os":"Linux","password":true,"vac":true,"version":"7961495","steam_id":85568392924469988,"keywords":["nocrits","nodmgspread","payload","uncletopia"],"game_id":440,"stv_port":27026,"stv_name":"Uncletopia | Dallas | 2 | All Maps | STV","players":[{"user_id":6,"name":"TechnoBear2099","steam_id":76561198238863596,"connected_time":1354000000000,"state":"active","ping":44},{"user_id":7,"name":"Sham Cow","steam_id":76561198064556977,"connected_time":482000000000,"state":"active","ping":58},{"user_id":8,"name":"Spoon ½","steam_id":76561198032696548,"connected_time":473000000000,"state":"active","ping":170},{"user_id":9,"name":"MoopStoop","steam_id":76561198140936620,"connected_time":466000000000,"state":"active","ping":44},{"user_id":10,"name":"Sunshine On Me","steam_id":76561198042570322,"connected_time":236000000000,"state":"active","ping":74},{"user_id":11,"name":"Heathcliff","steam_id":76561198044288534,"connected_time":23000000000,"state":"active","ping":100}]},{"server_id":404,"name":"Uncletopia | Dallas | 3 | All Maps","name_short":"dal-3","host":"dal-1.us.uncletopia.com","port":27035,"enabled":true,"region":"us-central","cc":"us","latitude":32.779167,"longitude":-96.80889,"reserved":0,"last_update":"0001-01-01T00:00:00Z","name_a2s":"Uncletopia | Dallas | 3 | All Maps","protocol":17,"map":"pl_swiftwater_final1","folder":"tf","game":"Team Fortress","app_id":440,"player_count":0,"max_players":24,"Bots":0,"server_type":"Dedicated","server_os":"Linux","password":true,"vac":true,"version":"7961495","steam_id":85568392924515219,"keywords":["nocrits","nodmgspread","payload","uncletopia"],"game_id":440,"stv_port":27036,"stv_name":"Uncletopia | Dallas | 3 | All Maps | STV","players":null},{"server_id":405,"name":"Uncletopia | Dallas | 4 | Community","name_short":"dal-4","host":"dal-1.us.uncletopia.com","port":27045,"enabled":true,"region":"us-central","cc":"us","latitude":32.779167,"longitude":-96.80889,"reserved":0,"last_update":"0001-01-01T00:00:00Z","name_a2s":"Uncletopia | Dallas | 4 | Community","protocol":17,"map":"workshop/pl_corrode_rc2.ugc546577989","folder":"tf","game":"Team Fortress","app_id":440,"player_count":0,"max_players":24,"Bots":0,"server_type":"Dedicated","server_os":"Linux","password":true,"vac":true,"version":"7961495","steam_id":85568392924515220,"keywords":["nocrits","nodmgspread","payload","uncletopia"],"game_id":440,"stv_port":27046,"stv_name":"Uncletopia | Dallas | 4 | Community | STV","players":null},{"server_id":5,"name":"Uncletopia | Frankfurt | 1 | All Maps","name_short":"frk-1","host":"frk-1.de.uncletopia.com","port":27015,"enabled":true,"region":"eu","cc":"de","latitude":50.110924,"longitude":8.682127,"reserved":0,"last_update":"0001-01-01T00:00:00Z","name_a2s":"Uncletopia | Frankfurt | 1 | All Maps","protocol":17,"map":"pl_frontier_final","folder":"tf","game":"Team Fortress","app_id":440,"player_count":24,"max_players":24,"Bots":0,"server_type":"Dedicated","server_os":"Linux","password":true,"vac":true,"version":"7961495","steam_id":85568392924469989,"keywords":["nocrits","nodmgspread","payload","uncletopia"],"game_id":440,"stv_port":27016,"stv_name":"Uncletopia | Frankfurt | 1 | All Maps | STV","players":[{"user_id":336,"name":"unKr","steam_id":76561198342024316,"connected_time":2064000000000,"state":"active","ping":72},{"user_id":332,"name":"MUWEQ","steam_id":76561198107615727,"connected_time":2133000000000,"state":"active","ping":76},{"user_id":353,"name":"R3inis","steam_id":76561199030393569,"connected_time":1439000000000,"state":"active","ping":72},{"user_id":356,"name":"Oceanic | tuesday maybe","steam_id":76561197979741827,"connected_time":1008000000000,"state":"active","ping":67},{"user_id":352,"name":"Tumeeee","steam_id":76561198200046346,"connected_time":1481000000000,"state":"active","ping":85},{"user_id":361,"name":"Gio'sMonkey","steam_id":76561198892432223,"connected_time":228000000000,"state":"active","ping":66},{"user_id":358,"name":"Sondre","steam_id":76561198023013092,"connected_time":409000000000,"state":"active","ping":84},{"user_id":355,"name":"lyudmilakh","steam_id":76561198362779878,"connected_time":1283000000000,"state":"active","ping":87},{"user_id":341,"name":"H1DD3 gaming","steam_id":76561198855897385,"connected_time":1860000000000,"state":"active","ping":72},{"user_id":312,"name":"galaxy","steam_id":76561198164819022,"connected_time":3294000000000,"state":"active","ping":58},{"user_id":342,"name":"nefariousevilsorcerermoonGrass","steam_id":76561198799519725,"connected_time":1820000000000,"state":"active","ping":120},{"user_id":328,"name":"Fu Manchu","steam_id":76561197995224539,"connected_time":2570000000000,"state":"active","ping":76},{"user_id":343,"name":"Kylul_","steam_id":76561198042981061,"connected_time":1817000000000,"state":"active","ping":48},{"user_id":304,"name":"Optimist 50","steam_id":76561198039631442,"connected_time":3780000000000,"state":"active","ping":80},{"user_id":363,"name":"yodel","steam_id":76561198138777659,"connected_time":158000000000,"state":"active","ping":83},{"user_id":345,"name":"selex61","steam_id":76561198240117088,"connected_time":1803000000000,"state":"active","ping":65},{"user_id":354,"name":"Ecin","steam_id":76561198816655769,"connected_time":1360000000000,"state":"active","ping":52},{"user_id":281,"name":"Mike","steam_id":76561198228455736,"connected_time":4838000000000,"state":"active","ping":65},{"user_id":346,"name":"Lammet","steam_id":76561198149409729,"connected_time":1792000000000,"state":"active","ping":73},{"user_id":321,"name":"Cocsam","steam_id":76561198050827179,"connected_time":2857000000000,"state":"active","ping":65},{"user_id":303,"name":"LivEssense","steam_id":76561198052476979,"connected_time":3944000000000,"state":"active","ping":75},{"user_id":347,"name":"The Empire Ant","steam_id":76561198082466790,"connected_time":1780000000000,"state":"active","ping":60},{"user_id":359,"name":"Estamie","steam_id":76561198058527691,"connected_time":406000000000,"state":"active","ping":73},{"user_id":362,"name":"Urfangonultasadana","steam_id":76561199389286151,"connected_time":189000000000,"state":"active","ping":103}]},{"server_id":110,"name":"Uncletopia | Frankfurt | 2 | All Maps","name_short":"frk-2","host":"frk-1.de.uncletopia.com","port":27025,"enabled":true,"region":"eu","cc":"de","latitude":50.110924,"longitude":8.682127,"reserved":0,"last_update":"0001-01-01T00:00:00Z","name_a2s":"Uncletopia | Frankfurt | 2 | All Maps","protocol":17,"map":"koth_suijin","folder":"tf","game":"Team Fortress","app_id":440,"player_count":24,"max_players":24,"Bots":0,"server_type":"Dedicated","server_os":"Linux","password":true,"vac":true,"version":"7961495","steam_id":85568392924469990,"keywords":["cp","nocrits","nodmgspread","uncletopia"],"game_id":440,"stv_port":27026,"stv_name":"Uncletopia | Frankfurt | 2 | All Maps | STV","players":[{"user_id":185,"name":"kbourbery","steam_id":76561198109943492,"connected_time":7281000000000,"state":"active","ping":63},{"user_id":272,"name":"Galex","steam_id":76561198045637579,"connected_time":2682000000000,"state":"active","ping":41},{"user_id":300,"name":"Toasted Toby","steam_id":76561198002139581,"connected_time":1361000000000,"state":"active","ping":70},{"user_id":237,"name":"TheDeath","steam_id":76561198265038954,"connected_time":5007000000000,"state":"active","ping":67},{"user_id":281,"name":"Pastely","steam_id":76561198167718627,"connected_time":2539000000000,"state":"active","ping":59},{"user_id":283,"name":"Kasaichi","steam_id":76561198109301754,"connected_time":2528000000000,"state":"active","ping":68},{"user_id":222,"name":"glorpis","steam_id":76561199225333422,"connected_time":6198000000000,"state":"active","ping":62},{"user_id":299,"name":"the one who grips","steam_id":76561198381106289,"connected_time":1400000000000,"state":"active","ping":63},{"user_id":312,"name":"2023","steam_id":76561198857712172,"connected_time":461000000000,"state":"active","ping":57},{"user_id":278,"name":"So True!!!","steam_id":76561198253503043,"connected_time":2602000000000,"state":"active","ping":68},{"user_id":296,"name":"Lux","steam_id":76561198060417740,"connected_time":1960000000000,"state":"active","ping":46},{"user_id":295,"name":"Brisket \u003c3","steam_id":76561198047291354,"connected_time":2252000000000,"state":"active","ping":135},{"user_id":248,"name":"Fran","steam_id":76561199070516960,"connected_time":4335000000000,"state":"active","ping":52},{"user_id":318,"name":"Strangerdanger","steam_id":76561198206728500,"connected_time":43000000000,"state":"active","ping":71},{"user_id":315,"name":"ArtaKir","steam_id":76561198291746440,"connected_time":277000000000,"state":"active","ping":76},{"user_id":294,"name":"sloppy transgirl toppy","steam_id":76561198057092208,"connected_time":2341000000000,"state":"active","ping":56},{"user_id":317,"name":"PASTAMANIA!","steam_id":76561197967858558,"connected_time":233000000000,"state":"active","ping":64},{"user_id":316,"name":"Soulman25 (FIN)","steam_id":76561198103611974,"connected_time":249000000000,"state":"active","ping":98},{"user_id":306,"name":"Gooner","steam_id":76561198087035309,"connected_time":804000000000,"state":"active","ping":57},{"user_id":304,"name":"lugiagaurdien","steam_id":76561198894274440,"connected_time":1041000000000,"state":"active","ping":50},{"user_id":288,"name":"Demifletch","steam_id":76561199468472941,"connected_time":2482000000000,"state":"active","ping":149},{"user_id":264,"name":"max","steam_id":76561198039534890,"connected_time":3304000000000,"state":"active","ping":45},{"user_id":270,"name":"notane","steam_id":76561198182987846,"connected_time":3024000000000,"state":"active","ping":68},{"user_id":290,"name":"Xx_LudZip_xX","steam_id":76561198321008764,"connected_time":2427000000000,"state":"active","ping":58}]},{"server_id":308,"name":"Uncletopia | Frankfurt | 3 | All Maps","name_short":"frk-3","host":"frk-1.de.uncletopia.com","port":27035,"enabled":true,"region":"eu","cc":"de","latitude":50.110924,"longitude":8.682127,"reserved":0,"last_update":"0001-01-01T00:00:00Z","name_a2s":"Uncletopia | Frankfurt | 3 | All Maps","protocol":17,"map":"pl_swiftwater_final1","folder":"tf","game":"Team Fortress","app_id":440,"player_count":24,"max_players":24,"Bots":0,"server_type":"Dedicated","server_os":"Linux","password":true,"vac":true,"version":"7961495","steam_id":85568392924504274,"keywords":["nocrits","nodmgspread","payload","uncletopia"],"game_id":440,"stv_port":27036,"stv_name":"Uncletopia | Frankfurt | 3 | All Maps | STV","players":[{"user_id":261,"name":"JohnTraveltime","steam_id":76561199244281754,"connected_time":1262000000000,"state":"active","ping":54},{"user_id":284,"name":"Bobo","steam_id":76561198052308399,"connected_time":128000000000,"state":"active","ping":53},{"user_id":267,"name":"UIguy","steam_id":76561199099790108,"connected_time":1195000000000,"state":"active","ping":70},{"user_id":218,"name":"quava","steam_id":76561199004043064,"connected_time":2605000000000,"state":"active","ping":105},{"user_id":271,"name":"license to lose","steam_id":76561198401241979,"connected_time":1089000000000,"state":"active","ping":71},{"user_id":234,"name":"Valheim","steam_id":76561198044199912,"connected_time":2342000000000,"state":"active","ping":81},{"user_id":245,"name":"Hot Bean","steam_id":76561198803639155,"connected_time":1922000000000,"state":"active","ping":89},{"user_id":178,"name":"mhib","steam_id":76561198048037379,"connected_time":5423000000000,"state":"active","ping":81},{"user_id":263,"name":"grigobno","steam_id":76561198037018719,"connected_time":1239000000000,"state":"active","ping":103},{"user_id":182,"name":"GrzMik","steam_id":76561198061951968,"connected_time":5283000000000,"state":"active","ping":86},{"user_id":286,"name":"Lyncurion","steam_id":76561199260022725,"connected_time":61000000000,"state":"active","ping":74},{"user_id":285,"name":"koji","steam_id":76561198051636999,"connected_time":92000000000,"state":"active","ping":45},{"user_id":274,"name":"2ndOFtheWWY","steam_id":76561198190936635,"connected_time":883000000000,"state":"active","ping":70},{"user_id":277,"name":"MachinistgamerTF2","steam_id":76561199444184796,"connected_time":649000000000,"state":"active","ping":57},{"user_id":229,"name":"Mammut","steam_id":76561198056773933,"connected_time":2423000000000,"state":"active","ping":45},{"user_id":264,"name":"CheesingBond","steam_id":76561198034939270,"connected_time":1231000000000,"state":"active","ping":112},{"user_id":278,"name":"roblan11","steam_id":76561198066839258,"connected_time":616000000000,"state":"active","ping":43},{"user_id":259,"name":"Waffle","steam_id":76561198397024973,"connected_time":1408000000000,"state":"active","ping":44},{"user_id":279,"name":"patrick bateman is literally me","steam_id":76561199484131029,"connected_time":607000000000,"state":"active","ping":59},{"user_id":255,"name":"cuddle","steam_id":76561198805181599,"connected_time":1845000000000,"state":"active","ping":61},{"user_id":280,"name":"Stuid","steam_id":76561199427506542,"connected_time":393000000000,"state":"active","ping":75},{"user_id":242,"name":"demoman","steam_id":76561198046170435,"connected_time":1975000000000,"state":"active","ping":58},{"user_id":232,"name":"CAR DOOR","steam_id":76561198055283295,"connected_time":2396000000000,"state":"active","ping":44},{"user_id":282,"name":"Schiever","steam_id":76561198052136026,"connected_time":303000000000,"state":"active","ping":59}]},{"server_id":309,"name":"Uncletopia | Frankfurt | 4 | All Maps","name_short":"frk-4","host":"frk-1.de.uncletopia.com","port":27045,"enabled":true,"region":"eu","cc":"de","latitude":50.110924,"longitude":8.682127,"reserved":0,"last_update":"0001-01-01T00:00:00Z","name_a2s":"Uncletopia | Frankfurt | 4 | All Maps","protocol":17,"map":"koth_highpass","folder":"tf","game":"Team Fortress","app_id":440,"player_count":0,"max_players":24,"Bots":0,"server_type":"Dedicated","server_os":"Linux","password":true,"vac":true,"version":"7961495","steam_id":85568392924504275,"keywords":["cp","nocrits","nodmgspread","uncletopia"],"game_id":440,"stv_port":27046,"stv_name":"Uncletopia | Frankfurt | 4 | All Maps | STV","players":null},{"server_id":310,"name":"Uncletopia | Frankfurt | 5 | All Maps","name_short":"frk-5","host":"frk-1.de.uncletopia.com","port":27055,"enabled":true,"region":"eu","cc":"de","latitude":50.110924,"longitude":8.682127,"reserved":0,"last_update":"0001-01-01T00:00:00Z","name_a2s":"Uncletopia | Frankfurt | 5 | All Maps","protocol":17,"map":"pl_barnblitz","folder":"tf","game":"Team Fortress","app_id":440,"player_count":24,"max_players":24,"Bots":0,"server_type":"Dedicated","server_os":"Linux","password":true,"vac":true,"version":"7961495","steam_id":85568392924504277,"keywords":["nocrits","nodmgspread","payload","uncletopia"],"game_id":440,"stv_port":27056,"stv_name":"Uncletopia | Frankfurt | 5 | All Maps | STV","players":[{"user_id":380,"name":"Noob_with_source","steam_id":76561198870362103,"connected_time":2709000000000,"state":"active","ping":59},{"user_id":398,"name":"Arasey","steam_id":76561198996948426,"connected_time":934000000000,"state":"active","ping":77},{"user_id":406,"name":"Ruffle_","steam_id":76561198805785184,"connected_time":178000000000,"state":"active","ping":84},{"user_id":329,"name":"Marabosha","steam_id":76561198137599173,"connected_time":5052000000000,"state":"active","ping":106},{"user_id":382,"name":"Eno","steam_id":76561198387892963,"connected_time":2639000000000,"state":"active","ping":64},{"user_id":397,"name":"ArtuDitu303","steam_id":76561199093639498,"connected_time":944000000000,"state":"active","ping":57},{"user_id":371,"name":"Ignot","steam_id":76561198235896754,"connected_time":2882000000000,"state":"active","ping":86},{"user_id":350,"name":"BenteBent","steam_id":76561198297920637,"connected_time":4169000000000,"state":"active","ping":44},{"user_id":404,"name":"NotAmazed","steam_id":76561199125729567,"connected_time":233000000000,"state":"active","ping":68},{"user_id":357,"name":"Zulik92","steam_id":76561198152442373,"connected_time":3855000000000,"state":"active","ping":61},{"user_id":407,"name":"Zor","steam_id":76561198009851383,"connected_time":80000000000,"state":"active","ping":77},{"user_id":395,"name":"Egtu","steam_id":76561198013757235,"connected_time":975000000000,"state":"active","ping":61},{"user_id":405,"name":"DanonArmagedon","steam_id":76561199448191521,"connected_time":194000000000,"state":"active","ping":94},{"user_id":393,"name":"AddyD","steam_id":76561198201834415,"connected_time":1242000000000,"state":"active","ping":77},{"user_id":361,"name":"4","steam_id":76561197964945192,"connected_time":3730000000000,"state":"active","ping":54},{"user_id":274,"name":"Grillem Dafoe","steam_id":76561198306874574,"connected_time":9119000000000,"state":"active","ping":73},{"user_id":391,"name":"Ceasar","steam_id":76561198056590853,"connected_time":1459000000000,"state":"active","ping":55},{"user_id":400,"name":"MR.CRAB","steam_id":76561198329833659,"connected_time":917000000000,"state":"active","ping":69},{"user_id":401,"name":"sussy","steam_id":76561199485011798,"connected_time":902000000000,"state":"active","ping":101},{"user_id":389,"name":"primordial soup enjoyer","steam_id":76561199163260578,"connected_time":1987000000000,"state":"active","ping":58},{"user_id":381,"name":"Mr.TEA","steam_id":76561198014381591,"connected_time":2689000000000,"state":"active","ping":66},{"user_id":379,"name":"Virtual Mage","steam_id":76561198180779897,"connected_time":2780000000000,"state":"active","ping":60},{"user_id":402,"name":"Bird On Your Window","steam_id":76561198081933130,"connected_time":497000000000,"state":"active","ping":71},{"user_id":341,"name":"Tymqs","steam_id":76561198186541753,"connected_time":4733000000000,"state":"active","ping":94}]},{"server_id":311,"name":"Uncletopia | Frankfurt | 6 | All Maps","name_short":"frk-6","host":"frk-1.de.uncletopia.com","port":27065,"enabled":true,"region":"eu","cc":"de","latitude":50.110924,"longitude":8.682127,"reserved":0,"last_update":"0001-01-01T00:00:00Z","name_a2s":"Uncletopia | Frankfurt | 6 | All Maps","protocol":17,"map":"pl_barnblitz","folder":"tf","game":"Team Fortress","app_id":440,"player_count":23,"max_players":24,"Bots":0,"server_type":"Dedicated","server_os":"Linux","password":true,"vac":true,"version":"7961495","steam_id":85568392924504278,"keywords":["nocrits","nodmgspread","payload","uncletopia"],"game_id":440,"stv_port":27066,"stv_name":"Uncletopia | Frankfurt | 6 | All Maps | STV","players":[{"user_id":168,"name":"JaneDoe","steam_id":76561198067081506,"connected_time":4153000000000,"state":"active","ping":86},{"user_id":173,"name":"Weegad Wobus","steam_id":76561199429562693,"connected_time":4046000000000,"state":"active","ping":74},{"user_id":221,"name":"M1rkus","steam_id":76561198171215447,"connected_time":1654000000000,"state":"active","ping":64},{"user_id":217,"name":"limbicsystem","steam_id":76561198025612680,"connected_time":1925000000000,"state":"active","ping":68},{"user_id":205,"name":"ÃNVS DRÃNVS","steam_id":76561198138733015,"connected_time":2469000000000,"state":"active","ping":114},{"user_id":174,"name":"Ixsus\u003c3","steam_id":76561198094756869,"connected_time":4045000000000,"state":"active","ping":57},{"user_id":175,"name":"Kenny_killer_69","steam_id":76561199465207725,"connected_time":4036000000000,"state":"active","ping":84},{"user_id":238,"name":"Nick","steam_id":76561198036109469,"connected_time":64000000000,"state":"spawning","ping":100},{"user_id":226,"name":"Anti math insurrectionist","steam_id":76561198799097492,"connected_time":1160000000000,"state":"active","ping":47},{"user_id":206,"name":"Rappin' Sebastian","steam_id":76561198453928256,"connected_time":2463000000000,"state":"active","ping":65},{"user_id":211,"name":"Pingus","steam_id":76561199015156956,"connected_time":2136000000000,"state":"active","ping":99},{"user_id":200,"name":"Doctor Mobius","steam_id":76561197971281806,"connected_time":3154000000000,"state":"active","ping":65},{"user_id":239,"name":"Jennifer","steam_id":76561199474556920,"connected_time":64000000000,"state":"active","ping":127},{"user_id":212,"name":"RiX","steam_id":76561197969053733,"connected_time":2084000000000,"state":"active","ping":70},{"user_id":229,"name":"Alice","steam_id":76561198052410860,"connected_time":968000000000,"state":"active","ping":136},{"user_id":232,"name":"Ozzie","steam_id":76561197992915315,"connected_time":743000000000,"state":"active","ping":77},{"user_id":222,"name":"supershyguy147","steam_id":76561199208965131,"connected_time":1649000000000,"state":"active","ping":178},{"user_id":233,"name":"Economic crisis","steam_id":76561198063562843,"connected_time":730000000000,"state":"active","ping":59},{"user_id":219,"name":"♫Intrudand™","steam_id":76561198135742927,"connected_time":1757000000000,"state":"active","ping":157},{"user_id":189,"name":"gagalak","steam_id":76561198089979108,"connected_time":3704000000000,"state":"active","ping":90},{"user_id":228,"name":"Mr. Mundy","steam_id":76561198132008918,"connected_time":1101000000000,"state":"active","ping":76},{"user_id":234,"name":"Caramelion","steam_id":76561198097429047,"connected_time":728000000000,"state":"active","ping":67},{"user_id":236,"name":"Vilmukas","steam_id":76561199106648396,"connected_time":426000000000,"state":"active","ping":62}]},{"server_id":23,"name":"Uncletopia | Frankfurt | 7 | Stopwatch","name_short":"frk-7","host":"frk-1.de.uncletopia.com","port":27075,"enabled":true,"region":"eu","cc":"de","latitude":50.110924,"longitude":8.682127,"reserved":0,"last_update":"0001-01-01T00:00:00Z","name_a2s":"Uncletopia | Frankfurt | 7 | Stopwatch","protocol":17,"map":"workshop/pl_vigil_rc10.ugc1266210012","folder":"tf","game":"Team Fortress","app_id":440,"player_count":0,"max_players":24,"Bots":0,"server_type":"Dedicated","server_os":"Linux","password":true,"vac":true,"version":"7961495","steam_id":85568392924742827,"keywords":["nocrits","nodmgspread","payload","uncletopia"],"game_id":440,"stv_port":27076,"stv_name":"Uncletopia | Frankfurt | 7 | Stopwatch | STV","players":null},{"server_id":24,"name":"Uncletopia | Frankfurt | 8 | Community","name_short":"frk-8","host":"frk-1.de.uncletopia.com","port":27085,"enabled":true,"region":"eu","cc":"de","latitude":50.110924,"longitude":8.682127,"reserved":0,"last_update":"0001-01-01T00:00:00Z","name_a2s":"Uncletopia | Frankfurt | 8 | Community","protocol":17,"map":"workshop/rd_asteroid_redux_b1.ugc2154902912","folder":"tf","game":"Team Fortress","app_id":440,"player_count":0,"max_players":24,"Bots":0,"server_type":"Dedicated","server_os":"Linux","password":true,"vac":true,"version":"7961495","steam_id":85568392924742828,"keywords":["beta","nocrits","nodmgspread","rd","uncletopia"],"game_id":440,"stv_port":27086,"stv_name":"Uncletopia | Frankfurt | 8 | Community | STV","players":null},{"server_id":202,"name":"Uncletopia | Hong Kong | 1 | All Maps","name_short":"hgk-1","host":"hgk-1.hk.uncletopia.com","port":27015,"enabled":true,"region":"asia","cc":"hk","latitude":22.302711,"longitude":114.177216,"reserved":0,"last_update":"0001-01-01T00:00:00Z","name_a2s":"Uncletopia | Hong Kong | 1 | All Maps","protocol":17,"map":"cp_dustbowl","folder":"tf","game":"Team Fortress","app_id":440,"player_count":0,"max_players":24,"Bots":0,"server_type":"Dedicated","server_os":"Linux","password":true,"vac":true,"version":"7961495","steam_id":85568392924494504,"keywords":["cp","nocrits","nodmgspread","uncletopia"],"game_id":440,"stv_port":27016,"stv_name":"Uncletopia | Hong Kong | 1 | All Maps | STV","players":null},{"server_id":1,"name":"Uncletopia | Los Angeles | 1 | All Maps","name_short":"lax-1","host":"lax-1.us.uncletopia.com","port":27015,"enabled":true,"region":"us-west","cc":"us","latitude":33.94279,"longitude":-118.41004,"reserved":0,"last_update":"0001-01-01T00:00:00Z","name_a2s":"Uncletopia | Los Angeles | 1 | All Maps","protocol":17,"map":"pl_badwater","folder":"tf","game":"Team Fortress","app_id":440,"player_count":22,"max_players":24,"Bots":0,"server_type":"Dedicated","server_os":"Linux","password":true,"vac":true,"version":"7961495","steam_id":85568392924469991,"keywords":["nocrits","nodmgspread","payload","uncletopia"],"game_id":440,"stv_port":27016,"stv_name":"Uncletopia | Los Angeles | 1 | All Maps | STV","players":[{"user_id":31,"name":"shakoiwa","steam_id":76561199059441773,"connected_time":797000000000,"state":"active","ping":54},{"user_id":50,"name":"Lock'd","steam_id":76561198170108230,"connected_time":199000000000,"state":"active","ping":45},{"user_id":26,"name":"Witch Vomit","steam_id":76561199079587227,"connected_time":1550000000000,"state":"active","ping":45},{"user_id":32,"name":"Gud","steam_id":76561198311369336,"connected_time":691000000000,"state":"active","ping":55},{"user_id":42,"name":"Cimbasso","steam_id":76561198968050004,"connected_time":396000000000,"state":"active","ping":98},{"user_id":18,"name":"ShadowZiki","steam_id":76561198145930013,"connected_time":1850000000000,"state":"active","ping":44},{"user_id":20,"name":"Mom","steam_id":76561198207936000,"connected_time":1835000000000,"state":"active","ping":45},{"user_id":21,"name":"Season Leaf","steam_id":76561198133121805,"connected_time":1698000000000,"state":"active","ping":95},{"user_id":23,"name":"leaving lunar orbit","steam_id":76561199085974120,"connected_time":1620000000000,"state":"active","ping":126},{"user_id":49,"name":"Thequirka","steam_id":76561198968058652,"connected_time":270000000000,"state":"active","ping":73},{"user_id":34,"name":"artemisjackson2","steam_id":76561199094686268,"connected_time":676000000000,"state":"active","ping":115},{"user_id":35,"name":"Curse of the Blackened Eye","steam_id":76561198097175164,"connected_time":631000000000,"state":"active","ping":136},{"user_id":47,"name":"Saul Goodman","steam_id":76561198958881101,"connected_time":288000000000,"state":"active","ping":129},{"user_id":30,"name":"coWolves","steam_id":76561198171921618,"connected_time":1216000000000,"state":"active","ping":60},{"user_id":37,"name":"MR MODE","steam_id":76561198046775352,"connected_time":579000000000,"state":"active","ping":47},{"user_id":41,"name":"Dongus","steam_id":76561197979056451,"connected_time":505000000000,"state":"active","ping":80},{"user_id":51,"name":"Mr. Fluffy Penguins","steam_id":76561198172538149,"connected_time":159000000000,"state":"active","ping":127},{"user_id":45,"name":"XxDragon4321xX","steam_id":76561198046705735,"connected_time":332000000000,"state":"active","ping":69},{"user_id":48,"name":"FunnyGoomba","steam_id":76561198279865229,"connected_time":285000000000,"state":"active","ping":86},{"user_id":53,"name":"DerpFamous","steam_id":76561198046167888,"connected_time":36000000000,"state":"active","ping":78},{"user_id":54,"name":"Jaidezt","steam_id":76561197972613110,"connected_time":29000000000,"state":"active","ping":68},{"user_id":55,"name":"uzr","steam_id":76561198799343084,"connected_time":23000000000,"state":"active","ping":179}]},{"server_id":112,"name":"Uncletopia | Los Angeles | 2 | All Maps","name_short":"lax-2","host":"lax-1.us.uncletopia.com","port":27025,"enabled":true,"region":"us-west","cc":"us","latitude":33.94279,"longitude":-118.41004,"reserved":0,"last_update":"0001-01-01T00:00:00Z","name_a2s":"Uncletopia | Los Angeles | 2 | All Maps","protocol":17,"map":"pl_badwater","folder":"tf","game":"Team Fortress","app_id":440,"player_count":0,"max_players":24,"Bots":0,"server_type":"Dedicated","server_os":"Linux","password":true,"vac":true,"version":"7961495","steam_id":85568392924469992,"keywords":["nocrits","nodmgspread","payload","uncletopia"],"game_id":440,"stv_port":27026,"stv_name":"Uncletopia | Los Angeles | 2 | All Maps | STV","players":null},{"server_id":324,"name":"Uncletopia | Los Angeles | 3 | All Maps","name_short":"lax-3","host":"lax-1.us.uncletopia.com","port":27035,"enabled":true,"region":"us-west","cc":"us","latitude":33.94279,"longitude":-118.41004,"reserved":0,"last_update":"0001-01-01T00:00:00Z","name_a2s":"Uncletopia | Los Angeles | 3 | All Maps","protocol":17,"map":"cp_altitude","folder":"tf","game":"Team Fortress","app_id":440,"player_count":0,"max_players":24,"Bots":0,"server_type":"Dedicated","server_os":"Linux","password":true,"vac":true,"version":"7961495","steam_id":85568392924510198,"keywords":["cp","nocrits","nodmgspread","uncletopia"],"game_id":440,"stv_port":27036,"stv_name":"Uncletopia | Los Angeles | 3 | All Maps | STV","players":null},{"server_id":25,"name":"Uncletopia | Los Angeles | 4 | Stopwatch","name_short":"lax-4","host":"lax-1.us.uncletopia.com","port":27045,"enabled":true,"region":"us-west","cc":"us","latitude":33.94279,"longitude":-118.41004,"reserved":0,"last_update":"0001-01-01T00:00:00Z","name_a2s":"Uncletopia | Los Angeles | 4 | Stopwatch","protocol":17,"map":"workshop/pl_summercoast_rc8e.ugc1761528829","folder":"tf","game":"Team Fortress","app_id":440,"player_count":0,"max_players":24,"Bots":0,"server_type":"Dedicated","server_os":"Linux","password":true,"vac":true,"version":"7961495","steam_id":85568392924510199,"keywords":["nocrits","nodmgspread","payload","uncletopia"],"game_id":440,"stv_port":27046,"stv_name":"Uncletopia | Los Angeles | 4 | Stopwatch | STV","players":null},{"server_id":11,"name":"Uncletopia | London | 1 | All Maps","name_short":"lon-1","host":"lon-1.uk.uncletopia.com","port":27015,"enabled":true,"region":"eu","cc":"gb","latitude":51.509865,"longitude":-0.118092,"reserved":0,"last_update":"0001-01-01T00:00:00Z","name_a2s":"Uncletopia | London | 1 | All Maps","protocol":17,"map":"cp_process_final","folder":"tf","game":"Team Fortress","app_id":440,"player_count":24,"max_players":24,"Bots":0,"server_type":"Dedicated","server_os":"Linux","password":true,"vac":true,"version":"7961495","steam_id":85568392924367362,"keywords":["cp","nocrits","nodmgspread","uncletopia"],"game_id":440,"stv_port":27016,"stv_name":"Uncletopia | London | 1 | All Maps | STV","players":[{"user_id":351,"name":"Joy","steam_id":76561198155314925,"connected_time":1287000000000,"state":"active","ping":53},{"user_id":361,"name":"yavaş","steam_id":76561198170334258,"connected_time":156000000000,"state":"active","ping":72},{"user_id":353,"name":"halow","steam_id":76561198061505163,"connected_time":1061000000000,"state":"active","ping":109},{"user_id":366,"name":"Sim","steam_id":76561198086641180,"connected_time":121000000000,"state":"active","ping":95},{"user_id":281,"name":"Bonkovich","steam_id":76561198256800084,"connected_time":4797000000000,"state":"active","ping":114},{"user_id":348,"name":"Kai","steam_id":76561198800004578,"connected_time":1700000000000,"state":"active","ping":48},{"user_id":358,"name":"Fuck it (unhandicaps)","steam_id":76561197983095579,"connected_time":173000000000,"state":"active","ping":83},{"user_id":367,"name":"hazzett","steam_id":76561198171041063,"connected_time":93000000000,"state":"active","ping":107},{"user_id":247,"name":"dopamine overdose","steam_id":76561199032511302,"connected_time":7420000000000,"state":"active","ping":90},{"user_id":335,"name":"sushii","steam_id":76561198297987372,"connected_time":2323000000000,"state":"active","ping":74},{"user_id":344,"name":"poop gaming","steam_id":76561198042268174,"connected_time":2188000000000,"state":"active","ping":43},{"user_id":360,"name":"jill sandwich","steam_id":76561198075068529,"connected_time":161000000000,"state":"active","ping":64},{"user_id":365,"name":"magnofajo","steam_id":76561199066981192,"connected_time":121000000000,"state":"active","ping":83},{"user_id":362,"name":"shooer!","steam_id":76561198110531281,"connected_time":155000000000,"state":"active","ping":70},{"user_id":340,"name":"catch a fire","steam_id":76561198019065232,"connected_time":2220000000000,"state":"active","ping":40},{"user_id":244,"name":"mr clean","steam_id":76561198024743746,"connected_time":7619000000000,"state":"active","ping":73},{"user_id":227,"name":"HereComesDarius","steam_id":76561199087615999,"connected_time":8942000000000,"state":"active","ping":45},{"user_id":333,"name":"Oak","steam_id":76561198067315672,"connected_time":2633000000000,"state":"active","ping":44},{"user_id":320,"name":"herbal tea","steam_id":76561197980736364,"connected_time":3782000000000,"state":"active","ping":87},{"user_id":359,"name":"❤︎WarMole❤","steam_id":76561198104248760,"connected_time":171000000000,"state":"active","ping":62},{"user_id":341,"name":"Seail_M","steam_id":76561198002405605,"connected_time":2214000000000,"state":"active","ping":67},{"user_id":363,"name":"Bulyto","steam_id":76561198043205202,"connected_time":154000000000,"state":"active","ping":74},{"user_id":368,"name":"Der Herr Doktor","steam_id":76561198119476089,"connected_time":71000000000,"state":"active","ping":69},{"user_id":357,"name":"transgender e-girl","steam_id":76561198168589809,"connected_time":775000000000,"state":"active","ping":45}]},{"server_id":114,"name":"Uncletopia | London | 2 | All Maps","name_short":"lon-2","host":"lon-1.uk.uncletopia.com","port":27025,"enabled":true,"region":"eu","cc":"gb","latitude":51.509865,"longitude":-0.118092,"reserved":0,"last_update":"0001-01-01T00:00:00Z","name_a2s":"Uncletopia | London | 2 | All Maps","protocol":17,"map":"koth_viaduct","folder":"tf","game":"Team Fortress","app_id":440,"player_count":1,"max_players":24,"Bots":0,"server_type":"Dedicated","server_os":"Linux","password":true,"vac":true,"version":"7961495","steam_id":85568392924470941,"keywords":["cp","nocrits","nodmgspread","uncletopia"],"game_id":440,"stv_port":27026,"stv_name":"Uncletopia | London | 2 | All Maps | STV","players":[{"user_id":14,"name":"Areunas The Scammer (Not rlly)","steam_id":76561199438993845,"connected_time":129000000000,"state":"active","ping":75}]},{"server_id":320,"name":"Uncletopia | London | 3 | All Maps","name_short":"lon-3","host":"lon-1.uk.uncletopia.com","port":27035,"enabled":true,"region":"eu","cc":"gb","latitude":51.509865,"longitude":-0.118092,"reserved":0,"last_update":"0001-01-01T00:00:00Z","name_a2s":"Uncletopia | London | 3 | All Maps","protocol":17,"map":"pl_badwater","folder":"tf","game":"Team Fortress","app_id":440,"player_count":4,"max_players":24,"Bots":0,"server_type":"Dedicated","server_os":"Linux","password":true,"vac":true,"version":"7961495","steam_id":85568392924510192,"keywords":["nocrits","nodmgspread","payload","uncletopia"],"game_id":440,"stv_port":27036,"stv_name":"Uncletopia | London | 3 | All Maps | STV","players":[{"user_id":30,"name":"FoOzTV","steam_id":76561197998636728,"connected_time":170000000000,"state":"active","ping":63},{"user_id":27,"name":"Un1d","steam_id":76561198167773923,"connected_time":230000000000,"state":"active","ping":50},{"user_id":29,"name":"alex☁","steam_id":76561198128828502,"connected_time":204000000000,"state":"active","ping":60},{"user_id":31,"name":"bryophyta","steam_id":76561197968945306,"connected_time":165000000000,"state":"active","ping":69}]},{"server_id":321,"name":"Uncletopia | London | 4 | All Maps","name_short":"lon-4","host":"lon-1.uk.uncletopia.com","port":27045,"enabled":true,"region":"eu","cc":"gb","latitude":51.509865,"longitude":-0.118092,"reserved":0,"last_update":"0001-01-01T00:00:00Z","name_a2s":"Uncletopia | London | 4 | All Maps","protocol":17,"map":"pl_frontier_final","folder":"tf","game":"Team Fortress","app_id":440,"player_count":19,"max_players":24,"Bots":0,"server_type":"Dedicated","server_os":"Linux","password":true,"vac":true,"version":"7961495","steam_id":85568392924510193,"keywords":["nocrits","nodmgspread","payload","uncletopia"],"game_id":440,"stv_port":27046,"stv_name":"Uncletopia | London | 4 | All Maps | STV","players":[{"user_id":562,"name":"GGabe","steam_id":76561198117199068,"connected_time":9000000000,"state":"spawning","ping":69},{"user_id":558,"name":"remi, she wrote.","steam_id":76561198044045655,"connected_time":487000000000,"state":"active","ping":72},{"user_id":511,"name":"Gohan","steam_id":76561198064498302,"connected_time":3493000000000,"state":"active","ping":66},{"user_id":493,"name":"Jean-Marie D'hermoz","steam_id":76561198243205796,"connected_time":4410000000000,"state":"active","ping":70},{"user_id":541,"name":"Silver","steam_id":76561198037290739,"connected_time":1564000000000,"state":"active","ping":65},{"user_id":563,"name":"zek","steam_id":76561198862763731,"connected_time":1000000000,"state":"spawning","ping":50},{"user_id":559,"name":"Curlew","steam_id":76561198075884540,"connected_time":411000000000,"state":"active","ping":71},{"user_id":543,"name":"jafoul","steam_id":76561199383437138,"connected_time":1532000000000,"state":"active","ping":120},{"user_id":544,"name":"Worm","steam_id":76561198296497176,"connected_time":1529000000000,"state":"active","ping":47},{"user_id":560,"name":"Mr Fudge","steam_id":76561199177223922,"connected_time":385000000000,"state":"active","ping":47},{"user_id":535,"name":"ha,burger","steam_id":76561199093584225,"connected_time":1897000000000,"state":"active","ping":50},{"user_id":554,"name":"Dirty Harry","steam_id":76561198813079990,"connected_time":1093000000000,"state":"active","ping":70},{"user_id":539,"name":"Khrinde","steam_id":76561198036744526,"connected_time":1636000000000,"state":"active","ping":91},{"user_id":443,"name":"Ullr","steam_id":76561198140547483,"connected_time":8078000000000,"state":"active","ping":42},{"user_id":526,"name":"Pantroglodytestherapy","steam_id":76561198236015392,"connected_time":2365000000000,"state":"active","ping":119},{"user_id":561,"name":"Gubbly Bubbins","steam_id":76561198101451654,"connected_time":31000000000,"state":"active","ping":45},{"user_id":500,"name":"hhhhhh","steam_id":76561198031982574,"connected_time":4289000000000,"state":"active","ping":45},{"user_id":557,"name":"kat","steam_id":76561198879664338,"connected_time":829000000000,"state":"active","ping":70},{"user_id":529,"name":"pablo","steam_id":76561198089285014,"connected_time":2282000000000,"state":"active","ping":60}]},{"server_id":21,"name":"Uncletopia | London | 5 | All Maps","name_short":"lon-5","host":"lon-1.uk.uncletopia.com","port":27055,"enabled":true,"region":"eu","cc":"gb","latitude":51.509865,"longitude":-0.118092,"reserved":0,"last_update":"0001-01-01T00:00:00Z","name_a2s":"Uncletopia | London | 5 | All Maps","protocol":17,"map":"pl_swiftwater_final1","folder":"tf","game":"Team Fortress","app_id":440,"player_count":24,"max_players":24,"Bots":0,"server_type":"Dedicated","server_os":"Linux","password":true,"vac":true,"version":"7961495","steam_id":85568392924742829,"keywords":["nocrits","nodmgspread","payload","uncletopia"],"game_id":440,"stv_port":27056,"stv_name":"Uncletopia | London | 5 | All Maps | STV","players":[{"user_id":198,"name":"SovietZombie™","steam_id":76561198140093751,"connected_time":1012000000000,"state":"active","ping":54},{"user_id":9,"name":"stefanbejenari","steam_id":76561199466718294,"connected_time":13550000000000,"state":"active","ping":82},{"user_id":47,"name":"Flank Scout™","steam_id":76561198148115584,"connected_time":10957000000000,"state":"active","ping":72},{"user_id":213,"name":"LANGERS13","steam_id":76561198046966693,"connected_time":40000000000,"state":"active","ping":45},{"user_id":106,"name":"Penis Contortionist","steam_id":76561198073663784,"connected_time":6578000000000,"state":"active","ping":68},{"user_id":201,"name":"Tri-","steam_id":76561198133524794,"connected_time":908000000000,"state":"active","ping":41},{"user_id":162,"name":"M.C.Mcmuffins","steam_id":76561198068225535,"connected_time":3518000000000,"state":"active","ping":54},{"user_id":208,"name":"GMsU | Rebikas","steam_id":76561198077053764,"connected_time":268000000000,"state":"active","ping":55},{"user_id":139,"name":"DiracDeltaFunction","steam_id":76561199201624841,"connected_time":4645000000000,"state":"active","ping":89},{"user_id":180,"name":"elbow","steam_id":76561198531978435,"connected_time":1657000000000,"state":"active","ping":55},{"user_id":204,"name":"spring bonnie fan 12345","steam_id":76561198339409956,"connected_time":764000000000,"state":"active","ping":162},{"user_id":187,"name":"Berb","steam_id":76561198193911899,"connected_time":1515000000000,"state":"active","ping":146},{"user_id":212,"name":"bastard","steam_id":76561198993925146,"connected_time":58000000000,"state":"active","ping":90},{"user_id":207,"name":"Muselk #bdayin365days","steam_id":76561198139303045,"connected_time":298000000000,"state":"active","ping":97},{"user_id":205,"name":"Implywood (they/them)","steam_id":76561198096762648,"connected_time":682000000000,"state":"active","ping":51},{"user_id":210,"name":"Sato","steam_id":76561199042847761,"connected_time":220000000000,"state":"active","ping":125},{"user_id":41,"name":"1914","steam_id":76561198257383813,"connected_time":11125000000000,"state":"active","ping":60},{"user_id":209,"name":"elijah","steam_id":76561198093936708,"connected_time":250000000000,"state":"active","ping":57},{"user_id":129,"name":"DeterminedXD[HUN]","steam_id":76561199469006453,"connected_time":5334000000000,"state":"active","ping":89},{"user_id":199,"name":"Dogdigger","steam_id":76561198032893130,"connected_time":980000000000,"state":"active","ping":100},{"user_id":195,"name":"Cali","steam_id":76561198072464377,"connected_time":1134000000000,"state":"active","ping":79},{"user_id":168,"name":"LJ","steam_id":76561198026723805,"connected_time":3335000000000,"state":"active","ping":59},{"user_id":177,"name":"pretty dick peso","steam_id":76561198798177799,"connected_time":2170000000000,"state":"active","ping":81},{"user_id":197,"name":"DelT","steam_id":76561198204007537,"connected_time":1086000000000,"state":"active","ping":65}]},{"server_id":22,"name":"Uncletopia | London | 6 | All Maps","name_short":"lon-6","host":"lon-1.uk.uncletopia.com","port":27065,"enabled":true,"region":"eu","cc":"gb","latitude":51.509865,"longitude":-0.118092,"reserved":0,"last_update":"0001-01-01T00:00:00Z","name_a2s":"Uncletopia | London | 6 | All Maps","protocol":17,"map":"pl_badwater","folder":"tf","game":"Team Fortress","app_id":440,"player_count":24,"max_players":24,"Bots":0,"server_type":"Dedicated","server_os":"Linux","password":true,"vac":true,"version":"7961495","steam_id":85568392924742830,"keywords":["nocrits","nodmgspread","payload","uncletopia"],"game_id":440,"stv_port":27066,"stv_name":"Uncletopia | London | 6 | All Maps | STV","players":[{"user_id":163,"name":"hasky","steam_id":76561197986052798,"connected_time":849000000000,"state":"active","ping":69},{"user_id":164,"name":"Weeb exterminator","steam_id":76561198078964973,"connected_time":819000000000,"state":"active","ping":70},{"user_id":165,"name":"Ascended Noob","steam_id":76561198079411460,"connected_time":814000000000,"state":"active","ping":52},{"user_id":157,"name":"znunney","steam_id":76561199438501613,"connected_time":1354000000000,"state":"active","ping":60},{"user_id":52,"name":"Haschgott 2.0","steam_id":76561198049820307,"connected_time":8130000000000,"state":"active","ping":71},{"user_id":160,"name":"THE SPIRIT","steam_id":76561198170744597,"connected_time":1254000000000,"state":"active","ping":71},{"user_id":152,"name":"Watermelon","steam_id":76561198078349914,"connected_time":1768000000000,"state":"active","ping":36},{"user_id":159,"name":"SkedesvampsMix✭","steam_id":76561199070463402,"connected_time":1320000000000,"state":"active","ping":76},{"user_id":156,"name":"RangerDanger","steam_id":76561198863970320,"connected_time":1465000000000,"state":"active","ping":76},{"user_id":172,"name":"Solymr ibn Wali Barad","steam_id":76561198044008976,"connected_time":196000000000,"state":"active","ping":61},{"user_id":161,"name":"DHD - Obismal","steam_id":76561198000356530,"connected_time":923000000000,"state":"active","ping":75},{"user_id":148,"name":"Bob D","steam_id":76561198026375630,"connected_time":1908000000000,"state":"active","ping":55},{"user_id":171,"name":"Dīng.Zhèn1996","steam_id":76561198152681460,"connected_time":258000000000,"state":"active","ping":75},{"user_id":166,"name":"full extent of the jam","steam_id":76561198033728176,"connected_time":799000000000,"state":"active","ping":91},{"user_id":167,"name":"Kamanie","steam_id":76561198135448255,"connected_time":781000000000,"state":"active","ping":62},{"user_id":170,"name":"Pixella","steam_id":76561198036554247,"connected_time":670000000000,"state":"active","ping":56},{"user_id":144,"name":"Egor Pomidor","steam_id":76561199175688390,"connected_time":2027000000000,"state":"active","ping":87},{"user_id":133,"name":"Macci - Obismal","steam_id":76561198050485404,"connected_time":3230000000000,"state":"active","ping":90},{"user_id":127,"name":"Caruzon - Obismal","steam_id":76561198036211170,"connected_time":3328000000000,"state":"active","ping":81},{"user_id":141,"name":"Brrpstr","steam_id":76561198394221491,"connected_time":2552000000000,"state":"active","ping":64},{"user_id":107,"name":"Forsén","steam_id":76561199131971501,"connected_time":4314000000000,"state":"active","ping":96},{"user_id":155,"name":"sareena","steam_id":76561198810194062,"connected_time":1698000000000,"state":"active","ping":74},{"user_id":130,"name":"medicinal man","steam_id":76561198202668788,"connected_time":3318000000000,"state":"active","ping":66},{"user_id":77,"name":"Chloemew","steam_id":76561198042071762,"connected_time":7013000000000,"state":"active","ping":52}]},{"server_id":40,"name":"Uncletopia | London | 7 | Stopwatch","name_short":"lon-7","host":"lon-1.uk.uncletopia.com","port":27075,"enabled":true,"region":"eu","cc":"gb","latitude":51.509865,"longitude":-0.118092,"reserved":0,"last_update":"0001-01-01T00:00:00Z","name_a2s":"Uncletopia | London | 7 | Stopwatch","protocol":17,"map":"workshop/pl_badwater_pro_v12.ugc2142942074","folder":"tf","game":"Team Fortress","app_id":440,"player_count":0,"max_players":24,"Bots":0,"server_type":"Dedicated","server_os":"Linux","password":true,"vac":true,"version":"7961495","steam_id":85568392924964314,"keywords":["nocrits","nodmgspread","payload","uncletopia"],"game_id":440,"stv_port":27076,"stv_name":"Uncletopia | London | 7 | Stopwatch | STV","players":null},{"server_id":41,"name":"Uncletopia | London | 8 | Community","name_short":"lon-8","host":"lon-1.uk.uncletopia.com","port":27085,"enabled":true,"region":"eu","cc":"gb","latitude":51.509865,"longitude":-0.118092,"reserved":0,"last_update":"0001-01-01T00:00:00Z","name_a2s":"Uncletopia | London | 8 | Community","protocol":17,"map":"workshop/koth_ramjam_rc1.ugc459778887","folder":"tf","game":"Team Fortress","app_id":440,"player_count":0,"max_players":24,"Bots":0,"server_type":"Dedicated","server_os":"Linux","password":true,"vac":true,"version":"7961495","steam_id":85568392924964315,"keywords":["cp","nocrits","nodmgspread","uncletopia"],"game_id":440,"stv_port":27086,"stv_name":"Uncletopia | London | 8 | Community | STV","players":null},{"server_id":300,"name":"Uncletopia | Montréal | 1 | One Thousand Uncles","name_short":"mtl-1","host":"mtl-1.ca.uncletopia.com","port":27015,"enabled":true,"region":"us-east","cc":"ca","latitude":45.50889,"longitude":-73.56167,"reserved":0,"last_update":"0001-01-01T00:00:00Z","name_a2s":"","protocol":0,"map":"","folder":"","game":"","app_id":0,"player_count":0,"max_players":0,"Bots":0,"server_type":"","server_os":"","password":false,"vac":false,"version":"","steam_id":0,"keywords":null,"game_id":0,"stv_port":0,"stv_name":"","players":null},{"server_id":301,"name":"Uncletopia | Montréal | 2 | One Thousand Uncles","name_short":"mtl-2","host":"mtl-1.ca.uncletopia.com","port":27025,"enabled":true,"region":"us-east","cc":"ca","latitude":45.50889,"longitude":-73.56167,"reserved":0,"last_update":"0001-01-01T00:00:00Z","name_a2s":"","protocol":0,"map":"","folder":"","game":"","app_id":0,"player_count":0,"max_players":0,"Bots":0,"server_type":"","server_os":"","password":false,"vac":false,"version":"","steam_id":0,"keywords":null,"game_id":0,"stv_port":0,"stv_name":"","players":null},{"server_id":302,"name":"Uncletopia | Montréal | 3 | One Thousand Uncles","name_short":"mtl-3","host":"mtl-1.ca.uncletopia.com","port":27035,"enabled":true,"region":"us-east","cc":"ca","latitude":45.50889,"longitude":-73.56167,"reserved":0,"last_update":"0001-01-01T00:00:00Z","name_a2s":"","protocol":0,"map":"","folder":"","game":"","app_id":0,"player_count":0,"max_players":0,"Bots":0,"server_type":"","server_os":"","password":false,"vac":false,"version":"","steam_id":0,"keywords":null,"game_id":0,"stv_port":0,"stv_name":"","players":null},{"server_id":13,"name":"Uncletopia | New York City | 1 | All Maps","name_short":"nyc-1","host":"nyc-1.us.uncletopia.com","port":27015,"enabled":true,"region":"us-east","cc":"us","latitude":40.73061,"longitude":-73.93524,"reserved":0,"last_update":"0001-01-01T00:00:00Z","name_a2s":"Uncletopia | New York City | 1 | All Maps","protocol":17,"map":"pl_snowycoast","folder":"tf","game":"Team Fortress","app_id":440,"player_count":24,"max_players":24,"Bots":0,"server_type":"Dedicated","server_os":"Linux","password":true,"vac":true,"version":"7961495","steam_id":85568392924469993,"keywords":["nocrits","nodmgspread","payload","uncletopia"],"game_id":440,"stv_port":27016,"stv_name":"Uncletopia | New York City | 1 | All Maps | STV","players":[{"user_id":97,"name":"popfulmail","steam_id":76561198865971290,"connected_time":1355000000000,"state":"active","ping":82},{"user_id":111,"name":"MILF Gaming","steam_id":76561198155378170,"connected_time":191000000000,"state":"active","ping":39},{"user_id":78,"name":"Herdez Hot Salsa","steam_id":76561197991740906,"connected_time":2741000000000,"state":"active","ping":69},{"user_id":50,"name":"painting4","steam_id":76561198067554256,"connected_time":3814000000000,"state":"active","ping":121},{"user_id":107,"name":"Fluffeline","steam_id":76561198352909489,"connected_time":508000000000,"state":"active","ping":141},{"user_id":113,"name":"definitely not cris","steam_id":76561198930426710,"connected_time":155000000000,"state":"active","ping":85},{"user_id":98,"name":"dietcokefan42","steam_id":76561198135307995,"connected_time":1296000000000,"state":"active","ping":55},{"user_id":94,"name":"f","steam_id":76561198215559840,"connected_time":1969000000000,"state":"active","ping":73},{"user_id":31,"name":"milk and cigarettes","steam_id":76561198079050329,"connected_time":4727000000000,"state":"active","ping":56},{"user_id":40,"name":"ChozoChorizo","steam_id":76561198272609196,"connected_time":4332000000000,"state":"active","ping":72},{"user_id":73,"name":"Skeleop","steam_id":76561198981106464,"connected_time":3220000000000,"state":"active","ping":111},{"user_id":91,"name":"Prime","steam_id":76561198219613253,"connected_time":2196000000000,"state":"active","ping":87},{"user_id":106,"name":"Ceige LFT","steam_id":76561198068538473,"connected_time":699000000000,"state":"active","ping":93},{"user_id":89,"name":"skoops","steam_id":76561198083276946,"connected_time":2326000000000,"state":"active","ping":60},{"user_id":103,"name":"ṽ⧉ cookie","steam_id":76561197998884823,"connected_time":980000000000,"state":"active","ping":69},{"user_id":80,"name":"P I S S (final version)","steam_id":76561199197497757,"connected_time":2672000000000,"state":"active","ping":65},{"user_id":101,"name":"DuragGod69","steam_id":76561198067814426,"connected_time":1212000000000,"state":"active","ping":115},{"user_id":55,"name":"the superhero","steam_id":76561198301021031,"connected_time":3658000000000,"state":"active","ping":86},{"user_id":88,"name":"Daxtrus","steam_id":76561198001502519,"connected_time":2337000000000,"state":"active","ping":61},{"user_id":100,"name":"UberMedic","steam_id":76561198301396624,"connected_time":1289000000000,"state":"active","ping":179},{"user_id":62,"name":"Slip","steam_id":76561199057232579,"connected_time":3531000000000,"state":"active","ping":70},{"user_id":95,"name":"Phoysh","steam_id":76561198137111021,"connected_time":1716000000000,"state":"active","ping":117},{"user_id":82,"name":"barth","steam_id":76561198292896412,"connected_time":2608000000000,"state":"active","ping":75},{"user_id":110,"name":"simplyhere141","steam_id":76561199204117948,"connected_time":371000000000,"state":"active","ping":49}]},{"server_id":14,"name":"Uncletopia | New York City | 2 | All Maps","name_short":"nyc-2","host":"nyc-1.us.uncletopia.com","port":27025,"enabled":true,"region":"us-east","cc":"us","latitude":40.73061,"longitude":-73.93524,"reserved":0,"last_update":"0001-01-01T00:00:00Z","name_a2s":"Uncletopia | New York City | 2 | All Maps","protocol":17,"map":"pl_pier","folder":"tf","game":"Team Fortress","app_id":440,"player_count":0,"max_players":24,"Bots":0,"server_type":"Dedicated","server_os":"Linux","password":true,"vac":true,"version":"7961495","steam_id":85568392924469994,"keywords":["nocrits","nodmgspread","payload","uncletopia"],"game_id":440,"stv_port":27026,"stv_name":"Uncletopia | New York City | 2 | All Maps | STV","players":null},{"server_id":15,"name":"Uncletopia | New York City | 3 | Stopwatch","name_short":"nyc-3","host":"nyc-1.us.uncletopia.com","port":27035,"enabled":true,"region":"us-east","cc":"us","latitude":40.73061,"longitude":-73.93524,"reserved":0,"last_update":"0001-01-01T00:00:00Z","name_a2s":"Uncletopia | New York City | 3 | Stopwatch","protocol":17,"map":"workshop/pl_barnblitz_pro7.ugc582280235","folder":"tf","game":"Team Fortress","app_id":440,"player_count":0,"max_players":24,"Bots":0,"server_type":"Dedicated","server_os":"Linux","password":true,"vac":true,"version":"7961495","steam_id":85568392924742820,"keywords":["nocrits","nodmgspread","payload","uncletopia"],"game_id":440,"stv_port":27036,"stv_name":"Uncletopia | New York City | 3 | Stopwatch | STV","players":null},{"server_id":16,"name":"Uncletopia | New York City | 4 | Community","name_short":"nyc-4","host":"nyc-1.us.uncletopia.com","port":27045,"enabled":true,"region":"us-east","cc":"us","latitude":40.73061,"longitude":-73.93524,"reserved":0,"last_update":"0001-01-01T00:00:00Z","name_a2s":"Uncletopia | New York City | 4 | Community","protocol":17,"map":"cp_altitude","folder":"tf","game":"Team Fortress","app_id":440,"player_count":0,"max_players":24,"Bots":0,"server_type":"Dedicated","server_os":"Linux","password":true,"vac":true,"version":"7961495","steam_id":85568392924742821,"keywords":["cp","nocrits","nodmgspread","uncletopia"],"game_id":440,"stv_port":27046,"stv_name":"Uncletopia | New York City | 4 | Community | STV","players":null},{"server_id":142,"name":"Uncletopia | São Paulo | 1 | All Maps","name_short":"sao-1","host":"sao-1.br.uncletopia.com","port":27015,"enabled":true,"region":"sa","cc":"br","latitude":-23.533773,"longitude":-46.62529,"reserved":0,"last_update":"0001-01-01T00:00:00Z","name_a2s":"Uncletopia | São Paulo | 1 | All Maps","protocol":17,"map":"koth_cascade","folder":"tf","game":"Team Fortress","app_id":440,"player_count":0,"max_players":24,"Bots":0,"server_type":"Dedicated","server_os":"Linux","password":true,"vac":true,"version":"7961495","steam_id":85568392924469996,"keywords":["cp","nocrits","nodmgspread","uncletopia"],"game_id":440,"stv_port":27016,"stv_name":"Uncletopia | São Paulo | 1 | All Maps | STV","players":null},{"server_id":143,"name":"Uncletopia | São Paulo | 2 | Community","name_short":"sao-2","host":"sao-2.br.uncletopia.com","port":27015,"enabled":true,"region":"sa","cc":"br","latitude":-23.533773,"longitude":-46.62529,"reserved":0,"last_update":"0001-01-01T00:00:00Z","name_a2s":"Uncletopia | São Paulo | 2 | Community","protocol":17,"map":"pl_badwater","folder":"tf","game":"Team Fortress","app_id":440,"player_count":1,"max_players":24,"Bots":0,"server_type":"Dedicated","server_os":"Linux","password":true,"vac":true,"version":"7961495","steam_id":85568392924485349,"keywords":["nocrits","nodmgspread","payload","uncletopia"],"game_id":440,"stv_port":27016,"stv_name":"Uncletopia | São Paulo | 2 | Community | STV","players":[{"user_id":3,"name":"Hazmat","steam_id":76561199188918789,"connected_time":70000000000,"state":"active","ping":84}]},{"server_id":7,"name":"Uncletopia | Seattle | 1 | All Maps","name_short":"sea-1","host":"sea-1.us.uncletopia.com","port":27015,"enabled":true,"region":"us-west","cc":"us","latitude":47.608013,"longitude":-122.33517,"reserved":0,"last_update":"0001-01-01T00:00:00Z","name_a2s":"Uncletopia | Seattle | 1 | All Maps","protocol":17,"map":"pl_badwater","folder":"tf","game":"Team Fortress","app_id":440,"player_count":24,"max_players":24,"Bots":0,"server_type":"Dedicated","server_os":"Linux","password":true,"vac":true,"version":"7961495","steam_id":85568392924469997,"keywords":["nocrits","nodmgspread","payload","uncletopia"],"game_id":440,"stv_port":27016,"stv_name":"Uncletopia | Seattle | 1 | All Maps | STV","players":[{"user_id":80,"name":"N7 Kobold","steam_id":76561198308506257,"connected_time":170000000000,"state":"active","ping":76},{"user_id":77,"name":"TheSmokingMan","steam_id":76561198032652995,"connected_time":799000000000,"state":"active","ping":95},{"user_id":84,"name":"Gibs Degrossi","steam_id":76561198066152609,"connected_time":87000000000,"state":"active","ping":105},{"user_id":66,"name":"John Calibur","steam_id":76561197999986606,"connected_time":1439000000000,"state":"active","ping":71},{"user_id":81,"name":"UserLeft","steam_id":76561197998297379,"connected_time":164000000000,"state":"active","ping":66},{"user_id":67,"name":"Level 3 hotdog enjoyer","steam_id":76561198870649125,"connected_time":1081000000000,"state":"active","ping":85},{"user_id":45,"name":"Coffeemelon","steam_id":76561198285891257,"connected_time":2840000000000,"state":"active","ping":62},{"user_id":46,"name":"aiuka","steam_id":76561198168897164,"connected_time":2840000000000,"state":"active","ping":122},{"user_id":26,"name":"Imitation Caucasian","steam_id":76561198320536166,"connected_time":4147000000000,"state":"active","ping":76},{"user_id":71,"name":"Andrew","steam_id":76561198070615190,"connected_time":916000000000,"state":"active","ping":90},{"user_id":73,"name":"the keebler","steam_id":76561199486326945,"connected_time":844000000000,"state":"active","ping":125},{"user_id":79,"name":"o o o o o o o o o","steam_id":76561197993757506,"connected_time":288000000000,"state":"active","ping":70},{"user_id":47,"name":"Gompose","steam_id":76561198106140891,"connected_time":2796000000000,"state":"active","ping":105},{"user_id":52,"name":"Sigo Chambeando","steam_id":76561198025668771,"connected_time":2642000000000,"state":"active","ping":105},{"user_id":74,"name":"Drilly22","steam_id":76561198068838338,"connected_time":840000000000,"state":"active","ping":102},{"user_id":60,"name":"GF.nøbu","steam_id":76561198100614981,"connected_time":2366000000000,"state":"active","ping":51},{"user_id":75,"name":"smogun","steam_id":76561198361158518,"connected_time":840000000000,"state":"active","ping":78},{"user_id":48,"name":"Geesemans","steam_id":76561199478892816,"connected_time":2755000000000,"state":"active","ping":88},{"user_id":63,"name":"monkey squirts","steam_id":76561197983101644,"connected_time":1918000000000,"state":"active","ping":64},{"user_id":50,"name":"my monitor is off","steam_id":76561198074499537,"connected_time":2726000000000,"state":"active","ping":68},{"user_id":55,"name":"TheLuzinator","steam_id":76561198377144604,"connected_time":2532000000000,"state":"active","ping":115},{"user_id":54,"name":"Zorlovo","steam_id":76561198006443283,"connected_time":2596000000000,"state":"active","ping":82},{"user_id":56,"name":"bombs away!","steam_id":76561198140305247,"connected_time":2519000000000,"state":"active","ping":91},{"user_id":83,"name":"JKEEPS","steam_id":76561198289104880,"connected_time":115000000000,"state":"active","ping":194}]},{"server_id":119,"name":"Uncletopia | Seattle | 2 | All Maps","name_short":"sea-2","host":"sea-1.us.uncletopia.com","port":27025,"enabled":true,"region":"us-west","cc":"us","latitude":47.608013,"longitude":-122.33517,"reserved":0,"last_update":"0001-01-01T00:00:00Z","name_a2s":"Uncletopia | Seattle | 2 | All Maps","protocol":17,"map":"cp_process_final","folder":"tf","game":"Team Fortress","app_id":440,"player_count":0,"max_players":24,"Bots":0,"server_type":"Dedicated","server_os":"Linux","password":true,"vac":true,"version":"7961495","steam_id":85568392924469998,"keywords":["cp","nocrits","nodmgspread","uncletopia"],"game_id":440,"stv_port":27026,"stv_name":"Uncletopia | Seattle | 2 | All Maps | STV","players":null},{"server_id":406,"name":"Uncletopia | Seattle | 3 | Stopwatch","name_short":"sea-3","host":"sea-1.us.uncletopia.com","port":27035,"enabled":true,"region":"us-west","cc":"us","latitude":47.608013,"longitude":-122.33517,"reserved":0,"last_update":"0001-01-01T00:00:00Z","name_a2s":"Uncletopia | Seattle | 3 | Stopwatch","protocol":17,"map":"pl_pier","folder":"tf","game":"Team Fortress","app_id":440,"player_count":0,"max_players":24,"Bots":0,"server_type":"Dedicated","server_os":"Linux","password":true,"vac":true,"version":"7961495","steam_id":85568392924515217,"keywords":["nocrits","nodmgspread","payload","uncletopia"],"game_id":440,"stv_port":27036,"stv_name":"Uncletopia | Seattle | 3 | Stopwatch | STV","players":null},{"server_id":17,"name":"Uncletopia | San Francisco | 1 | All Maps","name_short":"sfo-1","host":"sfo-1.us.uncletopia.com","port":27015,"enabled":true,"region":"us-west","cc":"us","latitude":37.77397,"longitude":-122.4313,"reserved":0,"last_update":"0001-01-01T00:00:00Z","name_a2s":"Uncletopia | San Francisco | 1 | All Maps","protocol":17,"map":"koth_cascade","folder":"tf","game":"Team Fortress","app_id":440,"player_count":0,"max_players":24,"Bots":0,"server_type":"Dedicated","server_os":"Linux","password":true,"vac":true,"version":"7961495","steam_id":85568392924469999,"keywords":["cp","nocrits","nodmgspread","uncletopia"],"game_id":440,"stv_port":27016,"stv_name":"Uncletopia | San Francisco | 1 | All Maps | STV","players":null},{"server_id":18,"name":"Uncletopia | San Francisco | 2 | All Maps","name_short":"sfo-2","host":"sfo-1.us.uncletopia.com","port":27025,"enabled":true,"region":"us-west","cc":"us","latitude":37.77397,"longitude":-122.4313,"reserved":0,"last_update":"0001-01-01T00:00:00Z","name_a2s":"Uncletopia | San Francisco | 2 | All Maps","protocol":17,"map":"pl_frontier_final","folder":"tf","game":"Team Fortress","app_id":440,"player_count":0,"max_players":24,"Bots":0,"server_type":"Dedicated","server_os":"Linux","password":true,"vac":true,"version":"7961495","steam_id":85568392924470000,"keywords":["nocrits","nodmgspread","payload","uncletopia"],"game_id":440,"stv_port":27026,"stv_name":"Uncletopia | San Francisco | 2 | All Maps | STV","players":null},{"server_id":19,"name":"Uncletopia | San Francisco | 3 | Stopwatch","name_short":"sfo-3","host":"sfo-1.us.uncletopia.com","port":27035,"enabled":true,"region":"us-west","cc":"us","latitude":37.77397,"longitude":-122.4313,"reserved":0,"last_update":"0001-01-01T00:00:00Z","name_a2s":"Uncletopia | San Francisco | 3 | Stopwatch","protocol":17,"map":"pl_pier","folder":"tf","game":"Team Fortress","app_id":440,"player_count":0,"max_players":24,"Bots":0,"server_type":"Dedicated","server_os":"Linux","password":true,"vac":true,"version":"7961495","steam_id":85568392924742824,"keywords":["nocrits","nodmgspread","payload","uncletopia"],"game_id":440,"stv_port":27036,"stv_name":"Uncletopia | San Francisco | 3 | Stopwatch | STV","players":null},{"server_id":20,"name":"Uncletopia | San Francisco | 4 | Community","name_short":"sfo-4","host":"sfo-1.us.uncletopia.com","port":27045,"enabled":true,"region":"us-west","cc":"us","latitude":37.77397,"longitude":-122.4313,"reserved":0,"last_update":"0001-01-01T00:00:00Z","name_a2s":"Uncletopia | San Francisco | 4 | Community","protocol":17,"map":"pl_pier","folder":"tf","game":"Team Fortress","app_id":440,"player_count":0,"max_players":24,"Bots":0,"server_type":"Dedicated","server_os":"Linux","password":true,"vac":true,"version":"7961495","steam_id":85568392924742826,"keywords":["nocrits","nodmgspread","payload","uncletopia"],"game_id":440,"stv_port":27046,"stv_name":"Uncletopia | San Francisco | 4 | Community | STV","players":null},{"server_id":141,"name":"Uncletopia | Sydney | 1 | All Maps","name_short":"syd-1","host":"syd-1.au.uncletopia.com","port":27015,"enabled":true,"region":"au","cc":"au","latitude":-33.865143,"longitude":151.2099,"reserved":0,"last_update":"0001-01-01T00:00:00Z","name_a2s":"Uncletopia | Sydney | 1 | All Maps","protocol":17,"map":"cp_dustbowl","folder":"tf","game":"Team Fortress","app_id":440,"player_count":0,"max_players":24,"Bots":0,"server_type":"Dedicated","server_os":"Linux","password":true,"vac":true,"version":"7961495","steam_id":85568392924470001,"keywords":["cp","nocrits","nodmgspread","uncletopia"],"game_id":440,"stv_port":27016,"stv_name":"Uncletopia | Sydney | 1 | All Maps | STV","players":null},{"server_id":123,"name":"Uncletopia | Sydney | 2 | All Maps","name_short":"syd-2","host":"syd-1.au.uncletopia.com","port":27025,"enabled":true,"region":"au","cc":"au","latitude":-33.865143,"longitude":151.2099,"reserved":0,"last_update":"0001-01-01T00:00:00Z","name_a2s":"Uncletopia | Sydney | 2 | All Maps","protocol":17,"map":"koth_viaduct","folder":"tf","game":"Team Fortress","app_id":440,"player_count":0,"max_players":24,"Bots":0,"server_type":"Dedicated","server_os":"Linux","password":true,"vac":true,"version":"7961495","steam_id":85568392924470002,"keywords":["cp","nocrits","nodmgspread","uncletopia"],"game_id":440,"stv_port":27026,"stv_name":"Uncletopia | Sydney | 2 | All Maps | STV","players":null},{"server_id":395,"name":"Uncletopia | Sydney | 3 | All Maps","name_short":"syd-3","host":"syd-1.au.uncletopia.com","port":27035,"enabled":true,"region":"au","cc":"au","latitude":-33.865143,"longitude":151.2099,"reserved":0,"last_update":"0001-01-01T00:00:00Z","name_a2s":"Uncletopia | Sydney | 3 | All Maps","protocol":17,"map":"pl_upward","folder":"tf","game":"Team Fortress","app_id":440,"player_count":0,"max_players":24,"Bots":0,"server_type":"Dedicated","server_os":"Linux","password":true,"vac":true,"version":"7961495","steam_id":85568392925194467,"keywords":["nocrits","nodmgspread","payload","uncletopia"],"game_id":440,"stv_port":27036,"stv_name":"Uncletopia | Sydney | 3 | All Maps | STV","players":null},{"server_id":396,"name":"Uncletopia | Sydney | 4 | All Maps","name_short":"syd-4","host":"syd-1.au.uncletopia.com","port":27045,"enabled":true,"region":"au","cc":"au","latitude":-33.865143,"longitude":151.2099,"reserved":0,"last_update":"0001-01-01T00:00:00Z","name_a2s":"Uncletopia | Sydney | 4 | All Maps","protocol":17,"map":"koth_viaduct","folder":"tf","game":"Team Fortress","app_id":440,"player_count":0,"max_players":24,"Bots":0,"server_type":"Dedicated","server_os":"Linux","password":true,"vac":true,"version":"7961495","steam_id":85568392925397958,"keywords":["cp","nocrits","nodmgspread","uncletopia"],"game_id":440,"stv_port":27046,"stv_name":"Uncletopia | Sydney | 4 | All Maps | STV","players":null},{"server_id":58,"name":"Uncletopia | Sydney | 5 | Stopwatch","name_short":"syd-5","host":"syd-1.au.uncletopia.com","port":27055,"enabled":true,"region":"au","cc":"au","latitude":-33.865143,"longitude":151.2099,"reserved":0,"last_update":"0001-01-01T00:00:00Z","name_a2s":"Uncletopia | Sydney | 5 | Stopwatch","protocol":17,"map":"workshop/koth_ashville_final.ugc2130459942","folder":"tf","game":"Team Fortress","app_id":440,"player_count":0,"max_players":24,"Bots":0,"server_type":"Dedicated","server_os":"Linux","password":true,"vac":true,"version":"7961495","steam_id":85568392925397959,"keywords":["cp","nocrits","nodmgspread","uncletopia"],"game_id":440,"stv_port":27056,"stv_name":"Uncletopia | Sydney | 5 | Stopwatch | STV","players":null},{"server_id":59,"name":"Uncletopia | Sydney | 6 | Community","name_short":"syd-6","host":"syd-1.au.uncletopia.com","port":27065,"enabled":true,"region":"au","cc":"au","latitude":-33.865143,"longitude":151.2099,"reserved":0,"last_update":"0001-01-01T00:00:00Z","name_a2s":"Uncletopia | Sydney | 6 | Community","protocol":17,"map":"workshop/koth_slaughter_rc1.ugc1712845210","folder":"tf","game":"Team Fortress","app_id":440,"player_count":0,"max_players":24,"Bots":0,"server_type":"Dedicated","server_os":"Linux","password":true,"vac":true,"version":"7961495","steam_id":85568392925397960,"keywords":["cp","nocrits","nodmgspread","uncletopia"],"game_id":440,"stv_port":27066,"stv_name":"Uncletopia | Sydney | 6 | Community | STV","players":null},{"server_id":49,"name":"Uncletopia | Warsaw | 1 | One Thousand Uncles","name_short":"waw-1","host":"waw-1.pl.uncletopia.com","port":27015,"enabled":true,"region":"eu","cc":"pl","latitude":52.2297,"longitude":21.017532,"reserved":0,"last_update":"0001-01-01T00:00:00Z","name_a2s":"Uncletopia | Warsaw | 1 | One Thousand Uncles","protocol":17,"map":"pl_chilly","folder":"tf","game":"Team Fortress","app_id":440,"player_count":32,"max_players":32,"Bots":16,"server_type":"Dedicated","server_os":"Linux","password":true,"vac":true,"version":"7961495","steam_id":85568392925397850,"keywords":["alltalk","bots","danepve","increased_maxplayers","nocrits","norespawntime","payload","uncletopia"],"game_id":440,"stv_port":0,"stv_name":"","players":[{"user_id":315,"name":"chgivan","steam_id":76561198060010064,"connected_time":3986000000000,"state":"active","ping":87},{"user_id":344,"name":"Kafelka","steam_id":76561199049044189,"connected_time":1358000000000,"state":"active","ping":57},{"user_id":343,"name":"Juss","steam_id":76561198298722637,"connected_time":2049000000000,"state":"active","ping":62},{"user_id":346,"name":"TekuSP","steam_id":76561198072367754,"connected_time":1006000000000,"state":"active","ping":46},{"user_id":347,"name":"concussion gaming","steam_id":76561198425494530,"connected_time":961000000000,"state":"active","ping":108},{"user_id":348,"name":"Twinkis","steam_id":76561199081527416,"connected_time":897000000000,"state":"active","ping":78},{"user_id":349,"name":"Fiurius","steam_id":76561198151910950,"connected_time":691000000000,"state":"active","ping":47},{"user_id":360,"name":"yn-ozegin","steam_id":76561199018056636,"connected_time":101000000000,"state":"active","ping":114},{"user_id":339,"name":"Istari","steam_id":76561199029051300,"connected_time":2944000000000,"state":"active","ping":32},{"user_id":354,"name":"GoodOldJack12","steam_id":76561198100910669,"connected_time":406000000000,"state":"active","ping":83},{"user_id":356,"name":"Lag","steam_id":76561198159360376,"connected_time":301000000000,"state":"active","ping":80},{"user_id":361,"name":"big blees","steam_id":76561199171173836,"connected_time":91000000000,"state":"active","ping":110},{"user_id":357,"name":"Mega","steam_id":76561197970389664,"connected_time":269000000000,"state":"active","ping":60},{"user_id":358,"name":"splarvis","steam_id":76561198007792525,"connected_time":265000000000,"state":"active","ping":69},{"user_id":362,"name":"Just Something","steam_id":76561198996473311,"connected_time":90000000000,"state":"active","ping":111},{"user_id":364,"name":"Barbatruc","steam_id":76561198119019916,"connected_time":48000000000,"state":"active","ping":79}]},{"server_id":50,"name":"Uncletopia | Warsaw | 2 | One Thousand Uncles","name_short":"waw-2","host":"waw-1.pl.uncletopia.com","port":27025,"enabled":true,"region":"eu","cc":"pl","latitude":52.2297,"longitude":21.017532,"reserved":0,"last_update":"0001-01-01T00:00:00Z","name_a2s":"Uncletopia | Warsaw | 2 | One Thousand Uncles","protocol":17,"map":"cp_dustbowl","folder":"tf","game":"Team Fortress","app_id":440,"player_count":28,"max_players":32,"Bots":16,"server_type":"Dedicated","server_os":"Linux","password":true,"vac":true,"version":"7961495","steam_id":85568392925397851,"keywords":["alltalk","bots","cp","danepve","increased_maxplayers","nocrits","norespawntime","uncletopia"],"game_id":440,"stv_port":0,"stv_name":"","players":[{"user_id":612,"name":"Piquesque","steam_id":76561198286763046,"connected_time":3016000000000,"state":"active","ping":97},{"user_id":661,"name":"Rez","steam_id":76561198410598772,"connected_time":753000000000,"state":"active","ping":59},{"user_id":663,"name":"Shlyk","steam_id":76561198333387103,"connected_time":703000000000,"state":"active","ping":114},{"user_id":666,"name":"Qracz","steam_id":76561198192056119,"connected_time":376000000000,"state":"active","ping":172},{"user_id":672,"name":"[SQ UA] MartianDill","steam_id":76561198405382822,"connected_time":36000000000,"state":"active","ping":45},{"user_id":638,"name":"EaterOfEggs","steam_id":76561198203651088,"connected_time":1539000000000,"state":"active","ping":100},{"user_id":657,"name":"BogdanBury","steam_id":76561199151820854,"connected_time":1037000000000,"state":"active","ping":49},{"user_id":667,"name":"Storm's Foreshadow","steam_id":76561198098462526,"connected_time":273000000000,"state":"active","ping":45},{"user_id":660,"name":"Even Rüüd","steam_id":76561197981144291,"connected_time":850000000000,"state":"active","ping":100},{"user_id":668,"name":"Ангел Предохрани","steam_id":76561199287369451,"connected_time":206000000000,"state":"active","ping":43},{"user_id":670,"name":"Whackyone5588","steam_id":76561198846242972,"connected_time":67000000000,"state":"active","ping":205},{"user_id":671,"name":"Breddie Mercury","steam_id":76561198804590384,"connected_time":60000000000,"state":"active","ping":41}]},{"server_id":51,"name":"Uncletopia | Warsaw | 3 | All Maps","name_short":"waw-3","host":"waw-1.pl.uncletopia.com","port":27035,"enabled":true,"region":"eu","cc":"pl","latitude":52.2297,"longitude":21.017532,"reserved":0,"last_update":"0001-01-01T00:00:00Z","name_a2s":"Uncletopia | Warsaw | 3 | All Maps","protocol":17,"map":"plr_hightower","folder":"tf","game":"Team Fortress","app_id":440,"player_count":0,"max_players":24,"Bots":0,"server_type":"Dedicated","server_os":"Linux","password":true,"vac":true,"version":"7961495","steam_id":85568392925397852,"keywords":["nocrits","nodmgspread","payload","uncletopia"],"game_id":440,"stv_port":27036,"stv_name":"Uncletopia | Warsaw | 3 | All Maps | STV","players":null},{"server_id":52,"name":"Uncletopia | Warsaw | 4 | All Maps","name_short":"waw-4","host":"waw-1.pl.uncletopia.com","port":27045,"enabled":true,"region":"eu","cc":"pl","latitude":52.2297,"longitude":21.017532,"reserved":0,"last_update":"0001-01-01T00:00:00Z","name_a2s":"Uncletopia | Warsaw | 4 | All Maps","protocol":17,"map":"koth_cascade","folder":"tf","game":"Team Fortress","app_id":440,"player_count":0,"max_players":24,"Bots":0,"server_type":"Dedicated","server_os":"Linux","password":true,"vac":true,"version":"7961495","steam_id":85568392925397853,"keywords":["cp","nocrits","nodmgspread","uncletopia"],"game_id":440,"stv_port":27046,"stv_name":"Uncletopia | Warsaw | 4 | All Maps | STV","players":null},{"server_id":53,"name":"Uncletopia | Warsaw | 5 | Stopwatch","name_short":"waw-5","host":"waw-1.pl.uncletopia.com","port":27055,"enabled":true,"region":"eu","cc":"pl","latitude":52.2297,"longitude":21.017532,"reserved":0,"last_update":"0001-01-01T00:00:00Z","name_a2s":"Uncletopia | Warsaw | 5 | Stopwatch","protocol":17,"map":"pl_upward","folder":"tf","game":"Team Fortress","app_id":440,"player_count":3,"max_players":24,"Bots":0,"server_type":"Dedicated","server_os":"Linux","password":true,"vac":true,"version":"7961495","steam_id":85568392925397854,"keywords":["nocrits","nodmgspread","payload","uncletopia"],"game_id":440,"stv_port":27056,"stv_name":"Uncletopia | Warsaw | 5 | Stopwatch | STV","players":[{"user_id":215,"name":"get behind me doctor","steam_id":76561198822183655,"connected_time":313000000000,"state":"active","ping":162},{"user_id":216,"name":"spy sappin ma sentry","steam_id":76561198995554248,"connected_time":268000000000,"state":"active","ping":85},{"user_id":217,"name":"epic party rat","steam_id":76561199100632053,"connected_time":199000000000,"state":"active","ping":74}]},{"server_id":54,"name":"Uncletopia | Warsaw | 6 | Community","name_short":"waw-6","host":"waw-1.pl.uncletopia.com","port":27065,"enabled":true,"region":"eu","cc":"pl","latitude":52.2297,"longitude":21.017532,"reserved":0,"last_update":"0001-01-01T00:00:00Z","name_a2s":"Uncletopia | Warsaw | 6 | Community","protocol":17,"map":"workshop/cp_villa_b19.ugc2113052569","folder":"tf","game":"Team Fortress","app_id":440,"player_count":0,"max_players":24,"Bots":0,"server_type":"Dedicated","server_os":"Linux","password":true,"vac":true,"version":"7961495","steam_id":85568392925397856,"keywords":["cp","nocrits","nodmgspread","uncletopia"],"game_id":440,"stv_port":27066,"stv_name":"Uncletopia | Warsaw | 6 | Community | STV","players":null}]}