{"status":true,"message":"","result":[{"server_id":9,"name":"Uncletopia | Atlanta | 1 | All Maps","name_short":"atl-1","host":"atl-1.us.uncletopia.com","port":27015,"enabled":true,"region":"us-east","cc":"us","latitude":33.753746,"longitude":-84.38633,"reserved":0,"last_update":"0001-01-01T00:00:00Z","name_a2s":"Uncletopia | Atlanta | 1 | All Maps","protocol":17,"map":"pl_barnblitz","folder":"tf","game":"Team Fortress","app_id":440,"player_count":24,"max_players":24,"Bots":0,"server_type":"Dedicated","server_os":"Linux","password":true,"vac":true,"version":"7757534","steam_id":85568392924469982,"keywords":["nocrits","nodmgspread","payload","uncletopia"],"game_id":440,"stv_port":27016,"stv_name":"Uncletopia | Atlanta | 1 | All Maps | STV","players":[{"user_id":75,"name":"Merchants of Misery","steam_id":76561199188142396,"connected_time":3067000000000,"state":"active","ping":89},{"user_id":76,"name":"Spy_Is_Pye","steam_id":76561199439622967,"connected_time":2977000000000,"state":"active","ping":73},{"user_id":82,"name":"Skab","steam_id":76561199126112357,"connected_time":2562000000000,"state":"active","ping":57},{"user_id":70,"name":"ghenotic","steam_id":76561199310269979,"connected_time":3946000000000,"state":"active","ping":60},{"user_id":83,"name":"gallowsCalibrator","steam_id":76561198404707578,"connected_time":2017000000000,"state":"active","ping":44},{"user_id":84,"name":"Vudreya","steam_id":76561198049923877,"connected_time":1485000000000,"state":"active","ping":62},{"user_id":91,"name":"Brown_Dream","steam_id":76561198975766145,"connected_time":963000000000,"state":"active","ping":73},{"user_id":24,"name":"William Wallace","steam_id":76561199343316814,"connected_time":6789000000000,"state":"active","ping":56},{"user_id":100,"name":"Thurricane","steam_id":76561198410724666,"connected_time":129000000000,"state":"active","ping":60},{"user_id":67,"name":"Dude bro","steam_id":76561198249916746,"connected_time":4031000000000,"state":"active","ping":60},{"user_id":98,"name":"living in mushroom park","steam_id":76561198249206656,"connected_time":410000000000,"state":"active","ping":78},{"user_id":99,"name":"MR.DED#SAVETF2","steam_id":76561199102310318,"connected_time":406000000000,"state":"active","ping":97},{"user_id":65,"name":"You Want Me","steam_id":76561198135492119,"connected_time":4298000000000,"state":"active","ping":70},{"user_id":64,"name":"Pixeled","steam_id":76561198088917077,"connected_time":4460000000000,"state":"active","ping":73},{"user_id":85,"name":"Femcel Fornicator","steam_id":76561198336584447,"connected_time":1468000000000,"state":"active","ping":83},{"user_id":66,"name":"G_Bob","steam_id":76561198098133233,"connected_time":4297000000000,"state":"active","ping":58},{"user_id":96,"name":"frid","steam_id":76561198005806915,"connected_time":489000000000,"state":"active","ping":75},{"user_id":94,"name":"6t26j","steam_id":76561198278282836,"connected_time":675000000000,"state":"active","ping":66},{"user_id":101,"name":"Infamous","steam_id":76561198853655415,"connected_time":88000000000,"state":"active","ping":62},{"user_id":97,"name":"[chef] iron","steam_id":76561197970888616,"connected_time":484000000000,"state":"active","ping":60},{"user_id":89,"name":"ASAP","steam_id":76561198884006856,"connected_time":1441000000000,"state":"active","ping":176},{"user_id":90,"name":"ItsBrieDude","steam_id":76561198051971306,"connected_time":1189000000000,"state":"active","ping":43},{"user_id":93,"name":"kite","steam_id":76561198346516392,"connected_time":872000000000,"state":"active","ping":111},{"user_id":86,"name":"SeaBass","steam_id":76561198278914206,"connected_time":1467000000000,"state":"active","ping":72}]},{"server_id":400,"name":"Uncletopia | Atlanta | 3 | Stopwatch Beta","name_short":"atl-3","host":"atl-1.us.uncletopia.com","port":27035,"enabled":true,"region":"us-east","cc":"us","latitude":33.753746,"longitude":-84.38633,"reserved":0,"last_update":"0001-01-01T00:00:00Z","name_a2s":"Uncletopia | Atlanta | 3 | Stopwatch Beta","protocol":17,"map":"koth_highpass","folder":"tf","game":"Team Fortress","app_id":440,"player_count":0,"max_players":24,"Bots":0,"server_type":"Dedicated","server_os":"Linux","password":true,"vac":true,"version":"7757534","steam_id":85568392924515187,"keywords":["cp","nocrits","nodmgspread","uncletopia"],"game_id":440,"stv_port":27036,"stv_name":"Uncletopia | Atlanta | 3 | Stopwatch Beta | STV","players":null},{"server_id":401,"name":"Uncletopia | Atlanta | 4 | No Payload","name_short":"atl-4","host":"atl-1.us.uncletopia.com","port":27045,"enabled":true,"region":"us-east","cc":"us","latitude":33.753746,"longitude":-84.38633,"reserved":0,"last_update":"0001-01-01T00:00:00Z","name_a2s":"Uncletopia | Atlanta | 4 | No Payload","protocol":17,"map":"pl_pier","folder":"tf","game":"Team Fortress","app_id":440,"player_count":0,"max_players":24,"Bots":0,"server_type":"Dedicated","server_os":"Linux","password":true,"vac":true,"version":"7723704","steam_id":85568392924515188,"keywords":["nocrits","nodmgspread","payload","uncletopia"],"game_id":440,"stv_port":27046,"stv_name":"Uncletopia | Atlanta | 4 | No Payload | STV","players":null},{"server_id":2,"name":"Uncletopia | Chicago | 1 | All Maps","name_short":"chi-1","host":"chi-1.us.uncletopia.com","port":27015,"enabled":true,"region":"us-central","cc":"us","latitude":41.881832,"longitude":-87.62318,"reserved":0,"last_update":"0001-01-01T00:00:00Z","name_a2s":"Uncletopia | Chicago | 1 | All Maps","protocol":17,"map":"cp_steel","folder":"tf","game":"Team Fortress","app_id":440,"player_count":24,"max_players":24,"Bots":0,"server_type":"Dedicated","server_os":"Linux","password":true,"vac":true,"version":"7757534","steam_id":85568392924469984,"keywords":["cp","nocrits","nodmgspread","uncletopia"],"game_id":440,"stv_port":27016,"stv_name":"Uncletopia | Chicago | 1 | All Maps | STV","players":[{"user_id":207,"name":"magical_mage0","steam_id":76561198213271916,"connected_time":1203000000000,"state":"active","ping":68},{"user_id":194,"name":"Rornir","steam_id":76561198081829615,"connected_time":2789000000000,"state":"active","ping":32},{"user_id":220,"name":"Disco Fever","steam_id":76561198069532215,"connected_time":6000000000,"state":"spawning","ping":51},{"user_id":219,"name":"TheJuiceCrew","steam_id":76561198109073254,"connected_time":12000000000,"state":"spawning","ping":66},{"user_id":173,"name":"capybara","steam_id":76561198798828328,"connected_time":4853000000000,"state":"active","ping":52},{"user_id":118,"name":"ch","steam_id":76561198012566405,"connected_time":9898000000000,"state":"active","ping":61},{"user_id":159,"name":"♥ Femboy♥Ventily ♥","steam_id":76561198157260335,"connected_time":6018000000000,"state":"active","ping":51},{"user_id":183,"name":"Errrmmett","steam_id":76561198041314051,"connected_time":3751000000000,"state":"active","ping":70},{"user_id":199,"name":"Iggy Dogg","steam_id":76561198059602545,"connected_time":1614000000000,"state":"active","ping":45},{"user_id":216,"name":"RedToast™","steam_id":76561198372885712,"connected_time":551000000000,"state":"active","ping":57},{"user_id":206,"name":"TeeTree","steam_id":76561198862307874,"connected_time":1220000000000,"state":"active","ping":68},{"user_id":217,"name":"Rein","steam_id":76561198300340427,"connected_time":18000000000,"state":"active","ping":59},{"user_id":210,"name":"Snake Handler","steam_id":76561198027198306,"connected_time":1196000000000,"state":"active","ping":44},{"user_id":202,"name":"mossy_woods","steam_id":76561198284350370,"connected_time":1236000000000,"state":"active","ping":70},{"user_id":211,"name":"Tourmaline Lazuli","steam_id":76561198987049358,"connected_time":1149000000000,"state":"active","ping":46},{"user_id":212,"name":"cumbia stud gaming","steam_id":76561198963282079,"connected_time":1117000000000,"state":"active","ping":119},{"user_id":204,"name":"Julia","steam_id":76561198175727790,"connected_time":1234000000000,"state":"active","ping":99},{"user_id":221,"name":"Mutt x","steam_id":76561197995197443,"connected_time":4000000000,"state":"spawning","ping":73},{"user_id":137,"name":"Snale","steam_id":76561198039517965,"connected_time":8447000000000,"state":"active","ping":128},{"user_id":184,"name":"catboy phroliax","steam_id":76561198207075529,"connected_time":3747000000000,"state":"active","ping":83},{"user_id":218,"name":"PrinceGrotle","steam_id":76561198206131603,"connected_time":17000000000,"state":"active","ping":600},{"user_id":187,"name":"Jimothy","steam_id":76561198982248872,"connected_time":3664000000000,"state":"active","ping":67},{"user_id":189,"name":"custodian","steam_id":76561198058793778,"connected_time":3121000000000,"state":"active","ping":70},{"user_id":222,"name":"the deadliest pyroshark","steam_id":76561198374227766,"connected_time":3000000000,"state":"spawning","ping":58}]},{"server_id":106,"name":"Uncletopia | Chicago | 2 | All Maps","name_short":"chi-2","host":"chi-1.us.uncletopia.com","port":27025,"enabled":true,"region":"us-central","cc":"us","latitude":41.881832,"longitude":-87.62318,"reserved":0,"last_update":"0001-01-01T00:00:00Z","name_a2s":"Uncletopia | Chicago | 2 | All Maps","protocol":17,"map":"koth_lakeside_final","folder":"tf","game":"Team Fortress","app_id":440,"player_count":0,"max_players":24,"Bots":0,"server_type":"Dedicated","server_os":"Linux","password":true,"vac":true,"version":"7757534","steam_id":85568392924469985,"keywords":["cp","nocrits","nodmgspread","uncletopia"],"game_id":440,"stv_port":27026,"stv_name":"Uncletopia | Chicago | 2 | All Maps | STV","players":null},{"server_id":402,"name":"Uncletopia | Chicago | 3 | All Maps","name_short":"chi-3","host":"chi-1.us.uncletopia.com","port":27035,"enabled":true,"region":"us-central","cc":"us","latitude":41.881832,"longitude":-87.62318,"reserved":0,"last_update":"0001-01-01T00:00:00Z","name_a2s":"Uncletopia | Chicago | 3 | All Maps","protocol":17,"map":"pl_barnblitz","folder":"tf","game":"Team Fortress","app_id":440,"player_count":0,"max_players":24,"Bots":0,"server_type":"Dedicated","server_os":"Linux","password":true,"vac":true,"version":"7757534","steam_id":85568392924515191,"keywords":["nocrits","nodmgspread","payload","uncletopia"],"game_id":440,"stv_port":27036,"stv_name":"Uncletopia | Chicago | 3 | All Maps | STV","players":null},{"server_id":403,"name":"Uncletopia | Chicago | 4 | All Maps","name_short":"chi-4","host":"chi-1.us.uncletopia.com","port":27045,"enabled":true,"region":"us-central","cc":"us","latitude":41.881832,"longitude":-87.62318,"reserved":0,"last_update":"0001-01-01T00:00:00Z","name_a2s":"Uncletopia | Chicago | 4 | All Maps","protocol":17,"map":"cp_process_final","folder":"tf","game":"Team Fortress","app_id":440,"player_count":24,"max_players":24,"Bots":0,"server_type":"Dedicated","server_os":"Linux","password":true,"vac":true,"version":"7757534","steam_id":85568392924515193,"keywords":["cp","nocrits","nodmgspread","uncletopia"],"game_id":440,"stv_port":27046,"stv_name":"Uncletopia | Chicago | 4 | All Maps | STV","players":[{"user_id":270,"name":"Dreamy Sweat from 2hu","steam_id":76561198094602446,"connected_time":2021000000000,"state":"active","ping":70},{"user_id":254,"name":"Psych03","steam_id":76561198061753667,"connected_time":3784000000000,"state":"active","ping":99},{"user_id":282,"name":"Bomb Squirtle™","steam_id":76561197998931145,"connected_time":1194000000000,"state":"active","ping":85},{"user_id":278,"name":"Colbolt Eon","steam_id":76561198169312143,"connected_time":1495000000000,"state":"active","ping":85},{"user_id":272,"name":"Kasane","steam_id":76561198209006780,"connected_time":1998000000000,"state":"active","ping":89},{"user_id":285,"name":"BeKnown","steam_id":76561198344338970,"connected_time":886000000000,"state":"active","ping":87},{"user_id":293,"name":"gravid baby","steam_id":76561198318646867,"connected_time":350000000000,"state":"active","ping":61},{"user_id":292,"name":"Cthulhu","steam_id":76561198326381898,"connected_time":431000000000,"state":"active","ping":75},{"user_id":277,"name":"Mr. Sandman","steam_id":76561198065870487,"connected_time":1513000000000,"state":"active","ping":56},{"user_id":212,"name":"JazzMuted","steam_id":76561197974184265,"connected_time":6394000000000,"state":"active","ping":38},{"user_id":250,"name":"Yukihana","steam_id":76561198348354629,"connected_time":3861000000000,"state":"active","ping":117},{"user_id":268,"name":"brian eats you","steam_id":76561198109901138,"connected_time":2050000000000,"state":"active","ping":74},{"user_id":287,"name":"Colin102004","steam_id":76561198202384334,"connected_time":855000000000,"state":"active","ping":57},{"user_id":262,"name":"vandeer","steam_id":76561198120124007,"connected_time":2742000000000,"state":"active","ping":71},{"user_id":291,"name":"bobbyreinman2009","steam_id":76561198804763186,"connected_time":641000000000,"state":"active","ping":62},{"user_id":294,"name":"Tots","steam_id":76561198027485007,"connected_time":141000000000,"state":"active","ping":46},{"user_id":234,"name":"Anon","steam_id":76561198109740776,"connected_time":4916000000000,"state":"active","ping":115},{"user_id":286,"name":"Teleporter  (Entrance, Level 3)","steam_id":76561198316927664,"connected_time":871000000000,"state":"active","ping":73},{"user_id":242,"name":"shadow6","steam_id":76561197979807910,"connected_time":4183000000000,"state":"active","ping":90},{"user_id":288,"name":"faxxy","steam_id":76561198079621240,"connected_time":854000000000,"state":"active","ping":92},{"user_id":261,"name":"Wwaz","steam_id":76561198000240092,"connected_time":3185000000000,"state":"active","ping":52},{"user_id":284,"name":"God of bread","steam_id":76561198373688035,"connected_time":1166000000000,"state":"active","ping":64},{"user_id":193,"name":"Cuttle's Fish","steam_id":76561198280483257,"connected_time":7684000000000,"state":"active","ping":60},{"user_id":289,"name":"inzang","steam_id":76561198088318074,"connected_time":847000000000,"state":"active","ping":70}]},{"server_id":36,"name":"Uncletopia | Chicago | 5 | All Maps","name_short":"chi-5","host":"chi-2.us.uncletopia.com","port":27015,"enabled":true,"region":"us-central","cc":"us","latitude":41.881832,"longitude":-87.62318,"reserved":0,"last_update":"0001-01-01T00:00:00Z","name_a2s":"Uncletopia | Chicago | 5 | All Maps","protocol":17,"map":"pl_pier","folder":"tf","game":"Team Fortress","app_id":440,"player_count":24,"max_players":24,"Bots":0,"server_type":"Dedicated","server_os":"Linux","password":true,"vac":true,"version":"7757534","steam_id":85568392924866362,"keywords":["nocrits","nodmgspread","payload","uncletopia"],"game_id":440,"stv_port":27016,"stv_name":"Uncletopia | Chicago | 5 | All Maps | STV","players":[{"user_id":27,"name":"Blueshadow","steam_id":76561199294815271,"connected_time":4462000000000,"state":"active","ping":93},{"user_id":91,"name":"UWBW","steam_id":76561198007524241,"connected_time":488000000000,"state":"active","ping":63},{"user_id":92,"name":"Zicky Nee","steam_id":76561198042601111,"connected_time":477000000000,"state":"active","ping":70},{"user_id":77,"name":"scrapheap","steam_id":76561198202407087,"connected_time":1313000000000,"state":"active","ping":80},{"user_id":29,"name":"Cthulwho?","steam_id":76561198165550810,"connected_time":4413000000000,"state":"active","ping":61},{"user_id":25,"name":"Berries","steam_id":76561198109312962,"connected_time":4565000000000,"state":"active","ping":74},{"user_id":89,"name":"rlen","steam_id":76561197996132951,"connected_time":792000000000,"state":"active","ping":79},{"user_id":57,"name":"classically tua","steam_id":76561198034955422,"connected_time":2808000000000,"state":"active","ping":135},{"user_id":58,"name":"Joey Lemons","steam_id":76561198068104187,"connected_time":2794000000000,"state":"active","ping":44},{"user_id":31,"name":"st0mpt","steam_id":76561197963372924,"connected_time":4378000000000,"state":"active","ping":89},{"user_id":71,"name":"gaylittlemouse","steam_id":76561198819562111,"connected_time":1734000000000,"state":"active","ping":64},{"user_id":93,"name":"mao zaddy","steam_id":76561198283687382,"connected_time":315000000000,"state":"active","ping":77},{"user_id":84,"name":"underscore_","steam_id":76561198242183264,"connected_time":1046000000000,"state":"active","ping":79},{"user_id":78,"name":"ShermanJumbo","steam_id":76561198020054307,"connected_time":1304000000000,"state":"active","ping":49},{"user_id":65,"name":"Strawburrr","steam_id":76561199208694620,"connected_time":2509000000000,"state":"active","ping":88},{"user_id":67,"name":"Mister36","steam_id":76561198019132100,"connected_time":2159000000000,"state":"active","ping":69},{"user_id":68,"name":"Wengatang","steam_id":76561198021747059,"connected_time":2104000000000,"state":"active","ping":58},{"user_id":72,"name":"Voids","steam_id":76561198128386726,"connected_time":1713000000000,"state":"active","ping":87},{"user_id":96,"name":"FPS Dave","steam_id":76561197993212677,"connected_time":15000000000,"state":"spawning","ping":59},{"user_id":85,"name":"kieran","steam_id":76561198115357403,"connected_time":1026000000000,"state":"active","ping":153},{"user_id":73,"name":"loser","steam_id":76561198171507451,"connected_time":1709000000000,"state":"active","ping":87},{"user_id":90,"name":"Mirari","steam_id":76561198126889358,"connected_time":612000000000,"state":"active","ping":83},{"user_id":81,"name":"ae35","steam_id":76561198831989456,"connected_time":1277000000000,"state":"active","ping":85},{"user_id":83,"name":"Chunkers","steam_id":76561199130439189,"connected_time":1224000000000,"state":"active","ping":75}]},{"server_id":37,"name":"Uncletopia | Chicago | 6 | All Maps","name_short":"chi-6","host":"chi-2.us.uncletopia.com","port":27025,"enabled":true,"region":"us-central","cc":"us","latitude":41.881832,"longitude":-87.62318,"reserved":0,"last_update":"0001-01-01T00:00:00Z","name_a2s":"Uncletopia | Chicago | 6 | All Maps","protocol":17,"map":"koth_viaduct","folder":"tf","game":"Team Fortress","app_id":440,"player_count":0,"max_players":24,"Bots":0,"server_type":"Dedicated","server_os":"Linux","password":true,"vac":true,"version":"7757534","steam_id":85568392924866363,"keywords":["cp","nocrits","nodmgspread","uncletopia"],"game_id":440,"stv_port":27026,"stv_name":"Uncletopia | Chicago | 6 | All Maps | STV","players":null},{"server_id":38,"name":"Uncletopia | Chicago | 7 | Stopwatch Beta","name_short":"chi-7","host":"chi-2.us.uncletopia.com","port":27035,"enabled":true,"region":"us-central","cc":"us","latitude":41.881832,"longitude":-87.62318,"reserved":0,"last_update":"0001-01-01T00:00:00Z","name_a2s":"Uncletopia | Chicago | 7 | Stopwatch Beta","protocol":17,"map":"cp_metalworks","folder":"tf","game":"Team Fortress","app_id":440,"player_count":0,"max_players":24,"Bots":0,"server_type":"Dedicated","server_os":"Linux","password":true,"vac":true,"version":"7757534","steam_id":85568392924866364,"keywords":["cp","nocrits","nodmgspread","uncletopia"],"game_id":440,"stv_port":27036,"stv_name":"Uncletopia | Chicago | 7 | Stopwatch Beta | STV","players":null},{"server_id":39,"name":"Uncletopia | Chicago | 8 | Community","name_short":"chi-8","host":"chi-2.us.uncletopia.com","port":27045,"enabled":true,"region":"us-central","cc":"us","latitude":41.881832,"longitude":-87.62318,"reserved":0,"last_update":"0001-01-01T00:00:00Z","name_a2s":"Uncletopia | Chicago | 8 | Community","protocol":17,"map":"workshop/koth_product_final.ugc454272353","folder":"tf","game":"Team Fortress","app_id":440,"player_count":0,"max_players":24,"Bots":0,"server_type":"Dedicated","server_os":"Linux","password":true,"vac":true,"version":"7757534","steam_id":85568392924866365,"keywords":["cp","nocrits","nodmgspread","uncletopia"],"game_id":440,"stv_port":27046,"stv_name":"Uncletopia | Chicago | 8 | Community | STV","players":null},{"server_id":8,"name":"Uncletopia | Dallas | 1 | All Maps","name_short":"dal-1","host":"dal-1.us.uncletopia.com","port":27015,"enabled":true,"region":"us-central","cc":"us","latitude":32.779167,"longitude":-96.80889,"reserved":0,"last_update":"0001-01-01T00:00:00Z","name_a2s":"Uncletopia | Dallas | 1 | All Maps","protocol":17,"map":"pl_hoodoo_final","folder":"tf","game":"Team Fortress","app_id":440,"player_count":24,"max_players":24,"Bots":0,"server_type":"Dedicated","server_os":"Linux","password":true,"vac":true,"version":"7757534","steam_id":85568392924469986,"keywords":["nocrits","nodmgspread","payload","uncletopia"],"game_id":440,"stv_port":27016,"stv_name":"Uncletopia | Dallas | 1 | All Maps | STV","players":[{"user_id":173,"name":"Stillkill","steam_id":76561198065069057,"connected_time":2431000000000,"state":"active","ping":26},{"user_id":175,"name":"Todouw","steam_id":76561199197628378,"connected_time":2309000000000,"state":"active","ping":154},{"user_id":211,"name":"lag","steam_id":76561197963872739,"connected_time":76000000000,"state":"active","ping":74},{"user_id":189,"name":"Kaypo","steam_id":76561198262420097,"connected_time":1326000000000,"state":"active","ping":87},{"user_id":191,"name":"Isopentyl Ethanoate","steam_id":76561198116389072,"connected_time":1303000000000,"state":"active","ping":112},{"user_id":188,"name":"Rusted Cake","steam_id":76561198209755931,"connected_time":1329000000000,"state":"active","ping":88},{"user_id":212,"name":"think like stewie","steam_id":76561198305075162,"connected_time":60000000000,"state":"active","ping":91},{"user_id":204,"name":"Proto","steam_id":76561198053602795,"connected_time":307000000000,"state":"active","ping":91},{"user_id":192,"name":"Tritium","steam_id":76561198043305626,"connected_time":1219000000000,"state":"active","ping":99},{"user_id":186,"name":"Emma","steam_id":76561198318093783,"connected_time":1346000000000,"state":"active","ping":59},{"user_id":205,"name":"Mouth Tea","steam_id":76561198285054047,"connected_time":279000000000,"state":"active","ping":71},{"user_id":107,"name":"Tyler\u0026Fingers","steam_id":76561198085154485,"connected_time":7389000000000,"state":"active","ping":93},{"user_id":210,"name":"kerdo","steam_id":76561199195205705,"connected_time":137000000000,"state":"active","ping":69},{"user_id":169,"name":"true brexit geezer","steam_id":76561198326966333,"connected_time":2998000000000,"state":"active","ping":83},{"user_id":194,"name":"SAKO","steam_id":76561198010041361,"connected_time":1199000000000,"state":"active","ping":36},{"user_id":202,"name":"trilobita","steam_id":76561198428215606,"connected_time":485000000000,"state":"active","ping":79},{"user_id":185,"name":"Dr. Dynamo","steam_id":76561198114569365,"connected_time":1370000000000,"state":"active","ping":63},{"user_id":197,"name":"México","steam_id":76561198238059280,"connected_time":1096000000000,"state":"active","ping":86},{"user_id":198,"name":"Emprial","steam_id":76561198195574594,"connected_time":1067000000000,"state":"active","ping":64},{"user_id":160,"name":"lost in spaaaaace","steam_id":76561199085974120,"connected_time":3424000000000,"state":"active","ping":86},{"user_id":161,"name":"bendera","steam_id":76561197965486503,"connected_time":3350000000000,"state":"active","ping":89},{"user_id":144,"name":"ivy","steam_id":76561198131876013,"connected_time":4864000000000,"state":"active","ping":84},{"user_id":177,"name":"TheBrocklobster","steam_id":76561198039682984,"connected_time":2011000000000,"state":"active","ping":88},{"user_id":208,"name":"john","steam_id":76561197979090955,"connected_time":194000000000,"state":"active","ping":73}]},{"server_id":108,"name":"Uncletopia | Dallas | 2 | All Maps","name_short":"dal-2","host":"dal-1.us.uncletopia.com","port":27025,"enabled":true,"region":"us-central","cc":"us","latitude":32.779167,"longitude":-96.80889,"reserved":0,"last_update":"0001-01-01T00:00:00Z","name_a2s":"Uncletopia | Dallas | 2 | All Maps","protocol":17,"map":"pl_frontier_final","folder":"tf","game":"Team Fortress","app_id":440,"player_count":24,"max_players":24,"Bots":0,"server_type":"Dedicated","server_os":"Linux","password":true,"vac":true,"version":"7757534","steam_id":85568392924469988,"keywords":["nocrits","nodmgspread","payload","uncletopia"],"game_id":440,"stv_port":27026,"stv_name":"Uncletopia | Dallas | 2 | All Maps | STV","players":[{"user_id":111,"name":"The Angel of Death","steam_id":76561198026079349,"connected_time":546000000000,"state":"active","ping":121},{"user_id":115,"name":"cringeass nae-nae girl","steam_id":76561198108753857,"connected_time":494000000000,"state":"active","ping":66},{"user_id":64,"name":"toilet bong gaming","steam_id":76561198134212003,"connected_time":3692000000000,"state":"active","ping":74},{"user_id":110,"name":"Adalwolfa","steam_id":76561198194671218,"connected_time":561000000000,"state":"active","ping":73},{"user_id":116,"name":"Roz257","steam_id":76561198842844532,"connected_time":479000000000,"state":"active","ping":95},{"user_id":102,"name":"flexer_2000","steam_id":76561198084422657,"connected_time":1033000000000,"state":"active","ping":75},{"user_id":94,"name":"crunchy obama","steam_id":76561198044485217,"connected_time":1767000000000,"state":"active","ping":101},{"user_id":108,"name":"mr.edderkopper","steam_id":76561198152614478,"connected_time":588000000000,"state":"active","ping":85},{"user_id":21,"name":"PAC-MATH","steam_id":76561198327729748,"connected_time":6741000000000,"state":"active","ping":83},{"user_id":57,"name":"deech","steam_id":76561198066429444,"connected_time":4894000000000,"state":"active","ping":85},{"user_id":117,"name":"caRat","steam_id":76561198859267372,"connected_time":327000000000,"state":"active","ping":75},{"user_id":92,"name":"Rat Smacker","steam_id":76561199090197628,"connected_time":1890000000000,"state":"active","ping":63},{"user_id":106,"name":"egghole","steam_id":76561198215813163,"connected_time":608000000000,"state":"active","ping":82},{"user_id":95,"name":"matrixcode","steam_id":76561198054805328,"connected_time":1744000000000,"state":"active","ping":60},{"user_id":91,"name":"MajesticJester","steam_id":76561198797877459,"connected_time":1998000000000,"state":"active","ping":97},{"user_id":104,"name":"Derblitz","steam_id":76561198040953176,"connected_time":779000000000,"state":"active","ping":87},{"user_id":105,"name":"Frost","steam_id":76561198272014381,"connected_time":662000000000,"state":"active","ping":86},{"user_id":107,"name":"c64guy","steam_id":76561198023022744,"connected_time":601000000000,"state":"active","ping":91},{"user_id":73,"name":"Temujin","steam_id":76561198030936583,"connected_time":3118000000000,"state":"active","ping":94},{"user_id":83,"name":"totally not a pile of beans","steam_id":76561198119851931,"connected_time":2407000000000,"state":"active","ping":97},{"user_id":113,"name":"Metatron","steam_id":76561198332386371,"connected_time":527000000000,"state":"active","ping":64},{"user_id":90,"name":"sniffy","steam_id":76561198184933255,"connected_time":2197000000000,"state":"active","ping":89},{"user_id":114,"name":"yeyoi","steam_id":76561198069821885,"connected_time":522000000000,"state":"active","ping":39},{"user_id":101,"name":"Unfunny","steam_id":76561198336411847,"connected_time":1448000000000,"state":"active","ping":68}]},{"server_id":5,"name":"Uncletopia | Frankfurt | 1 | All Maps","name_short":"frk-1","host":"frk-1.de.uncletopia.com","port":27015,"enabled":true,"region":"eu","cc":"de","latitude":50.110924,"longitude":8.682127,"reserved":0,"last_update":"0001-01-01T00:00:00Z","name_a2s":"Uncletopia | Frankfurt | 1 | All Maps","protocol":17,"map":"pl_swiftwater_final1","folder":"tf","game":"Team Fortress","app_id":440,"player_count":24,"max_players":24,"Bots":0,"server_type":"Dedicated","server_os":"Linux","password":true,"vac":true,"version":"7757534","steam_id":85568392924469989,"keywords":["nocrits","nodmgspread","payload","uncletopia"],"game_id":440,"stv_port":27016,"stv_name":"Uncletopia | Frankfurt | 1 | All Maps | STV","players":[{"user_id":533,"name":"a fleet of maids","steam_id":76561198058012525,"connected_time":655000000000,"state":"active","ping":71},{"user_id":534,"name":"L.A. Palm Tree","steam_id":76561199289526521,"connected_time":610000000000,"state":"active","ping":94},{"user_id":549,"name":"Bobo","steam_id":76561198052308399,"connected_time":242000000000,"state":"active","ping":58},{"user_id":535,"name":"ᗜ˰ᗜ","steam_id":76561198148074472,"connected_time":585000000000,"state":"active","ping":45},{"user_id":536,"name":"aimee","steam_id":76561198834309212,"connected_time":560000000000,"state":"active","ping":153},{"user_id":464,"name":"RadialMount","steam_id":76561198063002562,"connected_time":4337000000000,"state":"active","ping":65},{"user_id":537,"name":"SynthBox3","steam_id":76561199094075745,"connected_time":545000000000,"state":"active","ping":89},{"user_id":538,"name":"Fancy","steam_id":76561198350658462,"connected_time":476000000000,"state":"active","ping":75},{"user_id":530,"name":"Sacreshiea","steam_id":76561198169853697,"connected_time":1316000000000,"state":"active","ping":57},{"user_id":528,"name":"Home Depot","steam_id":76561198108904214,"connected_time":1467000000000,"state":"active","ping":83},{"user_id":539,"name":"LarsInABox","steam_id":76561198028329262,"connected_time":459000000000,"state":"active","ping":74},{"user_id":487,"name":"EdSuedi","steam_id":76561199387956486,"connected_time":2586000000000,"state":"active","ping":59},{"user_id":523,"name":"bmbmbm","steam_id":76561199064350902,"connected_time":1576000000000,"state":"active","ping":101},{"user_id":540,"name":"abcdefg","steam_id":76561198147277460,"connected_time":445000000000,"state":"active","ping":60},{"user_id":541,"name":"The","steam_id":76561198359311605,"connected_time":422000000000,"state":"active","ping":85},{"user_id":548,"name":"FIR0NIX","steam_id":76561198962349048,"connected_time":283000000000,"state":"active","ping":75},{"user_id":543,"name":"Hoxton","steam_id":76561198129209505,"connected_time":366000000000,"state":"active","ping":71},{"user_id":544,"name":"|20BB)\u003eMach","steam_id":76561198952487564,"connected_time":356000000000,"state":"active","ping":78},{"user_id":505,"name":"Savlon","steam_id":76561198011597274,"connected_time":2189000000000,"state":"active","ping":52},{"user_id":545,"name":"tm","steam_id":76561198256619964,"connected_time":356000000000,"state":"active","ping":81},{"user_id":546,"name":"Joe mama","steam_id":76561198806718750,"connected_time":340000000000,"state":"active","ping":71},{"user_id":509,"name":"Mal ★","steam_id":76561198262337669,"connected_time":2140000000000,"state":"active","ping":76},{"user_id":547,"name":"Zogg","steam_id":76561198352683491,"connected_time":338000000000,"state":"active","ping":57},{"user_id":531,"name":"Piripitiflautico","steam_id":76561198062233409,"connected_time":1295000000000,"state":"active","ping":107}]},{"server_id":110,"name":"Uncletopia | Frankfurt | 2 | All Maps","name_short":"frk-2","host":"frk-1.de.uncletopia.com","port":27025,"enabled":true,"region":"eu","cc":"de","latitude":50.110924,"longitude":8.682127,"reserved":0,"last_update":"0001-01-01T00:00:00Z","name_a2s":"Uncletopia | Frankfurt | 2 | All Maps","protocol":17,"map":"pl_borneo","folder":"tf","game":"Team Fortress","app_id":440,"player_count":21,"max_players":24,"Bots":0,"server_type":"Dedicated","server_os":"Linux","password":true,"vac":true,"version":"7757534","steam_id":85568392924469990,"keywords":["nocrits","nodmgspread","payload","uncletopia"],"game_id":440,"stv_port":27026,"stv_name":"Uncletopia | Frankfurt | 2 | All Maps | STV","players":[{"user_id":491,"name":"Jojiganstar","steam_id":76561198313086739,"connected_time":4825000000000,"state":"active","ping":78},{"user_id":550,"name":"SpeddyMeddy","steam_id":76561197999693825,"connected_time":1196000000000,"state":"active","ping":62},{"user_id":570,"name":"XantaToast","steam_id":76561198066158468,"connected_time":27000000000,"state":"active","ping":52},{"user_id":557,"name":"Mariachi Dave","steam_id":76561198074274900,"connected_time":780000000000,"state":"active","ping":59},{"user_id":494,"name":"Acid","steam_id":76561198102110680,"connected_time":4513000000000,"state":"active","ping":172},{"user_id":483,"name":"R. Kray","steam_id":76561198135655520,"connected_time":5312000000000,"state":"active","ping":75},{"user_id":563,"name":"Wardruna96","steam_id":76561199057083828,"connected_time":389000000000,"state":"active","ping":75},{"user_id":568,"name":"Doctor Sex","steam_id":76561199027785550,"connected_time":71000000000,"state":"active","ping":53},{"user_id":558,"name":"irem eating tuna","steam_id":76561198142183478,"connected_time":608000000000,"state":"spawning","ping":82},{"user_id":559,"name":"Banana","steam_id":76561198155118706,"connected_time":463000000000,"state":"active","ping":105},{"user_id":520,"name":"Misty","steam_id":76561198863357531,"connected_time":3534000000000,"state":"spawning","ping":102},{"user_id":569,"name":"DrExplosive","steam_id":76561198063678579,"connected_time":48000000000,"state":"active","ping":47},{"user_id":434,"name":"john fortress","steam_id":76561198202668788,"connected_time":8826000000000,"state":"spawning","ping":64},{"user_id":500,"name":"Albert Einstein","steam_id":76561198351190006,"connected_time":4275000000000,"state":"spawning","ping":273},{"user_id":534,"name":"Gamer_X","steam_id":76561198085349286,"connected_time":2824000000000,"state":"spawning","ping":81},{"user_id":571,"name":"Chiefuz","steam_id":76561198015535215,"connected_time":19000000000,"state":"spawning","ping":61},{"user_id":536,"name":"Jokudami","steam_id":76561198346604154,"connected_time":2803000000000,"state":"active","ping":47},{"user_id":553,"name":"Preyzen","steam_id":76561199043448824,"connected_time":1005000000000,"state":"active","ping":60},{"user_id":539,"name":"*cough*","steam_id":76561198179908677,"connected_time":2655000000000,"state":"active","ping":170},{"user_id":555,"name":"Mr.Cupcake","steam_id":76561198152711174,"connected_time":928000000000,"state":"active","ping":57},{"user_id":566,"name":"SirBacon","steam_id":76561198152177773,"connected_time":156000000000,"state":"active","ping":73}]},{"server_id":308,"name":"Uncletopia | Frankfurt | 3 | All Maps","name_short":"frk-3","host":"frk-1.de.uncletopia.com","port":27035,"enabled":true,"region":"eu","cc":"de","latitude":50.110924,"longitude":8.682127,"reserved":0,"last_update":"0001-01-01T00:00:00Z","name_a2s":"Uncletopia | Frankfurt | 3 | All Maps","protocol":17,"map":"pl_snowycoast","folder":"tf","game":"Team Fortress","app_id":440,"player_count":24,"max_players":24,"Bots":0,"server_type":"Dedicated","server_os":"Linux","password":true,"vac":true,"version":"7757534","steam_id":85568392924504274,"keywords":["nocrits","nodmgspread","payload","uncletopia"],"game_id":440,"stv_port":27036,"stv_name":"Uncletopia | Frankfurt | 3 | All Maps | STV","players":[{"user_id":407,"name":"Abaddon","steam_id":76561199205559813,"connected_time":1616000000000,"state":"active","ping":52},{"user_id":384,"name":"cosmetical","steam_id":76561198444036574,"connected_time":3256000000000,"state":"active","ping":73},{"user_id":341,"name":"Hexagon","steam_id":76561198151205758,"connected_time":5469000000000,"state":"active","ping":51},{"user_id":416,"name":"lord-carlos","steam_id":76561198025150761,"connected_time":858000000000,"state":"active","ping":51},{"user_id":408,"name":"「◆Raku• 」","steam_id":76561198059283183,"connected_time":1500000000000,"state":"active","ping":68},{"user_id":422,"name":"Hat Lover","steam_id":76561198312283433,"connected_time":156000000000,"state":"active","ping":86},{"user_id":393,"name":"Wyro","steam_id":76561199176835169,"connected_time":2622000000000,"state":"active","ping":66},{"user_id":394,"name":"submackeen","steam_id":76561198799855913,"connected_time":2527000000000,"state":"active","ping":172},{"user_id":421,"name":"Silent Person","steam_id":76561198107763537,"connected_time":324000000000,"state":"active","ping":68},{"user_id":367,"name":"paguro","steam_id":76561198119560871,"connected_time":3502000000000,"state":"active","ping":71},{"user_id":419,"name":"nah.","steam_id":76561199069489046,"connected_time":395000000000,"state":"active","ping":68},{"user_id":415,"name":"Hey, I´m Andy!","steam_id":76561198060337777,"connected_time":865000000000,"state":"active","ping":73},{"user_id":331,"name":"BAD BALD \u0026 BEYOND","steam_id":76561198029873185,"connected_time":6983000000000,"state":"active","ping":60},{"user_id":352,"name":"kpn","steam_id":76561198063512694,"connected_time":4889000000000,"state":"active","ping":55},{"user_id":410,"name":"DOMAIN","steam_id":76561199095640319,"connected_time":1049000000000,"state":"active","ping":85},{"user_id":414,"name":"Rops","steam_id":76561198031608011,"connected_time":895000000000,"state":"active","ping":78},{"user_id":399,"name":"randompixel","steam_id":76561198003941207,"connected_time":2325000000000,"state":"active","ping":74},{"user_id":417,"name":"isterkvarn","steam_id":76561198080064844,"connected_time":795000000000,"state":"active","ping":62},{"user_id":402,"name":"Pico","steam_id":76561198063552545,"connected_time":2314000000000,"state":"active","ping":109},{"user_id":411,"name":"Charles Darwin","steam_id":76561197973496139,"connected_time":1032000000000,"state":"active","ping":69},{"user_id":365,"name":"Kedy","steam_id":76561198308990457,"connected_time":3568000000000,"state":"active","ping":97},{"user_id":369,"name":"poliakov.noam","steam_id":76561199259322961,"connected_time":3474000000000,"state":"active","ping":105},{"user_id":405,"name":"Sc1lla","steam_id":76561199214575549,"connected_time":2285000000000,"state":"active","ping":66},{"user_id":418,"name":"ambatukam","steam_id":76561198175433731,"connected_time":755000000000,"state":"active","ping":73}]},{"server_id":309,"name":"Uncletopia | Frankfurt | 4 | All Maps","name_short":"frk-4","host":"frk-1.de.uncletopia.com","port":27045,"enabled":true,"region":"eu","cc":"de","latitude":50.110924,"longitude":8.682127,"reserved":0,"last_update":"0001-01-01T00:00:00Z","name_a2s":"Uncletopia | Frankfurt | 4 | All Maps","protocol":17,"map":"pl_borneo","folder":"tf","game":"Team Fortress","app_id":440,"player_count":22,"max_players":24,"Bots":0,"server_type":"Dedicated","server_os":"Linux","password":true,"vac":true,"version":"7757534","steam_id":85568392924504275,"keywords":["nocrits","nodmgspread","payload","uncletopia"],"game_id":440,"stv_port":27046,"stv_name":"Uncletopia | Frankfurt | 4 | All Maps | STV","players":[{"user_id":571,"name":"Gabys","steam_id":76561198282892553,"connected_time":538000000000,"state":"active","ping":61},{"user_id":560,"name":"SpilledMilk","steam_id":76561198174123971,"connected_time":1222000000000,"state":"active","ping":55},{"user_id":568,"name":"sPork","steam_id":76561198056880331,"connected_time":831000000000,"state":"active","ping":74},{"user_id":546,"name":"FreeAndrewTate","steam_id":76561198377533237,"connected_time":1638000000000,"state":"active","ping":84},{"user_id":536,"name":"ypsvlq","steam_id":76561199015433909,"connected_time":2065000000000,"state":"active","ping":75},{"user_id":574,"name":"Anri Okita's Massive Milkers","steam_id":76561199186352720,"connected_time":470000000000,"state":"active","ping":69},{"user_id":554,"name":"Kelpy G gaming","steam_id":76561198056995633,"connected_time":1485000000000,"state":"active","ping":56},{"user_id":562,"name":"Chysa","steam_id":76561198131794145,"connected_time":973000000000,"state":"active","ping":59},{"user_id":563,"name":"LionKing","steam_id":76561198023399545,"connected_time":937000000000,"state":"active","ping":48},{"user_id":550,"name":"Washburne","steam_id":76561198032810579,"connected_time":1594000000000,"state":"active","ping":68},{"user_id":548,"name":"Snoopy Dilipak","steam_id":76561198358743344,"connected_time":1627000000000,"state":"active","ping":87},{"user_id":440,"name":"Laiker","steam_id":76561198163560309,"connected_time":8571000000000,"state":"active","ping":49},{"user_id":556,"name":"Shromide","steam_id":76561198140382935,"connected_time":1420000000000,"state":"active","ping":70},{"user_id":575,"name":"Krisszboss1","steam_id":76561198020464075,"connected_time":61000000000,"state":"active","ping":90},{"user_id":415,"name":"jebac disa","steam_id":76561197995572935,"connected_time":10904000000000,"state":"active","ping":75},{"user_id":566,"name":"sup3rfr3ddy.","steam_id":76561198119371683,"connected_time":872000000000,"state":"active","ping":42},{"user_id":541,"name":"G6 sherlock","steam_id":76561198802967796,"connected_time":1712000000000,"state":"active","ping":118},{"user_id":567,"name":"Vikep'S","steam_id":76561199002274689,"connected_time":838000000000,"state":"active","ping":79},{"user_id":552,"name":"Ostarr","steam_id":76561198200054489,"connected_time":1546000000000,"state":"active","ping":70},{"user_id":572,"name":"Noodle","steam_id":76561197997208006,"connected_time":535000000000,"state":"active","ping":51},{"user_id":569,"name":"beckler","steam_id":76561198029266963,"connected_time":695000000000,"state":"active","ping":41},{"user_id":573,"name":"thin ahh pizza","steam_id":76561198133532980,"connected_time":525000000000,"state":"active","ping":57}]},{"server_id":310,"name":"Uncletopia | Frankfurt | 5 | All Maps","name_short":"frk-5","host":"frk-1.de.uncletopia.com","port":27055,"enabled":true,"region":"eu","cc":"de","latitude":50.110924,"longitude":8.682127,"reserved":0,"last_update":"0001-01-01T00:00:00Z","name_a2s":"Uncletopia | Frankfurt | 5 | All Maps","protocol":17,"map":"pl_snowycoast","folder":"tf","game":"Team Fortress","app_id":440,"player_count":24,"max_players":24,"Bots":0,"server_type":"Dedicated","server_os":"Linux","password":true,"vac":true,"version":"7757534","steam_id":85568392924504277,"keywords":["nocrits","nodmgspread","payload","uncletopia"],"game_id":440,"stv_port":27056,"stv_name":"Uncletopia | Frankfurt | 5 | All Maps | STV","players":[{"user_id":454,"name":"tshirt","steam_id":76561198040757844,"connected_time":769000000000,"state":"active","ping":76},{"user_id":437,"name":"g1 = noob-_","steam_id":76561198081559669,"connected_time":1737000000000,"state":"active","ping":75},{"user_id":438,"name":"dolo","steam_id":76561198206672297,"connected_time":1736000000000,"state":"active","ping":49},{"user_id":459,"name":"sgt Bytheway","steam_id":76561198094169965,"connected_time":480000000000,"state":"active","ping":74},{"user_id":455,"name":"Mogwai","steam_id":76561198078832314,"connected_time":750000000000,"state":"active","ping":81},{"user_id":356,"name":"Threon","steam_id":76561198826783545,"connected_time":7123000000000,"state":"active","ping":85},{"user_id":357,"name":"esheen","steam_id":76561198139376665,"connected_time":7122000000000,"state":"active","ping":60},{"user_id":421,"name":"sharty in my head","steam_id":76561198106049954,"connected_time":3188000000000,"state":"active","ping":114},{"user_id":439,"name":"fring said what?!?!","steam_id":76561198074917015,"connected_time":1705000000000,"state":"active","ping":74},{"user_id":460,"name":"Theodd857","steam_id":76561198451805725,"connected_time":446000000000,"state":"active","ping":67},{"user_id":403,"name":"clouds","steam_id":76561198111134021,"connected_time":4501000000000,"state":"active","ping":78},{"user_id":458,"name":"alcha","steam_id":76561198248628176,"connected_time":583000000000,"state":"active","ping":70},{"user_id":428,"name":"taroi","steam_id":76561199057953617,"connected_time":3050000000000,"state":"active","ping":60},{"user_id":461,"name":"Sacco","steam_id":76561199048451187,"connected_time":444000000000,"state":"active","ping":65},{"user_id":432,"name":"Tonne","steam_id":76561197970856766,"connected_time":1999000000000,"state":"active","ping":56},{"user_id":453,"name":"Warped","steam_id":76561197989916494,"connected_time":1133000000000,"state":"active","ping":61},{"user_id":442,"name":"makin' piss","steam_id":76561198052136478,"connected_time":1666000000000,"state":"active","ping":75},{"user_id":452,"name":"sharted on enemy","steam_id":76561198079277466,"connected_time":1441000000000,"state":"active","ping":65},{"user_id":425,"name":"maid in china","steam_id":76561198043601838,"connected_time":3122000000000,"state":"active","ping":60},{"user_id":466,"name":"Flying Eagle","steam_id":76561198925681565,"connected_time":345000000000,"state":"active","ping":115},{"user_id":447,"name":"P0SHT0:((","steam_id":76561198106182078,"connected_time":1588000000000,"state":"active","ping":99},{"user_id":448,"name":"powej","steam_id":76561198056381418,"connected_time":1576000000000,"state":"active","ping":58},{"user_id":449,"name":"sabaka jebanoia","steam_id":76561198147249160,"connected_time":1566000000000,"state":"active","ping":104},{"user_id":457,"name":"Stu_Strib","steam_id":76561197970588300,"connected_time":663000000000,"state":"active","ping":169}]},{"server_id":311,"name":"Uncletopia | Frankfurt | 6 | All Maps","name_short":"frk-6","host":"frk-1.de.uncletopia.com","port":27065,"enabled":true,"region":"eu","cc":"de","latitude":50.110924,"longitude":8.682127,"reserved":0,"last_update":"0001-01-01T00:00:00Z","name_a2s":"Uncletopia | Frankfurt | 6 | All Maps","protocol":17,"map":"pl_frontier_final","folder":"tf","game":"Team Fortress","app_id":440,"player_count":20,"max_players":24,"Bots":0,"server_type":"Dedicated","server_os":"Linux","password":true,"vac":true,"version":"7757534","steam_id":85568392924504278,"keywords":["nocrits","nodmgspread","payload","uncletopia"],"game_id":440,"stv_port":27066,"stv_name":"Uncletopia | Frankfurt | 6 | All Maps | STV","players":[{"user_id":112,"name":"Athomix","steam_id":76561198170108402,"connected_time":254000000000,"state":"active","ping":94},{"user_id":68,"name":"Vikud","steam_id":76561199110575856,"connected_time":4298000000000,"state":"active","ping":142},{"user_id":92,"name":"Joker⑦⑦⑦³","steam_id":76561197992353350,"connected_time":1423000000000,"state":"active","ping":75},{"user_id":118,"name":"WAY AWAY AWAY FROM HERE ILL BEE","steam_id":76561199090357391,"connected_time":9000000000,"state":"spawning","ping":82},{"user_id":93,"name":"Phil3k.","steam_id":76561198283072297,"connected_time":1355000000000,"state":"active","ping":58},{"user_id":90,"name":"Cars","steam_id":76561198173329977,"connected_time":1499000000000,"state":"active","ping":61},{"user_id":72,"name":".::[SerafeTTiN]::.","steam_id":76561198009471724,"connected_time":3217000000000,"state":"active","ping":85},{"user_id":109,"name":"PicoloSano","steam_id":76561198010509430,"connected_time":343000000000,"state":"active","ping":75},{"user_id":111,"name":"petr.kadera","steam_id":76561198310852145,"connected_time":310000000000,"state":"active","ping":82},{"user_id":35,"name":"Ar|es","steam_id":76561198819160313,"connected_time":6476000000000,"state":"active","ping":89},{"user_id":103,"name":"Saint Laurent","steam_id":76561198798657045,"connected_time":737000000000,"state":"active","ping":83},{"user_id":117,"name":"s2m7el","steam_id":76561199052856163,"connected_time":158000000000,"state":"active","ping":90},{"user_id":87,"name":"moser23","steam_id":76561197960543171,"connected_time":1820000000000,"state":"active","ping":53},{"user_id":41,"name":"Mr. Dick™","steam_id":76561198047309044,"connected_time":6426000000000,"state":"active","ping":141},{"user_id":116,"name":"Nemsio66 #SAVETF2","steam_id":76561198383959458,"connected_time":224000000000,"state":"active","ping":105},{"user_id":105,"name":"悪","steam_id":76561198095879087,"connected_time":670000000000,"state":"active","ping":72},{"user_id":73,"name":"Santa Claus","steam_id":76561198415266145,"connected_time":3212000000000,"state":"active","ping":63},{"user_id":97,"name":"socaramel","steam_id":76561197984480336,"connected_time":1206000000000,"state":"active","ping":77},{"user_id":106,"name":"ent loves you","steam_id":76561198376903915,"connected_time":612000000000,"state":"active","ping":76},{"user_id":71,"name":"i forgor","steam_id":76561198137627679,"connected_time":3583000000000,"state":"active","ping":103}]},{"server_id":23,"name":"Uncletopia | Frankfurt | 7 | Stopwatch Beta","name_short":"frk-7","host":"frk-1.de.uncletopia.com","port":27075,"enabled":true,"region":"eu","cc":"de","latitude":50.110924,"longitude":8.682127,"reserved":0,"last_update":"0001-01-01T00:00:00Z","name_a2s":"Uncletopia | Frankfurt | 7 | Stopwatch Beta","protocol":17,"map":"workshop/koth_ashville_final.ugc2130459942","folder":"tf","game":"Team Fortress","app_id":440,"player_count":0,"max_players":24,"Bots":0,"server_type":"Dedicated","server_os":"Linux","password":true,"vac":true,"version":"7757534","steam_id":85568392924742827,"keywords":["cp","nocrits","nodmgspread","uncletopia"],"game_id":440,"stv_port":27076,"stv_name":"Uncletopia | Frankfurt | 7 | Stopwatch Beta | STV","players":null},{"server_id":24,"name":"Uncletopia | Frankfurt | 8 | Community","name_short":"frk-8","host":"frk-1.de.uncletopia.com","port":27085,"enabled":true,"region":"eu","cc":"de","latitude":50.110924,"longitude":8.682127,"reserved":0,"last_update":"0001-01-01T00:00:00Z","name_a2s":"Uncletopia | Frankfurt | 8 | Community","protocol":17,"map":"koth_cascade","folder":"tf","game":"Team Fortress","app_id":440,"player_count":0,"max_players":24,"Bots":0,"server_type":"Dedicated","server_os":"Linux","password":true,"vac":true,"version":"7757534","steam_id":85568392924742828,"keywords":["cp","nocrits","nodmgspread","uncletopia"],"game_id":440,"stv_port":27086,"stv_name":"Uncletopia | Frankfurt | 8 | Community | STV","players":null},{"server_id":202,"name":"Uncletopia | Hong Kong | 1 | All Maps","name_short":"hgk-1","host":"hgk-1.hk.uncletopia.com","port":27015,"enabled":true,"region":"asia","cc":"hk","latitude":22.302711,"longitude":114.177216,"reserved":0,"last_update":"0001-01-01T00:00:00Z","name_a2s":"Uncletopia | Hong Kong | 1 | All Maps","protocol":17,"map":"koth_highpass","folder":"tf","game":"Team Fortress","app_id":440,"player_count":0,"max_players":24,"Bots":0,"server_type":"Dedicated","server_os":"Linux","password":true,"vac":true,"version":"7757534","steam_id":85568392924494504,"keywords":["cp","nocrits","nodmgspread","uncletopia"],"game_id":440,"stv_port":27016,"stv_name":"Uncletopia | Hong Kong | 1 | All Maps | STV","players":null},{"server_id":1,"name":"Uncletopia | Los Angeles | 1 | All Maps","name_short":"lax-1","host":"lax-1.us.uncletopia.com","port":27015,"enabled":true,"region":"us-west","cc":"us","latitude":33.94279,"longitude":-118.41004,"reserved":0,"last_update":"0001-01-01T00:00:00Z","name_a2s":"Uncletopia | Los Angeles | 1 | All Maps","protocol":17,"map":"cp_snakewater_final1","folder":"tf","game":"Team Fortress","app_id":440,"player_count":0,"max_players":24,"Bots":0,"server_type":"Dedicated","server_os":"Linux","password":true,"vac":true,"version":"7757534","steam_id":85568392924469991,"keywords":["cp","nocrits","nodmgspread","uncletopia"],"game_id":440,"stv_port":27016,"stv_name":"Uncletopia | Los Angeles | 1 | All Maps | STV","players":null},{"server_id":112,"name":"Uncletopia | Los Angeles | 2 | All Maps","name_short":"lax-2","host":"lax-1.us.uncletopia.com","port":27025,"enabled":true,"region":"us-west","cc":"us","latitude":33.94279,"longitude":-118.41004,"reserved":0,"last_update":"0001-01-01T00:00:00Z","name_a2s":"Uncletopia | Los Angeles | 2 | All Maps","protocol":17,"map":"pl_pier","folder":"tf","game":"Team Fortress","app_id":440,"player_count":20,"max_players":24,"Bots":0,"server_type":"Dedicated","server_os":"Linux","password":true,"vac":true,"version":"7757534","steam_id":85568392924469992,"keywords":["nocrits","nodmgspread","payload","uncletopia"],"game_id":440,"stv_port":27026,"stv_name":"Uncletopia | Los Angeles | 2 | All Maps | STV","players":[{"user_id":300,"name":"Thai Cobra-Snake","steam_id":76561198128928443,"connected_time":137000000000,"state":"active","ping":115},{"user_id":255,"name":"nolife","steam_id":76561198414300607,"connected_time":3421000000000,"state":"active","ping":60},{"user_id":296,"name":"SirCleric","steam_id":76561198353556457,"connected_time":816000000000,"state":"active","ping":107},{"user_id":299,"name":"another breloom","steam_id":76561198006938024,"connected_time":206000000000,"state":"active","ping":42},{"user_id":265,"name":"Goofy Goober","steam_id":76561198065361279,"connected_time":2821000000000,"state":"active","ping":125},{"user_id":269,"name":"||:♩♩♩♪:|| Opplydead","steam_id":76561198028630334,"connected_time":2273000000000,"state":"active","ping":45},{"user_id":271,"name":"UneditedAndy","steam_id":76561198982544947,"connected_time":1926000000000,"state":"active","ping":52},{"user_id":279,"name":"Lord GabeN","steam_id":76561198140862723,"connected_time":1621000000000,"state":"active","ping":115},{"user_id":276,"name":"cola","steam_id":76561198051827778,"connected_time":1729000000000,"state":"active","ping":67},{"user_id":241,"name":"The Announcer's Feet","steam_id":76561199443456893,"connected_time":4815000000000,"state":"active","ping":81},{"user_id":301,"name":"Shoggoth","steam_id":76561198117892299,"connected_time":94000000000,"state":"active","ping":90},{"user_id":297,"name":"KillerHatDude","steam_id":76561198088322912,"connected_time":789000000000,"state":"active","ping":86},{"user_id":295,"name":"N0_J0K3","steam_id":76561198287102197,"connected_time":845000000000,"state":"active","ping":78},{"user_id":302,"name":"YungKeet","steam_id":76561198293854963,"connected_time":85000000000,"state":"active","ping":90},{"user_id":303,"name":"Rich Money McNickelson","steam_id":76561198352427247,"connected_time":56000000000,"state":"active","ping":59},{"user_id":304,"name":"goose","steam_id":76561198027776994,"connected_time":43000000000,"state":"active","ping":100},{"user_id":293,"name":"Dr Frasier Crane","steam_id":76561198071790583,"connected_time":931000000000,"state":"active","ping":90},{"user_id":305,"name":"Jarryl97","steam_id":76561198055451373,"connected_time":41000000000,"state":"active","ping":79},{"user_id":285,"name":"Kraftlos","steam_id":76561198074350350,"connected_time":1420000000000,"state":"active","ping":115},{"user_id":286,"name":"sagekiss","steam_id":76561198038831240,"connected_time":1404000000000,"state":"active","ping":81}]},{"server_id":324,"name":"Uncletopia | Los Angeles | 3 | All Maps","name_short":"lax-3","host":"lax-1.us.uncletopia.com","port":27035,"enabled":true,"region":"us-west","cc":"us","latitude":33.94279,"longitude":-118.41004,"reserved":0,"last_update":"0001-01-01T00:00:00Z","name_a2s":"Uncletopia | Los Angeles | 3 | All Maps","protocol":17,"map":"pl_frontier_final","folder":"tf","game":"Team Fortress","app_id":440,"player_count":0,"max_players":24,"Bots":0,"server_type":"Dedicated","server_os":"Linux","password":true,"vac":true,"version":"7757534","steam_id":85568392924510198,"keywords":["nocrits","nodmgspread","payload","uncletopia"],"game_id":440,"stv_port":27036,"stv_name":"Uncletopia | Los Angeles | 3 | All Maps | STV","players":null},{"server_id":25,"name":"Uncletopia | Los Angeles | 4 | Stopwatch Beta","name_short":"lax-4","host":"lax-1.us.uncletopia.com","port":27045,"enabled":true,"region":"us-west","cc":"us","latitude":33.94279,"longitude":-118.41004,"reserved":0,"last_update":"0001-01-01T00:00:00Z","name_a2s":"Uncletopia | Los Angeles | 4 | Stopwatch Beta","protocol":17,"map":"koth_viaduct","folder":"tf","game":"Team Fortress","app_id":440,"player_count":0,"max_players":24,"Bots":0,"server_type":"Dedicated","server_os":"Linux","password":true,"vac":true,"version":"7757534","steam_id":85568392924510199,"keywords":["cp","nocrits","nodmgspread","uncletopia"],"game_id":440,"stv_port":27046,"stv_name":"Uncletopia | Los Angeles | 4 | Stopwatch Beta | STV","players":null},{"server_id":11,"name":"Uncletopia | London | 1 | All Maps","name_short":"lon-1","host":"lon-1.uk.uncletopia.com","port":27015,"enabled":true,"region":"eu","cc":"gb","latitude":51.509865,"longitude":-0.118092,"reserved":0,"last_update":"0001-01-01T00:00:00Z","name_a2s":"Uncletopia | London | 1 | All Maps","protocol":17,"map":"cp_dustbowl","folder":"tf","game":"Team Fortress","app_id":440,"player_count":24,"max_players":24,"Bots":0,"server_type":"Dedicated","server_os":"Linux","password":true,"vac":true,"version":"7757534","steam_id":85568392924367362,"keywords":["cp","nocrits","nodmgspread","uncletopia"],"game_id":440,"stv_port":27016,"stv_name":"Uncletopia | London | 1 | All Maps | STV","players":[{"user_id":740,"name":"iPhone 4S","steam_id":76561198281913312,"connected_time":1059000000000,"state":"active","ping":71},{"user_id":692,"name":"jose.gonzales3848","steam_id":76561198109077451,"connected_time":4474000000000,"state":"active","ping":135},{"user_id":727,"name":"Aaron","steam_id":76561197990046953,"connected_time":1882000000000,"state":"active","ping":77},{"user_id":784,"name":"LemonIsYellow","steam_id":76561198380771739,"connected_time":194000000000,"state":"active","ping":89},{"user_id":693,"name":"6CO2 + 6H2O → C6H12O6 + 6O2","steam_id":76561198981516715,"connected_time":4456000000000,"state":"active","ping":51},{"user_id":736,"name":"Linked","steam_id":76561198069070486,"connected_time":1422000000000,"state":"active","ping":84},{"user_id":785,"name":"Fred","steam_id":76561198107137362,"connected_time":99000000000,"state":"active","ping":56},{"user_id":742,"name":"Microwave","steam_id":76561199467385560,"connected_time":1017000000000,"state":"active","ping":72},{"user_id":743,"name":"✪ J","steam_id":76561198094911581,"connected_time":988000000000,"state":"active","ping":61},{"user_id":744,"name":"Spam ゴ ゴ","steam_id":76561198038118301,"connected_time":980000000000,"state":"active","ping":97},{"user_id":722,"name":"sleep","steam_id":76561198034882276,"connected_time":2286000000000,"state":"active","ping":89},{"user_id":749,"name":"dumbass","steam_id":76561199151541240,"connected_time":662000000000,"state":"active","ping":90},{"user_id":668,"name":"Caruso","steam_id":76561198053340414,"connected_time":5651000000000,"state":"active","ping":142},{"user_id":745,"name":"Skitz™ゴゴゴ","steam_id":76561198049899210,"connected_time":971000000000,"state":"active","ping":103},{"user_id":786,"name":"Egap","steam_id":76561199070653454,"connected_time":92000000000,"state":"active","ping":90},{"user_id":676,"name":"ZimogorovBy","steam_id":76561199263001661,"connected_time":5467000000000,"state":"active","ping":95},{"user_id":732,"name":"Sipsu","steam_id":76561198059424107,"connected_time":1763000000000,"state":"active","ping":90},{"user_id":779,"name":"Kahvi","steam_id":76561198723244199,"connected_time":338000000000,"state":"active","ping":79},{"user_id":783,"name":"KFC Enjoyer","steam_id":76561198840259819,"connected_time":220000000000,"state":"active","ping":60},{"user_id":746,"name":"trite","steam_id":76561197983765323,"connected_time":908000000000,"state":"active","ping":52},{"user_id":787,"name":"Old Man Winter","steam_id":76561198007653168,"connected_time":72000000000,"state":"active","ping":59},{"user_id":717,"name":"Aerox","steam_id":76561198871081935,"connected_time":2488000000000,"state":"active","ping":134},{"user_id":655,"name":"Rezolt","steam_id":76561198069074807,"connected_time":6246000000000,"state":"active","ping":127},{"user_id":778,"name":"Dominus.","steam_id":76561199065917088,"connected_time":342000000000,"state":"active","ping":70}]},{"server_id":114,"name":"Uncletopia | London | 2 | All Maps","name_short":"lon-2","host":"lon-1.uk.uncletopia.com","port":27025,"enabled":true,"region":"eu","cc":"gb","latitude":51.509865,"longitude":-0.118092,"reserved":0,"last_update":"0001-01-01T00:00:00Z","name_a2s":"Uncletopia | London | 2 | All Maps","protocol":17,"map":"cp_sunshine","folder":"tf","game":"Team Fortress","app_id":440,"player_count":23,"max_players":24,"Bots":0,"server_type":"Dedicated","server_os":"Linux","password":true,"vac":true,"version":"7757534","steam_id":85568392924470941,"keywords":["cp","nocrits","nodmgspread","uncletopia"],"game_id":440,"stv_port":27026,"stv_name":"Uncletopia | London | 2 | All Maps | STV","players":[{"user_id":553,"name":"beurgeur","steam_id":76561198872426314,"connected_time":1838000000000,"state":"active","ping":45},{"user_id":571,"name":"Litsuw","steam_id":76561198081785898,"connected_time":424000000000,"state":"active","ping":74},{"user_id":570,"name":"yui","steam_id":76561198107961644,"connected_time":656000000000,"state":"active","ping":44},{"user_id":572,"name":"fart","steam_id":76561198071111326,"connected_time":399000000000,"state":"active","ping":55},{"user_id":573,"name":"anyád","steam_id":76561198175114914,"connected_time":369000000000,"state":"active","ping":72},{"user_id":574,"name":"Who?","steam_id":76561198271901063,"connected_time":323000000000,"state":"active","ping":62},{"user_id":487,"name":"Gnome561","steam_id":76561198183771141,"connected_time":5546000000000,"state":"active","ping":70},{"user_id":569,"name":"My balls itch","steam_id":76561199121794613,"connected_time":759000000000,"state":"active","ping":86},{"user_id":579,"name":"⭐Ɽ₳ĐɄ⭐","steam_id":76561198849045600,"connected_time":184000000000,"state":"active","ping":81},{"user_id":576,"name":"CEO of Pen Island","steam_id":76561198037212191,"connected_time":304000000000,"state":"active","ping":68},{"user_id":577,"name":"bomboclaat","steam_id":76561198057415292,"connected_time":290000000000,"state":"active","ping":65},{"user_id":552,"name":"Untrusty","steam_id":76561198272351418,"connected_time":1871000000000,"state":"active","ping":141},{"user_id":578,"name":"Mr.Wapman","steam_id":76561198061748774,"connected_time":226000000000,"state":"active","ping":69},{"user_id":580,"name":"SkipperIsCute","steam_id":76561198142314589,"connected_time":106000000000,"state":"active","ping":93},{"user_id":555,"name":"frost","steam_id":76561198167675482,"connected_time":1736000000000,"state":"active","ping":96},{"user_id":467,"name":"Carrot Arc","steam_id":76561198164957006,"connected_time":6738000000000,"state":"active","ping":84},{"user_id":581,"name":"tortellini in brodo","steam_id":76561198066071855,"connected_time":95000000000,"state":"active","ping":62},{"user_id":582,"name":"Mr. Luck | SFM","steam_id":76561198088255641,"connected_time":89000000000,"state":"active","ping":86},{"user_id":583,"name":"The one who knocks","steam_id":76561198089341471,"connected_time":74000000000,"state":"active","ping":80},{"user_id":584,"name":"GARbageTrash","steam_id":76561199101269633,"connected_time":62000000000,"state":"active","ping":198},{"user_id":560,"name":"Miles","steam_id":76561198084891833,"connected_time":1255000000000,"state":"active","ping":45},{"user_id":585,"name":"Vershal Smershal","steam_id":76561198116223995,"connected_time":17000000000,"state":"active","ping":60},{"user_id":542,"name":"Fran","steam_id":76561199070516960,"connected_time":2719000000000,"state":"active","ping":75}]},{"server_id":320,"name":"Uncletopia | London | 3 | All Maps","name_short":"lon-3","host":"lon-1.uk.uncletopia.com","port":27035,"enabled":true,"region":"eu","cc":"gb","latitude":51.509865,"longitude":-0.118092,"reserved":0,"last_update":"0001-01-01T00:00:00Z","name_a2s":"Uncletopia | London | 3 | All Maps","protocol":17,"map":"pl_snowycoast","folder":"tf","game":"Team Fortress","app_id":440,"player_count":23,"max_players":24,"Bots":0,"server_type":"Dedicated","server_os":"Linux","password":true,"vac":true,"version":"7757534","steam_id":85568392924510192,"keywords":["nocrits","nodmgspread","payload","uncletopia"],"game_id":440,"stv_port":27036,"stv_name":"Uncletopia | London | 3 | All Maps | STV","players":[{"user_id":425,"name":":)","steam_id":76561198103988618,"connected_time":8108000000000,"state":"active","ping":57},{"user_id":542,"name":"Lemmy","steam_id":76561199038870751,"connected_time":2418000000000,"state":"active","ping":61},{"user_id":530,"name":"Jonas Destark","steam_id":76561198030327441,"connected_time":2909000000000,"state":"active","ping":56},{"user_id":547,"name":"Goat Enjoyer","steam_id":76561198000054669,"connected_time":1751000000000,"state":"active","ping":60},{"user_id":580,"name":"Crunchy","steam_id":76561198184973203,"connected_time":44000000000,"state":"spawning","ping":83},{"user_id":567,"name":"FranekOcean","steam_id":76561198254852945,"connected_time":634000000000,"state":"active","ping":86},{"user_id":549,"name":"Wire  Bash","steam_id":76561198033268371,"connected_time":1741000000000,"state":"active","ping":48},{"user_id":532,"name":"snake9544","steam_id":76561198083076205,"connected_time":2855000000000,"state":"active","ping":81},{"user_id":560,"name":".quickfast.","steam_id":76561199438900919,"connected_time":1131000000000,"state":"active","ping":55},{"user_id":581,"name":"Axord","steam_id":76561199289652176,"connected_time":35000000000,"state":"spawning","ping":59},{"user_id":555,"name":"Baro","steam_id":76561197975460900,"connected_time":1722000000000,"state":"active","ping":44},{"user_id":462,"name":"sleuth","steam_id":76561198102752414,"connected_time":6345000000000,"state":"active","ping":64},{"user_id":579,"name":"TETRAGRAMMATON","steam_id":76561198286085100,"connected_time":210000000000,"state":"active","ping":90},{"user_id":568,"name":"Refre35","steam_id":76561198971840738,"connected_time":630000000000,"state":"active","ping":79},{"user_id":556,"name":"Boz","steam_id":76561198020297825,"connected_time":1692000000000,"state":"active","ping":119},{"user_id":564,"name":"lark","steam_id":76561198091724522,"connected_time":963000000000,"state":"active","ping":58},{"user_id":566,"name":"Rakoune","steam_id":76561198290460442,"connected_time":893000000000,"state":"active","ping":57},{"user_id":552,"name":"rat exterminator","steam_id":76561198101537890,"connected_time":1731000000000,"state":"active","ping":57},{"user_id":569,"name":"booty gremlin","steam_id":76561198044546534,"connected_time":618000000000,"state":"active","ping":147},{"user_id":570,"name":"***","steam_id":76561198160976692,"connected_time":599000000000,"state":"active","ping":127},{"user_id":571,"name":"grog","steam_id":76561198071653244,"connected_time":582000000000,"state":"active","ping":57},{"user_id":572,"name":"8114","steam_id":76561198069214797,"connected_time":580000000000,"state":"active","ping":72},{"user_id":557,"name":"Aktium","steam_id":76561198013234938,"connected_time":1553000000000,"state":"active","ping":76}]},{"server_id":321,"name":"Uncletopia | London | 4 | All Maps","name_short":"lon-4","host":"lon-1.uk.uncletopia.com","port":27045,"enabled":true,"region":"eu","cc":"gb","latitude":51.509865,"longitude":-0.118092,"reserved":0,"last_update":"0001-01-01T00:00:00Z","name_a2s":"Uncletopia | London | 4 | All Maps","protocol":17,"map":"pl_barnblitz","folder":"tf","game":"Team Fortress","app_id":440,"player_count":24,"max_players":24,"Bots":0,"server_type":"Dedicated","server_os":"Linux","password":true,"vac":true,"version":"7757534","steam_id":85568392924510193,"keywords":["nocrits","nodmgspread","payload","uncletopia"],"game_id":440,"stv_port":27046,"stv_name":"Uncletopia | London | 4 | All Maps | STV","players":[{"user_id":393,"name":"Koda","steam_id":76561198142696299,"connected_time":2400000000000,"state":"active","ping":45},{"user_id":415,"name":"Resounding","steam_id":76561198051011034,"connected_time":631000000000,"state":"active","ping":54},{"user_id":421,"name":"AshieTheVixen","steam_id":76561199061018034,"connected_time":357000000000,"state":"active","ping":86},{"user_id":404,"name":"Pruff","steam_id":76561198377084417,"connected_time":1473000000000,"state":"active","ping":74},{"user_id":367,"name":"■Sir SC■","steam_id":76561198114638963,"connected_time":4057000000000,"state":"active","ping":53},{"user_id":380,"name":"nepper","steam_id":76561198038992444,"connected_time":3420000000000,"state":"active","ping":120},{"user_id":368,"name":"A_Spoopy_Keenkeep1","steam_id":76561198128992159,"connected_time":4046000000000,"state":"active","ping":54},{"user_id":369,"name":"muttonmaster","steam_id":76561198309257989,"connected_time":4044000000000,"state":"active","ping":60},{"user_id":396,"name":"Dangerousbros","steam_id":76561198088952519,"connected_time":2242000000000,"state":"active","ping":33},{"user_id":416,"name":"Suspicious Cabin","steam_id":76561198083261198,"connected_time":525000000000,"state":"active","ping":52},{"user_id":418,"name":"Brinier","steam_id":76561199012604288,"connected_time":425000000000,"state":"active","ping":79},{"user_id":411,"name":"TheBeardedM1G","steam_id":76561198040208946,"connected_time":1109000000000,"state":"active","ping":53},{"user_id":397,"name":"Infinity","steam_id":76561199134919099,"connected_time":2150000000000,"state":"active","ping":120},{"user_id":382,"name":"tictak211","steam_id":76561198128091924,"connected_time":3335000000000,"state":"active","ping":83},{"user_id":407,"name":"Yos","steam_id":76561199056318258,"connected_time":1279000000000,"state":"active","ping":95},{"user_id":350,"name":"Lessoz","steam_id":76561199211572036,"connected_time":4915000000000,"state":"active","ping":89},{"user_id":352,"name":"lesa","steam_id":76561198057915859,"connected_time":4847000000000,"state":"active","ping":75},{"user_id":394,"name":"IanCliff","steam_id":76561198217056368,"connected_time":2384000000000,"state":"active","ping":63},{"user_id":408,"name":"Mor'du","steam_id":76561198274105878,"connected_time":1262000000000,"state":"active","ping":92},{"user_id":342,"name":"Victoria Wood (as seen on TV)","steam_id":76561198066243851,"connected_time":5749000000000,"state":"active","ping":54},{"user_id":409,"name":"mohemmedmokhter2005","steam_id":76561199197650506,"connected_time":1240000000000,"state":"active","ping":109},{"user_id":354,"name":"god of war enjoyer","steam_id":76561199364408165,"connected_time":4837000000000,"state":"active","ping":66},{"user_id":414,"name":"LSKi","steam_id":76561198215470228,"connected_time":861000000000,"state":"active","ping":68},{"user_id":422,"name":"day","steam_id":76561198260265302,"connected_time":307000000000,"state":"active","ping":47}]},{"server_id":21,"name":"Uncletopia | London | 5 | All Maps","name_short":"lon-5","host":"lon-1.uk.uncletopia.com","port":27055,"enabled":true,"region":"eu","cc":"gb","latitude":51.509865,"longitude":-0.118092,"reserved":0,"last_update":"0001-01-01T00:00:00Z","name_a2s":"Uncletopia | London | 5 | All Maps","protocol":17,"map":"pl_borneo","folder":"tf","game":"Team Fortress","app_id":440,"player_count":24,"max_players":24,"Bots":0,"server_type":"Dedicated","server_os":"Linux","password":true,"vac":true,"version":"7757534","steam_id":85568392924742829,"keywords":["nocrits","nodmgspread","payload","uncletopia"],"game_id":440,"stv_port":27056,"stv_name":"Uncletopia | London | 5 | All Maps | STV","players":[{"user_id":193,"name":"Fridge","steam_id":76561198071665589,"connected_time":295000000000,"state":"active","ping":105},{"user_id":186,"name":"‰Kacu","steam_id":76561198026228672,"connected_time":945000000000,"state":"active","ping":78},{"user_id":188,"name":"Panzerwaffle","steam_id":76561198030382800,"connected_time":817000000000,"state":"active","ping":55},{"user_id":189,"name":"AsuX","steam_id":76561197990333289,"connected_time":794000000000,"state":"active","ping":59},{"user_id":181,"name":"Oxer","steam_id":76561198055942412,"connected_time":1229000000000,"state":"active","ping":90},{"user_id":174,"name":"the ebic gamner","steam_id":76561199220801849,"connected_time":1644000000000,"state":"active","ping":69},{"user_id":187,"name":"Miton","steam_id":76561197970323209,"connected_time":886000000000,"state":"active","ping":92},{"user_id":161,"name":"_zipfile","steam_id":76561198066133808,"connected_time":3175000000000,"state":"active","ping":80},{"user_id":162,"name":"Dirty Dom","steam_id":76561198043745396,"connected_time":3169000000000,"state":"active","ping":75},{"user_id":184,"name":"deflox","steam_id":76561198087450635,"connected_time":1057000000000,"state":"active","ping":59},{"user_id":190,"name":"Tort","steam_id":76561198329646769,"connected_time":696000000000,"state":"active","ping":58},{"user_id":170,"name":"kag","steam_id":76561198059813166,"connected_time":2093000000000,"state":"active","ping":45},{"user_id":158,"name":"average f2p","steam_id":76561199136308055,"connected_time":3930000000000,"state":"active","ping":55},{"user_id":164,"name":"Frogs eater","steam_id":76561199082469459,"connected_time":2644000000000,"state":"active","ping":48},{"user_id":172,"name":"Penis Contortionist","steam_id":76561198073663784,"connected_time":1760000000000,"state":"active","ping":39},{"user_id":127,"name":"the cruel indifferent universe","steam_id":76561198149779201,"connected_time":5969000000000,"state":"active","ping":58},{"user_id":171,"name":"Chambersite","steam_id":76561198197022399,"connected_time":1842000000000,"state":"active","ping":75},{"user_id":177,"name":"the indomitable human spirit","steam_id":76561198718760200,"connected_time":1573000000000,"state":"active","ping":57},{"user_id":165,"name":"R3inis","steam_id":76561199030393569,"connected_time":2607000000000,"state":"active","ping":85},{"user_id":149,"name":"triangle","steam_id":76561198046838168,"connected_time":4429000000000,"state":"active","ping":62},{"user_id":176,"name":"Loop_Cat","steam_id":76561199045902145,"connected_time":1596000000000,"state":"active","ping":129},{"user_id":150,"name":"✧ Luigi Time ✧","steam_id":76561198026903673,"connected_time":4424000000000,"state":"active","ping":72},{"user_id":185,"name":"sz(k)","steam_id":76561198118500940,"connected_time":1050000000000,"state":"active","ping":73},{"user_id":192,"name":"Нікітрон","steam_id":76561198044401080,"connected_time":446000000000,"state":"active","ping":67}]},{"server_id":22,"name":"Uncletopia | London | 6 | All Maps","name_short":"lon-6","host":"lon-1.uk.uncletopia.com","port":27065,"enabled":true,"region":"eu","cc":"gb","latitude":51.509865,"longitude":-0.118092,"reserved":0,"last_update":"0001-01-01T00:00:00Z","name_a2s":"Uncletopia | London | 6 | All Maps","protocol":17,"map":"pl_upward","folder":"tf","game":"Team Fortress","app_id":440,"player_count":24,"max_players":24,"Bots":0,"server_type":"Dedicated","server_os":"Linux","password":true,"vac":true,"version":"7757534","steam_id":85568392924742830,"keywords":["nocrits","nodmgspread","payload","uncletopia"],"game_id":440,"stv_port":27066,"stv_name":"Uncletopia | London | 6 | All Maps | STV","players":[{"user_id":173,"name":"Xenolukaz","steam_id":76561198049530060,"connected_time":285000000000,"state":"active","ping":52},{"user_id":127,"name":"Walking Vomit","steam_id":76561198071873301,"connected_time":3469000000000,"state":"active","ping":52},{"user_id":140,"name":"dusty","steam_id":76561199011977567,"connected_time":2076000000000,"state":"active","ping":64},{"user_id":153,"name":"FoOzTV","steam_id":76561197998636728,"connected_time":1689000000000,"state":"active","ping":69},{"user_id":176,"name":"balkerk","steam_id":76561198215315428,"connected_time":226000000000,"state":"active","ping":65},{"user_id":175,"name":"PixelHyde","steam_id":76561198040878617,"connected_time":264000000000,"state":"active","ping":60},{"user_id":154,"name":"Kermit the frog","steam_id":76561198073354238,"connected_time":1663000000000,"state":"active","ping":67},{"user_id":144,"name":"skull","steam_id":76561198269491159,"connected_time":2043000000000,"state":"active","ping":46},{"user_id":145,"name":"Bell","steam_id":76561199454586928,"connected_time":2010000000000,"state":"active","ping":120},{"user_id":113,"name":"Adopted?","steam_id":76561198118667043,"connected_time":4932000000000,"state":"active","ping":48},{"user_id":148,"name":"Raldow","steam_id":76561198021389301,"connected_time":1851000000000,"state":"active","ping":62},{"user_id":169,"name":"Borat","steam_id":76561198122226417,"connected_time":482000000000,"state":"active","ping":39},{"user_id":156,"name":"rev","steam_id":76561198134512931,"connected_time":1637000000000,"state":"active","ping":59},{"user_id":151,"name":"Estamie","steam_id":76561198058527691,"connected_time":1753000000000,"state":"active","ping":70},{"user_id":157,"name":"Classic Duck","steam_id":76561198079413473,"connected_time":1537000000000,"state":"active","ping":53},{"user_id":158,"name":"шизоид","steam_id":76561198400043154,"connected_time":1521000000000,"state":"active","ping":78},{"user_id":159,"name":"halcyon","steam_id":76561198169859157,"connected_time":1516000000000,"state":"active","ping":46},{"user_id":128,"name":"ReVerb","steam_id":76561198024949870,"connected_time":3245000000000,"state":"active","ping":45},{"user_id":172,"name":"Circular","steam_id":76561198001536710,"connected_time":343000000000,"state":"active","ping":43},{"user_id":165,"name":"night.s","steam_id":76561198326287823,"connected_time":1156000000000,"state":"active","ping":75},{"user_id":138,"name":"The Indomitable Human Spirit","steam_id":76561198123199575,"connected_time":2388000000000,"state":"active","ping":155},{"user_id":114,"name":"The Deadly Doughnut","steam_id":76561198079049349,"connected_time":4923000000000,"state":"active","ping":57},{"user_id":136,"name":"Professional facestab","steam_id":76561198258721056,"connected_time":2937000000000,"state":"active","ping":51},{"user_id":171,"name":"76561198397931520","steam_id":76561198397931520,"connected_time":468000000000,"state":"active","ping":69}]},{"server_id":40,"name":"Uncletopia | London | 7 | No Payload","name_short":"lon-7","host":"lon-1.uk.uncletopia.com","port":27075,"enabled":true,"region":"eu","cc":"gb","latitude":51.509865,"longitude":-0.118092,"reserved":0,"last_update":"0001-01-01T00:00:00Z","name_a2s":"Uncletopia | London | 7 | No Payload","protocol":17,"map":"cp_fastlane","folder":"tf","game":"Team Fortress","app_id":440,"player_count":24,"max_players":24,"Bots":0,"server_type":"Dedicated","server_os":"Linux","password":true,"vac":true,"version":"7757534","steam_id":85568392924964314,"keywords":["cp","nocrits","nodmgspread","uncletopia"],"game_id":440,"stv_port":27076,"stv_name":"Uncletopia | London | 7 | No Payload | STV","players":[{"user_id":388,"name":"NotFionn","steam_id":76561198890525176,"connected_time":1522000000000,"state":"active","ping":73},{"user_id":404,"name":"Blamnit","steam_id":76561198019409997,"connected_time":322000000000,"state":"active","ping":47},{"user_id":372,"name":"Farmercy","steam_id":76561198000038039,"connected_time":3262000000000,"state":"active","ping":64},{"user_id":406,"name":"penis gnome","steam_id":76561198097612561,"connected_time":185000000000,"state":"active","ping":63},{"user_id":390,"name":"Udinese Dion","steam_id":76561198067931573,"connected_time":1422000000000,"state":"active","ping":60},{"user_id":397,"name":"Clown","steam_id":76561198040785616,"connected_time":889000000000,"state":"active","ping":69},{"user_id":295,"name":"mark","steam_id":76561198309246388,"connected_time":9977000000000,"state":"active","ping":53},{"user_id":321,"name":"Bilaterial Newt","steam_id":76561198074655679,"connected_time":8219000000000,"state":"active","ping":85},{"user_id":407,"name":"giclure :;","steam_id":76561197986362828,"connected_time":171000000000,"state":"active","ping":86},{"user_id":398,"name":"Shiro","steam_id":76561198047261695,"connected_time":868000000000,"state":"active","ping":70},{"user_id":399,"name":"schwanzus longus","steam_id":76561198064215392,"connected_time":848000000000,"state":"active","ping":83},{"user_id":391,"name":"SLoW","steam_id":76561198032650972,"connected_time":1345000000000,"state":"active","ping":105},{"user_id":369,"name":"MEDiUM","steam_id":76561198112328561,"connected_time":3545000000000,"state":"active","ping":83},{"user_id":218,"name":"LasagnaLarry22","steam_id":76561198089478290,"connected_time":13447000000000,"state":"active","ping":34},{"user_id":376,"name":"Stu","steam_id":76561198131449281,"connected_time":3198000000000,"state":"active","ping":46},{"user_id":400,"name":"Corvus","steam_id":76561199089742835,"connected_time":846000000000,"state":"active","ping":66},{"user_id":377,"name":"Ivan the Terrible","steam_id":76561198139595241,"connected_time":3153000000000,"state":"active","ping":85},{"user_id":408,"name":"DoctorTopLeL","steam_id":76561198088533595,"connected_time":146000000000,"state":"active","ping":106},{"user_id":401,"name":"Fadingヅ Ibims2Positiv","steam_id":76561198031454938,"connected_time":812000000000,"state":"active","ping":72},{"user_id":402,"name":"Munibe","steam_id":76561198107967904,"connected_time":741000000000,"state":"active","ping":63},{"user_id":208,"name":"Fat Pigeon","steam_id":76561198817940142,"connected_time":14733000000000,"state":"active","ping":45},{"user_id":409,"name":"Blu-Ray","steam_id":76561198167116301,"connected_time":122000000000,"state":"active","ping":86},{"user_id":383,"name":"Preacher Carl","steam_id":76561197994713485,"connected_time":2480000000000,"state":"active","ping":60},{"user_id":410,"name":"Check Your Posture!","steam_id":76561198097466136,"connected_time":100000000000,"state":"active","ping":53}]},{"server_id":41,"name":"Uncletopia | London | 8 | Community","name_short":"lon-8","host":"lon-1.uk.uncletopia.com","port":27085,"enabled":true,"region":"eu","cc":"gb","latitude":51.509865,"longitude":-0.118092,"reserved":0,"last_update":"0001-01-01T00:00:00Z","name_a2s":"Uncletopia | London | 8 | Community","protocol":17,"map":"workshop/pl_eruption_b9a.ugc2807898013","folder":"tf","game":"Team Fortress","app_id":440,"player_count":0,"max_players":24,"Bots":0,"server_type":"Dedicated","server_os":"Linux","password":true,"vac":true,"version":"7757534","steam_id":85568392924964315,"keywords":["nocrits","nodmgspread","payload","uncletopia"],"game_id":440,"stv_port":27086,"stv_name":"Uncletopia | London | 8 | Community | STV","players":null},{"server_id":300,"name":"Uncletopia | Montréal | 1 | All Maps","name_short":"mtl-1","host":"mtl-1.ca.uncletopia.com","port":27015,"enabled":true,"region":"us-east","cc":"ca","latitude":45.50889,"longitude":-73.56167,"reserved":0,"last_update":"0001-01-01T00:00:00Z","name_a2s":"Uncletopia | Montréal | 1 | All Maps","protocol":17,"map":"koth_cascade","folder":"tf","game":"Team Fortress","app_id":440,"player_count":0,"max_players":24,"Bots":0,"server_type":"Dedicated","server_os":"Linux","password":true,"vac":true,"version":"7757534","steam_id":85568392924500087,"keywords":["cp","nocrits","nodmgspread","uncletopia"],"game_id":440,"stv_port":27016,"stv_name":"Uncletopia | Montréal | 1 | All Maps | STV","players":null},{"server_id":301,"name":"Uncletopia | Montréal | 2 | All Maps","name_short":"mtl-2","host":"mtl-1.ca.uncletopia.com","port":27025,"enabled":true,"region":"us-east","cc":"ca","latitude":45.50889,"longitude":-73.56167,"reserved":0,"last_update":"0001-01-01T00:00:00Z","name_a2s":"Uncletopia | Montréal | 2 | All Maps","protocol":17,"map":"pl_swiftwater_final1","folder":"tf","game":"Team Fortress","app_id":440,"player_count":0,"max_players":24,"Bots":0,"server_type":"Dedicated","server_os":"Linux","password":true,"vac":true,"version":"7757534","steam_id":85568392924500088,"keywords":["nocrits","nodmgspread","payload","uncletopia"],"game_id":440,"stv_port":27026,"stv_name":"Uncletopia | Montréal | 2 | All Maps | STV","players":null},{"server_id":302,"name":"Uncletopia | Montréal | 3 | All Maps","name_short":"mtl-3","host":"mtl-1.ca.uncletopia.com","port":27035,"enabled":true,"region":"us-east","cc":"ca","latitude":45.50889,"longitude":-73.56167,"reserved":0,"last_update":"0001-01-01T00:00:00Z","name_a2s":"Uncletopia | Montréal | 3 | All Maps","protocol":17,"map":"cp_sunshine","folder":"tf","game":"Team Fortress","app_id":440,"player_count":0,"max_players":24,"Bots":0,"server_type":"Dedicated","server_os":"Linux","password":true,"vac":true,"version":"7757534","steam_id":85568392924500089,"keywords":["cp","nocrits","nodmgspread","uncletopia"],"game_id":440,"stv_port":27036,"stv_name":"Uncletopia | Montréal | 3 | All Maps | STV","players":null},{"server_id":303,"name":"Uncletopia | Montréal | 4 | No Payload","name_short":"mtl-4","host":"mtl-1.ca.uncletopia.com","port":27045,"enabled":true,"region":"us-east","cc":"ca","latitude":45.50889,"longitude":-73.56167,"reserved":0,"last_update":"0001-01-01T00:00:00Z","name_a2s":"Uncletopia | Montréal | 4 | No Payload","protocol":17,"map":"koth_lakeside_final","folder":"tf","game":"Team Fortress","app_id":440,"player_count":0,"max_players":24,"Bots":0,"server_type":"Dedicated","server_os":"Linux","password":true,"vac":true,"version":"7757534","steam_id":85568392924500090,"keywords":["cp","nocrits","nodmgspread","uncletopia"],"game_id":440,"stv_port":27046,"stv_name":"Uncletopia | Montréal | 4 | No Payload | STV","players":null},{"server_id":13,"name":"Uncletopia | New York City | 1 | All Maps","name_short":"nyc-1","host":"nyc-1.us.uncletopia.com","port":27015,"enabled":true,"region":"us-east","cc":"us","latitude":40.73061,"longitude":-73.93524,"reserved":0,"last_update":"0001-01-01T00:00:00Z","name_a2s":"Uncletopia | New York City | 1 | All Maps","protocol":17,"map":"pl_borneo","folder":"tf","game":"Team Fortress","app_id":440,"player_count":4,"max_players":24,"Bots":0,"server_type":"Dedicated","server_os":"Linux","password":true,"vac":true,"version":"7757534","steam_id":85568392924469993,"keywords":["nocrits","nodmgspread","payload","uncletopia"],"game_id":440,"stv_port":27016,"stv_name":"Uncletopia | New York City | 1 | All Maps | STV","players":[{"user_id":12,"name":"Spirit","steam_id":76561199069322627,"connected_time":1313000000000,"state":"active","ping":60},{"user_id":13,"name":"ION","steam_id":76561198074581471,"connected_time":750000000000,"state":"active","ping":84},{"user_id":21,"name":"Jolt","steam_id":76561198168669087,"connected_time":104000000000,"state":"active","ping":42},{"user_id":17,"name":"Nico","steam_id":76561198125701869,"connected_time":342000000000,"state":"active","ping":43}]},{"server_id":14,"name":"Uncletopia | New York City | 2 | All Maps","name_short":"nyc-2","host":"nyc-1.us.uncletopia.com","port":27025,"enabled":true,"region":"us-east","cc":"us","latitude":40.73061,"longitude":-73.93524,"reserved":0,"last_update":"0001-01-01T00:00:00Z","name_a2s":"Uncletopia | New York City | 2 | All Maps","protocol":17,"map":"pl_upward","folder":"tf","game":"Team Fortress","app_id":440,"player_count":24,"max_players":24,"Bots":0,"server_type":"Dedicated","server_os":"Linux","password":true,"vac":true,"version":"7757534","steam_id":85568392924469994,"keywords":["nocrits","nodmgspread","payload","uncletopia"],"game_id":440,"stv_port":27026,"stv_name":"Uncletopia | New York City | 2 | All Maps | STV","players":[{"user_id":63,"name":"Windup Monkey in a Human Suit","steam_id":76561198119501444,"connected_time":95000000000,"state":"active","ping":82},{"user_id":61,"name":"Bozanimal","steam_id":76561198044096897,"connected_time":368000000000,"state":"active","ping":41},{"user_id":38,"name":"a child","steam_id":76561198803040574,"connected_time":1426000000000,"state":"active","ping":42},{"user_id":48,"name":"Devoid","steam_id":76561198254039012,"connected_time":1180000000000,"state":"active","ping":45},{"user_id":56,"name":"BigOrca54","steam_id":76561198181360271,"connected_time":953000000000,"state":"active","ping":80},{"user_id":52,"name":"k1ttyk4tty69","steam_id":76561199467882510,"connected_time":1039000000000,"state":"active","ping":162},{"user_id":36,"name":"Goretron","steam_id":76561198001320198,"connected_time":1500000000000,"state":"active","ping":107},{"user_id":17,"name":"J.","steam_id":76561199135927968,"connected_time":1959000000000,"state":"active","ping":75},{"user_id":39,"name":"Ceiling Man","steam_id":76561198003959902,"connected_time":1420000000000,"state":"active","ping":40},{"user_id":62,"name":"Ghoulish in Nature","steam_id":76561198058840585,"connected_time":253000000000,"state":"active","ping":56},{"user_id":23,"name":"♥ StrawBerry ♥","steam_id":76561198253469869,"connected_time":1786000000000,"state":"active","ping":121},{"user_id":54,"name":"TATARA","steam_id":76561199098759517,"connected_time":989000000000,"state":"active","ping":129},{"user_id":46,"name":"Fudgely","steam_id":76561198039425862,"connected_time":1265000000000,"state":"active","ping":58},{"user_id":25,"name":"Winter the Witchie","steam_id":76561198151971178,"connected_time":1655000000000,"state":"active","ping":73},{"user_id":22,"name":"Nobody","steam_id":76561198286486517,"connected_time":1858000000000,"state":"active","ping":77},{"user_id":26,"name":"Stormartillery","steam_id":76561198408982577,"connected_time":1636000000000,"state":"active","ping":62},{"user_id":58,"name":"Mastoden","steam_id":76561198050431916,"connected_time":420000000000,"state":"active","ping":78},{"user_id":55,"name":"Dr. Nobotnik","steam_id":76561198357339092,"connected_time":975000000000,"state":"active","ping":96},{"user_id":41,"name":"landorik37","steam_id":76561198135479304,"connected_time":1396000000000,"state":"active","ping":177},{"user_id":49,"name":"the green crayon","steam_id":76561198050034169,"connected_time":1169000000000,"state":"active","ping":54},{"user_id":33,"name":"Koyuki","steam_id":76561198258598523,"connected_time":1577000000000,"state":"active","ping":94},{"user_id":43,"name":"Baron von Whoopsie","steam_id":76561197996691013,"connected_time":1389000000000,"state":"active","ping":57},{"user_id":57,"name":"FobbyDongleJr.","steam_id":76561198971626811,"connected_time":925000000000,"state":"active","ping":68},{"user_id":45,"name":"catrinaisahuman","steam_id":76561198281355729,"connected_time":1375000000000,"state":"active","ping":75}]},{"server_id":15,"name":"Uncletopia | New York City | 3 | Stopwatch Beta","name_short":"nyc-3","host":"nyc-1.us.uncletopia.com","port":27035,"enabled":true,"region":"us-east","cc":"us","latitude":40.73061,"longitude":-73.93524,"reserved":0,"last_update":"0001-01-01T00:00:00Z","name_a2s":"Uncletopia | New York City | 3 | Stopwatch Beta","protocol":17,"map":"koth_lakeside_final","folder":"tf","game":"Team Fortress","app_id":440,"player_count":0,"max_players":24,"Bots":0,"server_type":"Dedicated","server_os":"Linux","password":true,"vac":true,"version":"7757534","steam_id":85568392924742820,"keywords":["cp","nocrits","nodmgspread","uncletopia"],"game_id":440,"stv_port":27036,"stv_name":"Uncletopia | New York City | 3 | Stopwatch Beta | STV","players":null},{"server_id":16,"name":"Uncletopia | New York City | 4 | Community","name_short":"nyc-4","host":"nyc-1.us.uncletopia.com","port":27045,"enabled":true,"region":"us-east","cc":"us","latitude":40.73061,"longitude":-73.93524,"reserved":0,"last_update":"0001-01-01T00:00:00Z","name_a2s":"Uncletopia | New York City | 4 | Community","protocol":17,"map":"pl_borneo","folder":"tf","game":"Team Fortress","app_id":440,"player_count":0,"max_players":24,"Bots":0,"server_type":"Dedicated","server_os":"Linux","password":true,"vac":true,"version":"7757534","steam_id":85568392924742821,"keywords":["nocrits","nodmgspread","payload","uncletopia"],"game_id":440,"stv_port":27046,"stv_name":"Uncletopia | New York City | 4 | Community | STV","players":null},{"server_id":142,"name":"Uncletopia | São Paulo | 1 | All Maps","name_short":"sao-1","host":"sao-1.br.uncletopia.com","port":27015,"enabled":true,"region":"sa","cc":"br","latitude":-23.533773,"longitude":-46.62529,"reserved":0,"last_update":"0001-01-01T00:00:00Z","name_a2s":"Uncletopia | São Paulo | 1 | All Maps","protocol":17,"map":"koth_highpass","folder":"tf","game":"Team Fortress","app_id":440,"player_count":1,"max_players":24,"Bots":0,"server_type":"Dedicated","server_os":"Linux","password":true,"vac":true,"version":"7757534","steam_id":85568392924469996,"keywords":["cp","nocrits","nodmgspread","uncletopia"],"game_id":440,"stv_port":27016,"stv_name":"Uncletopia | São Paulo | 1 | All Maps | STV","players":[{"user_id":20,"name":"F4N4TIC0","steam_id":76561197960953711,"connected_time":247000000000,"state":"active","ping":42}]},{"server_id":143,"name":"Uncletopia | São Paulo | 2 | All Maps","name_short":"sao-2","host":"sao-2.br.uncletopia.com","port":27015,"enabled":true,"region":"sa","cc":"br","latitude":-23.533773,"longitude":-46.62529,"reserved":0,"last_update":"0001-01-01T00:00:00Z","name_a2s":"Uncletopia | São Paulo | 2 | All Maps","protocol":17,"map":"koth_viaduct","folder":"tf","game":"Team Fortress","app_id":440,"player_count":0,"max_players":24,"Bots":0,"server_type":"Dedicated","server_os":"Linux","password":true,"vac":true,"version":"7757534","steam_id":85568392924485349,"keywords":["cp","nocrits","nodmgspread","uncletopia"],"game_id":440,"stv_port":27016,"stv_name":"Uncletopia | São Paulo | 2 | All Maps | STV","players":null},{"server_id":7,"name":"Uncletopia | Seattle | 1 | All Maps","name_short":"sea-1","host":"sea-1.us.uncletopia.com","port":27015,"enabled":true,"region":"us-west","cc":"us","latitude":47.608013,"longitude":-122.33517,"reserved":0,"last_update":"0001-01-01T00:00:00Z","name_a2s":"Uncletopia | Seattle | 1 | All Maps","protocol":17,"map":"plr_bananabay","folder":"tf","game":"Team Fortress","app_id":440,"player_count":21,"max_players":24,"Bots":0,"server_type":"Dedicated","server_os":"Linux","password":true,"vac":true,"version":"7757534","steam_id":85568392924469997,"keywords":["nocrits","nodmgspread","payload","uncletopia"],"game_id":440,"stv_port":27016,"stv_name":"Uncletopia | Seattle | 1 | All Maps | STV","players":[{"user_id":131,"name":"Saint Pablo","steam_id":76561198083300159,"connected_time":705000000000,"state":"active","ping":69},{"user_id":25,"name":"Source Chronicler","steam_id":76561199231728668,"connected_time":8619000000000,"state":"active","ping":104},{"user_id":114,"name":"ORANGE","steam_id":76561198000401769,"connected_time":2968000000000,"state":"active","ping":48},{"user_id":10,"name":"Joe Banana","steam_id":76561198066224724,"connected_time":9451000000000,"state":"active","ping":43},{"user_id":143,"name":"luis","steam_id":76561198081341347,"connected_time":64000000000,"state":"active","ping":64},{"user_id":130,"name":"a crazy hobo","steam_id":76561198289650060,"connected_time":857000000000,"state":"active","ping":75},{"user_id":133,"name":"PopcornNinja101","steam_id":76561198330680181,"connected_time":700000000000,"state":"active","ping":46},{"user_id":145,"name":"Gooster","steam_id":76561198255311543,"connected_time":9000000000,"state":"active","ping":125},{"user_id":142,"name":"fish enjoyer","steam_id":76561198307447918,"connected_time":70000000000,"state":"active","ping":104},{"user_id":85,"name":"MellowBoy-2354","steam_id":76561199080630632,"connected_time":5265000000000,"state":"active","ping":147},{"user_id":118,"name":"Pneumo.","steam_id":76561197987911883,"connected_time":2660000000000,"state":"active","ping":58},{"user_id":113,"name":"Julien","steam_id":76561199389584938,"connected_time":3271000000000,"state":"active","ping":40},{"user_id":123,"name":"WACKY JIM","steam_id":76561198961641122,"connected_time":1566000000000,"state":"active","ping":56},{"user_id":126,"name":"Mr. Mayo","steam_id":76561198320766540,"connected_time":1343000000000,"state":"active","ping":100},{"user_id":136,"name":"Vionas","steam_id":76561198012478039,"connected_time":633000000000,"state":"active","ping":98},{"user_id":87,"name":"7/11 Gaming","steam_id":76561199091007559,"connected_time":5190000000000,"state":"active","ping":83},{"user_id":121,"name":"Mignyanne :3","steam_id":76561198048754056,"connected_time":2379000000000,"state":"active","ping":61},{"user_id":140,"name":"☰vil Ↄood  ⸸💀⸸","steam_id":76561197963666090,"connected_time":350000000000,"state":"active","ping":72},{"user_id":111,"name":"PopcornBucketGames","steam_id":76561199089562026,"connected_time":3649000000000,"state":"active","ping":48},{"user_id":52,"name":"Ddot","steam_id":76561198082846392,"connected_time":8108000000000,"state":"active","ping":52},{"user_id":124,"name":"jungus","steam_id":76561198129862008,"connected_time":1366000000000,"state":"active","ping":69}]},{"server_id":119,"name":"Uncletopia | Seattle | 2 | All Maps","name_short":"sea-2","host":"sea-1.us.uncletopia.com","port":27025,"enabled":true,"region":"us-west","cc":"us","latitude":47.608013,"longitude":-122.33517,"reserved":0,"last_update":"0001-01-01T00:00:00Z","name_a2s":"Uncletopia | Seattle | 2 | All Maps","protocol":17,"map":"pl_badwater","folder":"tf","game":"Team Fortress","app_id":440,"player_count":0,"max_players":24,"Bots":0,"server_type":"Dedicated","server_os":"Linux","password":true,"vac":true,"version":"7757534","steam_id":85568392924469998,"keywords":["nocrits","nodmgspread","payload","uncletopia"],"game_id":440,"stv_port":27026,"stv_name":"Uncletopia | Seattle | 2 | All Maps | STV","players":null},{"server_id":406,"name":"Uncletopia | Seattle | 3 | Stopwatch Beta","name_short":"sea-3","host":"sea-1.us.uncletopia.com","port":27035,"enabled":true,"region":"us-west","cc":"us","latitude":47.608013,"longitude":-122.33517,"reserved":0,"last_update":"0001-01-01T00:00:00Z","name_a2s":"Uncletopia | Seattle | 3 | Stopwatch Beta","protocol":17,"map":"cp_sunshine","folder":"tf","game":"Team Fortress","app_id":440,"player_count":0,"max_players":24,"Bots":0,"server_type":"Dedicated","server_os":"Linux","password":true,"vac":true,"version":"7757534","steam_id":85568392924515217,"keywords":["cp","nocrits","nodmgspread","uncletopia"],"game_id":440,"stv_port":27036,"stv_name":"Uncletopia | Seattle | 3 | Stopwatch Beta | STV","players":null},{"server_id":17,"name":"Uncletopia | San Francisco | 1 | All Maps","name_short":"sfo-1","host":"sfo-1.us.uncletopia.com","port":27015,"enabled":true,"region":"us-west","cc":"us","latitude":37.77397,"longitude":-122.4313,"reserved":0,"last_update":"0001-01-01T00:00:00Z","name_a2s":"Uncletopia | San Francisco | 1 | All Maps","protocol":17,"map":"pl_pier","folder":"tf","game":"Team Fortress","app_id":440,"player_count":0,"max_players":24,"Bots":0,"server_type":"Dedicated","server_os":"Linux","password":true,"vac":true,"version":"7757534","steam_id":85568392924469999,"keywords":["nocrits","nodmgspread","payload","uncletopia"],"game_id":440,"stv_port":27016,"stv_name":"Uncletopia | San Francisco | 1 | All Maps | STV","players":null},{"server_id":18,"name":"Uncletopia | San Francisco | 2 | All Maps","name_short":"sfo-2","host":"sfo-1.us.uncletopia.com","port":27025,"enabled":true,"region":"us-west","cc":"us","latitude":37.77397,"longitude":-122.4313,"reserved":0,"last_update":"0001-01-01T00:00:00Z","name_a2s":"Uncletopia | San Francisco | 2 | All Maps","protocol":17,"map":"koth_viaduct","folder":"tf","game":"Team Fortress","app_id":440,"player_count":0,"max_players":24,"Bots":0,"server_type":"Dedicated","server_os":"Linux","password":true,"vac":true,"version":"7757534","steam_id":85568392924470000,"keywords":["cp","nocrits","nodmgspread","uncletopia"],"game_id":440,"stv_port":27026,"stv_name":"Uncletopia | San Francisco | 2 | All Maps | STV","players":null},{"server_id":19,"name":"Uncletopia | San Francisco | 3 | Stopwatch Beta","name_short":"sfo-3","host":"sfo-1.us.uncletopia.com","port":27035,"enabled":true,"region":"us-west","cc":"us","latitude":37.77397,"longitude":-122.4313,"reserved":0,"last_update":"0001-01-01T00:00:00Z","name_a2s":"Uncletopia | San Francisco | 3 | Stopwatch Beta","protocol":17,"map":"koth_viaduct","folder":"tf","game":"Team Fortress","app_id":440,"player_count":0,"max_players":24,"Bots":0,"server_type":"Dedicated","server_os":"Linux","password":true,"vac":true,"version":"7757534","steam_id":85568392924742824,"keywords":["cp","nocrits","nodmgspread","uncletopia"],"game_id":440,"stv_port":27036,"stv_name":"Uncletopia | San Francisco | 3 | Stopwatch Beta | STV","players":null},{"server_id":20,"name":"Uncletopia | San Francisco | 4 | Community","name_short":"sfo-4","host":"sfo-1.us.uncletopia.com","port":27045,"enabled":true,"region":"us-west","cc":"us","latitude":37.77397,"longitude":-122.4313,"reserved":0,"last_update":"0001-01-01T00:00:00Z","name_a2s":"Uncletopia | San Francisco | 4 | Community","protocol":17,"map":"workshop/koth_bagel_rc5.ugc2514036946","folder":"tf","game":"Team Fortress","app_id":440,"player_count":0,"max_players":24,"Bots":0,"server_type":"Dedicated","server_os":"Linux","password":true,"vac":true,"version":"7757534","steam_id":85568392924742826,"keywords":["cp","nocrits","nodmgspread","uncletopia"],"game_id":440,"stv_port":27046,"stv_name":"Uncletopia | San Francisco | 4 | Community | STV","players":null},{"server_id":141,"name":"Uncletopia | Sydney | 1 | All Maps","name_short":"syd-1","host":"syd-1.au.uncletopia.com","port":27015,"enabled":true,"region":"au","cc":"au","latitude":-33.865143,"longitude":151.2099,"reserved":0,"last_update":"0001-01-01T00:00:00Z","name_a2s":"Uncletopia | Sydney | 1 | All Maps","protocol":17,"map":"koth_lakeside_final","folder":"tf","game":"Team Fortress","app_id":440,"player_count":0,"max_players":24,"Bots":0,"server_type":"Dedicated","server_os":"Linux","password":true,"vac":true,"version":"7757534","steam_id":85568392924470001,"keywords":["cp","nocrits","nodmgspread","uncletopia"],"game_id":440,"stv_port":27016,"stv_name":"Uncletopia | Sydney | 1 | All Maps | STV","players":null},{"server_id":123,"name":"Uncletopia | Sydney | 2 | All Maps","name_short":"syd-2","host":"syd-1.au.uncletopia.com","port":27025,"enabled":true,"region":"au","cc":"au","latitude":-33.865143,"longitude":151.2099,"reserved":0,"last_update":"0001-01-01T00:00:00Z","name_a2s":"Uncletopia | Sydney | 2 | All Maps","protocol":17,"map":"koth_viaduct","folder":"tf","game":"Team Fortress","app_id":440,"player_count":0,"max_players":24,"Bots":0,"server_type":"Dedicated","server_os":"Linux","password":true,"vac":true,"version":"7757534","steam_id":85568392924470002,"keywords":["cp","nocrits","nodmgspread","uncletopia"],"game_id":440,"stv_port":27026,"stv_name":"Uncletopia | Sydney | 2 | All Maps | STV","players":null},{"server_id":395,"name":"Uncletopia | Sydney | 3 | All Maps","name_short":"syd-3","host":"syd-1.au.uncletopia.com","port":27035,"enabled":true,"region":"au","cc":"au","latitude":-33.865143,"longitude":151.2099,"reserved":0,"last_update":"0001-01-01T00:00:00Z","name_a2s":"Uncletopia | Sydney | 3 | All Maps","protocol":17,"map":"koth_viaduct","folder":"tf","game":"Team Fortress","app_id":440,"player_count":0,"max_players":24,"Bots":0,"server_type":"Dedicated","server_os":"Linux","password":true,"vac":true,"version":"7757534","steam_id":85568392925194467,"keywords":["cp","nocrits","nodmgspread","uncletopia"],"game_id":440,"stv_port":27036,"stv_name":"Uncletopia | Sydney | 3 | All Maps | STV","players":null},{"server_id":396,"name":"Uncletopia | Sydney | 4 | All Maps","name_short":"syd-4","host":"syd-1.au.uncletopia.com","port":27045,"enabled":true,"region":"au","cc":"au","latitude":-33.865143,"longitude":151.2099,"reserved":0,"last_update":"0001-01-01T00:00:00Z","name_a2s":"Uncletopia | Sydney | 4 | All Maps","protocol":17,"map":"cp_snakewater_final1","folder":"tf","game":"Team Fortress","app_id":440,"player_count":0,"max_players":24,"Bots":0,"server_type":"Dedicated","server_os":"Linux","password":true,"vac":true,"version":"7757534","steam_id":85568392925397958,"keywords":["cp","nocrits","nodmgspread","uncletopia"],"game_id":440,"stv_port":27046,"stv_name":"Uncletopia | Sydney | 4 | All Maps | STV","players":null},{"server_id":58,"name":"Uncletopia | Sydney | 5 | Stopwatch Beta","name_short":"syd-5","host":"syd-1.au.uncletopia.com","port":27055,"enabled":true,"region":"au","cc":"au","latitude":-33.865143,"longitude":151.2099,"reserved":0,"last_update":"0001-01-01T00:00:00Z","name_a2s":"Uncletopia | Sydney | 5 | Stopwatch Beta","protocol":17,"map":"pl_barnblitz","folder":"tf","game":"Team Fortress","app_id":440,"player_count":0,"max_players":24,"Bots":0,"server_type":"Dedicated","server_os":"Linux","password":true,"vac":true,"version":"7757534","steam_id":85568392925397959,"keywords":["nocrits","nodmgspread","payload","uncletopia"],"game_id":440,"stv_port":27056,"stv_name":"Uncletopia | Sydney | 5 | Stopwatch Beta | STV","players":null},{"server_id":59,"name":"Uncletopia | Sydney | 6 | Community","name_short":"syd-6","host":"syd-1.au.uncletopia.com","port":27065,"enabled":true,"region":"au","cc":"au","latitude":-33.865143,"longitude":151.2099,"reserved":0,"last_update":"0001-01-01T00:00:00Z","name_a2s":"Uncletopia | Sydney | 6 | Community","protocol":17,"map":"cp_mountainlab","folder":"tf","game":"Team Fortress","app_id":440,"player_count":0,"max_players":24,"Bots":0,"server_type":"Dedicated","server_os":"Linux","password":true,"vac":true,"version":"7757534","steam_id":85568392925397960,"keywords":["cp","nocrits","nodmgspread","uncletopia"],"game_id":440,"stv_port":27066,"stv_name":"Uncletopia | Sydney | 6 | Community | STV","players":null},{"server_id":49,"name":"Uncletopia | Warsaw | 1 | All Maps","name_short":"waw-1","host":"waw-1.pl.uncletopia.com","port":27015,"enabled":true,"region":"eu","cc":"pl","latitude":52.2297,"longitude":21.017532,"reserved":0,"last_update":"0001-01-01T00:00:00Z","name_a2s":"","protocol":0,"map":"","folder":"","game":"","app_id":0,"player_count":0,"max_players":0,"Bots":0,"server_type":"","server_os":"","password":false,"vac":false,"version":"","steam_id":0,"keywords":null,"game_id":0,"stv_port":0,"stv_name":"","players":null},{"server_id":50,"name":"Uncletopia | Warsaw | 2 | All Maps","name_short":"waw-2","host":"waw-1.pl.uncletopia.com","port":27025,"enabled":true,"region":"eu","cc":"pl","latitude":52.2297,"longitude":21.017532,"reserved":0,"last_update":"0001-01-01T00:00:00Z","name_a2s":"Uncletopia | Warsaw | 2 | All Maps","protocol":17,"map":"koth_harvest_final","folder":"tf","game":"Team Fortress","app_id":440,"player_count":16,"max_players":24,"Bots":0,"server_type":"Dedicated","server_os":"Linux","password":true,"vac":true,"version":"7757534","steam_id":85568392925397851,"keywords":["cp","nocrits","nodmgspread","uncletopia"],"game_id":440,"stv_port":27026,"stv_name":"Uncletopia | Warsaw | 2 | All Maps | STV","players":[{"user_id":55,"name":"lechowoz","steam_id":76561199467824188,"connected_time":1993000000000,"state":"active","ping":49},{"user_id":60,"name":"Derp","steam_id":76561198197901062,"connected_time":1580000000000,"state":"active","ping":63},{"user_id":64,"name":"Tomato188","steam_id":76561198292926885,"connected_time":619000000000,"state":"active","ping":85},{"user_id":37,"name":"Von Leining","steam_id":76561198859983504,"connected_time":3894000000000,"state":"active","ping":73},{"user_id":71,"name":"Pyro ( apostle of sex )","steam_id":76561198860424456,"connected_time":32000000000,"state":"spawning","ping":69},{"user_id":38,"name":"Sleepyguy","steam_id":76561198008520542,"connected_time":3743000000000,"state":"active","ping":78},{"user_id":39,"name":"nep-nep","steam_id":76561198303149838,"connected_time":3740000000000,"state":"active","ping":76},{"user_id":57,"name":"Owl","steam_id":76561198248266580,"connected_time":1920000000000,"state":"active","ping":81},{"user_id":66,"name":"LOBZIK","steam_id":76561198114830120,"connected_time":265000000000,"state":"active","ping":59},{"user_id":50,"name":"Gen","steam_id":76561198021775885,"connected_time":3168000000000,"state":"active","ping":61},{"user_id":58,"name":"Mr. Chonky","steam_id":76561199167791353,"connected_time":1908000000000,"state":"active","ping":104},{"user_id":61,"name":"doggoeatswindex21","steam_id":76561199065303184,"connected_time":1196000000000,"state":"active","ping":156},{"user_id":67,"name":"shinji","steam_id":76561198099696876,"connected_time":204000000000,"state":"active","ping":86},{"user_id":68,"name":"Aleksander","steam_id":76561198062039220,"connected_time":188000000000,"state":"active","ping":43},{"user_id":69,"name":"Condemned B3 Expert","steam_id":76561198248411522,"connected_time":182000000000,"state":"active","ping":85},{"user_id":70,"name":"Username","steam_id":76561198963707580,"connected_time":159000000000,"state":"active","ping":48}]},{"server_id":51,"name":"Uncletopia | Warsaw | 3 | All Maps","name_short":"waw-3","host":"waw-1.pl.uncletopia.com","port":27035,"enabled":true,"region":"eu","cc":"pl","latitude":52.2297,"longitude":21.017532,"reserved":0,"last_update":"0001-01-01T00:00:00Z","name_a2s":"Uncletopia | Warsaw | 3 | All Maps","protocol":17,"map":"pl_barnblitz","folder":"tf","game":"Team Fortress","app_id":440,"player_count":3,"max_players":24,"Bots":0,"server_type":"Dedicated","server_os":"Linux","password":true,"vac":true,"version":"7757534","steam_id":85568392925397852,"keywords":["nocrits","nodmgspread","payload","uncletopia"],"game_id":440,"stv_port":27036,"stv_name":"Uncletopia | Warsaw | 3 | All Maps | STV","players":[{"user_id":287,"name":"juan","steam_id":76561199098499873,"connected_time":3565000000000,"state":"active","ping":87},{"user_id":313,"name":"Only Jerry","steam_id":76561198075722968,"connected_time":1701000000000,"state":"active","ping":69},{"user_id":314,"name":"Avengerandy","steam_id":76561199192552109,"connected_time":1692000000000,"state":"active","ping":103}]},{"server_id":52,"name":"Uncletopia | Warsaw | 4 | All Maps","name_short":"waw-4","host":"waw-1.pl.uncletopia.com","port":27045,"enabled":true,"region":"eu","cc":"pl","latitude":52.2297,"longitude":21.017532,"reserved":0,"last_update":"0001-01-01T00:00:00Z","name_a2s":"Uncletopia | Warsaw | 4 | All Maps","protocol":17,"map":"pl_swiftwater_final1","folder":"tf","game":"Team Fortress","app_id":440,"player_count":0,"max_players":24,"Bots":0,"server_type":"Dedicated","server_os":"Linux","password":true,"vac":true,"version":"7757534","steam_id":85568392925397853,"keywords":["nocrits","nodmgspread","payload","uncletopia"],"game_id":440,"stv_port":27046,"stv_name":"Uncletopia | Warsaw | 4 | All Maps | STV","players":null},{"server_id":53,"name":"Uncletopia | Warsaw | 5 | Stopwatch Beta","name_short":"waw-5","host":"waw-1.pl.uncletopia.com","port":27055,"enabled":true,"region":"eu","cc":"pl","latitude":52.2297,"longitude":21.017532,"reserved":0,"last_update":"0001-01-01T00:00:00Z","name_a2s":"Uncletopia | Warsaw | 5 | Stopwatch Beta","protocol":17,"map":"workshop/koth_product_final.ugc454272353","folder":"tf","game":"Team Fortress","app_id":440,"player_count":0,"max_players":24,"Bots":0,"server_type":"Dedicated","server_os":"Linux","password":true,"vac":true,"version":"7757534","steam_id":85568392925397854,"keywords":["cp","nocrits","nodmgspread","uncletopia"],"game_id":440,"stv_port":27056,"stv_name":"Uncletopia | Warsaw | 5 | Stopwatch Beta | STV","players":null},{"server_id":54,"name":"Uncletopia | Warsaw | 6 | Community","name_short":"waw-6","host":"waw-1.pl.uncletopia.com","port":27065,"enabled":true,"region":"eu","cc":"pl","latitude":52.2297,"longitude":21.017532,"reserved":0,"last_update":"0001-01-01T00:00:00Z","name_a2s":"Uncletopia | Warsaw | 6 | Community","protocol":17,"map":"workshop/pl_vigil_rc9.ugc1266210012","folder":"tf","game":"Team Fortress","app_id":440,"player_count":0,"max_players":24,"Bots":0,"server_type":"Dedicated","server_os":"Linux","password":true,"vac":true,"version":"7757534","steam_id":85568392925397856,"keywords":["nocrits","nodmgspread","payload","uncletopia"],"game_id":440,"stv_port":27066,"stv_name":"Uncletopia | Warsaw | 6 | Community | STV","players":null}]}