{"status":true,"message":"","result":[{"server_id":9,"name":"Uncletopia | Atlanta | 1 | All Maps","name_short":"atl-1","host":"atl-1.us.uncletopia.com","port":27015,"enabled":true,"region":"us-east","cc":"us","latitude":33.753746,"longitude":-84.38633,"reserved":0,"last_update":"0001-01-01T00:00:00Z","name_a2s":"Uncletopia | Atlanta | 1 | All Maps","protocol":17,"map":"cp_dustbowl","folder":"tf","game":"Team Fortress","app_id":440,"player_count":0,"max_players":24,"Bots":0,"server_type":"Dedicated","server_os":"Linux","password":true,"vac":true,"version":"7961495","steam_id":85568392924469982,"keywords":["cp","nocrits","nodmgspread","uncletopia"],"game_id":440,"stv_port":27016,"stv_name":"Uncletopia | Atlanta | 1 | All Maps | STV","players":null},{"server_id":104,"name":"Uncletopia | Atlanta | 2 | All Maps","name_short":"atl-2","host":"atl-1.us.uncletopia.com","port":27025,"enabled":true,"region":"us-east","cc":"us","latitude":33.753746,"longitude":-84.38633,"reserved":0,"last_update":"0001-01-01T00:00:00Z","name_a2s":"Uncletopia | Atlanta | 2 | All Maps","protocol":17,"map":"pl_frontier_final","folder":"tf","game":"Team Fortress","app_id":440,"player_count":19,"max_players":24,"Bots":0,"server_type":"Dedicated","server_os":"Linux","password":true,"vac":true,"version":"7961495","steam_id":85568392924469983,"keywords":["nocrits","nodmgspread","payload","uncletopia"],"game_id":440,"stv_port":27026,"stv_name":"Uncletopia | Atlanta | 2 | All Maps | STV","players":null},{"server_id":400,"name":"Uncletopia | Atlanta | 3 | Stopwatch","name_short":"atl-3","host":"atl-1.us.uncletopia.com","port":27035,"enabled":true,"region":"us-east","cc":"us","latitude":33.753746,"longitude":-84.38633,"reserved":0,"last_update":"0001-01-01T00:00:00Z","name_a2s":"Uncletopia | Atlanta | 3 | Stopwatch","protocol":17,"map":"pl_swiftwater_final1","folder":"tf","game":"Team Fortress","app_id":440,"player_count":0,"max_players":24,"Bots":0,"server_type":"Dedicated","server_os":"Linux","password":true,"vac":true,"version":"7961495","steam_id":85568392924515187,"keywords":["nocrits","nodmgspread","payload","uncletopia"],"game_id":440,"stv_port":27036,"stv_name":"Uncletopia | Atlanta | 3 | Stopwatch | STV","players":null},{"server_id":401,"name":"Uncletopia | Atlanta | 4 | Community","name_short":"atl-4","host":"atl-1.us.uncletopia.com","port":27045,"enabled":true,"region":"us-east","cc":"us","latitude":33.753746,"longitude":-84.38633,"reserved":0,"last_update":"0001-01-01T00:00:00Z","name_a2s":"Uncletopia | Atlanta | 4 | Community","protocol":17,"map":"cp_villa_b19","folder":"tf","game":"Team Fortress","app_id":440,"player_count":0,"max_players":24,"Bots":0,"server_type":"Dedicated","server_os":"Linux","password":true,"vac":true,"version":"7961495","steam_id":85568392924515188,"keywords":["cp","nocrits","nodmgspread","uncletopia"],"game_id":440,"stv_port":27046,"stv_name":"Uncletopia | Atlanta | 4 | Community | STV","players":null},{"server_id":2,"name":"Uncletopia | Chicago | 1 | All Maps","name_short":"chi-1","host":"chi-1.us.uncletopia.com","port":27015,"enabled":true,"region":"us-central","cc":"us","latitude":41.881832,"longitude":-87.62318,"reserved":0,"last_update":"0001-01-01T00:00:00Z","name_a2s":"Uncletopia | Chicago | 1 | All Maps","protocol":17,"map":"cp_mercenarypark","folder":"tf","game":"Team Fortress","app_id":440,"player_count":24,"max_players":24,"Bots":0,"server_type":"Dedicated","server_os":"Linux","password":true,"vac":true,"version":"7961495","steam_id":85568392924469984,"keywords":["cp","nocrits","nodmgspread","uncletopia"],"game_id":440,"stv_port":27016,"stv_name":"Uncletopia | Chicago | 1 | All Maps | STV","players":[{"user_id":51,"name":"Lambert","steam_id":76561198062772532,"connected_time":2511000000000,"state":"active","ping":77},{"user_id":45,"name":"I came (up)","steam_id":76561198057745131,"connected_time":2885000000000,"state":"active","ping":54},{"user_id":6,"name":"pepsi","steam_id":76561198843190923,"connected_time":3870000000000,"state":"active","ping":62},{"user_id":15,"name":"Echo","steam_id":76561199165491231,"connected_time":3581000000000,"state":"active","ping":79},{"user_id":54,"name":"Mixomin","steam_id":76561198295061570,"connected_time":2397000000000,"state":"active","ping":46},{"user_id":36,"name":"Herb","steam_id":76561198330311949,"connected_time":3248000000000,"state":"active","ping":63},{"user_id":66,"name":"deeter","steam_id":76561199124943003,"connected_time":639000000000,"state":"active","ping":73},{"user_id":70,"name":"Yengozi","steam_id":76561198448764748,"connected_time":140000000000,"state":"active","ping":77},{"user_id":61,"name":"PERC·µâ","steam_id":76561198300393063,"connected_time":1456000000000,"state":"active","ping":51},{"user_id":67,"name":"Toxapex","steam_id":76561198341537452,"connected_time":331000000000,"state":"active","ping":69},{"user_id":62,"name":"MitcheyHD","steam_id":76561198066489645,"connected_time":871000000000,"state":"active","ping":85},{"user_id":71,"name":"el wiwi","steam_id":76561198857304367,"connected_time":126000000000,"state":"active","ping":74},{"user_id":21,"name":"NikoOS (NO SOUND)","steam_id":76561198180020521,"connected_time":3425000000000,"state":"active","ping":118},{"user_id":53,"name":"Ryzema","steam_id":76561198165594229,"connected_time":2449000000000,"state":"active","ping":85},{"user_id":64,"name":"cadian guard drop engineer","steam_id":76561199104829802,"connected_time":854000000000,"state":"active","ping":116},{"user_id":26,"name":"kimchy101","steam_id":76561198202721584,"connected_time":3357000000000,"state":"active","ping":52},{"user_id":59,"name":"The rat","steam_id":76561198050432341,"connected_time":2079000000000,"state":"active","ping":145},{"user_id":50,"name":"Kos, or some say Kosm","steam_id":76561197998833309,"connected_time":2700000000000,"state":"active","ping":75},{"user_id":29,"name":"fasterbum","steam_id":76561198142577444,"connected_time":3336000000000,"state":"active","ping":44},{"user_id":72,"name":"FunGi","steam_id":76561198881418662,"connected_time":70000000000,"state":"active","ping":84},{"user_id":52,"name":"Mario2109","steam_id":76561198431842219,"connected_time":2455000000000,"state":"active","ping":58},{"user_id":33,"name":"redarcher42","steam_id":76561199027887687,"connected_time":3269000000000,"state":"active","ping":79},{"user_id":68,"name":"Master Oogway","steam_id":76561198051869638,"connected_time":259000000000,"state":"active","ping":63},{"user_id":63,"name":"Piggy","steam_id":76561198000399862,"connected_time":871000000000,"state":"active","ping":81}]},{"server_id":106,"name":"Uncletopia | Chicago | 2 | All Maps","name_short":"chi-2","host":"chi-1.us.uncletopia.com","port":27025,"enabled":true,"region":"us-central","cc":"us","latitude":41.881832,"longitude":-87.62318,"reserved":0,"last_update":"0001-01-01T00:00:00Z","name_a2s":"Uncletopia | Chicago | 2 | All Maps","protocol":17,"map":"pl_upward","folder":"tf","game":"Team Fortress","app_id":440,"player_count":24,"max_players":24,"Bots":0,"server_type":"Dedicated","server_os":"Linux","password":true,"vac":true,"version":"7961495","steam_id":85568392924469985,"keywords":["nocrits","nodmgspread","payload","uncletopia"],"game_id":440,"stv_port":27026,"stv_name":"Uncletopia | Chicago | 2 | All Maps | STV","players":[{"user_id":40,"name":"Nordie","steam_id":76561198102297774,"connected_time":481000000000,"state":"active","ping":59},{"user_id":20,"name":"feudalism","steam_id":76561198057374871,"connected_time":1623000000000,"state":"active","ping":60},{"user_id":8,"name":"Shaunt","steam_id":76561198171551057,"connected_time":2268000000000,"state":"active","ping":46},{"user_id":9,"name":"onion connoisseur","steam_id":76561198065266282,"connected_time":2170000000000,"state":"active","ping":63},{"user_id":10,"name":"GreatTimBones","steam_id":76561198409145748,"connected_time":2152000000000,"state":"active","ping":84},{"user_id":11,"name":"MagicCraftMaster","steam_id":76561198179156615,"connected_time":2093000000000,"state":"active","ping":68},{"user_id":15,"name":"je1i","steam_id":76561198268951743,"connected_time":1829000000000,"state":"active","ping":55},{"user_id":39,"name":"gale","steam_id":76561198250068972,"connected_time":539000000000,"state":"active","ping":95},{"user_id":14,"name":"Alecto","steam_id":76561198042476864,"connected_time":1875000000000,"state":"active","ping":45},{"user_id":36,"name":"Luca!","steam_id":76561198137880777,"connected_time":668000000000,"state":"active","ping":85},{"user_id":41,"name":"Dreszerg","steam_id":76561198838757422,"connected_time":416000000000,"state":"active","ping":82},{"user_id":18,"name":"little goblin man","steam_id":76561198880907211,"connected_time":1729000000000,"state":"active","ping":59},{"user_id":19,"name":"Aspxts","steam_id":76561199125254746,"connected_time":1714000000000,"state":"active","ping":55},{"user_id":21,"name":"GX thedittoguy","steam_id":76561199013129784,"connected_time":1591000000000,"state":"active","ping":79},{"user_id":22,"name":"2 hours of sleep","steam_id":76561198868600487,"connected_time":1549000000000,"state":"active","ping":107},{"user_id":23,"name":"JC The Dumb","steam_id":76561199186185567,"connected_time":1539000000000,"state":"active","ping":108},{"user_id":24,"name":"GX Compress Dong","steam_id":76561198018950826,"connected_time":1523000000000,"state":"active","ping":79},{"user_id":25,"name":"Pandora Nyx","steam_id":76561198093475054,"connected_time":1496000000000,"state":"active","ping":62},{"user_id":45,"name":"Mr. Tickle","steam_id":76561198126684647,"connected_time":181000000000,"state":"active","ping":60},{"user_id":42,"name":"CherriKat","steam_id":76561198821297512,"connected_time":412000000000,"state":"active","ping":104},{"user_id":43,"name":"Crazy Insane Proboscis Monkey","steam_id":76561198061011176,"connected_time":410000000000,"state":"active","ping":85},{"user_id":31,"name":"Nemesis Vampy üè¥‚ò≠","steam_id":76561198092062889,"connected_time":1331000000000,"state":"active","ping":75},{"user_id":32,"name":"Cigtar","steam_id":76561198079842818,"connected_time":1273000000000,"state":"active","ping":81},{"user_id":38,"name":"Mister36","steam_id":76561198019132100,"connected_time":650000000000,"state":"active","ping":49}]},{"server_id":402,"name":"Uncletopia | Chicago | 3 | All Maps","name_short":"chi-3","host":"chi-1.us.uncletopia.com","port":27035,"enabled":true,"region":"us-central","cc":"us","latitude":41.881832,"longitude":-87.62318,"reserved":0,"last_update":"0001-01-01T00:00:00Z","name_a2s":"Uncletopia | Chicago | 3 | All Maps","protocol":17,"map":"pl_frontier_final","folder":"tf","game":"Team Fortress","app_id":440,"player_count":24,"max_players":24,"Bots":0,"server_type":"Dedicated","server_os":"Linux","password":true,"vac":true,"version":"7961495","steam_id":85568392924515191,"keywords":["nocrits","nodmgspread","payload","uncletopia"],"game_id":440,"stv_port":27036,"stv_name":"Uncletopia | Chicago | 3 | All Maps | STV","players":[{"user_id":156,"name":"Rappitor","steam_id":76561198105613110,"connected_time":3967000000000,"state":"active","ping":47},{"user_id":219,"name":"Xynnan","steam_id":76561198122232186,"connected_time":2744000000000,"state":"active","ping":78},{"user_id":71,"name":"Nefy","steam_id":76561198030017316,"connected_time":6658000000000,"state":"active","ping":88},{"user_id":7,"name":"CreateADebate","steam_id":76561198115760035,"connected_time":11814000000000,"state":"active","ping":62},{"user_id":319,"name":"Jasper‚Ñ¢","steam_id":76561198260018463,"connected_time":724000000000,"state":"active","ping":73},{"user_id":87,"name":"blobb","steam_id":76561198950448488,"connected_time":5460000000000,"state":"active","ping":48},{"user_id":308,"name":"eaglesfan609","steam_id":76561198151032242,"connected_time":1296000000000,"state":"active","ping":51},{"user_id":95,"name":"King","steam_id":76561198039763676,"connected_time":5036000000000,"state":"active","ping":63},{"user_id":320,"name":"rapscallion","steam_id":76561198188722751,"connected_time":560000000000,"state":"active","ping":90},{"user_id":305,"name":"ChillmyGrill","steam_id":76561199112703727,"connected_time":1349000000000,"state":"active","ping":80},{"user_id":321,"name":"***FoRgIvEn ***","steam_id":76561199216222247,"connected_time":368000000000,"state":"active","ping":96},{"user_id":306,"name":"Sigiferd","steam_id":76561198148788110,"connected_time":1347000000000,"state":"active","ping":125},{"user_id":309,"name":"impractical jokers gaming","steam_id":76561198068167915,"connected_time":1283000000000,"state":"active","ping":61},{"user_id":247,"name":"TheGuy101","steam_id":76561199201772624,"connected_time":2218000000000,"state":"active","ping":106},{"user_id":19,"name":"Lost","steam_id":76561198093713427,"connected_time":11148000000000,"state":"active","ping":60},{"user_id":307,"name":"TheAyteYo","steam_id":76561198401002628,"connected_time":1341000000000,"state":"active","ping":64},{"user_id":304,"name":"Rick Astley Is A F2P?","steam_id":76561199258805660,"connected_time":1386000000000,"state":"active","ping":73},{"user_id":89,"name":"Drachma","steam_id":76561198007310514,"connected_time":5417000000000,"state":"active","ping":58},{"user_id":159,"name":"garette‚Ñ¢","steam_id":76561198330911140,"connected_time":3949000000000,"state":"active","ping":80},{"user_id":239,"name":"Broadsword #LGM","steam_id":76561198011160411,"connected_time":2394000000000,"state":"active","ping":78},{"user_id":209,"name":"June","steam_id":76561198268826419,"connected_time":2852000000000,"state":"active","ping":65},{"user_id":318,"name":"fictitious swag circulation","steam_id":76561198072179483,"connected_time":912000000000,"state":"active","ping":91},{"user_id":323,"name":"SpyMann","steam_id":76561198242718980,"connected_time":114000000000,"state":"active","ping":77},{"user_id":118,"name":"pop7up","steam_id":76561198159869674,"connected_time":4368000000000,"state":"active","ping":75}]},{"server_id":403,"name":"Uncletopia | Chicago | 4 | All Maps","name_short":"chi-4","host":"chi-1.us.uncletopia.com","port":27045,"enabled":true,"region":"us-central","cc":"us","latitude":41.881832,"longitude":-87.62318,"reserved":0,"last_update":"0001-01-01T00:00:00Z","name_a2s":"Uncletopia | Chicago | 4 | All Maps","protocol":17,"map":"koth_cascade","folder":"tf","game":"Team Fortress","app_id":440,"player_count":8,"max_players":24,"Bots":0,"server_type":"Dedicated","server_os":"Linux","password":true,"vac":true,"version":"7961495","steam_id":85568392924515193,"keywords":["cp","nocrits","nodmgspread","uncletopia"],"game_id":440,"stv_port":27046,"stv_name":"Uncletopia | Chicago | 4 | All Maps | STV","players":[{"user_id":11,"name":"Smile from God","steam_id":76561198032663494,"connected_time":1661000000000,"state":"active","ping":61},{"user_id":12,"name":"Groundlaser49","steam_id":76561198259288290,"connected_time":713000000000,"state":"active","ping":59},{"user_id":13,"name":"Boboblin","steam_id":76561199030131717,"connected_time":498000000000,"state":"active","ping":89},{"user_id":14,"name":"NastyGumbo","steam_id":76561198211943176,"connected_time":390000000000,"state":"active","ping":51},{"user_id":15,"name":"McSmitten","steam_id":76561198022358379,"connected_time":367000000000,"state":"active","ping":66},{"user_id":17,"name":"Kisune","steam_id":76561199368978007,"connected_time":204000000000,"state":"active","ping":58},{"user_id":18,"name":"The Great Eagle Scourge of 1822","steam_id":76561198325086209,"connected_time":191000000000,"state":"active","ping":115},{"user_id":19,"name":"Doctor Sex","steam_id":76561197970283031,"connected_time":154000000000,"state":"active","ping":75}]},{"server_id":36,"name":"Uncletopia | Chicago | 5 | All Maps","name_short":"chi-5","host":"chi-2.us.uncletopia.com","port":27015,"enabled":true,"region":"us-central","cc":"us","latitude":41.881832,"longitude":-87.62318,"reserved":0,"last_update":"0001-01-01T00:00:00Z","name_a2s":"Uncletopia | Chicago | 5 | All Maps","protocol":17,"map":"koth_viaduct","folder":"tf","game":"Team Fortress","app_id":440,"player_count":0,"max_players":24,"Bots":0,"server_type":"Dedicated","server_os":"Linux","password":true,"vac":true,"version":"7961495","steam_id":85568392924866362,"keywords":["cp","nocrits","nodmgspread","uncletopia"],"game_id":440,"stv_port":27016,"stv_name":"Uncletopia | Chicago | 5 | All Maps | STV","players":null},{"server_id":37,"name":"Uncletopia | Chicago | 6 | All Maps","name_short":"chi-6","host":"chi-2.us.uncletopia.com","port":27025,"enabled":true,"region":"us-central","cc":"us","latitude":41.881832,"longitude":-87.62318,"reserved":0,"last_update":"0001-01-01T00:00:00Z","name_a2s":"Uncletopia | Chicago | 6 | All Maps","protocol":17,"map":"cp_process_final","folder":"tf","game":"Team Fortress","app_id":440,"player_count":24,"max_players":24,"Bots":0,"server_type":"Dedicated","server_os":"Linux","password":true,"vac":true,"version":"7961495","steam_id":85568392924866363,"keywords":["cp","nocrits","nodmgspread","uncletopia"],"game_id":440,"stv_port":27026,"stv_name":"Uncletopia | Chicago | 6 | All Maps | STV","players":[{"user_id":128,"name":"sansa musa","steam_id":76561198163723555,"connected_time":1923000000000,"state":"active","ping":60},{"user_id":125,"name":"murderous deer","steam_id":76561198350832152,"connected_time":1976000000000,"state":"active","ping":68},{"user_id":142,"name":"s","steam_id":76561198099463706,"connected_time":629000000000,"state":"active","ping":63},{"user_id":139,"name":"‚ô• alixei! ‚ô•","steam_id":76561198014557455,"connected_time":643000000000,"state":"active","ping":60},{"user_id":105,"name":"Cheesi","steam_id":76561199417190840,"connected_time":4088000000000,"state":"active","ping":62},{"user_id":135,"name":"Merchant","steam_id":76561198130468663,"connected_time":1075000000000,"state":"active","ping":58},{"user_id":159,"name":"Drew P. Sack","steam_id":76561198036201738,"connected_time":153000000000,"state":"active","ping":54},{"user_id":133,"name":"Sir Loincloth","steam_id":76561198033073991,"connected_time":1228000000000,"state":"active","ping":73},{"user_id":161,"name":"Huntpk","steam_id":76561198340591674,"connected_time":8000000000,"state":"spawning","ping":50},{"user_id":130,"name":"LukeLeal","steam_id":76561198049822995,"connected_time":1538000000000,"state":"active","ping":167},{"user_id":154,"name":"Urbanzpinapple","steam_id":76561198115426938,"connected_time":589000000000,"state":"active","ping":151},{"user_id":141,"name":"GuyGoom","steam_id":76561198254522178,"connected_time":642000000000,"state":"active","ping":56},{"user_id":153,"name":"RuinLucky","steam_id":76561199481172481,"connected_time":600000000000,"state":"active","ping":97},{"user_id":136,"name":"Crazy Cane","steam_id":76561198993941174,"connected_time":991000000000,"state":"active","ping":71},{"user_id":151,"name":"crayonnipple","steam_id":76561198070253331,"connected_time":614000000000,"state":"active","ping":61},{"user_id":160,"name":"Gigacheat","steam_id":76561198862843572,"connected_time":41000000000,"state":"active","ping":71},{"user_id":146,"name":"Pistol Freeman","steam_id":76561198026818915,"connected_time":623000000000,"state":"active","ping":60},{"user_id":107,"name":"skoops","steam_id":76561198083276946,"connected_time":4056000000000,"state":"active","ping":67},{"user_id":155,"name":"ElChuchoXf","steam_id":76561199235124146,"connected_time":529000000000,"state":"active","ping":139},{"user_id":117,"name":"FunnyUsernameWow","steam_id":76561198324177635,"connected_time":2985000000000,"state":"active","ping":68},{"user_id":138,"name":"poiuytrewqwqwqwqwqwqwqwqwqwqwqw","steam_id":76561199105253001,"connected_time":737000000000,"state":"active","ping":74},{"user_id":103,"name":"Obama F. Kennedy","steam_id":76561198282499318,"connected_time":4120000000000,"state":"active","ping":74},{"user_id":148,"name":"Billy Mays","steam_id":76561197998876324,"connected_time":621000000000,"state":"active","ping":78},{"user_id":152,"name":"Lumnop","steam_id":76561198038458838,"connected_time":610000000000,"state":"active","ping":51}]},{"server_id":38,"name":"Uncletopia | Chicago | 7 | Stopwatch","name_short":"chi-7","host":"chi-2.us.uncletopia.com","port":27035,"enabled":true,"region":"us-central","cc":"us","latitude":41.881832,"longitude":-87.62318,"reserved":0,"last_update":"0001-01-01T00:00:00Z","name_a2s":"Uncletopia | Chicago | 7 | Stopwatch","protocol":17,"map":"pl_badwater","folder":"tf","game":"Team Fortress","app_id":440,"player_count":0,"max_players":24,"Bots":0,"server_type":"Dedicated","server_os":"Linux","password":true,"vac":true,"version":"7961495","steam_id":85568392924866364,"keywords":["nocrits","nodmgspread","payload","uncletopia"],"game_id":440,"stv_port":27036,"stv_name":"Uncletopia | Chicago | 7 | Stopwatch | STV","players":null},{"server_id":39,"name":"Uncletopia | Chicago | 8 | Community","name_short":"chi-8","host":"chi-2.us.uncletopia.com","port":27045,"enabled":true,"region":"us-central","cc":"us","latitude":41.881832,"longitude":-87.62318,"reserved":0,"last_update":"0001-01-01T00:00:00Z","name_a2s":"Uncletopia | Chicago | 8 | Community","protocol":17,"map":"workshop/pl_badwater_pro_v12.ugc2142942074","folder":"tf","game":"Team Fortress","app_id":440,"player_count":0,"max_players":24,"Bots":0,"server_type":"Dedicated","server_os":"Linux","password":true,"vac":true,"version":"7961495","steam_id":85568392924866365,"keywords":["nocrits","nodmgspread","payload","uncletopia"],"game_id":440,"stv_port":27046,"stv_name":"Uncletopia | Chicago | 8 | Community | STV","players":null},{"server_id":8,"name":"Uncletopia | Dallas | 1 | All Maps","name_short":"dal-1","host":"dal-1.us.uncletopia.com","port":27015,"enabled":true,"region":"us-central","cc":"us","latitude":32.779167,"longitude":-96.80889,"reserved":0,"last_update":"0001-01-01T00:00:00Z","name_a2s":"Uncletopia | Dallas | 1 | All Maps","protocol":17,"map":"pl_snowycoast","folder":"tf","game":"Team Fortress","app_id":440,"player_count":24,"max_players":24,"Bots":0,"server_type":"Dedicated","server_os":"Linux","password":true,"vac":true,"version":"7961495","steam_id":85568392924469986,"keywords":["nocrits","nodmgspread","payload","uncletopia"],"game_id":440,"stv_port":27016,"stv_name":"Uncletopia | Dallas | 1 | All Maps | STV","players":[{"user_id":201,"name":"alejandro","steam_id":76561198095113674,"connected_time":75000000000,"state":"active","ping":80},{"user_id":200,"name":"Crack Addict","steam_id":76561198166681494,"connected_time":149000000000,"state":"active","ping":53},{"user_id":166,"name":"Alkimia","steam_id":76561198385763137,"connected_time":3713000000000,"state":"active","ping":189},{"user_id":202,"name":"jerma but crying and lesbian","steam_id":76561198110661425,"connected_time":68000000000,"state":"active","ping":81},{"user_id":157,"name":"Carbonated Cocaine","steam_id":76561198110678966,"connected_time":4399000000000,"state":"active","ping":50},{"user_id":198,"name":"stupid jim","steam_id":76561199077027954,"connected_time":405000000000,"state":"active","ping":68},{"user_id":138,"name":"Gobl1n","steam_id":76561198808610991,"connected_time":4963000000000,"state":"active","ping":81},{"user_id":195,"name":"StarStrike","steam_id":76561198176532091,"connected_time":710000000000,"state":"active","ping":73},{"user_id":175,"name":"K4$P3–Ø","steam_id":76561198263271697,"connected_time":1931000000000,"state":"active","ping":62},{"user_id":203,"name":"Sham Cow","steam_id":76561198064556977,"connected_time":66000000000,"state":"active","ping":65},{"user_id":182,"name":"tsz","steam_id":76561199246231090,"connected_time":1114000000000,"state":"active","ping":83},{"user_id":188,"name":"TriggerHappyPacifist","steam_id":76561197963455267,"connected_time":989000000000,"state":"active","ping":186},{"user_id":189,"name":"fearlessbot","steam_id":76561199002587064,"connected_time":983000000000,"state":"active","ping":169},{"user_id":173,"name":"B.","steam_id":76561198040445907,"connected_time":2325000000000,"state":"active","ping":75},{"user_id":199,"name":"Anor","steam_id":76561198356139775,"connected_time":167000000000,"state":"active","ping":78},{"user_id":190,"name":"Kojo","steam_id":76561198063529069,"connected_time":982000000000,"state":"active","ping":74},{"user_id":191,"name":"Phos","steam_id":76561198122339506,"connected_time":966000000000,"state":"active","ping":62},{"user_id":192,"name":"aofi the flat tgirl","steam_id":76561199172110503,"connected_time":944000000000,"state":"active","ping":44},{"user_id":176,"name":"howbizarre","steam_id":76561198955248082,"connected_time":1794000000000,"state":"active","ping":70},{"user_id":133,"name":"FrostNova","steam_id":76561198348354629,"connected_time":6149000000000,"state":"active","ping":81},{"user_id":194,"name":"ThePriceIsRice","steam_id":76561198079069543,"connected_time":781000000000,"state":"active","ping":114},{"user_id":197,"name":"tooba","steam_id":76561198202589758,"connected_time":554000000000,"state":"active","ping":76},{"user_id":193,"name":"Deltaco","steam_id":76561198094572694,"connected_time":912000000000,"state":"active","ping":123},{"user_id":135,"name":"atserc","steam_id":76561197997570349,"connected_time":5819000000000,"state":"active","ping":100}]},{"server_id":108,"name":"Uncletopia | Dallas | 2 | All Maps","name_short":"dal-2","host":"dal-1.us.uncletopia.com","port":27025,"enabled":true,"region":"us-central","cc":"us","latitude":32.779167,"longitude":-96.80889,"reserved":0,"last_update":"0001-01-01T00:00:00Z","name_a2s":"Uncletopia | Dallas | 2 | All Maps","protocol":17,"map":"pl_snowycoast","folder":"tf","game":"Team Fortress","app_id":440,"player_count":0,"max_players":24,"Bots":0,"server_type":"Dedicated","server_os":"Linux","password":true,"vac":true,"version":"7961495","steam_id":85568392924469988,"keywords":["nocrits","nodmgspread","payload","uncletopia"],"game_id":440,"stv_port":27026,"stv_name":"Uncletopia | Dallas | 2 | All Maps | STV","players":null},{"server_id":404,"name":"Uncletopia | Dallas | 3 | All Maps","name_short":"dal-3","host":"dal-1.us.uncletopia.com","port":27035,"enabled":true,"region":"us-central","cc":"us","latitude":32.779167,"longitude":-96.80889,"reserved":0,"last_update":"0001-01-01T00:00:00Z","name_a2s":"Uncletopia | Dallas | 3 | All Maps","protocol":17,"map":"cp_mountainlab","folder":"tf","game":"Team Fortress","app_id":440,"player_count":1,"max_players":24,"Bots":0,"server_type":"Dedicated","server_os":"Linux","password":true,"vac":true,"version":"7961495","steam_id":85568392924515219,"keywords":["cp","nocrits","nodmgspread","uncletopia"],"game_id":440,"stv_port":27036,"stv_name":"Uncletopia | Dallas | 3 | All Maps | STV","players":[{"user_id":8,"name":"Diehardboom","steam_id":76561198008934263,"connected_time":70000000000,"state":"active","ping":64}]},{"server_id":405,"name":"Uncletopia | Dallas | 4 | Community","name_short":"dal-4","host":"dal-1.us.uncletopia.com","port":27045,"enabled":true,"region":"us-central","cc":"us","latitude":32.779167,"longitude":-96.80889,"reserved":0,"last_update":"0001-01-01T00:00:00Z","name_a2s":"Uncletopia | Dallas | 4 | Community","protocol":17,"map":"pl_pier","folder":"tf","game":"Team Fortress","app_id":440,"player_count":0,"max_players":24,"Bots":0,"server_type":"Dedicated","server_os":"Linux","password":true,"vac":true,"version":"7961495","steam_id":85568392924515220,"keywords":["nocrits","nodmgspread","payload","uncletopia"],"game_id":440,"stv_port":27046,"stv_name":"Uncletopia | Dallas | 4 | Community | STV","players":null},{"server_id":5,"name":"Uncletopia | Frankfurt | 1 | All Maps","name_short":"frk-1","host":"frk-1.de.uncletopia.com","port":27015,"enabled":true,"region":"eu","cc":"de","latitude":50.110924,"longitude":8.682127,"reserved":0,"last_update":"0001-01-01T00:00:00Z","name_a2s":"Uncletopia | Frankfurt | 1 | All Maps","protocol":17,"map":"koth_lakeside_final","folder":"tf","game":"Team Fortress","app_id":440,"player_count":22,"max_players":24,"Bots":0,"server_type":"Dedicated","server_os":"Linux","password":true,"vac":true,"version":"7961495","steam_id":85568392924469989,"keywords":["cp","nocrits","nodmgspread","uncletopia"],"game_id":440,"stv_port":27016,"stv_name":"Uncletopia | Frankfurt | 1 | All Maps | STV","players":[{"user_id":182,"name":"Olufsen","steam_id":76561198009324148,"connected_time":239000000000,"state":"active","ping":107},{"user_id":131,"name":"Wodaz","steam_id":76561198043263557,"connected_time":2966000000000,"state":"active","ping":60},{"user_id":183,"name":"Zu","steam_id":76561198054192354,"connected_time":222000000000,"state":"active","ping":51},{"user_id":114,"name":"krazy kukri sniper","steam_id":76561199036865103,"connected_time":4773000000000,"state":"active","ping":92},{"user_id":178,"name":"jello_hey","steam_id":76561199176327650,"connected_time":661000000000,"state":"active","ping":140},{"user_id":174,"name":"Mj√∂lkolisten","steam_id":76561198157896687,"connected_time":981000000000,"state":"active","ping":73},{"user_id":168,"name":"pajer0","steam_id":76561198002913482,"connected_time":1199000000000,"state":"active","ping":93},{"user_id":179,"name":"ReAnimated","steam_id":76561198070923649,"connected_time":634000000000,"state":"active","ping":47},{"user_id":184,"name":"Jonny J","steam_id":76561198027710849,"connected_time":200000000000,"state":"active","ping":86},{"user_id":147,"name":"CommanderLex","steam_id":76561198123115529,"connected_time":2017000000000,"state":"active","ping":47},{"user_id":153,"name":"denismaidanov","steam_id":76561198338601367,"connected_time":1787000000000,"state":"active","ping":99},{"user_id":189,"name":"bonk","steam_id":76561199158470103,"connected_time":116000000000,"state":"active","ping":149},{"user_id":186,"name":"Xriasp","steam_id":76561198104721321,"connected_time":155000000000,"state":"active","ping":90},{"user_id":28,"name":"‚ôÇ Animan ‚ôÇ Studios ‚ôÇ","steam_id":76561198308302932,"connected_time":9644000000000,"state":"active","ping":87},{"user_id":180,"name":"mp1mp2mp3","steam_id":76561198088967665,"connected_time":357000000000,"state":"active","ping":90},{"user_id":167,"name":"bl√•haj peek","steam_id":76561198796577795,"connected_time":1251000000000,"state":"active","ping":61},{"user_id":162,"name":"Barry Bee Benson","steam_id":76561198115199225,"connected_time":1399000000000,"state":"active","ping":59},{"user_id":176,"name":"Cocsam","steam_id":76561198050827179,"connected_time":827000000000,"state":"active","ping":61},{"user_id":187,"name":"–¥–∂–µ–≥–µ–º–∏ —Ö—ç–ø–∫–∏–Ω–≥—Å","steam_id":76561198131531394,"connected_time":151000000000,"state":"active","ping":90},{"user_id":151,"name":"MR BUBBLES","steam_id":76561198019005259,"connected_time":1836000000000,"state":"active","ping":98},{"user_id":188,"name":"misha YB`g","steam_id":76561198066656865,"connected_time":136000000000,"state":"active","ping":47},{"user_id":154,"name":"Veir≈´ Viseris","steam_id":76561197989857176,"connected_time":1780000000000,"state":"active","ping":66}]},{"server_id":110,"name":"Uncletopia | Frankfurt | 2 | All Maps","name_short":"frk-2","host":"frk-1.de.uncletopia.com","port":27025,"enabled":true,"region":"eu","cc":"de","latitude":50.110924,"longitude":8.682127,"reserved":0,"last_update":"0001-01-01T00:00:00Z","name_a2s":"Uncletopia | Frankfurt | 2 | All Maps","protocol":17,"map":"cp_process_final","folder":"tf","game":"Team Fortress","app_id":440,"player_count":14,"max_players":24,"Bots":0,"server_type":"Dedicated","server_os":"Linux","password":true,"vac":true,"version":"7961495","steam_id":85568392924469990,"keywords":["cp","nocrits","nodmgspread","uncletopia"],"game_id":440,"stv_port":27026,"stv_name":"Uncletopia | Frankfurt | 2 | All Maps | STV","players":[{"user_id":386,"name":"Shapeshifter","steam_id":76561198052898368,"connected_time":4672000000000,"state":"active","ping":78},{"user_id":394,"name":"wyro","steam_id":76561199176835169,"connected_time":4239000000000,"state":"active","ping":61},{"user_id":427,"name":"Orpheus","steam_id":76561198353913125,"connected_time":12000000000,"state":"active","ping":66},{"user_id":421,"name":"galaxy","steam_id":76561198164819022,"connected_time":1170000000000,"state":"active","ping":63},{"user_id":424,"name":"submackeen","steam_id":76561198799855913,"connected_time":791000000000,"state":"active","ping":167},{"user_id":321,"name":"The Manager of Sex (Real)","steam_id":76561198385989487,"connected_time":8842000000000,"state":"active","ping":101},{"user_id":363,"name":"FAZE supercharger832","steam_id":76561198871408515,"connected_time":5801000000000,"state":"active","ping":57},{"user_id":391,"name":"FROYO cosmetical_hl_god","steam_id":76561198444036574,"connected_time":4387000000000,"state":"active","ping":61},{"user_id":426,"name":"‚òûLaZe‚òú","steam_id":76561198202191400,"connected_time":35000000000,"state":"active","ping":63},{"user_id":396,"name":"wG mark","steam_id":76561198309246388,"connected_time":3757000000000,"state":"active","ping":45},{"user_id":414,"name":"nevim","steam_id":76561199120843402,"connected_time":1787000000000,"state":"active","ping":46},{"user_id":409,"name":"Jimmy V.14","steam_id":76561198083096914,"connected_time":2395000000000,"state":"active","ping":134},{"user_id":408,"name":"Soulman25 (FIN)","steam_id":76561198103611974,"connected_time":2442000000000,"state":"active","ping":97},{"user_id":425,"name":"ambarasodor","steam_id":76561198799029492,"connected_time":48000000000,"state":"active","ping":55}]},{"server_id":308,"name":"Uncletopia | Frankfurt | 3 | All Maps","name_short":"frk-3","host":"frk-1.de.uncletopia.com","port":27035,"enabled":true,"region":"eu","cc":"de","latitude":50.110924,"longitude":8.682127,"reserved":0,"last_update":"0001-01-01T00:00:00Z","name_a2s":"Uncletopia | Frankfurt | 3 | All Maps","protocol":17,"map":"pl_borneo","folder":"tf","game":"Team Fortress","app_id":440,"player_count":8,"max_players":24,"Bots":0,"server_type":"Dedicated","server_os":"Linux","password":true,"vac":true,"version":"7961495","steam_id":85568392924504274,"keywords":["nocrits","nodmgspread","payload","uncletopia"],"game_id":440,"stv_port":27036,"stv_name":"Uncletopia | Frankfurt | 3 | All Maps | STV","players":[{"user_id":235,"name":"Tonyx","steam_id":76561198414263237,"connected_time":734000000000,"state":"active","ping":68},{"user_id":238,"name":"Volt","steam_id":76561198237074532,"connected_time":552000000000,"state":"active","ping":103},{"user_id":208,"name":"dispenser","steam_id":76561199008411791,"connected_time":2564000000000,"state":"active","ping":59},{"user_id":240,"name":"Danwise Dangee","steam_id":76561197980723749,"connected_time":399000000000,"state":"active","ping":71},{"user_id":242,"name":"Mopey_HippoTTV","steam_id":76561198040354226,"connected_time":322000000000,"state":"active","ping":69},{"user_id":219,"name":"GlueTasty {she/her}","steam_id":76561199086480891,"connected_time":1923000000000,"state":"active","ping":68},{"user_id":230,"name":"PashaVerti","steam_id":76561199013963024,"connected_time":1554000000000,"state":"active","ping":78},{"user_id":192,"name":"you like buff tf2 men don't you","steam_id":76561198837586838,"connected_time":3395000000000,"state":"active","ping":67}]},{"server_id":309,"name":"Uncletopia | Frankfurt | 4 | All Maps","name_short":"frk-4","host":"frk-1.de.uncletopia.com","port":27045,"enabled":true,"region":"eu","cc":"de","latitude":50.110924,"longitude":8.682127,"reserved":0,"last_update":"0001-01-01T00:00:00Z","name_a2s":"Uncletopia | Frankfurt | 4 | All Maps","protocol":17,"map":"koth_suijin","folder":"tf","game":"Team Fortress","app_id":440,"player_count":19,"max_players":24,"Bots":0,"server_type":"Dedicated","server_os":"Linux","password":true,"vac":true,"version":"7961495","steam_id":85568392924504275,"keywords":["cp","nocrits","nodmgspread","uncletopia"],"game_id":440,"stv_port":27046,"stv_name":"Uncletopia | Frankfurt | 4 | All Maps | STV","players":[{"user_id":360,"name":"the catboy","steam_id":76561198236015506,"connected_time":1231000000000,"state":"active","ping":98},{"user_id":374,"name":"Pershing[GER]","steam_id":76561197970330818,"connected_time":258000000000,"state":"active","ping":59},{"user_id":345,"name":"Space","steam_id":76561198021572167,"connected_time":2971000000000,"state":"active","ping":60},{"user_id":372,"name":"marvi444","steam_id":76561198431534139,"connected_time":498000000000,"state":"active","ping":65},{"user_id":355,"name":"Alice","steam_id":76561198052410860,"connected_time":1757000000000,"state":"active","ping":142},{"user_id":364,"name":"shix","steam_id":76561198819968777,"connected_time":962000000000,"state":"active","ping":83},{"user_id":353,"name":"Aye Aye","steam_id":76561199012566222,"connected_time":2132000000000,"state":"active","ping":56},{"user_id":295,"name":"Pitipit","steam_id":76561198343333412,"connected_time":6187000000000,"state":"active","ping":93},{"user_id":311,"name":"Mantella","steam_id":76561198982047757,"connected_time":4862000000000,"state":"active","ping":400},{"user_id":296,"name":"dan1el","steam_id":76561198358104049,"connected_time":6184000000000,"state":"active","ping":113},{"user_id":366,"name":"Cheese","steam_id":76561198146419076,"connected_time":726000000000,"state":"active","ping":62},{"user_id":346,"name":"Birdseye","steam_id":76561198025852216,"connected_time":2832000000000,"state":"active","ping":66},{"user_id":342,"name":"failed poet","steam_id":76561198987041283,"connected_time":3061000000000,"state":"active","ping":1119},{"user_id":367,"name":"waddle dork","steam_id":76561198297349985,"connected_time":722000000000,"state":"active","ping":58},{"user_id":359,"name":"im tired","steam_id":76561198812159557,"connected_time":1328000000000,"state":"active","ping":67},{"user_id":337,"name":"Gimli","steam_id":76561198004149706,"connected_time":3374000000000,"state":"active","ping":63},{"user_id":349,"name":"Eyosh","steam_id":76561197998352095,"connected_time":2223000000000,"state":"active","ping":47},{"user_id":373,"name":"Portal2Player","steam_id":76561198062870114,"connected_time":462000000000,"state":"active","ping":240},{"user_id":336,"name":"Kitfist","steam_id":76561198048559338,"connected_time":3405000000000,"state":"active","ping":55}]},{"server_id":310,"name":"Uncletopia | Frankfurt | 5 | All Maps","name_short":"frk-5","host":"frk-1.de.uncletopia.com","port":27055,"enabled":true,"region":"eu","cc":"de","latitude":50.110924,"longitude":8.682127,"reserved":0,"last_update":"0001-01-01T00:00:00Z","name_a2s":"Uncletopia | Frankfurt | 5 | All Maps","protocol":17,"map":"ctf_2fort","folder":"tf","game":"Team Fortress","app_id":440,"player_count":23,"max_players":24,"Bots":0,"server_type":"Dedicated","server_os":"Linux","password":true,"vac":true,"version":"7961495","steam_id":85568392924504277,"keywords":["ctf","nocrits","nodmgspread","uncletopia"],"game_id":440,"stv_port":27056,"stv_name":"Uncletopia | Frankfurt | 5 | All Maps | STV","players":[{"user_id":272,"name":"Nick","steam_id":76561198036109469,"connected_time":3809000000000,"state":"active","ping":90},{"user_id":347,"name":"pl_badwater","steam_id":76561199407941086,"connected_time":215000000000,"state":"active","ping":59},{"user_id":344,"name":"Salih","steam_id":76561198287934839,"connected_time":390000000000,"state":"active","ping":48},{"user_id":334,"name":"Certified Hood pybro (ua)","steam_id":76561198970562699,"connected_time":757000000000,"state":"active","ping":54},{"user_id":282,"name":"Syd","steam_id":76561198020515027,"connected_time":2756000000000,"state":"active","ping":104},{"user_id":348,"name":"aaron","steam_id":76561198388750592,"connected_time":119000000000,"state":"active","ping":208},{"user_id":341,"name":"Hejko","steam_id":76561198963293449,"connected_time":488000000000,"state":"active","ping":65},{"user_id":349,"name":"Wojtman Laughman","steam_id":76561198215426891,"connected_time":44000000000,"state":"spawning","ping":59},{"user_id":339,"name":"Staudi","steam_id":76561198051338007,"connected_time":564000000000,"state":"active","ping":73},{"user_id":289,"name":"midlpsyzl47","steam_id":76561199475972637,"connected_time":2528000000000,"state":"active","ping":65},{"user_id":321,"name":"gooschha","steam_id":76561198064837246,"connected_time":1091000000000,"state":"active","ping":55},{"user_id":350,"name":"Amon Gus","steam_id":76561199094540960,"connected_time":23000000000,"state":"active","ping":87},{"user_id":322,"name":"someone","steam_id":76561199471582243,"connected_time":1077000000000,"state":"active","ping":88},{"user_id":248,"name":"Rocket¬≤","steam_id":76561198305856721,"connected_time":4882000000000,"state":"active","ping":79},{"user_id":340,"name":"Astrocards","steam_id":76561199184079830,"connected_time":563000000000,"state":"active","ping":162},{"user_id":331,"name":"alss2008","steam_id":76561198003927328,"connected_time":877000000000,"state":"active","ping":75},{"user_id":345,"name":"Lewylow","steam_id":76561198005425686,"connected_time":329000000000,"state":"active","ping":69},{"user_id":249,"name":"Taconice","steam_id":76561198057812100,"connected_time":4873000000000,"state":"active","ping":83},{"user_id":342,"name":"BogdanBury","steam_id":76561199151820854,"connected_time":482000000000,"state":"active","ping":83},{"user_id":295,"name":"Lgnd","steam_id":76561199178109069,"connected_time":2207000000000,"state":"active","ping":105},{"user_id":352,"name":"minecraft steve","steam_id":76561198368688348,"connected_time":7000000000,"state":"spawning","ping":55},{"user_id":268,"name":"BAMBAH","steam_id":76561198089591177,"connected_time":3983000000000,"state":"active","ping":69},{"user_id":335,"name":"Hinterhofschubser","steam_id":76561198366679963,"connected_time":717000000000,"state":"active","ping":59}]},{"server_id":311,"name":"Uncletopia | Frankfurt | 6 | All Maps","name_short":"frk-6","host":"frk-1.de.uncletopia.com","port":27065,"enabled":true,"region":"eu","cc":"de","latitude":50.110924,"longitude":8.682127,"reserved":0,"last_update":"0001-01-01T00:00:00Z","name_a2s":"Uncletopia | Frankfurt | 6 | All Maps","protocol":17,"map":"cp_process_final","folder":"tf","game":"Team Fortress","app_id":440,"player_count":23,"max_players":24,"Bots":0,"server_type":"Dedicated","server_os":"Linux","password":true,"vac":true,"version":"7961495","steam_id":85568392924504278,"keywords":["cp","nocrits","nodmgspread","uncletopia"],"game_id":440,"stv_port":27066,"stv_name":"Uncletopia | Frankfurt | 6 | All Maps | STV","players":[{"user_id":332,"name":"Superiumentarius","steam_id":76561198081642249,"connected_time":164000000000,"state":"active","ping":45},{"user_id":295,"name":"endlesshills","steam_id":76561198081908373,"connected_time":3029000000000,"state":"active","ping":58},{"user_id":330,"name":"glow","steam_id":76561198086654069,"connected_time":199000000000,"state":"active","ping":76},{"user_id":331,"name":"XPullaHiiri","steam_id":76561198031652375,"connected_time":196000000000,"state":"active","ping":80},{"user_id":325,"name":"fisch","steam_id":76561198382833003,"connected_time":548000000000,"state":"active","ping":60},{"user_id":336,"name":"dove twitch.tv/seduma","steam_id":76561198026037217,"connected_time":5000000000,"state":"spawning","ping":76},{"user_id":296,"name":"WiLD","steam_id":76561198345622161,"connected_time":3022000000000,"state":"active","ping":86},{"user_id":321,"name":"BreadAcres (certified goober)","steam_id":76561198098217082,"connected_time":1186000000000,"state":"active","ping":59},{"user_id":277,"name":"Cosmetic brain","steam_id":76561198055936410,"connected_time":4576000000000,"state":"active","ping":84},{"user_id":292,"name":"avanaR","steam_id":76561198132062124,"connected_time":3339000000000,"state":"active","ping":61},{"user_id":328,"name":"Nittugai","steam_id":76561198067366462,"connected_time":386000000000,"state":"active","ping":63},{"user_id":317,"name":"Lupina_HD","steam_id":76561199489163679,"connected_time":1450000000000,"state":"active","ping":64},{"user_id":327,"name":"bAdmon","steam_id":76561197961785793,"connected_time":460000000000,"state":"active","ping":59},{"user_id":306,"name":"ALARM","steam_id":76561198120686521,"connected_time":2445000000000,"state":"active","ping":49},{"user_id":253,"name":"Mr Xbow","steam_id":76561198862864460,"connected_time":5948000000000,"state":"active","ping":67},{"user_id":324,"name":"Koli","steam_id":76561197992428783,"connected_time":739000000000,"state":"active","ping":57},{"user_id":319,"name":"f√©nix","steam_id":76561198083199151,"connected_time":1378000000000,"state":"active","ping":63},{"user_id":320,"name":"TheHacker-","steam_id":76561198091867843,"connected_time":1326000000000,"state":"active","ping":142},{"user_id":298,"name":"Miss American PIe","steam_id":76561198867108476,"connected_time":3020000000000,"state":"active","ping":70},{"user_id":309,"name":"1couver","steam_id":76561198168553215,"connected_time":2046000000000,"state":"active","ping":105},{"user_id":335,"name":"Fat Pigeon","steam_id":76561198817940142,"connected_time":52000000000,"state":"active","ping":60},{"user_id":322,"name":"Caught Lackin'","steam_id":76561198122181176,"connected_time":1184000000000,"state":"active","ping":45},{"user_id":329,"name":"pef","steam_id":76561198398629859,"connected_time":265000000000,"state":"active","ping":107}]},{"server_id":23,"name":"Uncletopia | Frankfurt | 7 | Stopwatch","name_short":"frk-7","host":"frk-1.de.uncletopia.com","port":27075,"enabled":true,"region":"eu","cc":"de","latitude":50.110924,"longitude":8.682127,"reserved":0,"last_update":"0001-01-01T00:00:00Z","name_a2s":"Uncletopia | Frankfurt | 7 | Stopwatch","protocol":17,"map":"koth_highpass","folder":"tf","game":"Team Fortress","app_id":440,"player_count":0,"max_players":24,"Bots":0,"server_type":"Dedicated","server_os":"Linux","password":true,"vac":true,"version":"7961495","steam_id":85568392924742827,"keywords":["cp","nocrits","nodmgspread","uncletopia"],"game_id":440,"stv_port":27076,"stv_name":"Uncletopia | Frankfurt | 7 | Stopwatch | STV","players":null},{"server_id":24,"name":"Uncletopia | Frankfurt | 8 | Community","name_short":"frk-8","host":"frk-1.de.uncletopia.com","port":27085,"enabled":true,"region":"eu","cc":"de","latitude":50.110924,"longitude":8.682127,"reserved":0,"last_update":"0001-01-01T00:00:00Z","name_a2s":"Uncletopia | Frankfurt | 8 | Community","protocol":17,"map":"workshop/cp_reckoner_rc6.ugc674719999","folder":"tf","game":"Team Fortress","app_id":440,"player_count":0,"max_players":24,"Bots":0,"server_type":"Dedicated","server_os":"Linux","password":true,"vac":true,"version":"7961495","steam_id":85568392924742828,"keywords":["cp","nocrits","nodmgspread","uncletopia"],"game_id":440,"stv_port":27086,"stv_name":"Uncletopia | Frankfurt | 8 | Community | STV","players":null},{"server_id":202,"name":"Uncletopia | Hong Kong | 1 | All Maps","name_short":"hgk-1","host":"hgk-1.hk.uncletopia.com","port":27015,"enabled":true,"region":"asia","cc":"hk","latitude":22.302711,"longitude":114.177216,"reserved":0,"last_update":"0001-01-01T00:00:00Z","name_a2s":"Uncletopia | Hong Kong | 1 | All Maps","protocol":17,"map":"cp_altitude","folder":"tf","game":"Team Fortress","app_id":440,"player_count":23,"max_players":24,"Bots":0,"server_type":"Dedicated","server_os":"Linux","password":true,"vac":true,"version":"7961495","steam_id":85568392924494504,"keywords":["cp","nocrits","nodmgspread","uncletopia"],"game_id":440,"stv_port":27016,"stv_name":"Uncletopia | Hong Kong | 1 | All Maps | STV","players":[{"user_id":688,"name":"Sayo-Nara","steam_id":76561198005744733,"connected_time":3022000000000,"state":"active","ping":92},{"user_id":703,"name":"NootNoot","steam_id":76561199122109977,"connected_time":1986000000000,"state":"active","ping":109},{"user_id":684,"name":"Hatred eyes","steam_id":76561199162652759,"connected_time":3524000000000,"state":"active","ping":67},{"user_id":672,"name":"meowdy","steam_id":76561198337154745,"connected_time":4242000000000,"state":"active","ping":87},{"user_id":716,"name":"Hay","steam_id":76561199438952901,"connected_time":153000000000,"state":"active","ping":49},{"user_id":708,"name":"ÊòØCocoaÂóé","steam_id":76561198972098557,"connected_time":622000000000,"state":"active","ping":57},{"user_id":705,"name":"TomProPlayer","steam_id":76561199223292521,"connected_time":1439000000000,"state":"active","ping":70},{"user_id":711,"name":"braindead","steam_id":76561198312344936,"connected_time":357000000000,"state":"active","ping":116},{"user_id":710,"name":"NOPE","steam_id":76561199244543572,"connected_time":504000000000,"state":"active","ping":65},{"user_id":619,"name":"Momoxhien","steam_id":76561198414997429,"connected_time":6215000000000,"state":"active","ping":68},{"user_id":714,"name":"blobeye","steam_id":76561198420018387,"connected_time":276000000000,"state":"active","ping":44},{"user_id":616,"name":"ÊØç„ÅÆËÇâÂõ£Â≠ê@hao123.com","steam_id":76561198069561896,"connected_time":6331000000000,"state":"active","ping":45},{"user_id":706,"name":"13MAN","steam_id":76561198900023603,"connected_time":1354000000000,"state":"active","ping":99},{"user_id":685,"name":"Streety","steam_id":76561199098969003,"connected_time":3499000000000,"state":"active","ping":72},{"user_id":717,"name":"moonchiid","steam_id":76561199125350361,"connected_time":18000000000,"state":"active","ping":170},{"user_id":704,"name":"P","steam_id":76561198304514505,"connected_time":1708000000000,"state":"active","ping":81},{"user_id":697,"name":"SunShine","steam_id":76561198323642446,"connected_time":2372000000000,"state":"active","ping":105},{"user_id":715,"name":"SICSIN","steam_id":76561198083923462,"connected_time":254000000000,"state":"active","ping":80},{"user_id":692,"name":"Temsik","steam_id":76561198070234656,"connected_time":2856000000000,"state":"active","ping":134},{"user_id":686,"name":"Cloud","steam_id":76561198272454184,"connected_time":3261000000000,"state":"active","ping":99},{"user_id":669,"name":"‚¨û","steam_id":76561199373637717,"connected_time":4329000000000,"state":"active","ping":70},{"user_id":678,"name":"creamüç¶","steam_id":76561198394576258,"connected_time":3905000000000,"state":"active","ping":75},{"user_id":673,"name":"‰ªôÂ•≥Â§¥Â≠ê‰∫éË∞¶","steam_id":76561199031075505,"connected_time":4132000000000,"state":"active","ping":83}]},{"server_id":1,"name":"Uncletopia | Los Angeles | 1 | All Maps","name_short":"lax-1","host":"lax-1.us.uncletopia.com","port":27015,"enabled":true,"region":"us-west","cc":"us","latitude":33.94279,"longitude":-118.41004,"reserved":0,"last_update":"0001-01-01T00:00:00Z","name_a2s":"Uncletopia | Los Angeles | 1 | All Maps","protocol":17,"map":"pl_snowycoast","folder":"tf","game":"Team Fortress","app_id":440,"player_count":0,"max_players":24,"Bots":0,"server_type":"Dedicated","server_os":"Linux","password":true,"vac":true,"version":"7961495","steam_id":85568392924469991,"keywords":["nocrits","nodmgspread","payload","uncletopia"],"game_id":440,"stv_port":27016,"stv_name":"Uncletopia | Los Angeles | 1 | All Maps | STV","players":null},{"server_id":112,"name":"Uncletopia | Los Angeles | 2 | All Maps","name_short":"lax-2","host":"lax-1.us.uncletopia.com","port":27025,"enabled":true,"region":"us-west","cc":"us","latitude":33.94279,"longitude":-118.41004,"reserved":0,"last_update":"0001-01-01T00:00:00Z","name_a2s":"Uncletopia | Los Angeles | 2 | All Maps","protocol":17,"map":"pl_badwater","folder":"tf","game":"Team Fortress","app_id":440,"player_count":23,"max_players":24,"Bots":0,"server_type":"Dedicated","server_os":"Linux","password":true,"vac":true,"version":"7961495","steam_id":85568392924469992,"keywords":["nocrits","nodmgspread","payload","uncletopia"],"game_id":440,"stv_port":27026,"stv_name":"Uncletopia | Los Angeles | 2 | All Maps | STV","players":[{"user_id":126,"name":"Lucas","steam_id":76561198399704604,"connected_time":1244000000000,"state":"active","ping":76},{"user_id":146,"name":"doc","steam_id":76561198836389376,"connected_time":5000000000,"state":"spawning","ping":181},{"user_id":139,"name":"kid named weezer","steam_id":76561198813566335,"connected_time":327000000000,"state":"active","ping":107},{"user_id":136,"name":"FaZe hyazZzZ","steam_id":76561199100342013,"connected_time":738000000000,"state":"active","ping":45},{"user_id":108,"name":"Chirp","steam_id":76561198240780230,"connected_time":2118000000000,"state":"active","ping":47},{"user_id":9,"name":"sloppy toppy (free)","steam_id":76561198086760958,"connected_time":9589000000000,"state":"active","ping":165},{"user_id":137,"name":"Ê≠ªRainÊ≠ª","steam_id":76561199383460369,"connected_time":511000000000,"state":"active","ping":90},{"user_id":128,"name":"Captian Wobbs","steam_id":76561198142884936,"connected_time":1236000000000,"state":"active","ping":83},{"user_id":130,"name":"K","steam_id":76561198844500671,"connected_time":1163000000000,"state":"active","ping":120},{"user_id":133,"name":"Phantom","steam_id":76561199200400404,"connected_time":997000000000,"state":"active","ping":59},{"user_id":144,"name":"Joseph Stalin","steam_id":76561198382398935,"connected_time":20000000000,"state":"spawning","ping":107},{"user_id":140,"name":"Hezxp","steam_id":76561198312931111,"connected_time":294000000000,"state":"active","ping":71},{"user_id":145,"name":"Bostonstapler","steam_id":76561197996334971,"connected_time":9000000000,"state":"active","ping":77},{"user_id":100,"name":"Esteban Delsin","steam_id":76561198433519639,"connected_time":2626000000000,"state":"active","ping":98},{"user_id":113,"name":"jayeskae","steam_id":76561198144220801,"connected_time":1964000000000,"state":"active","ping":68},{"user_id":131,"name":"Always Here for You","steam_id":76561198219252313,"connected_time":1120000000000,"state":"active","ping":103},{"user_id":132,"name":"soundcloud.com/cremexav","steam_id":76561198134544837,"connected_time":1119000000000,"state":"active","ping":47},{"user_id":141,"name":"Tomfoolery","steam_id":76561198381365665,"connected_time":273000000000,"state":"active","ping":106},{"user_id":135,"name":"da chronic","steam_id":76561198806800054,"connected_time":854000000000,"state":"active","ping":66},{"user_id":121,"name":"Zee‚úû","steam_id":76561198274550638,"connected_time":1614000000000,"state":"active","ping":90},{"user_id":122,"name":"coyold","steam_id":76561198837549867,"connected_time":1586000000000,"state":"active","ping":138},{"user_id":35,"name":"DarMichael","steam_id":76561199135915898,"connected_time":7336000000000,"state":"active","ping":94},{"user_id":143,"name":"bl√•haj enjoyer","steam_id":76561198132803810,"connected_time":181000000000,"state":"active","ping":79}]},{"server_id":324,"name":"Uncletopia | Los Angeles | 3 | All Maps","name_short":"lax-3","host":"lax-1.us.uncletopia.com","port":27035,"enabled":true,"region":"us-west","cc":"us","latitude":33.94279,"longitude":-118.41004,"reserved":0,"last_update":"0001-01-01T00:00:00Z","name_a2s":"Uncletopia | Los Angeles | 3 | All Maps","protocol":17,"map":"pl_frontier_final","folder":"tf","game":"Team Fortress","app_id":440,"player_count":3,"max_players":24,"Bots":0,"server_type":"Dedicated","server_os":"Linux","password":true,"vac":true,"version":"7961495","steam_id":85568392924510198,"keywords":["nocrits","nodmgspread","payload","uncletopia"],"game_id":440,"stv_port":27036,"stv_name":"Uncletopia | Los Angeles | 3 | All Maps | STV","players":[{"user_id":4,"name":"Fishmonger","steam_id":76561198372237027,"connected_time":851000000000,"state":"active","ping":60},{"user_id":7,"name":"Abbreviated","steam_id":76561198088423054,"connected_time":396000000000,"state":"active","ping":97},{"user_id":6,"name":"StudioMania (#SAVETF2)","steam_id":76561198211315795,"connected_time":586000000000,"state":"active","ping":109}]},{"server_id":25,"name":"Uncletopia | Los Angeles | 4 | Stopwatch","name_short":"lax-4","host":"lax-1.us.uncletopia.com","port":27045,"enabled":true,"region":"us-west","cc":"us","latitude":33.94279,"longitude":-118.41004,"reserved":0,"last_update":"0001-01-01T00:00:00Z","name_a2s":"Uncletopia | Los Angeles | 4 | Stopwatch","protocol":17,"map":"pl_barnblitz","folder":"tf","game":"Team Fortress","app_id":440,"player_count":0,"max_players":24,"Bots":0,"server_type":"Dedicated","server_os":"Linux","password":true,"vac":true,"version":"7961495","steam_id":85568392924510199,"keywords":["nocrits","nodmgspread","payload","uncletopia"],"game_id":440,"stv_port":27046,"stv_name":"Uncletopia | Los Angeles | 4 | Stopwatch | STV","players":null},{"server_id":11,"name":"Uncletopia | London | 1 | All Maps","name_short":"lon-1","host":"lon-1.uk.uncletopia.com","port":27015,"enabled":true,"region":"eu","cc":"gb","latitude":51.509865,"longitude":-0.118092,"reserved":0,"last_update":"0001-01-01T00:00:00Z","name_a2s":"Uncletopia | London | 1 | All Maps","protocol":17,"map":"pl_badwater","folder":"tf","game":"Team Fortress","app_id":440,"player_count":23,"max_players":24,"Bots":0,"server_type":"Dedicated","server_os":"Linux","password":true,"vac":true,"version":"7961495","steam_id":85568392924367362,"keywords":["nocrits","nodmgspread","payload","uncletopia"],"game_id":440,"stv_port":27016,"stv_name":"Uncletopia | London | 1 | All Maps | STV","players":[{"user_id":258,"name":"Slifer the Acorn","steam_id":76561198062255803,"connected_time":1416000000000,"state":"active","ping":70},{"user_id":274,"name":"Lilypadio","steam_id":76561198090146457,"connected_time":34000000000,"state":"active","ping":39},{"user_id":198,"name":"Sunshine","steam_id":76561198885528098,"connected_time":4914000000000,"state":"active","ping":112},{"user_id":217,"name":"krayy (bl√•haj enjoyer)","steam_id":76561198035037830,"connected_time":3975000000000,"state":"active","ping":58},{"user_id":270,"name":"wolfgang","steam_id":76561199111818670,"connected_time":115000000000,"state":"active","ping":114},{"user_id":247,"name":"john fortress","steam_id":76561198013237629,"connected_time":2111000000000,"state":"active","ping":86},{"user_id":269,"name":"TheVikingTheRed","steam_id":76561199221731253,"connected_time":339000000000,"state":"active","ping":54},{"user_id":267,"name":"VEH-DEH-VEH","steam_id":76561198010978989,"connected_time":733000000000,"state":"active","ping":69},{"user_id":178,"name":"God's Silliest Little Jester","steam_id":76561197987168654,"connected_time":6362000000000,"state":"active","ping":56},{"user_id":268,"name":"Wattseyy","steam_id":76561198248567360,"connected_time":541000000000,"state":"active","ping":43},{"user_id":271,"name":"Neo Kojiro","steam_id":76561198000967076,"connected_time":109000000000,"state":"active","ping":162},{"user_id":265,"name":"jimmy bob","steam_id":76561198319583692,"connected_time":778000000000,"state":"active","ping":61},{"user_id":261,"name":"mq","steam_id":76561198091888948,"connected_time":1404000000000,"state":"active","ping":51},{"user_id":223,"name":"Brandonazz","steam_id":76561197994366351,"connected_time":3583000000000,"state":"active","ping":125},{"user_id":273,"name":"dongujs","steam_id":76561198042774930,"connected_time":79000000000,"state":"active","ping":55},{"user_id":230,"name":"AWildTamim","steam_id":76561198048060652,"connected_time":3354000000000,"state":"active","ping":44},{"user_id":266,"name":"mike finger","steam_id":76561198975521602,"connected_time":761000000000,"state":"active","ping":97},{"user_id":195,"name":"Ch4bby","steam_id":76561198058792875,"connected_time":5244000000000,"state":"active","ping":58},{"user_id":262,"name":"rummy","steam_id":76561197997573379,"connected_time":1400000000000,"state":"active","ping":45},{"user_id":263,"name":"MisterGQ","steam_id":76561198018415918,"connected_time":1399000000000,"state":"active","ping":57},{"user_id":251,"name":"CuJIA_TPAHCJIuTA","steam_id":76561198149654361,"connected_time":1986000000000,"state":"active","ping":73},{"user_id":252,"name":"Quiet Kid","steam_id":76561199134800446,"connected_time":1967000000000,"state":"active","ping":106},{"user_id":244,"name":"Citamin V","steam_id":76561198036032168,"connected_time":2246000000000,"state":"active","ping":119}]},{"server_id":114,"name":"Uncletopia | London | 2 | All Maps","name_short":"lon-2","host":"lon-1.uk.uncletopia.com","port":27025,"enabled":true,"region":"eu","cc":"gb","latitude":51.509865,"longitude":-0.118092,"reserved":0,"last_update":"0001-01-01T00:00:00Z","name_a2s":"Uncletopia | London | 2 | All Maps","protocol":17,"map":"pl_barnblitz","folder":"tf","game":"Team Fortress","app_id":440,"player_count":23,"max_players":24,"Bots":0,"server_type":"Dedicated","server_os":"Linux","password":true,"vac":true,"version":"7961495","steam_id":85568392924470941,"keywords":["nocrits","nodmgspread","payload","uncletopia"],"game_id":440,"stv_port":27026,"stv_name":"Uncletopia | London | 2 | All Maps | STV","players":[{"user_id":154,"name":"Deuderp","steam_id":76561199055175414,"connected_time":2207000000000,"state":"active","ping":151},{"user_id":161,"name":"DaLuigi","steam_id":76561198054486188,"connected_time":1892000000000,"state":"active","ping":48},{"user_id":153,"name":"throne","steam_id":76561198059723960,"connected_time":2312000000000,"state":"active","ping":52},{"user_id":170,"name":"Spectral","steam_id":76561198864923887,"connected_time":995000000000,"state":"active","ping":124},{"user_id":159,"name":"spy among us","steam_id":76561198392537090,"connected_time":2008000000000,"state":"active","ping":69},{"user_id":136,"name":"Snowy Squill","steam_id":76561198073504207,"connected_time":3212000000000,"state":"active","ping":45},{"user_id":156,"name":"After8","steam_id":76561198090750865,"connected_time":2108000000000,"state":"active","ping":74},{"user_id":179,"name":"ender45","steam_id":76561198840955715,"connected_time":303000000000,"state":"active","ping":39},{"user_id":137,"name":"Buggalugs","steam_id":76561198031684690,"connected_time":3125000000000,"state":"active","ping":149},{"user_id":133,"name":"Gears","steam_id":76561198872485939,"connected_time":3243000000000,"state":"active","ping":154},{"user_id":127,"name":"Kokos","steam_id":76561198085501501,"connected_time":3508000000000,"state":"active","ping":104},{"user_id":178,"name":"Special Agent Big Smoke","steam_id":76561198154468827,"connected_time":369000000000,"state":"active","ping":67},{"user_id":180,"name":"silicon based life form","steam_id":76561199127121346,"connected_time":109000000000,"state":"active","ping":58},{"user_id":151,"name":"Arthur","steam_id":76561198066109166,"connected_time":2495000000000,"state":"active","ping":84},{"user_id":175,"name":"Nomic","steam_id":76561198209168943,"connected_time":572000000000,"state":"active","ping":92},{"user_id":169,"name":"ÓÅ≠ Sir-Ignyr ÓÅÆ","steam_id":76561198043828572,"connected_time":1040000000000,"state":"active","ping":44},{"user_id":176,"name":"Peanut","steam_id":76561198064585972,"connected_time":570000000000,"state":"active","ping":77},{"user_id":144,"name":"Octoblue64","steam_id":76561198388997283,"connected_time":2798000000000,"state":"active","ping":52},{"user_id":163,"name":"GMsU | Rebikas","steam_id":76561198077053764,"connected_time":1884000000000,"state":"active","ping":52},{"user_id":164,"name":"quickfast","steam_id":76561199438900919,"connected_time":1818000000000,"state":"active","ping":44},{"user_id":172,"name":"Pyuku","steam_id":76561198811554257,"connected_time":686000000000,"state":"active","ping":140},{"user_id":61,"name":"Stefman","steam_id":76561199025104038,"connected_time":7066000000000,"state":"active","ping":36},{"user_id":177,"name":"Jew","steam_id":76561198332383755,"connected_time":561000000000,"state":"active","ping":90}]},{"server_id":320,"name":"Uncletopia | London | 3 | All Maps","name_short":"lon-3","host":"lon-1.uk.uncletopia.com","port":27035,"enabled":true,"region":"eu","cc":"gb","latitude":51.509865,"longitude":-0.118092,"reserved":0,"last_update":"0001-01-01T00:00:00Z","name_a2s":"Uncletopia | London | 3 | All Maps","protocol":17,"map":"cp_dustbowl","folder":"tf","game":"Team Fortress","app_id":440,"player_count":24,"max_players":24,"Bots":0,"server_type":"Dedicated","server_os":"Linux","password":true,"vac":true,"version":"7961495","steam_id":85568392924510192,"keywords":["cp","nocrits","nodmgspread","uncletopia"],"game_id":440,"stv_port":27036,"stv_name":"Uncletopia | London | 3 | All Maps | STV","players":[{"user_id":100,"name":"Parmenides","steam_id":76561198079849761,"connected_time":718000000000,"state":"active","ping":52},{"user_id":78,"name":"oxidius","steam_id":76561198261730746,"connected_time":1952000000000,"state":"active","ping":55},{"user_id":116,"name":"negativeinteger","steam_id":76561199496776658,"connected_time":251000000000,"state":"active","ping":54},{"user_id":119,"name":"Vel0city","steam_id":76561198049687798,"connected_time":34000000000,"state":"active","ping":49},{"user_id":105,"name":"Herdez Hot Salsa","steam_id":76561197991740906,"connected_time":563000000000,"state":"active","ping":131},{"user_id":33,"name":"qwinak166","steam_id":76561198852854169,"connected_time":5263000000000,"state":"active","ping":77},{"user_id":117,"name":"Wolf","steam_id":76561198111988462,"connected_time":108000000000,"state":"active","ping":76},{"user_id":36,"name":"Lite-E","steam_id":76561198331132141,"connected_time":4887000000000,"state":"active","ping":68},{"user_id":102,"name":"Jeryx","steam_id":76561197995602803,"connected_time":669000000000,"state":"active","ping":67},{"user_id":110,"name":"Sonofawesker","steam_id":76561198149753537,"connected_time":332000000000,"state":"active","ping":54},{"user_id":115,"name":"Smilez","steam_id":76561197999353870,"connected_time":271000000000,"state":"active","ping":43},{"user_id":118,"name":"Hypergonadism","steam_id":76561198294895726,"connected_time":96000000000,"state":"active","ping":63},{"user_id":93,"name":"nky!","steam_id":76561198086229832,"connected_time":1264000000000,"state":"active","ping":63},{"user_id":111,"name":"Toxic_Cicity","steam_id":76561198165753440,"connected_time":328000000000,"state":"active","ping":108},{"user_id":86,"name":"doctwoeight","steam_id":76561198153488940,"connected_time":1746000000000,"state":"active","ping":75},{"user_id":113,"name":"JamBam","steam_id":76561199047384188,"connected_time":310000000000,"state":"active","ping":174},{"user_id":120,"name":"szmen","steam_id":76561198072569764,"connected_time":21000000000,"state":"active","ping":129},{"user_id":90,"name":"Itai","steam_id":76561198804555329,"connected_time":1542000000000,"state":"active","ping":113},{"user_id":99,"name":"Skyminer1372","steam_id":76561198161924388,"connected_time":781000000000,"state":"active","ping":70},{"user_id":91,"name":"Meo","steam_id":76561198184899182,"connected_time":1511000000000,"state":"active","ping":62},{"user_id":52,"name":"McPeeWee","steam_id":76561198292374825,"connected_time":4441000000000,"state":"active","ping":53},{"user_id":53,"name":"Mono","steam_id":76561198114569493,"connected_time":4433000000000,"state":"active","ping":39},{"user_id":104,"name":"Ballsack","steam_id":76561198973232202,"connected_time":649000000000,"state":"active","ping":93},{"user_id":56,"name":"Dr. Funkenstein","steam_id":76561197977816210,"connected_time":4360000000000,"state":"active","ping":65}]},{"server_id":321,"name":"Uncletopia | London | 4 | All Maps","name_short":"lon-4","host":"lon-1.uk.uncletopia.com","port":27045,"enabled":true,"region":"eu","cc":"gb","latitude":51.509865,"longitude":-0.118092,"reserved":0,"last_update":"0001-01-01T00:00:00Z","name_a2s":"Uncletopia | London | 4 | All Maps","protocol":17,"map":"koth_suijin","folder":"tf","game":"Team Fortress","app_id":440,"player_count":0,"max_players":24,"Bots":0,"server_type":"Dedicated","server_os":"Linux","password":true,"vac":true,"version":"7961495","steam_id":85568392924510193,"keywords":["cp","nocrits","nodmgspread","uncletopia"],"game_id":440,"stv_port":27046,"stv_name":"Uncletopia | London | 4 | All Maps | STV","players":null},{"server_id":21,"name":"Uncletopia | London | 5 | All Maps","name_short":"lon-5","host":"lon-1.uk.uncletopia.com","port":27055,"enabled":true,"region":"eu","cc":"gb","latitude":51.509865,"longitude":-0.118092,"reserved":0,"last_update":"0001-01-01T00:00:00Z","name_a2s":"Uncletopia | London | 5 | All Maps","protocol":17,"map":"pl_upward","folder":"tf","game":"Team Fortress","app_id":440,"player_count":20,"max_players":24,"Bots":0,"server_type":"Dedicated","server_os":"Linux","password":true,"vac":true,"version":"7961495","steam_id":85568392924742829,"keywords":["nocrits","nodmgspread","payload","uncletopia"],"game_id":440,"stv_port":27056,"stv_name":"Uncletopia | London | 5 | All Maps | STV","players":[{"user_id":461,"name":"Locke","steam_id":76561198339408300,"connected_time":2107000000000,"state":"active","ping":55},{"user_id":502,"name":"Captain Puddleboat","steam_id":76561198053913970,"connected_time":23000000000,"state":"active","ping":68},{"user_id":477,"name":"Big Bubu","steam_id":76561197980783678,"connected_time":1301000000000,"state":"active","ping":86},{"user_id":494,"name":"Spinya","steam_id":76561198086653667,"connected_time":498000000000,"state":"active","ping":59},{"user_id":475,"name":"Silverguy","steam_id":76561198261509394,"connected_time":1371000000000,"state":"active","ping":149},{"user_id":503,"name":"[Z7]DrNo","steam_id":76561197969376290,"connected_time":19000000000,"state":"spawning","ping":64},{"user_id":479,"name":"H√©rosFunk","steam_id":76561198053110916,"connected_time":1229000000000,"state":"active","ping":50},{"user_id":496,"name":"TheEventGuy","steam_id":76561197972797744,"connected_time":227000000000,"state":"active","ping":82},{"user_id":504,"name":"Fran","steam_id":76561199070516960,"connected_time":13000000000,"state":"active","ping":187},{"user_id":469,"name":"Cosmic Gamer","steam_id":76561198027357981,"connected_time":1560000000000,"state":"active","ping":99},{"user_id":454,"name":"CINE191","steam_id":76561198182777486,"connected_time":2676000000000,"state":"active","ping":68},{"user_id":416,"name":"shr1mple","steam_id":76561198173537027,"connected_time":5234000000000,"state":"active","ping":59},{"user_id":413,"name":"Qwertuss","steam_id":76561198026305366,"connected_time":5425000000000,"state":"active","ping":61},{"user_id":489,"name":"_Monteiro_","steam_id":76561199033423134,"connected_time":931000000000,"state":"active","ping":70},{"user_id":488,"name":"I.AM.THE.BOOP.WHICH.IS.APROACHI","steam_id":76561198049342507,"connected_time":993000000000,"state":"active","ping":86},{"user_id":490,"name":"Ultir","steam_id":76561198880096224,"connected_time":920000000000,"state":"active","ping":74},{"user_id":482,"name":"epic party rat","steam_id":76561199100632053,"connected_time":1188000000000,"state":"active","ping":53},{"user_id":483,"name":"Storm's Foreshadow","steam_id":76561198098462526,"connected_time":1186000000000,"state":"active","ping":71},{"user_id":497,"name":"kallerannar","steam_id":76561199095701143,"connected_time":225000000000,"state":"active","ping":110},{"user_id":491,"name":"Geoff the Oracle","steam_id":76561198053759965,"connected_time":917000000000,"state":"active","ping":57}]},{"server_id":22,"name":"Uncletopia | London | 6 | All Maps","name_short":"lon-6","host":"lon-1.uk.uncletopia.com","port":27065,"enabled":true,"region":"eu","cc":"gb","latitude":51.509865,"longitude":-0.118092,"reserved":0,"last_update":"0001-01-01T00:00:00Z","name_a2s":"Uncletopia | London | 6 | All Maps","protocol":17,"map":"cp_sunshine","folder":"tf","game":"Team Fortress","app_id":440,"player_count":23,"max_players":24,"Bots":0,"server_type":"Dedicated","server_os":"Linux","password":true,"vac":true,"version":"7961495","steam_id":85568392924742830,"keywords":["cp","nocrits","nodmgspread","uncletopia"],"game_id":440,"stv_port":27066,"stv_name":"Uncletopia | London | 6 | All Maps | STV","players":[{"user_id":283,"name":"highest noon","steam_id":76561199103959197,"connected_time":1145000000000,"state":"active","ping":111},{"user_id":244,"name":"God's Goofiest Goober","steam_id":76561198103175187,"connected_time":4397000000000,"state":"active","ping":71},{"user_id":268,"name":"mixxxa_french","steam_id":76561198085098243,"connected_time":1997000000000,"state":"active","ping":117},{"user_id":270,"name":"Space","steam_id":76561198378357559,"connected_time":1866000000000,"state":"active","ping":41},{"user_id":176,"name":"noVa","steam_id":76561198296550363,"connected_time":9907000000000,"state":"active","ping":56},{"user_id":271,"name":"„ÅÇ„Å™„Åü„ÅÆÂèãÈÅî","steam_id":76561198248239796,"connected_time":1855000000000,"state":"active","ping":56},{"user_id":269,"name":"Cabbch","steam_id":76561198045955679,"connected_time":1993000000000,"state":"active","ping":45},{"user_id":278,"name":"Heavy TF2 in irl?!","steam_id":76561198082502910,"connected_time":1482000000000,"state":"active","ping":59},{"user_id":194,"name":"random guy (real)","steam_id":76561199199499453,"connected_time":8788000000000,"state":"active","ping":76},{"user_id":234,"name":"Dry","steam_id":76561198027164095,"connected_time":5128000000000,"state":"active","ping":160},{"user_id":272,"name":"nug","steam_id":76561198055396568,"connected_time":1800000000000,"state":"active","ping":46},{"user_id":289,"name":"your_local_penguin","steam_id":76561199224954346,"connected_time":488000000000,"state":"active","ping":94},{"user_id":290,"name":"Cantorna","steam_id":76561199492511143,"connected_time":48000000000,"state":"active","ping":104},{"user_id":249,"name":"chugger beef","steam_id":76561198372130358,"connected_time":3659000000000,"state":"active","ping":49},{"user_id":275,"name":"epiemanCan","steam_id":76561199013159854,"connected_time":1690000000000,"state":"active","ping":54},{"user_id":187,"name":"lorislk989","steam_id":76561199224251630,"connected_time":9328000000000,"state":"active","ping":69},{"user_id":276,"name":"Karl3009","steam_id":76561198131306569,"connected_time":1554000000000,"state":"active","ping":68},{"user_id":280,"name":"Sicmendor ...","steam_id":76561197962107049,"connected_time":1370000000000,"state":"active","ping":73},{"user_id":287,"name":"Hidden_Slime225","steam_id":76561199089440679,"connected_time":572000000000,"state":"active","ping":128},{"user_id":285,"name":"Bob Sacamano","steam_id":76561198085610701,"connected_time":1114000000000,"state":"active","ping":97},{"user_id":286,"name":"Jamba Sparabo","steam_id":76561198131647600,"connected_time":748000000000,"state":"active","ping":61},{"user_id":282,"name":"tom","steam_id":76561198202442602,"connected_time":1239000000000,"state":"active","ping":89},{"user_id":178,"name":"The Hive Mind","steam_id":76561198171641874,"connected_time":9881000000000,"state":"active","ping":57}]},{"server_id":40,"name":"Uncletopia | London | 7 | Stopwatch","name_short":"lon-7","host":"lon-1.uk.uncletopia.com","port":27075,"enabled":true,"region":"eu","cc":"gb","latitude":51.509865,"longitude":-0.118092,"reserved":0,"last_update":"0001-01-01T00:00:00Z","name_a2s":"Uncletopia | London | 7 | Stopwatch","protocol":17,"map":"pl_upward","folder":"tf","game":"Team Fortress","app_id":440,"player_count":14,"max_players":24,"Bots":0,"server_type":"Dedicated","server_os":"Linux","password":true,"vac":true,"version":"7961495","steam_id":85568392924964314,"keywords":["nocrits","nodmgspread","payload","uncletopia"],"game_id":440,"stv_port":27076,"stv_name":"Uncletopia | London | 7 | Stopwatch | STV","players":[{"user_id":50,"name":"nayte","steam_id":76561198450220009,"connected_time":11000000000,"state":"active","ping":238},{"user_id":38,"name":"Wario","steam_id":76561198356089255,"connected_time":663000000000,"state":"active","ping":71},{"user_id":36,"name":"The‚òÜCops","steam_id":76561198146358073,"connected_time":988000000000,"state":"active","ping":102},{"user_id":17,"name":"sofa king","steam_id":76561198175456289,"connected_time":3081000000000,"state":"active","ping":117},{"user_id":18,"name":"Decaying Chpok","steam_id":76561198112855332,"connected_time":3076000000000,"state":"active","ping":194},{"user_id":19,"name":"MoRtY","steam_id":76561198316573977,"connected_time":3060000000000,"state":"active","ping":184},{"user_id":20,"name":"Zagger","steam_id":76561198361832957,"connected_time":2676000000000,"state":"active","ping":85},{"user_id":21,"name":"capela","steam_id":76561198200888385,"connected_time":2665000000000,"state":"active","ping":73},{"user_id":22,"name":"Sanic the Hegehoge","steam_id":76561198208073317,"connected_time":2636000000000,"state":"active","ping":86},{"user_id":39,"name":"dob:cob","steam_id":76561198253323044,"connected_time":621000000000,"state":"active","ping":80},{"user_id":40,"name":"Proud Jojo Fan #TF2SP","steam_id":76561198847327216,"connected_time":596000000000,"state":"active","ping":68},{"user_id":46,"name":"Gordon","steam_id":76561198303652059,"connected_time":299000000000,"state":"active","ping":68},{"user_id":43,"name":"A 2008 Laptop.","steam_id":76561198860068961,"connected_time":448000000000,"state":"active","ping":113},{"user_id":49,"name":"HilldogGaming‚ôõ","steam_id":76561198082209322,"connected_time":206000000000,"state":"active","ping":72}]},{"server_id":41,"name":"Uncletopia | London | 8 | Community","name_short":"lon-8","host":"lon-1.uk.uncletopia.com","port":27085,"enabled":true,"region":"eu","cc":"gb","latitude":51.509865,"longitude":-0.118092,"reserved":0,"last_update":"0001-01-01T00:00:00Z","name_a2s":"Uncletopia | London | 8 | Community","protocol":17,"map":"cp_snakewater_final1","folder":"tf","game":"Team Fortress","app_id":440,"player_count":0,"max_players":24,"Bots":0,"server_type":"Dedicated","server_os":"Linux","password":true,"vac":true,"version":"7961495","steam_id":85568392924964315,"keywords":["cp","nocrits","nodmgspread","uncletopia"],"game_id":440,"stv_port":27086,"stv_name":"Uncletopia | London | 8 | Community | STV","players":null},{"server_id":300,"name":"Uncletopia | Montr√©al | 1 | All Maps","name_short":"mtl-1","host":"mtl-1.ca.uncletopia.com","port":27015,"enabled":true,"region":"us-east","cc":"ca","latitude":45.50889,"longitude":-73.56167,"reserved":0,"last_update":"0001-01-01T00:00:00Z","name_a2s":"","protocol":0,"map":"","folder":"","game":"","app_id":0,"player_count":0,"max_players":0,"Bots":0,"server_type":"","server_os":"","password":false,"vac":false,"version":"","steam_id":0,"keywords":null,"game_id":0,"stv_port":0,"stv_name":"","players":null},{"server_id":301,"name":"Uncletopia | Montr√©al | 2 | ???","name_short":"mtl-2","host":"mtl-1.ca.uncletopia.com","port":27025,"enabled":true,"region":"us-east","cc":"ca","latitude":45.50889,"longitude":-73.56167,"reserved":0,"last_update":"0001-01-01T00:00:00Z","name_a2s":"","protocol":0,"map":"","folder":"","game":"","app_id":0,"player_count":0,"max_players":0,"Bots":0,"server_type":"","server_os":"","password":false,"vac":false,"version":"","steam_id":0,"keywords":null,"game_id":0,"stv_port":0,"stv_name":"","players":null},{"server_id":13,"name":"Uncletopia | New York City | 1 | All Maps","name_short":"nyc-1","host":"nyc-1.us.uncletopia.com","port":27015,"enabled":true,"region":"us-east","cc":"us","latitude":40.73061,"longitude":-73.93524,"reserved":0,"last_update":"0001-01-01T00:00:00Z","name_a2s":"Uncletopia | New York City | 1 | All Maps","protocol":17,"map":"cp_mountainlab","folder":"tf","game":"Team Fortress","app_id":440,"player_count":0,"max_players":24,"Bots":0,"server_type":"Dedicated","server_os":"Linux","password":true,"vac":true,"version":"7961495","steam_id":85568392924469993,"keywords":["cp","nocrits","nodmgspread","uncletopia"],"game_id":440,"stv_port":27016,"stv_name":"Uncletopia | New York City | 1 | All Maps | STV","players":null},{"server_id":14,"name":"Uncletopia | New York City | 2 | All Maps","name_short":"nyc-2","host":"nyc-1.us.uncletopia.com","port":27025,"enabled":true,"region":"us-east","cc":"us","latitude":40.73061,"longitude":-73.93524,"reserved":0,"last_update":"0001-01-01T00:00:00Z","name_a2s":"Uncletopia | New York City | 2 | All Maps","protocol":17,"map":"pl_snowycoast","folder":"tf","game":"Team Fortress","app_id":440,"player_count":0,"max_players":24,"Bots":0,"server_type":"Dedicated","server_os":"Linux","password":true,"vac":true,"version":"7961495","steam_id":85568392924469994,"keywords":["nocrits","nodmgspread","payload","uncletopia"],"game_id":440,"stv_port":27026,"stv_name":"Uncletopia | New York City | 2 | All Maps | STV","players":null},{"server_id":15,"name":"Uncletopia | New York City | 3 | Stopwatch","name_short":"nyc-3","host":"nyc-1.us.uncletopia.com","port":27035,"enabled":true,"region":"us-east","cc":"us","latitude":40.73061,"longitude":-73.93524,"reserved":0,"last_update":"0001-01-01T00:00:00Z","name_a2s":"Uncletopia | New York City | 3 | Stopwatch","protocol":17,"map":"pl_snowycoast","folder":"tf","game":"Team Fortress","app_id":440,"player_count":0,"max_players":24,"Bots":0,"server_type":"Dedicated","server_os":"Linux","password":true,"vac":true,"version":"7961495","steam_id":85568392924742820,"keywords":["nocrits","nodmgspread","payload","uncletopia"],"game_id":440,"stv_port":27036,"stv_name":"Uncletopia | New York City | 3 | Stopwatch | STV","players":null},{"server_id":16,"name":"Uncletopia | New York City | 4 | Community","name_short":"nyc-4","host":"nyc-1.us.uncletopia.com","port":27045,"enabled":true,"region":"us-east","cc":"us","latitude":40.73061,"longitude":-73.93524,"reserved":0,"last_update":"0001-01-01T00:00:00Z","name_a2s":"Uncletopia | New York City | 4 | Community","protocol":17,"map":"cp_altitude","folder":"tf","game":"Team Fortress","app_id":440,"player_count":0,"max_players":24,"Bots":0,"server_type":"Dedicated","server_os":"Linux","password":true,"vac":true,"version":"7961495","steam_id":85568392924742821,"keywords":["cp","nocrits","nodmgspread","uncletopia"],"game_id":440,"stv_port":27046,"stv_name":"Uncletopia | New York City | 4 | Community | STV","players":null},{"server_id":142,"name":"Uncletopia | S√£o Paulo | 1 | All Maps","name_short":"sao-1","host":"sao-1.br.uncletopia.com","port":27015,"enabled":true,"region":"sa","cc":"br","latitude":-23.533773,"longitude":-46.62529,"reserved":0,"last_update":"0001-01-01T00:00:00Z","name_a2s":"Uncletopia | S√£o Paulo | 1 | All Maps","protocol":17,"map":"cp_mountainlab","folder":"tf","game":"Team Fortress","app_id":440,"player_count":0,"max_players":24,"Bots":0,"server_type":"Dedicated","server_os":"Linux","password":true,"vac":true,"version":"7961495","steam_id":85568392924469996,"keywords":["cp","nocrits","nodmgspread","uncletopia"],"game_id":440,"stv_port":27016,"stv_name":"Uncletopia | S√£o Paulo | 1 | All Maps | STV","players":null},{"server_id":143,"name":"Uncletopia | S√£o Paulo | 2 | Community","name_short":"sao-2","host":"sao-2.br.uncletopia.com","port":27015,"enabled":true,"region":"sa","cc":"br","latitude":-23.533773,"longitude":-46.62529,"reserved":0,"last_update":"0001-01-01T00:00:00Z","name_a2s":"Uncletopia | S√£o Paulo | 2 | Community","protocol":17,"map":"workshop/koth_synthetic_rc6a.ugc1549817316","folder":"tf","game":"Team Fortress","app_id":440,"player_count":0,"max_players":24,"Bots":0,"server_type":"Dedicated","server_os":"Linux","password":true,"vac":true,"version":"7961495","steam_id":85568392924485349,"keywords":["cp","nocrits","nodmgspread","uncletopia"],"game_id":440,"stv_port":27016,"stv_name":"Uncletopia | S√£o Paulo | 2 | Community | STV","players":null},{"server_id":7,"name":"Uncletopia | Seattle | 1 | All Maps","name_short":"sea-1","host":"sea-1.us.uncletopia.com","port":27015,"enabled":true,"region":"us-west","cc":"us","latitude":47.608013,"longitude":-122.33517,"reserved":0,"last_update":"0001-01-01T00:00:00Z","name_a2s":"Uncletopia | Seattle | 1 | All Maps","protocol":17,"map":"koth_viaduct","folder":"tf","game":"Team Fortress","app_id":440,"player_count":0,"max_players":24,"Bots":0,"server_type":"Dedicated","server_os":"Linux","password":true,"vac":true,"version":"7961495","steam_id":85568392924469997,"keywords":["cp","nocrits","nodmgspread","uncletopia"],"game_id":440,"stv_port":27016,"stv_name":"Uncletopia | Seattle | 1 | All Maps | STV","players":null},{"server_id":119,"name":"Uncletopia | Seattle | 2 | All Maps","name_short":"sea-2","host":"sea-1.us.uncletopia.com","port":27025,"enabled":true,"region":"us-west","cc":"us","latitude":47.608013,"longitude":-122.33517,"reserved":0,"last_update":"0001-01-01T00:00:00Z","name_a2s":"Uncletopia | Seattle | 2 | All Maps","protocol":17,"map":"koth_lakeside_final","folder":"tf","game":"Team Fortress","app_id":440,"player_count":0,"max_players":24,"Bots":0,"server_type":"Dedicated","server_os":"Linux","password":true,"vac":true,"version":"7961495","steam_id":85568392924469998,"keywords":["cp","nocrits","nodmgspread","uncletopia"],"game_id":440,"stv_port":27026,"stv_name":"Uncletopia | Seattle | 2 | All Maps | STV","players":null},{"server_id":406,"name":"Uncletopia | Seattle | 3 | Stopwatch","name_short":"sea-3","host":"sea-1.us.uncletopia.com","port":27035,"enabled":true,"region":"us-west","cc":"us","latitude":47.608013,"longitude":-122.33517,"reserved":0,"last_update":"0001-01-01T00:00:00Z","name_a2s":"Uncletopia | Seattle | 3 | Stopwatch","protocol":17,"map":"cp_snakewater_final1","folder":"tf","game":"Team Fortress","app_id":440,"player_count":0,"max_players":24,"Bots":0,"server_type":"Dedicated","server_os":"Linux","password":true,"vac":true,"version":"7961495","steam_id":85568392924515217,"keywords":["cp","nocrits","nodmgspread","uncletopia"],"game_id":440,"stv_port":27036,"stv_name":"Uncletopia | Seattle | 3 | Stopwatch | STV","players":null},{"server_id":17,"name":"Uncletopia | San Francisco | 1 | All Maps","name_short":"sfo-1","host":"sfo-1.us.uncletopia.com","port":27015,"enabled":true,"region":"us-west","cc":"us","latitude":37.77397,"longitude":-122.4313,"reserved":0,"last_update":"0001-01-01T00:00:00Z","name_a2s":"Uncletopia | San Francisco | 1 | All Maps","protocol":17,"map":"koth_cascade","folder":"tf","game":"Team Fortress","app_id":440,"player_count":0,"max_players":24,"Bots":0,"server_type":"Dedicated","server_os":"Linux","password":true,"vac":true,"version":"7961495","steam_id":85568392924469999,"keywords":["cp","nocrits","nodmgspread","uncletopia"],"game_id":440,"stv_port":27016,"stv_name":"Uncletopia | San Francisco | 1 | All Maps | STV","players":null},{"server_id":18,"name":"Uncletopia | San Francisco | 2 | All Maps","name_short":"sfo-2","host":"sfo-1.us.uncletopia.com","port":27025,"enabled":true,"region":"us-west","cc":"us","latitude":37.77397,"longitude":-122.4313,"reserved":0,"last_update":"0001-01-01T00:00:00Z","name_a2s":"Uncletopia | San Francisco | 2 | All Maps","protocol":17,"map":"pl_frontier_final","folder":"tf","game":"Team Fortress","app_id":440,"player_count":0,"max_players":24,"Bots":0,"server_type":"Dedicated","server_os":"Linux","password":true,"vac":true,"version":"7961495","steam_id":85568392924470000,"keywords":["nocrits","nodmgspread","payload","uncletopia"],"game_id":440,"stv_port":27026,"stv_name":"Uncletopia | San Francisco | 2 | All Maps | STV","players":null},{"server_id":19,"name":"Uncletopia | San Francisco | 3 | Stopwatch","name_short":"sfo-3","host":"sfo-1.us.uncletopia.com","port":27035,"enabled":true,"region":"us-west","cc":"us","latitude":37.77397,"longitude":-122.4313,"reserved":0,"last_update":"0001-01-01T00:00:00Z","name_a2s":"Uncletopia | San Francisco | 3 | Stopwatch","protocol":17,"map":"pl_pier","folder":"tf","game":"Team Fortress","app_id":440,"player_count":0,"max_players":24,"Bots":0,"server_type":"Dedicated","server_os":"Linux","password":true,"vac":true,"version":"7961495","steam_id":85568392924742824,"keywords":["nocrits","nodmgspread","payload","uncletopia"],"game_id":440,"stv_port":27036,"stv_name":"Uncletopia | San Francisco | 3 | Stopwatch | STV","players":null},{"server_id":20,"name":"Uncletopia | San Francisco | 4 | Community","name_short":"sfo-4","host":"sfo-1.us.uncletopia.com","port":27045,"enabled":true,"region":"us-west","cc":"us","latitude":37.77397,"longitude":-122.4313,"reserved":0,"last_update":"0001-01-01T00:00:00Z","name_a2s":"Uncletopia | San Francisco | 4 | Community","protocol":17,"map":"pl_pier","folder":"tf","game":"Team Fortress","app_id":440,"player_count":0,"max_players":24,"Bots":0,"server_type":"Dedicated","server_os":"Linux","password":true,"vac":true,"version":"7961495","steam_id":85568392924742826,"keywords":["nocrits","nodmgspread","payload","uncletopia"],"game_id":440,"stv_port":27046,"stv_name":"Uncletopia | San Francisco | 4 | Community | STV","players":null},{"server_id":141,"name":"Uncletopia | Sydney | 1 | All Maps","name_short":"syd-1","host":"syd-1.au.uncletopia.com","port":27015,"enabled":true,"region":"au","cc":"au","latitude":-33.865143,"longitude":151.2099,"reserved":0,"last_update":"0001-01-01T00:00:00Z","name_a2s":"Uncletopia | Sydney | 1 | All Maps","protocol":17,"map":"pl_badwater","folder":"tf","game":"Team Fortress","app_id":440,"player_count":19,"max_players":24,"Bots":0,"server_type":"Dedicated","server_os":"Linux","password":true,"vac":true,"version":"7961495","steam_id":85568392924470001,"keywords":["nocrits","nodmgspread","payload","uncletopia"],"game_id":440,"stv_port":27016,"stv_name":"Uncletopia | Sydney | 1 | All Maps | STV","players":[{"user_id":763,"name":"LightningBlock","steam_id":76561198289997742,"connected_time":2494000000000,"state":"active","ping":41},{"user_id":754,"name":"hired goon","steam_id":76561198048064049,"connected_time":3426000000000,"state":"active","ping":74},{"user_id":770,"name":"Majima","steam_id":76561198288970258,"connected_time":1628000000000,"state":"active","ping":58},{"user_id":755,"name":"shadowisaac100","steam_id":76561199405682594,"connected_time":3180000000000,"state":"active","ping":139},{"user_id":733,"name":"Beans","steam_id":76561198137664191,"connected_time":4232000000000,"state":"active","ping":36},{"user_id":721,"name":"Ben is mightier than the sword","steam_id":76561198301282416,"connected_time":4907000000000,"state":"active","ping":55},{"user_id":723,"name":"Delief_","steam_id":76561198028535226,"connected_time":4852000000000,"state":"active","ping":83},{"user_id":768,"name":"boneshaver","steam_id":76561198025099660,"connected_time":1954000000000,"state":"active","ping":45},{"user_id":774,"name":"bago","steam_id":76561199057193204,"connected_time":1353000000000,"state":"active","ping":45},{"user_id":785,"name":"Finger Bun Fun","steam_id":76561198118383219,"connected_time":285000000000,"state":"active","ping":56},{"user_id":756,"name":"JohnnoDwarf","steam_id":76561199069897590,"connected_time":3109000000000,"state":"active","ping":88},{"user_id":778,"name":"jax_hs (live on twitch)","steam_id":76561199125097180,"connected_time":971000000000,"state":"active","ping":81},{"user_id":779,"name":"sean","steam_id":76561198048192738,"connected_time":934000000000,"state":"active","ping":35},{"user_id":741,"name":"incomprehensible maze","steam_id":76561198031293430,"connected_time":4062000000000,"state":"active","ping":91},{"user_id":780,"name":"Bing Soy","steam_id":76561198057093383,"connected_time":839000000000,"state":"active","ping":57},{"user_id":744,"name":"Overlold","steam_id":76561197978635495,"connected_time":3909000000000,"state":"active","ping":84},{"user_id":781,"name":"Willby_","steam_id":76561198424512829,"connected_time":781000000000,"state":"active","ping":59},{"user_id":782,"name":"Monad (Trans-girl arc)","steam_id":76561198895999428,"connected_time":771000000000,"state":"active","ping":45}]},{"server_id":123,"name":"Uncletopia | Sydney | 2 | All Maps","name_short":"syd-2","host":"syd-1.au.uncletopia.com","port":27025,"enabled":true,"region":"au","cc":"au","latitude":-33.865143,"longitude":151.2099,"reserved":0,"last_update":"0001-01-01T00:00:00Z","name_a2s":"Uncletopia | Sydney | 2 | All Maps","protocol":17,"map":"pl_upward","folder":"tf","game":"Team Fortress","app_id":440,"player_count":0,"max_players":24,"Bots":0,"server_type":"Dedicated","server_os":"Linux","password":true,"vac":true,"version":"7961495","steam_id":85568392924470002,"keywords":["nocrits","nodmgspread","payload","uncletopia"],"game_id":440,"stv_port":27026,"stv_name":"Uncletopia | Sydney | 2 | All Maps | STV","players":null},{"server_id":395,"name":"Uncletopia | Sydney | 3 | All Maps","name_short":"syd-3","host":"syd-1.au.uncletopia.com","port":27035,"enabled":true,"region":"au","cc":"au","latitude":-33.865143,"longitude":151.2099,"reserved":0,"last_update":"0001-01-01T00:00:00Z","name_a2s":"Uncletopia | Sydney | 3 | All Maps","protocol":17,"map":"pl_barnblitz","folder":"tf","game":"Team Fortress","app_id":440,"player_count":0,"max_players":24,"Bots":0,"server_type":"Dedicated","server_os":"Linux","password":true,"vac":true,"version":"7961495","steam_id":85568392925194467,"keywords":["nocrits","nodmgspread","payload","uncletopia"],"game_id":440,"stv_port":27036,"stv_name":"Uncletopia | Sydney | 3 | All Maps | STV","players":null},{"server_id":396,"name":"Uncletopia | Sydney | 4 | All Maps","name_short":"syd-4","host":"syd-1.au.uncletopia.com","port":27045,"enabled":true,"region":"au","cc":"au","latitude":-33.865143,"longitude":151.2099,"reserved":0,"last_update":"0001-01-01T00:00:00Z","name_a2s":"Uncletopia | Sydney | 4 | All Maps","protocol":17,"map":"koth_highpass","folder":"tf","game":"Team Fortress","app_id":440,"player_count":0,"max_players":24,"Bots":0,"server_type":"Dedicated","server_os":"Linux","password":true,"vac":true,"version":"7961495","steam_id":85568392925397958,"keywords":["cp","nocrits","nodmgspread","uncletopia"],"game_id":440,"stv_port":27046,"stv_name":"Uncletopia | Sydney | 4 | All Maps | STV","players":null},{"server_id":58,"name":"Uncletopia | Sydney | 5 | Stopwatch","name_short":"syd-5","host":"syd-1.au.uncletopia.com","port":27055,"enabled":true,"region":"au","cc":"au","latitude":-33.865143,"longitude":151.2099,"reserved":0,"last_update":"0001-01-01T00:00:00Z","name_a2s":"Uncletopia | Sydney | 5 | Stopwatch","protocol":17,"map":"cp_sunshine","folder":"tf","game":"Team Fortress","app_id":440,"player_count":0,"max_players":24,"Bots":0,"server_type":"Dedicated","server_os":"Linux","password":true,"vac":true,"version":"7961495","steam_id":85568392925397959,"keywords":["cp","nocrits","nodmgspread","uncletopia"],"game_id":440,"stv_port":27056,"stv_name":"Uncletopia | Sydney | 5 | Stopwatch | STV","players":null},{"server_id":59,"name":"Uncletopia | Sydney | 6 | Community","name_short":"syd-6","host":"syd-1.au.uncletopia.com","port":27065,"enabled":true,"region":"au","cc":"au","latitude":-33.865143,"longitude":151.2099,"reserved":0,"last_update":"0001-01-01T00:00:00Z","name_a2s":"Uncletopia | Sydney | 6 | Community","protocol":17,"map":"workshop/koth_trenchfoot_b1a.ugc731436616","folder":"tf","game":"Team Fortress","app_id":440,"player_count":0,"max_players":24,"Bots":0,"server_type":"Dedicated","server_os":"Linux","password":true,"vac":true,"version":"7961495","steam_id":85568392925397960,"keywords":["cp","nocrits","nodmgspread","uncletopia"],"game_id":440,"stv_port":27066,"stv_name":"Uncletopia | Sydney | 6 | Community | STV","players":null},{"server_id":49,"name":"Uncletopia | Warsaw | 1 | All Maps","name_short":"waw-1","host":"waw-1.pl.uncletopia.com","port":27015,"enabled":true,"region":"eu","cc":"pl","latitude":52.2297,"longitude":21.017532,"reserved":0,"last_update":"0001-01-01T00:00:00Z","name_a2s":"Uncletopia | Warsaw | 1 | All Maps","protocol":17,"map":"koth_lakeside_final","folder":"tf","game":"Team Fortress","app_id":440,"player_count":3,"max_players":24,"Bots":0,"server_type":"Dedicated","server_os":"Linux","password":true,"vac":true,"version":"7961495","steam_id":85568392925397850,"keywords":["cp","nocrits","nodmgspread","uncletopia"],"game_id":440,"stv_port":27016,"stv_name":"Uncletopia | Warsaw | 1 | All Maps | STV","players":[{"user_id":9,"name":"Vaderek561","steam_id":76561198425934688,"connected_time":2873000000000,"state":"active","ping":112},{"user_id":13,"name":"KUBAE","steam_id":76561198392011796,"connected_time":476000000000,"state":"active","ping":81},{"user_id":11,"name":"Jakbson","steam_id":76561199158083207,"connected_time":2812000000000,"state":"active","ping":70}]},{"server_id":50,"name":"Uncletopia | Warsaw | 2 | All Maps","name_short":"waw-2","host":"waw-1.pl.uncletopia.com","port":27025,"enabled":true,"region":"eu","cc":"pl","latitude":52.2297,"longitude":21.017532,"reserved":0,"last_update":"0001-01-01T00:00:00Z","name_a2s":"Uncletopia | Warsaw | 2 | All Maps","protocol":17,"map":"pl_upward","folder":"tf","game":"Team Fortress","app_id":440,"player_count":3,"max_players":24,"Bots":0,"server_type":"Dedicated","server_os":"Linux","password":true,"vac":true,"version":"7961495","steam_id":85568392925397851,"keywords":["nocrits","nodmgspread","payload","uncletopia"],"game_id":440,"stv_port":27026,"stv_name":"Uncletopia | Warsaw | 2 | All Maps | STV","players":[{"user_id":8,"name":"mighty t. real","steam_id":76561199121332325,"connected_time":704000000000,"state":"active","ping":81},{"user_id":9,"name":"Ikthius119","steam_id":76561198136660478,"connected_time":632000000000,"state":"active","ping":200},{"user_id":10,"name":"Nicco","steam_id":76561199471411794,"connected_time":183000000000,"state":"active","ping":86}]},{"server_id":51,"name":"Uncletopia | Warsaw | 3 | All Maps","name_short":"waw-3","host":"waw-1.pl.uncletopia.com","port":27035,"enabled":true,"region":"eu","cc":"pl","latitude":52.2297,"longitude":21.017532,"reserved":0,"last_update":"0001-01-01T00:00:00Z","name_a2s":"Uncletopia | Warsaw | 3 | All Maps","protocol":17,"map":"koth_lakeside_final","folder":"tf","game":"Team Fortress","app_id":440,"player_count":0,"max_players":24,"Bots":0,"server_type":"Dedicated","server_os":"Linux","password":true,"vac":true,"version":"7961495","steam_id":85568392925397852,"keywords":["cp","nocrits","nodmgspread","uncletopia"],"game_id":440,"stv_port":27036,"stv_name":"Uncletopia | Warsaw | 3 | All Maps | STV","players":null},{"server_id":52,"name":"Uncletopia | Warsaw | 4 | All Maps","name_short":"waw-4","host":"waw-1.pl.uncletopia.com","port":27045,"enabled":true,"region":"eu","cc":"pl","latitude":52.2297,"longitude":21.017532,"reserved":0,"last_update":"0001-01-01T00:00:00Z","name_a2s":"Uncletopia | Warsaw | 4 | All Maps","protocol":17,"map":"pl_snowycoast","folder":"tf","game":"Team Fortress","app_id":440,"player_count":0,"max_players":24,"Bots":0,"server_type":"Dedicated","server_os":"Linux","password":true,"vac":true,"version":"7961495","steam_id":85568392925397853,"keywords":["nocrits","nodmgspread","payload","uncletopia"],"game_id":440,"stv_port":27046,"stv_name":"Uncletopia | Warsaw | 4 | All Maps | STV","players":null},{"server_id":53,"name":"Uncletopia | Warsaw | 5 | Stopwatch","name_short":"waw-5","host":"waw-1.pl.uncletopia.com","port":27055,"enabled":true,"region":"eu","cc":"pl","latitude":52.2297,"longitude":21.017532,"reserved":0,"last_update":"0001-01-01T00:00:00Z","name_a2s":"Uncletopia | Warsaw | 5 | Stopwatch","protocol":17,"map":"pl_borneo","folder":"tf","game":"Team Fortress","app_id":440,"player_count":0,"max_players":24,"Bots":0,"server_type":"Dedicated","server_os":"Linux","password":true,"vac":true,"version":"7961495","steam_id":85568392925397854,"keywords":["nocrits","nodmgspread","payload","uncletopia"],"game_id":440,"stv_port":27056,"stv_name":"Uncletopia | Warsaw | 5 | Stopwatch | STV","players":null},{"server_id":54,"name":"Uncletopia | Warsaw | 6 | Community","name_short":"waw-6","host":"waw-1.pl.uncletopia.com","port":27065,"enabled":true,"region":"eu","cc":"pl","latitude":52.2297,"longitude":21.017532,"reserved":0,"last_update":"0001-01-01T00:00:00Z","name_a2s":"Uncletopia | Warsaw | 6 | Community","protocol":17,"map":"workshop/koth_kemptown_rc1.ugc767410655","folder":"tf","game":"Team Fortress","app_id":440,"player_count":0,"max_players":24,"Bots":0,"server_type":"Dedicated","server_os":"Linux","password":true,"vac":true,"version":"7961495","steam_id":85568392925397856,"keywords":["cp","nocrits","nodmgspread","uncletopia"],"game_id":440,"stv_port":27066,"stv_name":"Uncletopia | Warsaw | 6 | Community | STV","players":null}]}