{"status":true,"message":"","result":[{"server_id":9,"name":"Uncletopia | Atlanta | 1 | All Maps","name_short":"atl-1","host":"atl-1.us.uncletopia.com","port":27015,"enabled":true,"region":"us-east","cc":"us","latitude":33.753746,"longitude":-84.38633,"reserved":0,"last_update":"0001-01-01T00:00:00Z","name_a2s":"Uncletopia | Atlanta | 1 | All Maps","protocol":17,"map":"cp_powerhouse","folder":"tf","game":"Team Fortress","app_id":440,"player_count":23,"max_players":24,"Bots":0,"server_type":"Dedicated","server_os":"Linux","password":true,"vac":true,"version":"7757534","steam_id":85568392924469982,"keywords":["cp","nocrits","nodmgspread","uncletopia"],"game_id":440,"stv_port":27016,"stv_name":"Uncletopia | Atlanta | 1 | All Maps | STV","players":[{"user_id":257,"name":"The gremlin","steam_id":76561198969912557,"connected_time":1041000000000,"state":"active","ping":133},{"user_id":228,"name":"jack","steam_id":76561198397804555,"connected_time":3070000000000,"state":"active","ping":114},{"user_id":265,"name":"[OC2TM] CF-TF2","steam_id":76561198145893044,"connected_time":727000000000,"state":"active","ping":88},{"user_id":268,"name":"BIG HOG","steam_id":76561198079923652,"connected_time":52000000000,"state":"active","ping":68},{"user_id":258,"name":"PyroManiac","steam_id":76561198005988491,"connected_time":1015000000000,"state":"active","ping":112},{"user_id":211,"name":"Brown_Dream","steam_id":76561198975766145,"connected_time":4549000000000,"state":"active","ping":74},{"user_id":245,"name":"Scrumlet","steam_id":76561198339806643,"connected_time":2076000000000,"state":"active","ping":73},{"user_id":209,"name":"‚áå | œütriKeR | ‚áã","steam_id":76561199389089862,"connected_time":4584000000000,"state":"active","ping":135},{"user_id":251,"name":"Duckywinner","steam_id":76561198254828139,"connected_time":1687000000000,"state":"active","ping":60},{"user_id":154,"name":"Ashes!","steam_id":76561197998475441,"connected_time":8984000000000,"state":"active","ping":75},{"user_id":239,"name":"The Law","steam_id":76561198080974454,"connected_time":2726000000000,"state":"active","ping":81},{"user_id":259,"name":"Irontothecore","steam_id":76561198387384844,"connected_time":992000000000,"state":"active","ping":54},{"user_id":241,"name":"Type Three Dabeetus","steam_id":76561198062710038,"connected_time":2655000000000,"state":"active","ping":116},{"user_id":246,"name":"cheeks","steam_id":76561197993371179,"connected_time":2074000000000,"state":"active","ping":46},{"user_id":269,"name":"HarryjusttHarry","steam_id":76561198982810452,"connected_time":36000000000,"state":"active","ping":77},{"user_id":267,"name":"Riptide","steam_id":76561198164930435,"connected_time":58000000000,"state":"active","ping":55},{"user_id":266,"name":"H_NGM_N","steam_id":76561199427024166,"connected_time":317000000000,"state":"active","ping":78},{"user_id":263,"name":"Kidzbopsicle","steam_id":76561198047660691,"connected_time":914000000000,"state":"active","ping":58},{"user_id":213,"name":"\u003c blank \u003e","steam_id":76561199383789041,"connected_time":4502000000000,"state":"active","ping":171},{"user_id":256,"name":"WOB WOB WOB WUOUOUOUOUOOUB","steam_id":76561198822069026,"connected_time":1165000000000,"state":"active","ping":85},{"user_id":222,"name":"Rockguy21","steam_id":76561198121303359,"connected_time":3898000000000,"state":"active","ping":60},{"user_id":264,"name":"Tealim","steam_id":76561198330085713,"connected_time":771000000000,"state":"active","ping":63},{"user_id":262,"name":"Romo","steam_id":76561198243101572,"connected_time":978000000000,"state":"active","ping":78}]},{"server_id":400,"name":"Uncletopia | Atlanta | 3 | Community","name_short":"atl-3","host":"atl-1.us.uncletopia.com","port":27035,"enabled":true,"region":"us-east","cc":"us","latitude":33.753746,"longitude":-84.38633,"reserved":0,"last_update":"0001-01-01T00:00:00Z","name_a2s":"Uncletopia | Atlanta | 3 | Community","protocol":17,"map":"workshop/pl_corrode_rc2.ugc546577989","folder":"tf","game":"Team Fortress","app_id":440,"player_count":0,"max_players":24,"Bots":0,"server_type":"Dedicated","server_os":"Linux","password":true,"vac":true,"version":"7757534","steam_id":85568392924515187,"keywords":["nocrits","nodmgspread","payload","uncletopia"],"game_id":440,"stv_port":27036,"stv_name":"Uncletopia | Atlanta | 3 | Community | STV","players":null},{"server_id":401,"name":"Uncletopia | Atlanta | 4 | No Payload","name_short":"atl-4","host":"atl-1.us.uncletopia.com","port":27045,"enabled":true,"region":"us-east","cc":"us","latitude":33.753746,"longitude":-84.38633,"reserved":0,"last_update":"0001-01-01T00:00:00Z","name_a2s":"","protocol":0,"map":"","folder":"","game":"","app_id":0,"player_count":0,"max_players":0,"Bots":0,"server_type":"","server_os":"","password":false,"vac":false,"version":"","steam_id":0,"keywords":null,"game_id":0,"stv_port":0,"stv_name":"","players":null},{"server_id":2,"name":"Uncletopia | Chicago | 1 | All Maps","name_short":"chi-1","host":"chi-1.us.uncletopia.com","port":27015,"enabled":true,"region":"us-central","cc":"us","latitude":41.881832,"longitude":-87.62318,"reserved":0,"last_update":"0001-01-01T00:00:00Z","name_a2s":"Uncletopia | Chicago | 1 | All Maps","protocol":17,"map":"pl_frontier_final","folder":"tf","game":"Team Fortress","app_id":440,"player_count":24,"max_players":24,"Bots":0,"server_type":"Dedicated","server_os":"Linux","password":true,"vac":true,"version":"7757534","steam_id":85568392924469984,"keywords":["nocrits","nodmgspread","payload","uncletopia"],"game_id":440,"stv_port":27016,"stv_name":"Uncletopia | Chicago | 1 | All Maps | STV","players":[{"user_id":430,"name":"Cousin Corn on the Cob","steam_id":76561198049837377,"connected_time":1973000000000,"state":"active","ping":35},{"user_id":449,"name":"ali oop","steam_id":76561198057516213,"connected_time":532000000000,"state":"active","ping":77},{"user_id":368,"name":"tyg","steam_id":76561198056246867,"connected_time":6992000000000,"state":"active","ping":64},{"user_id":454,"name":"Enron Hubbard","steam_id":76561198012951411,"connected_time":132000000000,"state":"active","ping":58},{"user_id":435,"name":"OrionKid","steam_id":76561198359094901,"connected_time":1268000000000,"state":"active","ping":73},{"user_id":432,"name":"chloe","steam_id":76561198369849908,"connected_time":1294000000000,"state":"active","ping":67},{"user_id":445,"name":"‚àÄ…ê","steam_id":76561198139718219,"connected_time":862000000000,"state":"active","ping":73},{"user_id":391,"name":"Valerie","steam_id":76561198243188782,"connected_time":5242000000000,"state":"active","ping":78},{"user_id":434,"name":"twin","steam_id":76561198055626638,"connected_time":1292000000000,"state":"active","ping":89},{"user_id":431,"name":"TeeTree","steam_id":76561198862307874,"connected_time":1436000000000,"state":"active","ping":59},{"user_id":455,"name":"calube","steam_id":76561198029350858,"connected_time":121000000000,"state":"active","ping":91},{"user_id":461,"name":"Spex","steam_id":76561198404566859,"connected_time":3000000000,"state":"spawning","ping":57},{"user_id":425,"name":"wiiblob","steam_id":76561198109106242,"connected_time":2530000000000,"state":"active","ping":138},{"user_id":456,"name":"Seller of Waffles","steam_id":76561198296018138,"connected_time":114000000000,"state":"active","ping":58},{"user_id":439,"name":"Withered Rose","steam_id":76561197997027140,"connected_time":1162000000000,"state":"active","ping":81},{"user_id":389,"name":"totally not a pile of beans","steam_id":76561198119851931,"connected_time":5620000000000,"state":"active","ping":79},{"user_id":427,"name":"Garfield","steam_id":76561198037803087,"connected_time":2376000000000,"state":"active","ping":74},{"user_id":440,"name":"Anxious Bird Nerd","steam_id":76561198112178602,"connected_time":1078000000000,"state":"active","ping":108},{"user_id":457,"name":"The Jombie","steam_id":76561198167375121,"connected_time":114000000000,"state":"active","ping":71},{"user_id":446,"name":"Apollite","steam_id":76561198071669801,"connected_time":798000000000,"state":"active","ping":63},{"user_id":458,"name":"choi","steam_id":76561198053669887,"connected_time":90000000000,"state":"active","ping":116},{"user_id":397,"name":"Chaos","steam_id":76561199068325065,"connected_time":4756000000000,"state":"active","ping":97},{"user_id":460,"name":"Jeff Pesos","steam_id":76561198086379892,"connected_time":31000000000,"state":"spawning","ping":295},{"user_id":459,"name":"kivee","steam_id":76561198838223023,"connected_time":68000000000,"state":"active","ping":46}]},{"server_id":106,"name":"Uncletopia | Chicago | 2 | All Maps","name_short":"chi-2","host":"chi-1.us.uncletopia.com","port":27025,"enabled":true,"region":"us-central","cc":"us","latitude":41.881832,"longitude":-87.62318,"reserved":0,"last_update":"0001-01-01T00:00:00Z","name_a2s":"Uncletopia | Chicago | 2 | All Maps","protocol":17,"map":"pl_borneo","folder":"tf","game":"Team Fortress","app_id":440,"player_count":24,"max_players":24,"Bots":0,"server_type":"Dedicated","server_os":"Linux","password":true,"vac":true,"version":"7757534","steam_id":85568392924469985,"keywords":["nocrits","nodmgspread","payload","uncletopia"],"game_id":440,"stv_port":27026,"stv_name":"Uncletopia | Chicago | 2 | All Maps | STV","players":[{"user_id":460,"name":"Iron","steam_id":76561198247918478,"connected_time":1282000000000,"state":"active","ping":65},{"user_id":473,"name":"4 life","steam_id":76561198175961598,"connected_time":905000000000,"state":"active","ping":111},{"user_id":474,"name":"hestus","steam_id":76561199132268907,"connected_time":876000000000,"state":"active","ping":39},{"user_id":475,"name":"Bubz","steam_id":76561199013499631,"connected_time":874000000000,"state":"active","ping":88},{"user_id":484,"name":"Crunchy Pancake","steam_id":76561198002555973,"connected_time":541000000000,"state":"active","ping":63},{"user_id":482,"name":"mrsomeoneisreal","steam_id":76561199471566863,"connected_time":659000000000,"state":"active","ping":133},{"user_id":462,"name":"Freezer Fox YT","steam_id":76561198060542607,"connected_time":1198000000000,"state":"active","ping":83},{"user_id":485,"name":"Prison Sal","steam_id":76561198355553673,"connected_time":415000000000,"state":"active","ping":51},{"user_id":478,"name":"Coffee with a Stranger","steam_id":76561198307422313,"connected_time":864000000000,"state":"active","ping":61},{"user_id":464,"name":"98","steam_id":76561198134813102,"connected_time":1149000000000,"state":"active","ping":48},{"user_id":433,"name":"LoonaLover@gmail.com","steam_id":76561198085815757,"connected_time":4148000000000,"state":"active","ping":63},{"user_id":470,"name":"suckmycock47","steam_id":76561198063099828,"connected_time":969000000000,"state":"active","ping":45},{"user_id":486,"name":"Noelle Deltarune","steam_id":76561199033561817,"connected_time":326000000000,"state":"active","ping":115},{"user_id":427,"name":"creeeeeee","steam_id":76561198392539722,"connected_time":4442000000000,"state":"active","ping":75},{"user_id":467,"name":"zavala = smurf","steam_id":76561198249206656,"connected_time":1088000000000,"state":"active","ping":75},{"user_id":487,"name":"6t26j","steam_id":76561198278282836,"connected_time":231000000000,"state":"active","ping":50},{"user_id":480,"name":"[ŸäŸáŸàÿØŸä] Bill Clinton [◊ê◊ú","steam_id":76561198163291190,"connected_time":796000000000,"state":"active","ping":87},{"user_id":472,"name":"Disco Fever","steam_id":76561198069532215,"connected_time":957000000000,"state":"active","ping":73},{"user_id":413,"name":"worst tf2 player ever","steam_id":76561198103496593,"connected_time":5982000000000,"state":"active","ping":62},{"user_id":453,"name":"onion","steam_id":76561198242311084,"connected_time":1560000000000,"state":"active","ping":63},{"user_id":414,"name":"Eden","steam_id":76561198075587475,"connected_time":5959000000000,"state":"active","ping":54},{"user_id":488,"name":"Doom","steam_id":76561197982099794,"connected_time":216000000000,"state":"active","ping":64},{"user_id":431,"name":"The Drunk Clown","steam_id":76561197986850426,"connected_time":4159000000000,"state":"active","ping":73},{"user_id":483,"name":"Moizturized","steam_id":76561198873850038,"connected_time":658000000000,"state":"active","ping":75}]},{"server_id":402,"name":"Uncletopia | Chicago | 3 | All Maps","name_short":"chi-3","host":"chi-1.us.uncletopia.com","port":27035,"enabled":true,"region":"us-central","cc":"us","latitude":41.881832,"longitude":-87.62318,"reserved":0,"last_update":"0001-01-01T00:00:00Z","name_a2s":"Uncletopia | Chicago | 3 | All Maps","protocol":17,"map":"koth_cascade","folder":"tf","game":"Team Fortress","app_id":440,"player_count":0,"max_players":24,"Bots":0,"server_type":"Dedicated","server_os":"Linux","password":true,"vac":true,"version":"7757534","steam_id":85568392924515191,"keywords":["cp","nocrits","nodmgspread","uncletopia"],"game_id":440,"stv_port":27036,"stv_name":"Uncletopia | Chicago | 3 | All Maps | STV","players":null},{"server_id":403,"name":"Uncletopia | Chicago | 4 | All Maps","name_short":"chi-4","host":"chi-1.us.uncletopia.com","port":27045,"enabled":true,"region":"us-central","cc":"us","latitude":41.881832,"longitude":-87.62318,"reserved":0,"last_update":"0001-01-01T00:00:00Z","name_a2s":"Uncletopia | Chicago | 4 | All Maps","protocol":17,"map":"koth_viaduct","folder":"tf","game":"Team Fortress","app_id":440,"player_count":24,"max_players":24,"Bots":0,"server_type":"Dedicated","server_os":"Linux","password":true,"vac":true,"version":"7757534","steam_id":85568392924515193,"keywords":["cp","nocrits","nodmgspread","uncletopia"],"game_id":440,"stv_port":27046,"stv_name":"Uncletopia | Chicago | 4 | All Maps | STV","players":[{"user_id":319,"name":"merge without looking","steam_id":76561198056702628,"connected_time":1823000000000,"state":"active","ping":59},{"user_id":326,"name":"Quark","steam_id":76561198328155605,"connected_time":645000000000,"state":"active","ping":49},{"user_id":235,"name":"shadow wizard","steam_id":76561198165212575,"connected_time":6912000000000,"state":"active","ping":61},{"user_id":339,"name":"Ekoh2wo","steam_id":76561198067994868,"connected_time":62000000000,"state":"active","ping":61},{"user_id":307,"name":"Ejaculation Zach","steam_id":76561198203765200,"connected_time":3089000000000,"state":"active","ping":60},{"user_id":294,"name":"int","steam_id":76561198155720118,"connected_time":3478000000000,"state":"active","ping":45},{"user_id":311,"name":"my palisman would be a polarbea","steam_id":76561199060224916,"connected_time":2744000000000,"state":"active","ping":110},{"user_id":295,"name":"Eric","steam_id":76561198057717934,"connected_time":3477000000000,"state":"active","ping":45},{"user_id":314,"name":"Admiral Crumbs","steam_id":76561198108791583,"connected_time":2060000000000,"state":"active","ping":73},{"user_id":320,"name":"jorjor wells","steam_id":76561199073429082,"connected_time":1807000000000,"state":"active","ping":60},{"user_id":298,"name":"Cheeeeeeeen","steam_id":76561198986388085,"connected_time":3459000000000,"state":"active","ping":109},{"user_id":340,"name":"sAven","steam_id":76561198139343389,"connected_time":42000000000,"state":"active","ping":57},{"user_id":324,"name":"Bee","steam_id":76561198074681324,"connected_time":1240000000000,"state":"active","ping":50},{"user_id":330,"name":"‚úøBlunt.Babe420‚úø","steam_id":76561199014055970,"connected_time":563000000000,"state":"active","ping":51},{"user_id":334,"name":"Sal955","steam_id":76561198297487966,"connected_time":386000000000,"state":"active","ping":71},{"user_id":325,"name":"pizzaroger2003 #savejulia","steam_id":76561198179785873,"connected_time":787000000000,"state":"active","ping":74},{"user_id":341,"name":"Rein","steam_id":76561198300340427,"connected_time":0,"state":"spawning","ping":15},{"user_id":331,"name":"silly little feller","steam_id":76561198041975003,"connected_time":563000000000,"state":"active","ping":75},{"user_id":299,"name":"Stumblin' in","steam_id":76561198119826352,"connected_time":3423000000000,"state":"active","ping":74},{"user_id":283,"name":"wack","steam_id":76561198095697330,"connected_time":4214000000000,"state":"active","ping":78},{"user_id":313,"name":"SSBM Pelican","steam_id":76561198040697907,"connected_time":2497000000000,"state":"active","ping":76},{"user_id":321,"name":"Fake Uncle","steam_id":76561198880227689,"connected_time":1626000000000,"state":"active","ping":55},{"user_id":332,"name":"wheres my drink?","steam_id":76561198031675881,"connected_time":553000000000,"state":"active","ping":50},{"user_id":318,"name":"when the oob hits","steam_id":76561198277163301,"connected_time":1841000000000,"state":"active","ping":63}]},{"server_id":36,"name":"Uncletopia | Chicago | 5 | All Maps","name_short":"chi-5","host":"chi-2.us.uncletopia.com","port":27015,"enabled":true,"region":"us-central","cc":"us","latitude":41.881832,"longitude":-87.62318,"reserved":0,"last_update":"0001-01-01T00:00:00Z","name_a2s":"Uncletopia | Chicago | 5 | All Maps","protocol":17,"map":"koth_lakeside_final","folder":"tf","game":"Team Fortress","app_id":440,"player_count":0,"max_players":24,"Bots":0,"server_type":"Dedicated","server_os":"Linux","password":true,"vac":true,"version":"7757534","steam_id":85568392924866362,"keywords":["cp","nocrits","nodmgspread","uncletopia"],"game_id":440,"stv_port":27016,"stv_name":"Uncletopia | Chicago | 5 | All Maps | STV","players":null},{"server_id":37,"name":"Uncletopia | Chicago | 6 | All Maps","name_short":"chi-6","host":"chi-2.us.uncletopia.com","port":27025,"enabled":true,"region":"us-central","cc":"us","latitude":41.881832,"longitude":-87.62318,"reserved":0,"last_update":"0001-01-01T00:00:00Z","name_a2s":"Uncletopia | Chicago | 6 | All Maps","protocol":17,"map":"cp_dustbowl","folder":"tf","game":"Team Fortress","app_id":440,"player_count":0,"max_players":24,"Bots":0,"server_type":"Dedicated","server_os":"Linux","password":true,"vac":true,"version":"7757534","steam_id":85568392924866363,"keywords":["cp","nocrits","nodmgspread","uncletopia"],"game_id":440,"stv_port":27026,"stv_name":"Uncletopia | Chicago | 6 | All Maps | STV","players":null},{"server_id":38,"name":"Uncletopia | Chicago | 7 | Stopwatch Beta","name_short":"chi-7","host":"chi-2.us.uncletopia.com","port":27035,"enabled":true,"region":"us-central","cc":"us","latitude":41.881832,"longitude":-87.62318,"reserved":0,"last_update":"0001-01-01T00:00:00Z","name_a2s":"Uncletopia | Chicago | 7 | Stopwatch Beta","protocol":17,"map":"workshop/koth_bagel_rc6.ugc2514036946","folder":"tf","game":"Team Fortress","app_id":440,"player_count":0,"max_players":24,"Bots":0,"server_type":"Dedicated","server_os":"Linux","password":true,"vac":true,"version":"7757534","steam_id":85568392924866364,"keywords":["cp","nocrits","nodmgspread","uncletopia"],"game_id":440,"stv_port":27036,"stv_name":"Uncletopia | Chicago | 7 | Stopwatch Beta | STV","players":null},{"server_id":39,"name":"Uncletopia | Chicago | 8 | Community","name_short":"chi-8","host":"chi-2.us.uncletopia.com","port":27045,"enabled":true,"region":"us-central","cc":"us","latitude":41.881832,"longitude":-87.62318,"reserved":0,"last_update":"0001-01-01T00:00:00Z","name_a2s":"Uncletopia | Chicago | 8 | Community","protocol":17,"map":"koth_lakeside_final","folder":"tf","game":"Team Fortress","app_id":440,"player_count":0,"max_players":24,"Bots":0,"server_type":"Dedicated","server_os":"Linux","password":true,"vac":true,"version":"7757534","steam_id":85568392924866365,"keywords":["cp","nocrits","nodmgspread","uncletopia"],"game_id":440,"stv_port":27046,"stv_name":"Uncletopia | Chicago | 8 | Community | STV","players":null},{"server_id":8,"name":"Uncletopia | Dallas | 1 | All Maps","name_short":"dal-1","host":"dal-1.us.uncletopia.com","port":27015,"enabled":true,"region":"us-central","cc":"us","latitude":32.779167,"longitude":-96.80889,"reserved":0,"last_update":"0001-01-01T00:00:00Z","name_a2s":"Uncletopia | Dallas | 1 | All Maps","protocol":17,"map":"pl_upward","folder":"tf","game":"Team Fortress","app_id":440,"player_count":24,"max_players":24,"Bots":0,"server_type":"Dedicated","server_os":"Linux","password":true,"vac":true,"version":"7757534","steam_id":85568392924469986,"keywords":["nocrits","nodmgspread","payload","uncletopia"],"game_id":440,"stv_port":27016,"stv_name":"Uncletopia | Dallas | 1 | All Maps | STV","players":[{"user_id":260,"name":"Trash Medic","steam_id":76561199042228163,"connected_time":1499000000000,"state":"active","ping":60},{"user_id":264,"name":"NANO","steam_id":76561199009634635,"connected_time":1393000000000,"state":"active","ping":78},{"user_id":254,"name":"Captain MLG","steam_id":76561199183321645,"connected_time":1996000000000,"state":"active","ping":48},{"user_id":261,"name":"armpit fetishist","steam_id":76561199008452637,"connected_time":1454000000000,"state":"active","ping":91},{"user_id":212,"name":"terrorism? boy howdy","steam_id":76561198844003641,"connected_time":3134000000000,"state":"active","ping":85},{"user_id":251,"name":"SirArza","steam_id":76561198196214655,"connected_time":2061000000000,"state":"active","ping":75},{"user_id":277,"name":"Rendoas","steam_id":76561198002105259,"connected_time":486000000000,"state":"active","ping":46},{"user_id":272,"name":"Pink","steam_id":76561198042140694,"connected_time":586000000000,"state":"active","ping":49},{"user_id":271,"name":"tragic | swiftyservers.com","steam_id":76561198024043469,"connected_time":635000000000,"state":"active","ping":75},{"user_id":286,"name":"Possessd Pyro","steam_id":76561198389830988,"connected_time":351000000000,"state":"active","ping":41},{"user_id":268,"name":"Beep","steam_id":76561198166649901,"connected_time":817000000000,"state":"active","ping":108},{"user_id":182,"name":"samsoeder","steam_id":76561198293741183,"connected_time":5807000000000,"state":"active","ping":77},{"user_id":269,"name":"\"Gay Panic\"","steam_id":76561198132531594,"connected_time":796000000000,"state":"active","ping":62},{"user_id":290,"name":"Legit_Jaxer","steam_id":76561198172234053,"connected_time":19000000000,"state":"active","ping":101},{"user_id":287,"name":"Aonator","steam_id":76561198252312446,"connected_time":270000000000,"state":"active","ping":88},{"user_id":274,"name":"anBee","steam_id":76561198050760807,"connected_time":504000000000,"state":"active","ping":72},{"user_id":291,"name":"v4na","steam_id":76561198971354161,"connected_time":7000000000,"state":"spawning","ping":93},{"user_id":259,"name":"Wolverine Fingerblaster","steam_id":76561198095394582,"connected_time":1559000000000,"state":"active","ping":61},{"user_id":275,"name":"Jdpho99","steam_id":76561197968182680,"connected_time":503000000000,"state":"active","ping":78},{"user_id":289,"name":"Approving Penguin","steam_id":76561198070959246,"connected_time":69000000000,"state":"active","ping":103},{"user_id":278,"name":"Will","steam_id":76561198105645417,"connected_time":485000000000,"state":"active","ping":47},{"user_id":279,"name":"HeisenBurger","steam_id":76561198040632080,"connected_time":483000000000,"state":"active","ping":72},{"user_id":283,"name":"whip bone grew shrooms","steam_id":76561198338482937,"connected_time":450000000000,"state":"active","ping":79},{"user_id":281,"name":"golem","steam_id":76561198355040593,"connected_time":475000000000,"state":"active","ping":92}]},{"server_id":108,"name":"Uncletopia | Dallas | 2 | All Maps","name_short":"dal-2","host":"dal-1.us.uncletopia.com","port":27025,"enabled":true,"region":"us-central","cc":"us","latitude":32.779167,"longitude":-96.80889,"reserved":0,"last_update":"0001-01-01T00:00:00Z","name_a2s":"Uncletopia | Dallas | 2 | All Maps","protocol":17,"map":"plr_bananabay","folder":"tf","game":"Team Fortress","app_id":440,"player_count":23,"max_players":24,"Bots":0,"server_type":"Dedicated","server_os":"Linux","password":true,"vac":true,"version":"7757534","steam_id":85568392924469988,"keywords":["nocrits","nodmgspread","payload","uncletopia"],"game_id":440,"stv_port":27026,"stv_name":"Uncletopia | Dallas | 2 | All Maps | STV","players":[{"user_id":88,"name":"Resident Thrussy Lender","steam_id":76561198071790583,"connected_time":2236000000000,"state":"active","ping":57},{"user_id":106,"name":"waffholes","steam_id":76561199207790295,"connected_time":835000000000,"state":"active","ping":86},{"user_id":98,"name":"Lock'd","steam_id":76561198170108230,"connected_time":1509000000000,"state":"active","ping":61},{"user_id":99,"name":"Cloud Nein","steam_id":76561198966656717,"connected_time":1422000000000,"state":"active","ping":87},{"user_id":61,"name":"qiulongtao","steam_id":76561198977558717,"connected_time":4463000000000,"state":"active","ping":97},{"user_id":97,"name":"Ultraform","steam_id":76561198093511517,"connected_time":1589000000000,"state":"active","ping":47},{"user_id":100,"name":"ejdodgers","steam_id":76561199379595575,"connected_time":1420000000000,"state":"active","ping":102},{"user_id":82,"name":"school bully","steam_id":76561199005805984,"connected_time":2525000000000,"state":"active","ping":40},{"user_id":107,"name":"FASTLIFER","steam_id":76561199389781834,"connected_time":805000000000,"state":"active","ping":87},{"user_id":70,"name":"HELIUM VAN!","steam_id":76561198083463877,"connected_time":3844000000000,"state":"active","ping":73},{"user_id":105,"name":"Hi! I'm Twilight Sparkle! :)","steam_id":76561198982584470,"connected_time":859000000000,"state":"active","ping":48},{"user_id":113,"name":"–ü–æ–ª–∫–æ–≤–Ω–∏–∫ M–æ–ª—å","steam_id":76561198120551680,"connected_time":150000000000,"state":"active","ping":60},{"user_id":112,"name":"Tax","steam_id":76561198335683534,"connected_time":174000000000,"state":"active","ping":77},{"user_id":110,"name":"ƒ†1 ‚ô¶ Synth","steam_id":76561198058660228,"connected_time":219000000000,"state":"active","ping":54},{"user_id":72,"name":"Polygunner","steam_id":76561199165741650,"connected_time":3821000000000,"state":"active","ping":98},{"user_id":103,"name":"walterhwhite","steam_id":76561199433675789,"connected_time":1336000000000,"state":"active","ping":86},{"user_id":108,"name":"barbara","steam_id":76561198072417792,"connected_time":800000000000,"state":"active","ping":88},{"user_id":80,"name":"PingableUsername","steam_id":76561198138760165,"connected_time":2543000000000,"state":"active","ping":60},{"user_id":44,"name":"StarLy","steam_id":76561198174428289,"connected_time":5525000000000,"state":"active","ping":79},{"user_id":114,"name":"Crazy__Biscuit","steam_id":76561198399851872,"connected_time":129000000000,"state":"active","ping":108},{"user_id":73,"name":"mikey | I'm Burning Bright!","steam_id":76561198985847893,"connected_time":3626000000000,"state":"active","ping":46},{"user_id":68,"name":"Unofficial","steam_id":76561198370071152,"connected_time":4012000000000,"state":"active","ping":107},{"user_id":104,"name":"gogc10","steam_id":76561198969665614,"connected_time":1293000000000,"state":"active","ping":86}]},{"server_id":5,"name":"Uncletopia | Frankfurt | 1 | All Maps","name_short":"frk-1","host":"frk-1.de.uncletopia.com","port":27015,"enabled":true,"region":"eu","cc":"de","latitude":50.110924,"longitude":8.682127,"reserved":0,"last_update":"0001-01-01T00:00:00Z","name_a2s":"Uncletopia | Frankfurt | 1 | All Maps","protocol":17,"map":"cp_process_final","folder":"tf","game":"Team Fortress","app_id":440,"player_count":24,"max_players":24,"Bots":0,"server_type":"Dedicated","server_os":"Linux","password":true,"vac":true,"version":"7757534","steam_id":85568392924469989,"keywords":["cp","nocrits","nodmgspread","uncletopia"],"game_id":440,"stv_port":27016,"stv_name":"Uncletopia | Frankfurt | 1 | All Maps | STV","players":[{"user_id":681,"name":"bANji","steam_id":76561198108898161,"connected_time":696000000000,"state":"active","ping":34},{"user_id":642,"name":"Nightmare","steam_id":76561198260470304,"connected_time":2766000000000,"state":"active","ping":60},{"user_id":673,"name":"mr K","steam_id":76561198120166752,"connected_time":794000000000,"state":"active","ping":72},{"user_id":674,"name":"minespweper","steam_id":76561199096919345,"connected_time":774000000000,"state":"active","ping":83},{"user_id":643,"name":"Atticted","steam_id":76561198819677845,"connected_time":2755000000000,"state":"active","ping":98},{"user_id":650,"name":"TryTane","steam_id":76561198133293111,"connected_time":1844000000000,"state":"active","ping":46},{"user_id":595,"name":"R","steam_id":76561199379233899,"connected_time":5991000000000,"state":"active","ping":90},{"user_id":670,"name":"‚Ç≠√§Ã∑≈Çƒê…Ü‚Ç¶","steam_id":76561198166352975,"connected_time":922000000000,"state":"active","ping":45},{"user_id":687,"name":"Petal","steam_id":76561199103766971,"connected_time":48000000000,"state":"spawning","ping":144},{"user_id":675,"name":"Lux","steam_id":76561198060417740,"connected_time":736000000000,"state":"active","ping":46},{"user_id":656,"name":"Allereinan","steam_id":76561198342239906,"connected_time":1468000000000,"state":"active","ping":109},{"user_id":658,"name":"Daikon","steam_id":76561198044017083,"connected_time":1386000000000,"state":"active","ping":57},{"user_id":676,"name":"kbbq","steam_id":76561198346638308,"connected_time":732000000000,"state":"active","ping":56},{"user_id":660,"name":"MaximusTheFish","steam_id":76561199025652089,"connected_time":1267000000000,"state":"active","ping":65},{"user_id":686,"name":"nedilya","steam_id":76561198039692077,"connected_time":163000000000,"state":"active","ping":47},{"user_id":677,"name":"jovi_","steam_id":76561198449280552,"connected_time":708000000000,"state":"active","ping":68},{"user_id":663,"name":"Nickbro101","steam_id":76561198044271692,"connected_time":1102000000000,"state":"active","ping":61},{"user_id":683,"name":"Baklava Enjoyer","steam_id":76561198990679631,"connected_time":654000000000,"state":"active","ping":129},{"user_id":665,"name":"Arturias","steam_id":76561198188720263,"connected_time":1091000000000,"state":"active","ping":59},{"user_id":666,"name":"Whirlwind","steam_id":76561198942024930,"connected_time":1071000000000,"state":"active","ping":97},{"user_id":679,"name":"Krios","steam_id":76561199198145670,"connected_time":699000000000,"state":"active","ping":54},{"user_id":680,"name":"jt7","steam_id":76561198073655162,"connected_time":699000000000,"state":"active","ping":64},{"user_id":682,"name":"Michael","steam_id":76561198003146906,"connected_time":658000000000,"state":"active","ping":66},{"user_id":684,"name":"Chris","steam_id":76561198018626828,"connected_time":640000000000,"state":"active","ping":69}]},{"server_id":110,"name":"Uncletopia | Frankfurt | 2 | All Maps","name_short":"frk-2","host":"frk-1.de.uncletopia.com","port":27025,"enabled":true,"region":"eu","cc":"de","latitude":50.110924,"longitude":8.682127,"reserved":0,"last_update":"0001-01-01T00:00:00Z","name_a2s":"Uncletopia | Frankfurt | 2 | All Maps","protocol":17,"map":"cp_snakewater_final1","folder":"tf","game":"Team Fortress","app_id":440,"player_count":0,"max_players":24,"Bots":0,"server_type":"Dedicated","server_os":"Linux","password":true,"vac":true,"version":"7757534","steam_id":85568392924469990,"keywords":["cp","nocrits","nodmgspread","uncletopia"],"game_id":440,"stv_port":27026,"stv_name":"Uncletopia | Frankfurt | 2 | All Maps | STV","players":null},{"server_id":308,"name":"Uncletopia | Frankfurt | 3 | All Maps","name_short":"frk-3","host":"frk-1.de.uncletopia.com","port":27035,"enabled":true,"region":"eu","cc":"de","latitude":50.110924,"longitude":8.682127,"reserved":0,"last_update":"0001-01-01T00:00:00Z","name_a2s":"Uncletopia | Frankfurt | 3 | All Maps","protocol":17,"map":"pl_barnblitz","folder":"tf","game":"Team Fortress","app_id":440,"player_count":24,"max_players":24,"Bots":0,"server_type":"Dedicated","server_os":"Linux","password":true,"vac":true,"version":"7757534","steam_id":85568392924504274,"keywords":["nocrits","nodmgspread","payload","uncletopia"],"game_id":440,"stv_port":27036,"stv_name":"Uncletopia | Frankfurt | 3 | All Maps | STV","players":[{"user_id":287,"name":"Hegyi tah√≥ F2P","steam_id":76561199219150356,"connected_time":2169000000000,"state":"active","ping":74},{"user_id":304,"name":"Yony","steam_id":76561199070569941,"connected_time":1282000000000,"state":"active","ping":61},{"user_id":315,"name":"78","steam_id":76561198208328357,"connected_time":581000000000,"state":"active","ping":86},{"user_id":305,"name":"FNF","steam_id":76561199151422826,"connected_time":1222000000000,"state":"active","ping":114},{"user_id":307,"name":"Sky","steam_id":76561198087415698,"connected_time":1115000000000,"state":"active","ping":60},{"user_id":316,"name":"dn4k","steam_id":76561199221755690,"connected_time":578000000000,"state":"active","ping":78},{"user_id":270,"name":"'M'","steam_id":76561197985151052,"connected_time":2893000000000,"state":"active","ping":58},{"user_id":309,"name":"Leszy","steam_id":76561198372172135,"connected_time":976000000000,"state":"active","ping":64},{"user_id":252,"name":"KillerQueen (he/they/she)","steam_id":76561199019399725,"connected_time":4046000000000,"state":"active","ping":62},{"user_id":310,"name":"rummy","steam_id":76561197997573379,"connected_time":909000000000,"state":"active","ping":62},{"user_id":292,"name":"Baki ‡∂û","steam_id":76561198193615529,"connected_time":1866000000000,"state":"active","ping":55},{"user_id":296,"name":"Drekad√≥ttir","steam_id":76561198119979169,"connected_time":1738000000000,"state":"active","ping":68},{"user_id":297,"name":"Ane≈•√°k","steam_id":76561198159294906,"connected_time":1721000000000,"state":"active","ping":55},{"user_id":303,"name":"Gandhi the Grater","steam_id":76561198051198555,"connected_time":1481000000000,"state":"active","ping":70},{"user_id":312,"name":"Tre3","steam_id":76561198054795379,"connected_time":866000000000,"state":"active","ping":52},{"user_id":271,"name":"scarf","steam_id":76561198118873912,"connected_time":2870000000000,"state":"active","ping":88},{"user_id":298,"name":"joebot","steam_id":76561197975606100,"connected_time":1714000000000,"state":"active","ping":142},{"user_id":314,"name":"Signor_UpB","steam_id":76561199145637231,"connected_time":621000000000,"state":"active","ping":78},{"user_id":278,"name":"Jahusi!*","steam_id":76561197992445165,"connected_time":2663000000000,"state":"active","ping":56},{"user_id":299,"name":"Regan","steam_id":76561198100631086,"connected_time":1711000000000,"state":"active","ping":69},{"user_id":280,"name":"misky","steam_id":76561198179070173,"connected_time":2651000000000,"state":"active","ping":47},{"user_id":281,"name":"VolcanicArts","steam_id":76561198063453246,"connected_time":2640000000000,"state":"active","ping":64},{"user_id":301,"name":"–ù—ñ–∫—ñ—Ç—Ä–æ–Ω","steam_id":76561198044401080,"connected_time":1691000000000,"state":"active","ping":59},{"user_id":283,"name":"luma","steam_id":76561198081649669,"connected_time":2625000000000,"state":"active","ping":62}]},{"server_id":309,"name":"Uncletopia | Frankfurt | 4 | All Maps","name_short":"frk-4","host":"frk-1.de.uncletopia.com","port":27045,"enabled":true,"region":"eu","cc":"de","latitude":50.110924,"longitude":8.682127,"reserved":0,"last_update":"0001-01-01T00:00:00Z","name_a2s":"Uncletopia | Frankfurt | 4 | All Maps","protocol":17,"map":"pl_frontier_final","folder":"tf","game":"Team Fortress","app_id":440,"player_count":7,"max_players":24,"Bots":0,"server_type":"Dedicated","server_os":"Linux","password":true,"vac":true,"version":"7757534","steam_id":85568392924504275,"keywords":["nocrits","nodmgspread","payload","uncletopia"],"game_id":440,"stv_port":27046,"stv_name":"Uncletopia | Frankfurt | 4 | All Maps | STV","players":[{"user_id":195,"name":"Ben UFO","steam_id":76561198001648348,"connected_time":230000000000,"state":"active","ping":57},{"user_id":196,"name":"GardenFungus","steam_id":76561198054894337,"connected_time":87000000000,"state":"active","ping":45},{"user_id":192,"name":"Blyatwork","steam_id":76561198825379598,"connected_time":302000000000,"state":"active","ping":41},{"user_id":193,"name":"Cosmetic brain","steam_id":76561198055936410,"connected_time":292000000000,"state":"active","ping":75},{"user_id":135,"name":"[HOL] Solringen","steam_id":76561198003584681,"connected_time":3888000000000,"state":"active","ping":67},{"user_id":183,"name":"Osmo","steam_id":76561199286764992,"connected_time":1489000000000,"state":"active","ping":70},{"user_id":168,"name":"Roni Pepperoni","steam_id":76561198074979740,"connected_time":2560000000000,"state":"active","ping":48}]},{"server_id":310,"name":"Uncletopia | Frankfurt | 5 | All Maps","name_short":"frk-5","host":"frk-1.de.uncletopia.com","port":27055,"enabled":true,"region":"eu","cc":"de","latitude":50.110924,"longitude":8.682127,"reserved":0,"last_update":"0001-01-01T00:00:00Z","name_a2s":"Uncletopia | Frankfurt | 5 | All Maps","protocol":17,"map":"cp_sunshine","folder":"tf","game":"Team Fortress","app_id":440,"player_count":24,"max_players":24,"Bots":0,"server_type":"Dedicated","server_os":"Linux","password":true,"vac":true,"version":"7757534","steam_id":85568392924504277,"keywords":["cp","nocrits","nodmgspread","uncletopia"],"game_id":440,"stv_port":27056,"stv_name":"Uncletopia | Frankfurt | 5 | All Maps | STV","players":[{"user_id":235,"name":"alvinulv","steam_id":76561198024487177,"connected_time":3913000000000,"state":"active","ping":60},{"user_id":268,"name":"Spetse","steam_id":76561197990649972,"connected_time":544000000000,"state":"active","ping":85},{"user_id":258,"name":"Deacon Dracul","steam_id":76561198046880663,"connected_time":1725000000000,"state":"active","ping":95},{"user_id":276,"name":"Hellish Paradise.","steam_id":76561199011293286,"connected_time":186000000000,"state":"active","ping":86},{"user_id":237,"name":"Klinmir","steam_id":76561198352339376,"connected_time":3881000000000,"state":"active","ping":92},{"user_id":277,"name":"Miju","steam_id":76561198056029274,"connected_time":159000000000,"state":"active","ping":51},{"user_id":265,"name":"Zembis","steam_id":76561198008017918,"connected_time":958000000000,"state":"active","ping":91},{"user_id":239,"name":"Zatusrex","steam_id":76561198104147805,"connected_time":3841000000000,"state":"active","ping":73},{"user_id":266,"name":"kreeekz","steam_id":76561198014431602,"connected_time":923000000000,"state":"active","ping":73},{"user_id":243,"name":"Hasamnas","steam_id":76561199125038537,"connected_time":3757000000000,"state":"active","ping":52},{"user_id":251,"name":"Grim the lemon","steam_id":76561199083433988,"connected_time":2072000000000,"state":"active","ping":64},{"user_id":248,"name":"The Mage","steam_id":76561198019147244,"connected_time":2271000000000,"state":"active","ping":61},{"user_id":273,"name":"Udinese Dion","steam_id":76561198067931573,"connected_time":339000000000,"state":"active","ping":46},{"user_id":203,"name":"Vershal Smershal","steam_id":76561198116223995,"connected_time":6051000000000,"state":"active","ping":62},{"user_id":262,"name":"Charrky","steam_id":76561198054398642,"connected_time":1475000000000,"state":"active","ping":60},{"user_id":271,"name":"M0rph","steam_id":76561198127339176,"connected_time":439000000000,"state":"active","ping":54},{"user_id":244,"name":"mcdonaldburger54@yahoo.com","steam_id":76561198846982793,"connected_time":3548000000000,"state":"active","ping":61},{"user_id":275,"name":"Mr Manager","steam_id":76561198021775885,"connected_time":215000000000,"state":"active","ping":56},{"user_id":255,"name":"Chill Spirit","steam_id":76561198845001725,"connected_time":1930000000000,"state":"active","ping":44},{"user_id":278,"name":"Baron","steam_id":76561198021901783,"connected_time":17000000000,"state":"spawning","ping":92},{"user_id":270,"name":"etc","steam_id":76561197998394797,"connected_time":457000000000,"state":"active","ping":57},{"user_id":207,"name":"Mi Manchi","steam_id":76561198171573129,"connected_time":5778000000000,"state":"active","ping":59},{"user_id":260,"name":"LOBZIK","steam_id":76561198114830120,"connected_time":1688000000000,"state":"active","ping":76},{"user_id":221,"name":"Kvicha Kvaratskhelia","steam_id":76561198179339326,"connected_time":5063000000000,"state":"active","ping":79}]},{"server_id":311,"name":"Uncletopia | Frankfurt | 6 | All Maps","name_short":"frk-6","host":"frk-1.de.uncletopia.com","port":27065,"enabled":true,"region":"eu","cc":"de","latitude":50.110924,"longitude":8.682127,"reserved":0,"last_update":"0001-01-01T00:00:00Z","name_a2s":"Uncletopia | Frankfurt | 6 | All Maps","protocol":17,"map":"pl_upward","folder":"tf","game":"Team Fortress","app_id":440,"player_count":22,"max_players":24,"Bots":0,"server_type":"Dedicated","server_os":"Linux","password":true,"vac":true,"version":"7757534","steam_id":85568392924504278,"keywords":["nocrits","nodmgspread","payload","uncletopia"],"game_id":440,"stv_port":27066,"stv_name":"Uncletopia | Frankfurt | 6 | All Maps | STV","players":[{"user_id":68,"name":"Mr Lidl","steam_id":76561198426522902,"connected_time":3317000000000,"state":"active","ping":65},{"user_id":17,"name":"Milca_11","steam_id":76561198848650365,"connected_time":8246000000000,"state":"active","ping":84},{"user_id":86,"name":"Rashid Besythe","steam_id":76561198081477129,"connected_time":2436000000000,"state":"active","ping":71},{"user_id":82,"name":"bear in the big blue house enjo","steam_id":76561198133532980,"connected_time":2713000000000,"state":"active","ping":57},{"user_id":89,"name":"Eddy Merckx 2","steam_id":76561198150009727,"connected_time":1706000000000,"state":"active","ping":65},{"user_id":103,"name":"bottle bush","steam_id":76561198102871434,"connected_time":1264000000000,"state":"active","ping":69},{"user_id":74,"name":"FoOzTV","steam_id":76561197998636728,"connected_time":2944000000000,"state":"active","ping":71},{"user_id":105,"name":"Rizzly Bear","steam_id":76561199012155377,"connected_time":868000000000,"state":"active","ping":41},{"user_id":99,"name":"Kvikk","steam_id":76561198063104117,"connected_time":1361000000000,"state":"active","ping":88},{"user_id":70,"name":"addicted","steam_id":76561199129801006,"connected_time":3168000000000,"state":"active","ping":57},{"user_id":97,"name":"paranoia","steam_id":76561198274105878,"connected_time":1442000000000,"state":"active","ping":76},{"user_id":88,"name":"SMELLY UNFORTUNATE","steam_id":76561198256755222,"connected_time":1853000000000,"state":"active","ping":60},{"user_id":108,"name":"snost and lost","steam_id":76561198072892783,"connected_time":76000000000,"state":"active","ping":49},{"user_id":92,"name":"holy fucking bingle","steam_id":76561198249832770,"connected_time":1628000000000,"state":"active","ping":60},{"user_id":79,"name":"the joy of recycling","steam_id":76561198415564349,"connected_time":2846000000000,"state":"active","ping":60},{"user_id":80,"name":"edgar","steam_id":76561198212862423,"connected_time":2831000000000,"state":"active","ping":48},{"user_id":100,"name":"wr[2]","steam_id":76561198085260269,"connected_time":1348000000000,"state":"active","ping":52},{"user_id":96,"name":"The Bushman","steam_id":76561198152576682,"connected_time":1494000000000,"state":"active","ping":84},{"user_id":63,"name":"AwterSix","steam_id":76561198042561678,"connected_time":3588000000000,"state":"active","ping":62},{"user_id":66,"name":"Kendo-6","steam_id":76561198318748304,"connected_time":3530000000000,"state":"active","ping":124},{"user_id":56,"name":"EastmoreRandoms.","steam_id":76561198048921203,"connected_time":4203000000000,"state":"active","ping":69},{"user_id":101,"name":"VORTEX(COMMS OPEN)","steam_id":76561199074746528,"connected_time":1341000000000,"state":"active","ping":55}]},{"server_id":23,"name":"Uncletopia | Frankfurt | 7 | Stopwatch Beta","name_short":"frk-7","host":"frk-1.de.uncletopia.com","port":27075,"enabled":true,"region":"eu","cc":"de","latitude":50.110924,"longitude":8.682127,"reserved":0,"last_update":"0001-01-01T00:00:00Z","name_a2s":"Uncletopia | Frankfurt | 7 | Stopwatch Beta","protocol":17,"map":"pl_swiftwater_final1","folder":"tf","game":"Team Fortress","app_id":440,"player_count":0,"max_players":24,"Bots":0,"server_type":"Dedicated","server_os":"Linux","password":true,"vac":true,"version":"7757534","steam_id":85568392924742827,"keywords":["nocrits","nodmgspread","payload","uncletopia"],"game_id":440,"stv_port":27076,"stv_name":"Uncletopia | Frankfurt | 7 | Stopwatch Beta | STV","players":null},{"server_id":24,"name":"Uncletopia | Frankfurt | 8 | Community","name_short":"frk-8","host":"frk-1.de.uncletopia.com","port":27085,"enabled":true,"region":"eu","cc":"de","latitude":50.110924,"longitude":8.682127,"reserved":0,"last_update":"0001-01-01T00:00:00Z","name_a2s":"Uncletopia | Frankfurt | 8 | Community","protocol":17,"map":"koth_viaduct","folder":"tf","game":"Team Fortress","app_id":440,"player_count":0,"max_players":24,"Bots":0,"server_type":"Dedicated","server_os":"Linux","password":true,"vac":true,"version":"7757534","steam_id":85568392924742828,"keywords":["cp","nocrits","nodmgspread","uncletopia"],"game_id":440,"stv_port":27086,"stv_name":"Uncletopia | Frankfurt | 8 | Community | STV","players":null},{"server_id":202,"name":"Uncletopia | Hong Kong | 1 | All Maps","name_short":"hgk-1","host":"hgk-1.hk.uncletopia.com","port":27015,"enabled":true,"region":"asia","cc":"hk","latitude":22.302711,"longitude":114.177216,"reserved":0,"last_update":"0001-01-01T00:00:00Z","name_a2s":"Uncletopia | Hong Kong | 1 | All Maps","protocol":17,"map":"cp_process_final","folder":"tf","game":"Team Fortress","app_id":440,"player_count":0,"max_players":24,"Bots":0,"server_type":"Dedicated","server_os":"Linux","password":true,"vac":true,"version":"7757534","steam_id":85568392924494504,"keywords":["cp","nocrits","nodmgspread","uncletopia"],"game_id":440,"stv_port":27016,"stv_name":"Uncletopia | Hong Kong | 1 | All Maps | STV","players":null},{"server_id":1,"name":"Uncletopia | Los Angeles | 1 | All Maps","name_short":"lax-1","host":"lax-1.us.uncletopia.com","port":27015,"enabled":true,"region":"us-west","cc":"us","latitude":33.94279,"longitude":-118.41004,"reserved":0,"last_update":"0001-01-01T00:00:00Z","name_a2s":"Uncletopia | Los Angeles | 1 | All Maps","protocol":17,"map":"koth_cascade","folder":"tf","game":"Team Fortress","app_id":440,"player_count":18,"max_players":24,"Bots":0,"server_type":"Dedicated","server_os":"Linux","password":true,"vac":true,"version":"7757534","steam_id":85568392924469991,"keywords":["cp","nocrits","nodmgspread","uncletopia"],"game_id":440,"stv_port":27016,"stv_name":"Uncletopia | Los Angeles | 1 | All Maps | STV","players":[{"user_id":7,"name":"Golden.mp3","steam_id":76561199062764883,"connected_time":4863000000000,"state":"active","ping":56},{"user_id":12,"name":"paolobuts","steam_id":76561199047108638,"connected_time":1636000000000,"state":"active","ping":59},{"user_id":9,"name":"Jhon Xina","steam_id":76561198411174051,"connected_time":3740000000000,"state":"active","ping":68},{"user_id":13,"name":"BoX_hEaD101","steam_id":76561198200875467,"connected_time":1353000000000,"state":"active","ping":65},{"user_id":20,"name":"Klitz Penischmidt","steam_id":76561198050582941,"connected_time":461000000000,"state":"active","ping":109},{"user_id":15,"name":"TheLuckyOne","steam_id":76561198804171849,"connected_time":964000000000,"state":"active","ping":97},{"user_id":16,"name":"Guavaz!","steam_id":76561198282290924,"connected_time":890000000000,"state":"active","ping":48},{"user_id":17,"name":"PinguEnjoyer6","steam_id":76561199186723516,"connected_time":782000000000,"state":"active","ping":30},{"user_id":19,"name":"Dentivent","steam_id":76561197971953043,"connected_time":564000000000,"state":"active","ping":58},{"user_id":21,"name":"üÖúüÖîüÖîüÖöüÖ¢üÖ£üÖî\ufffd\ufffd\ufffd","steam_id":76561197999748343,"connected_time":424000000000,"state":"active","ping":70},{"user_id":22,"name":"Blitzy","steam_id":76561198149472890,"connected_time":407000000000,"state":"active","ping":98},{"user_id":23,"name":"Tort boi","steam_id":76561198125327110,"connected_time":259000000000,"state":"active","ping":78},{"user_id":30,"name":"Meteora","steam_id":76561198070934430,"connected_time":10000000000,"state":"spawning","ping":107},{"user_id":25,"name":"Superman123389","steam_id":76561198267472539,"connected_time":149000000000,"state":"active","ping":94},{"user_id":26,"name":"tlm","steam_id":76561198178457461,"connected_time":126000000000,"state":"active","ping":75},{"user_id":27,"name":"Lilgraves710x","steam_id":76561199219933577,"connected_time":73000000000,"state":"active","ping":100},{"user_id":28,"name":"Drowse","steam_id":76561198029794548,"connected_time":72000000000,"state":"spawning","ping":44},{"user_id":29,"name":"SneekiCheekiQbone","steam_id":76561198045077980,"connected_time":58000000000,"state":"active","ping":40}]},{"server_id":112,"name":"Uncletopia | Los Angeles | 2 | All Maps","name_short":"lax-2","host":"lax-1.us.uncletopia.com","port":27025,"enabled":true,"region":"us-west","cc":"us","latitude":33.94279,"longitude":-118.41004,"reserved":0,"last_update":"0001-01-01T00:00:00Z","name_a2s":"Uncletopia | Los Angeles | 2 | All Maps","protocol":17,"map":"koth_viaduct","folder":"tf","game":"Team Fortress","app_id":440,"player_count":0,"max_players":24,"Bots":0,"server_type":"Dedicated","server_os":"Linux","password":true,"vac":true,"version":"7757534","steam_id":85568392924469992,"keywords":["cp","nocrits","nodmgspread","uncletopia"],"game_id":440,"stv_port":27026,"stv_name":"Uncletopia | Los Angeles | 2 | All Maps | STV","players":null},{"server_id":324,"name":"Uncletopia | Los Angeles | 3 | All Maps","name_short":"lax-3","host":"lax-1.us.uncletopia.com","port":27035,"enabled":true,"region":"us-west","cc":"us","latitude":33.94279,"longitude":-118.41004,"reserved":0,"last_update":"0001-01-01T00:00:00Z","name_a2s":"Uncletopia | Los Angeles | 3 | All Maps","protocol":17,"map":"cp_altitude","folder":"tf","game":"Team Fortress","app_id":440,"player_count":0,"max_players":24,"Bots":0,"server_type":"Dedicated","server_os":"Linux","password":true,"vac":true,"version":"7757534","steam_id":85568392924510198,"keywords":["cp","nocrits","nodmgspread","uncletopia"],"game_id":440,"stv_port":27036,"stv_name":"Uncletopia | Los Angeles | 3 | All Maps | STV","players":null},{"server_id":25,"name":"Uncletopia | Los Angeles | 4 | Stopwatch Beta","name_short":"lax-4","host":"lax-1.us.uncletopia.com","port":27045,"enabled":true,"region":"us-west","cc":"us","latitude":33.94279,"longitude":-118.41004,"reserved":0,"last_update":"0001-01-01T00:00:00Z","name_a2s":"Uncletopia | Los Angeles | 4 | Stopwatch Beta","protocol":17,"map":"cp_dustbowl","folder":"tf","game":"Team Fortress","app_id":440,"player_count":0,"max_players":24,"Bots":0,"server_type":"Dedicated","server_os":"Linux","password":true,"vac":true,"version":"7757534","steam_id":85568392924510199,"keywords":["cp","nocrits","nodmgspread","uncletopia"],"game_id":440,"stv_port":27046,"stv_name":"Uncletopia | Los Angeles | 4 | Stopwatch Beta | STV","players":null},{"server_id":11,"name":"Uncletopia | London | 1 | All Maps","name_short":"lon-1","host":"lon-1.uk.uncletopia.com","port":27015,"enabled":true,"region":"eu","cc":"gb","latitude":51.509865,"longitude":-0.118092,"reserved":0,"last_update":"0001-01-01T00:00:00Z","name_a2s":"Uncletopia | London | 1 | All Maps","protocol":17,"map":"koth_suijin","folder":"tf","game":"Team Fortress","app_id":440,"player_count":24,"max_players":24,"Bots":0,"server_type":"Dedicated","server_os":"Linux","password":true,"vac":true,"version":"7757534","steam_id":85568392924367362,"keywords":["cp","nocrits","nodmgspread","uncletopia"],"game_id":440,"stv_port":27016,"stv_name":"Uncletopia | London | 1 | All Maps | STV","players":[{"user_id":531,"name":"DeadpoolDealsDamage","steam_id":76561198399472908,"connected_time":2761000000000,"state":"active","ping":54},{"user_id":574,"name":"Boil em mash em","steam_id":76561198026508026,"connected_time":413000000000,"state":"active","ping":64},{"user_id":549,"name":"wasto-/-‚Ñ¢","steam_id":76561198102888038,"connected_time":2167000000000,"state":"active","ping":56},{"user_id":576,"name":"Ass Clappicus","steam_id":76561198851157897,"connected_time":293000000000,"state":"active","ping":63},{"user_id":553,"name":"Jaydyn","steam_id":76561198140326797,"connected_time":1773000000000,"state":"active","ping":129},{"user_id":572,"name":"peruna","steam_id":76561198000721196,"connected_time":475000000000,"state":"active","ping":89},{"user_id":575,"name":"Egap","steam_id":76561199070653454,"connected_time":397000000000,"state":"active","ping":102},{"user_id":534,"name":"Thalgorock","steam_id":76561198195315022,"connected_time":2601000000000,"state":"active","ping":74},{"user_id":536,"name":"Subterranean","steam_id":76561198106684566,"connected_time":2445000000000,"state":"active","ping":83},{"user_id":568,"name":"Evil weed wizard","steam_id":76561198076137526,"connected_time":640000000000,"state":"active","ping":51},{"user_id":559,"name":"aslloc((sizeof(U64) \u003c\u003c 0xff));","steam_id":76561198365870439,"connected_time":1302000000000,"state":"active","ping":100},{"user_id":495,"name":"dec","steam_id":76561198009660168,"connected_time":5449000000000,"state":"active","ping":49},{"user_id":539,"name":"true","steam_id":76561198031145243,"connected_time":2430000000000,"state":"active","ping":82},{"user_id":569,"name":"InsectKing","steam_id":76561199013519071,"connected_time":628000000000,"state":"active","ping":40},{"user_id":554,"name":"Roe Jogan","steam_id":76561198871991529,"connected_time":1756000000000,"state":"active","ping":68},{"user_id":529,"name":"sassy the sasquatch","steam_id":76561198844060342,"connected_time":3173000000000,"state":"active","ping":45},{"user_id":573,"name":"owlsie","steam_id":76561198094883280,"connected_time":424000000000,"state":"active","ping":76},{"user_id":566,"name":"Yuval","steam_id":76561198241802390,"connected_time":686000000000,"state":"active","ping":109},{"user_id":514,"name":"ciliorkun18","steam_id":76561198228942500,"connected_time":4000000000000,"state":"active","ping":90},{"user_id":550,"name":"nudjura","steam_id":76561198281986139,"connected_time":2131000000000,"state":"active","ping":46},{"user_id":579,"name":"xristosblin","steam_id":76561199043074852,"connected_time":64000000000,"state":"active","ping":95},{"user_id":578,"name":"Noodle","steam_id":76561198306486695,"connected_time":139000000000,"state":"active","ping":71},{"user_id":563,"name":"Great recession of 2008","steam_id":76561198881151562,"connected_time":1229000000000,"state":"active","ping":87},{"user_id":555,"name":"Floris","steam_id":76561198001717422,"connected_time":1755000000000,"state":"active","ping":58}]},{"server_id":114,"name":"Uncletopia | London | 2 | All Maps","name_short":"lon-2","host":"lon-1.uk.uncletopia.com","port":27025,"enabled":true,"region":"eu","cc":"gb","latitude":51.509865,"longitude":-0.118092,"reserved":0,"last_update":"0001-01-01T00:00:00Z","name_a2s":"Uncletopia | London | 2 | All Maps","protocol":17,"map":"cp_process_final","folder":"tf","game":"Team Fortress","app_id":440,"player_count":24,"max_players":24,"Bots":0,"server_type":"Dedicated","server_os":"Linux","password":true,"vac":true,"version":"7757534","steam_id":85568392924470941,"keywords":["cp","nocrits","nodmgspread","uncletopia"],"game_id":440,"stv_port":27026,"stv_name":"Uncletopia | London | 2 | All Maps | STV","players":[{"user_id":333,"name":"sgt_peper","steam_id":76561198029751443,"connected_time":932000000000,"state":"active","ping":100},{"user_id":319,"name":"kektuse","steam_id":76561198088426580,"connected_time":1657000000000,"state":"active","ping":60},{"user_id":272,"name":"Purps","steam_id":76561198053886680,"connected_time":3688000000000,"state":"active","ping":45},{"user_id":334,"name":"M√âZ","steam_id":76561198167504701,"connected_time":920000000000,"state":"active","ping":69},{"user_id":301,"name":"Fat Pigeon","steam_id":76561198817940142,"connected_time":2308000000000,"state":"active","ping":47},{"user_id":321,"name":"BisaGone!","steam_id":76561199002624709,"connected_time":1643000000000,"state":"active","ping":40},{"user_id":322,"name":"Captain HandicappedCock","steam_id":76561198109850402,"connected_time":1633000000000,"state":"active","ping":71},{"user_id":278,"name":"Princess Fuzz","steam_id":76561198025783000,"connected_time":3374000000000,"state":"active","ping":45},{"user_id":335,"name":"wepon","steam_id":76561198097789669,"connected_time":916000000000,"state":"active","ping":68},{"user_id":336,"name":"yoursbzt","steam_id":76561198201866574,"connected_time":891000000000,"state":"active","ping":79},{"user_id":253,"name":"Tomau5","steam_id":76561198027409468,"connected_time":6477000000000,"state":"active","ping":54},{"user_id":317,"name":"Bronze Age GRINDSET","steam_id":76561198859118263,"connected_time":1708000000000,"state":"active","ping":129},{"user_id":341,"name":"Petight","steam_id":76561197999438798,"connected_time":751000000000,"state":"active","ping":29},{"user_id":344,"name":"RudiPrico4","steam_id":76561199014381495,"connected_time":491000000000,"state":"active","ping":60},{"user_id":329,"name":"day","steam_id":76561198260265302,"connected_time":1301000000000,"state":"active","ping":36},{"user_id":267,"name":"Meddler","steam_id":76561198033001402,"connected_time":4952000000000,"state":"active","ping":39},{"user_id":330,"name":"toothpaste vaper","steam_id":76561198078458780,"connected_time":1224000000000,"state":"active","ping":58},{"user_id":242,"name":"Grillem Dafoe","steam_id":76561198306874574,"connected_time":8002000000000,"state":"active","ping":62},{"user_id":337,"name":"The Perpetrator","steam_id":76561198825651550,"connected_time":881000000000,"state":"active","ping":87},{"user_id":346,"name":"Peaced.old","steam_id":76561197993682469,"connected_time":344000000000,"state":"active","ping":54},{"user_id":338,"name":"„Äê caden / karma „Äë","steam_id":76561198072276429,"connected_time":873000000000,"state":"active","ping":148},{"user_id":237,"name":"goblin","steam_id":76561198151122921,"connected_time":8243000000000,"state":"active","ping":76},{"user_id":339,"name":"PizzaPete123","steam_id":76561198089478290,"connected_time":865000000000,"state":"active","ping":35},{"user_id":305,"name":"player","steam_id":76561198054474684,"connected_time":2271000000000,"state":"active","ping":79}]},{"server_id":320,"name":"Uncletopia | London | 3 | All Maps","name_short":"lon-3","host":"lon-1.uk.uncletopia.com","port":27035,"enabled":true,"region":"eu","cc":"gb","latitude":51.509865,"longitude":-0.118092,"reserved":0,"last_update":"0001-01-01T00:00:00Z","name_a2s":"Uncletopia | London | 3 | All Maps","protocol":17,"map":"cp_mercenarypark","folder":"tf","game":"Team Fortress","app_id":440,"player_count":24,"max_players":24,"Bots":0,"server_type":"Dedicated","server_os":"Linux","password":true,"vac":true,"version":"7757534","steam_id":85568392924510192,"keywords":["cp","nocrits","nodmgspread","uncletopia"],"game_id":440,"stv_port":27036,"stv_name":"Uncletopia | London | 3 | All Maps | STV","players":[{"user_id":139,"name":"‚ô• TRANS RIGHTS ‚ô•","steam_id":76561198066258544,"connected_time":6324000000000,"state":"active","ping":62},{"user_id":191,"name":"Traveandre","steam_id":76561198372637536,"connected_time":1416000000000,"state":"active","ping":59},{"user_id":193,"name":"waffle toaster","steam_id":76561198799089628,"connected_time":1058000000000,"state":"active","ping":39},{"user_id":203,"name":"Nope","steam_id":76561198069066522,"connected_time":438000000000,"state":"active","ping":81},{"user_id":207,"name":"Weenie Hut Jr's","steam_id":76561198050515739,"connected_time":230000000000,"state":"active","ping":45},{"user_id":208,"name":"baro.ricky","steam_id":76561198172204039,"connected_time":214000000000,"state":"active","ping":103},{"user_id":182,"name":"JohkupohkuXD","steam_id":76561198391108762,"connected_time":2357000000000,"state":"active","ping":95},{"user_id":209,"name":"KittyKate ‚ù§","steam_id":76561198116340817,"connected_time":162000000000,"state":"active","ping":65},{"user_id":205,"name":"gRocc0","steam_id":76561198283840637,"connected_time":281000000000,"state":"active","ping":109},{"user_id":168,"name":"Salih","steam_id":76561198287934839,"connected_time":4074000000000,"state":"active","ping":60},{"user_id":120,"name":"V","steam_id":76561199006462039,"connected_time":7355000000000,"state":"active","ping":67},{"user_id":138,"name":"bussy overload","steam_id":76561198413545609,"connected_time":6418000000000,"state":"active","ping":47},{"user_id":204,"name":"RedFog","steam_id":76561198284713081,"connected_time":364000000000,"state":"active","ping":47},{"user_id":161,"name":"Minimi","steam_id":76561198873850443,"connected_time":4431000000000,"state":"active","ping":36},{"user_id":128,"name":"darktheif54","steam_id":76561198043650119,"connected_time":6892000000000,"state":"active","ping":52},{"user_id":125,"name":"rob","steam_id":76561198122211848,"connected_time":7031000000000,"state":"active","ping":92},{"user_id":210,"name":"quake 2 hater","steam_id":76561198101451654,"connected_time":146000000000,"state":"active","ping":52},{"user_id":162,"name":"koca kolahan","steam_id":76561199033153779,"connected_time":4410000000000,"state":"active","ping":89},{"user_id":206,"name":"BepisR47","steam_id":76561198084515716,"connected_time":260000000000,"state":"active","ping":41},{"user_id":132,"name":"Pinkchup","steam_id":76561198106802803,"connected_time":6755000000000,"state":"active","ping":74},{"user_id":211,"name":"torn","steam_id":76561198223003236,"connected_time":118000000000,"state":"active","ping":33},{"user_id":212,"name":"Checkmate.","steam_id":76561198339466196,"connected_time":15000000000,"state":"spawning","ping":67},{"user_id":155,"name":"pezza","steam_id":76561197995173247,"connected_time":4958000000000,"state":"active","ping":59},{"user_id":201,"name":"hawkblob","steam_id":76561198803720565,"connected_time":490000000000,"state":"active","ping":62}]},{"server_id":321,"name":"Uncletopia | London | 4 | All Maps","name_short":"lon-4","host":"lon-1.uk.uncletopia.com","port":27045,"enabled":true,"region":"eu","cc":"gb","latitude":51.509865,"longitude":-0.118092,"reserved":0,"last_update":"0001-01-01T00:00:00Z","name_a2s":"Uncletopia | London | 4 | All Maps","protocol":17,"map":"cp_dustbowl","folder":"tf","game":"Team Fortress","app_id":440,"player_count":0,"max_players":24,"Bots":0,"server_type":"Dedicated","server_os":"Linux","password":true,"vac":true,"version":"7757534","steam_id":85568392924510193,"keywords":["cp","nocrits","nodmgspread","uncletopia"],"game_id":440,"stv_port":27046,"stv_name":"Uncletopia | London | 4 | All Maps | STV","players":null},{"server_id":21,"name":"Uncletopia | London | 5 | All Maps","name_short":"lon-5","host":"lon-1.uk.uncletopia.com","port":27055,"enabled":true,"region":"eu","cc":"gb","latitude":51.509865,"longitude":-0.118092,"reserved":0,"last_update":"0001-01-01T00:00:00Z","name_a2s":"Uncletopia | London | 5 | All Maps","protocol":17,"map":"cp_dustbowl","folder":"tf","game":"Team Fortress","app_id":440,"player_count":0,"max_players":24,"Bots":0,"server_type":"Dedicated","server_os":"Linux","password":true,"vac":true,"version":"7757534","steam_id":85568392924742829,"keywords":["cp","nocrits","nodmgspread","uncletopia"],"game_id":440,"stv_port":27056,"stv_name":"Uncletopia | London | 5 | All Maps | STV","players":null},{"server_id":22,"name":"Uncletopia | London | 6 | All Maps","name_short":"lon-6","host":"lon-1.uk.uncletopia.com","port":27065,"enabled":true,"region":"eu","cc":"gb","latitude":51.509865,"longitude":-0.118092,"reserved":0,"last_update":"0001-01-01T00:00:00Z","name_a2s":"Uncletopia | London | 6 | All Maps","protocol":17,"map":"pl_badwater","folder":"tf","game":"Team Fortress","app_id":440,"player_count":24,"max_players":24,"Bots":0,"server_type":"Dedicated","server_os":"Linux","password":true,"vac":true,"version":"7757534","steam_id":85568392924742830,"keywords":["nocrits","nodmgspread","payload","uncletopia"],"game_id":440,"stv_port":27066,"stv_name":"Uncletopia | London | 6 | All Maps | STV","players":[{"user_id":202,"name":"Julez","steam_id":76561198045505082,"connected_time":409000000000,"state":"active","ping":80},{"user_id":89,"name":"Mr. Mundy","steam_id":76561198132008918,"connected_time":7915000000000,"state":"active","ping":78},{"user_id":193,"name":"Umberto Bossi","steam_id":76561198136150267,"connected_time":1064000000000,"state":"active","ping":61},{"user_id":178,"name":"Umbro","steam_id":76561198087930438,"connected_time":2600000000000,"state":"active","ping":75},{"user_id":173,"name":"eeeeee","steam_id":76561198017786875,"connected_time":2726000000000,"state":"active","ping":57},{"user_id":195,"name":"Kurage","steam_id":76561198021221288,"connected_time":891000000000,"state":"active","ping":72},{"user_id":163,"name":"Farao Ramses II","steam_id":76561198078722712,"connected_time":3237000000000,"state":"active","ping":45},{"user_id":196,"name":"skeleton94","steam_id":76561199032256341,"connected_time":877000000000,"state":"active","ping":110},{"user_id":187,"name":"MAKENTAKEN","steam_id":76561199127359587,"connected_time":1628000000000,"state":"active","ping":100},{"user_id":197,"name":"Fragirl #pizdaaim","steam_id":76561198323411853,"connected_time":872000000000,"state":"active","ping":118},{"user_id":161,"name":"sex haver","steam_id":76561198798892497,"connected_time":3417000000000,"state":"active","ping":50},{"user_id":200,"name":"Clitorina","steam_id":76561198077570815,"connected_time":498000000000,"state":"active","ping":41},{"user_id":204,"name":"StandAlloy","steam_id":76561199466218699,"connected_time":54000000000,"state":"active","ping":117},{"user_id":192,"name":"Medieval Doktor","steam_id":76561198075373362,"connected_time":1433000000000,"state":"active","ping":41},{"user_id":191,"name":"egirls are ruining my life","steam_id":76561198152368271,"connected_time":1495000000000,"state":"active","ping":71},{"user_id":158,"name":"balanced diet","steam_id":76561198240320806,"connected_time":3682000000000,"state":"active","ping":70},{"user_id":180,"name":"Kodutah","steam_id":76561198203405574,"connected_time":2424000000000,"state":"active","ping":71},{"user_id":55,"name":"Hexagon","steam_id":76561198151205758,"connected_time":9715000000000,"state":"active","ping":58},{"user_id":175,"name":"Carrotcracker","steam_id":76561198034862396,"connected_time":2710000000000,"state":"active","ping":72},{"user_id":144,"name":"Welder","steam_id":76561198355300561,"connected_time":4648000000000,"state":"active","ping":72},{"user_id":167,"name":"Spajro","steam_id":76561198257383813,"connected_time":3087000000000,"state":"active","ping":45},{"user_id":176,"name":"generic alias","steam_id":76561198271607226,"connected_time":2710000000000,"state":"active","ping":97},{"user_id":198,"name":"Steen","steam_id":76561198122992510,"connected_time":822000000000,"state":"active","ping":46},{"user_id":186,"name":"diogenes","steam_id":76561198080387138,"connected_time":1862000000000,"state":"active","ping":53}]},{"server_id":40,"name":"Uncletopia | London | 7 | No Payload","name_short":"lon-7","host":"lon-1.uk.uncletopia.com","port":27075,"enabled":true,"region":"eu","cc":"gb","latitude":51.509865,"longitude":-0.118092,"reserved":0,"last_update":"0001-01-01T00:00:00Z","name_a2s":"Uncletopia | London | 7 | No Payload","protocol":17,"map":"koth_highpass","folder":"tf","game":"Team Fortress","app_id":440,"player_count":0,"max_players":24,"Bots":0,"server_type":"Dedicated","server_os":"Linux","password":true,"vac":true,"version":"7757534","steam_id":85568392924964314,"keywords":["cp","nocrits","nodmgspread","uncletopia"],"game_id":440,"stv_port":27076,"stv_name":"Uncletopia | London | 7 | No Payload | STV","players":null},{"server_id":41,"name":"Uncletopia | London | 8 | Community","name_short":"lon-8","host":"lon-1.uk.uncletopia.com","port":27085,"enabled":true,"region":"eu","cc":"gb","latitude":51.509865,"longitude":-0.118092,"reserved":0,"last_update":"0001-01-01T00:00:00Z","name_a2s":"Uncletopia | London | 8 | Community","protocol":17,"map":"cp_altitude","folder":"tf","game":"Team Fortress","app_id":440,"player_count":0,"max_players":24,"Bots":0,"server_type":"Dedicated","server_os":"Linux","password":true,"vac":true,"version":"7757534","steam_id":85568392924964315,"keywords":["cp","nocrits","nodmgspread","uncletopia"],"game_id":440,"stv_port":27086,"stv_name":"Uncletopia | London | 8 | Community | STV","players":null},{"server_id":300,"name":"Uncletopia | Montr√©al | 1 | All Maps","name_short":"mtl-1","host":"mtl-1.ca.uncletopia.com","port":27015,"enabled":true,"region":"us-east","cc":"ca","latitude":45.50889,"longitude":-73.56167,"reserved":0,"last_update":"0001-01-01T00:00:00Z","name_a2s":"Uncletopia | Montr√©al | 1 | All Maps","protocol":17,"map":"pl_pier","folder":"tf","game":"Team Fortress","app_id":440,"player_count":0,"max_players":24,"Bots":0,"server_type":"Dedicated","server_os":"Linux","password":true,"vac":true,"version":"7757534","steam_id":85568392924500087,"keywords":["nocrits","nodmgspread","payload","uncletopia"],"game_id":440,"stv_port":27016,"stv_name":"Uncletopia | Montr√©al | 1 | All Maps | STV","players":null},{"server_id":301,"name":"Uncletopia | Montr√©al | 2 | All Maps","name_short":"mtl-2","host":"mtl-1.ca.uncletopia.com","port":27025,"enabled":true,"region":"us-east","cc":"ca","latitude":45.50889,"longitude":-73.56167,"reserved":0,"last_update":"0001-01-01T00:00:00Z","name_a2s":"Uncletopia | Montr√©al | 2 | All Maps","protocol":17,"map":"pl_snowycoast","folder":"tf","game":"Team Fortress","app_id":440,"player_count":0,"max_players":24,"Bots":0,"server_type":"Dedicated","server_os":"Linux","password":true,"vac":true,"version":"7757534","steam_id":85568392924500088,"keywords":["nocrits","nodmgspread","payload","uncletopia"],"game_id":440,"stv_port":27026,"stv_name":"Uncletopia | Montr√©al | 2 | All Maps | STV","players":null},{"server_id":302,"name":"Uncletopia | Montr√©al | 3 | All Maps","name_short":"mtl-3","host":"mtl-1.ca.uncletopia.com","port":27035,"enabled":true,"region":"us-east","cc":"ca","latitude":45.50889,"longitude":-73.56167,"reserved":0,"last_update":"0001-01-01T00:00:00Z","name_a2s":"Uncletopia | Montr√©al | 3 | All Maps","protocol":17,"map":"pl_frontier_final","folder":"tf","game":"Team Fortress","app_id":440,"player_count":0,"max_players":24,"Bots":0,"server_type":"Dedicated","server_os":"Linux","password":true,"vac":true,"version":"7757534","steam_id":85568392924500089,"keywords":["nocrits","nodmgspread","payload","uncletopia"],"game_id":440,"stv_port":27036,"stv_name":"Uncletopia | Montr√©al | 3 | All Maps | STV","players":null},{"server_id":303,"name":"Uncletopia | Montr√©al | 4 | No Payload","name_short":"mtl-4","host":"mtl-1.ca.uncletopia.com","port":27045,"enabled":true,"region":"us-east","cc":"ca","latitude":45.50889,"longitude":-73.56167,"reserved":0,"last_update":"0001-01-01T00:00:00Z","name_a2s":"Uncletopia | Montr√©al | 4 | No Payload","protocol":17,"map":"pl_pier","folder":"tf","game":"Team Fortress","app_id":440,"player_count":0,"max_players":24,"Bots":0,"server_type":"Dedicated","server_os":"Linux","password":true,"vac":true,"version":"7757534","steam_id":85568392924500090,"keywords":["nocrits","nodmgspread","payload","uncletopia"],"game_id":440,"stv_port":27046,"stv_name":"Uncletopia | Montr√©al | 4 | No Payload | STV","players":null},{"server_id":13,"name":"Uncletopia | New York City | 1 | All Maps","name_short":"nyc-1","host":"nyc-1.us.uncletopia.com","port":27015,"enabled":true,"region":"us-east","cc":"us","latitude":40.73061,"longitude":-73.93524,"reserved":0,"last_update":"0001-01-01T00:00:00Z","name_a2s":"Uncletopia | New York City | 1 | All Maps","protocol":17,"map":"pl_upward","folder":"tf","game":"Team Fortress","app_id":440,"player_count":24,"max_players":24,"Bots":0,"server_type":"Dedicated","server_os":"Linux","password":true,"vac":true,"version":"7757534","steam_id":85568392924469993,"keywords":["nocrits","nodmgspread","payload","uncletopia"],"game_id":440,"stv_port":27016,"stv_name":"Uncletopia | New York City | 1 | All Maps | STV","players":[{"user_id":66,"name":"Cerabond","steam_id":76561199230915333,"connected_time":1226000000000,"state":"active","ping":68},{"user_id":29,"name":"Average Engineer Main","steam_id":76561197999657118,"connected_time":3842000000000,"state":"active","ping":79},{"user_id":81,"name":"Paolo","steam_id":76561198048134549,"connected_time":292000000000,"state":"active","ping":84},{"user_id":68,"name":"Totouri","steam_id":76561198004229789,"connected_time":1099000000000,"state":"active","ping":67},{"user_id":32,"name":"Maple!","steam_id":76561199315167502,"connected_time":2830000000000,"state":"active","ping":74},{"user_id":64,"name":"Cecil","steam_id":76561199309028776,"connected_time":1544000000000,"state":"active","ping":45},{"user_id":75,"name":"NeverAcedIt (Pinnacle -\u003e Pit)","steam_id":76561198406671743,"connected_time":802000000000,"state":"active","ping":85},{"user_id":38,"name":"Shuu","steam_id":76561199199180558,"connected_time":2371000000000,"state":"active","ping":52},{"user_id":77,"name":"reanimator","steam_id":76561198085830470,"connected_time":436000000000,"state":"active","ping":45},{"user_id":47,"name":"chiswola","steam_id":76561198046920142,"connected_time":2122000000000,"state":"active","ping":90},{"user_id":78,"name":"leumas","steam_id":76561198240408540,"connected_time":413000000000,"state":"active","ping":45},{"user_id":40,"name":"tulpa","steam_id":76561198013253513,"connected_time":2299000000000,"state":"active","ping":71},{"user_id":70,"name":"mug","steam_id":76561198283008682,"connected_time":1051000000000,"state":"active","ping":39},{"user_id":48,"name":"ttv/Muenstier","steam_id":76561198312153623,"connected_time":2120000000000,"state":"active","ping":46},{"user_id":49,"name":"Fudgely","steam_id":76561198039425862,"connected_time":2114000000000,"state":"active","ping":61},{"user_id":51,"name":"Humble Leader","steam_id":76561198169966346,"connected_time":2109000000000,"state":"active","ping":67},{"user_id":52,"name":"StarKillerX7","steam_id":76561198400952294,"connected_time":2061000000000,"state":"active","ping":51},{"user_id":54,"name":"Wahooka","steam_id":76561197962240925,"connected_time":1940000000000,"state":"active","ping":58},{"user_id":80,"name":"PrinceGrotle","steam_id":76561198206131603,"connected_time":389000000000,"state":"active","ping":60},{"user_id":73,"name":"Marksu","steam_id":76561198104187404,"connected_time":1030000000000,"state":"active","ping":144},{"user_id":57,"name":"breesey","steam_id":76561198341658826,"connected_time":1890000000000,"state":"active","ping":40},{"user_id":58,"name":"Bingus Floppa","steam_id":76561198318970846,"connected_time":1869000000000,"state":"active","ping":53},{"user_id":59,"name":"azr","steam_id":76561198271979034,"connected_time":1860000000000,"state":"active","ping":48},{"user_id":83,"name":"The Rambler","steam_id":76561198109648603,"connected_time":32000000000,"state":"active","ping":78}]},{"server_id":14,"name":"Uncletopia | New York City | 2 | All Maps","name_short":"nyc-2","host":"nyc-1.us.uncletopia.com","port":27025,"enabled":true,"region":"us-east","cc":"us","latitude":40.73061,"longitude":-73.93524,"reserved":0,"last_update":"0001-01-01T00:00:00Z","name_a2s":"Uncletopia | New York City | 2 | All Maps","protocol":17,"map":"plr_hightower","folder":"tf","game":"Team Fortress","app_id":440,"player_count":0,"max_players":24,"Bots":0,"server_type":"Dedicated","server_os":"Linux","password":true,"vac":true,"version":"7757534","steam_id":85568392924469994,"keywords":["nocrits","nodmgspread","payload","uncletopia"],"game_id":440,"stv_port":27026,"stv_name":"Uncletopia | New York City | 2 | All Maps | STV","players":null},{"server_id":15,"name":"Uncletopia | New York City | 3 | Stopwatch Beta","name_short":"nyc-3","host":"nyc-1.us.uncletopia.com","port":27035,"enabled":true,"region":"us-east","cc":"us","latitude":40.73061,"longitude":-73.93524,"reserved":0,"last_update":"0001-01-01T00:00:00Z","name_a2s":"Uncletopia | New York City | 3 | Stopwatch Beta","protocol":17,"map":"koth_cascade","folder":"tf","game":"Team Fortress","app_id":440,"player_count":0,"max_players":24,"Bots":0,"server_type":"Dedicated","server_os":"Linux","password":true,"vac":true,"version":"7757534","steam_id":85568392924742820,"keywords":["cp","nocrits","nodmgspread","uncletopia"],"game_id":440,"stv_port":27036,"stv_name":"Uncletopia | New York City | 3 | Stopwatch Beta | STV","players":null},{"server_id":16,"name":"Uncletopia | New York City | 4 | Community","name_short":"nyc-4","host":"nyc-1.us.uncletopia.com","port":27045,"enabled":true,"region":"us-east","cc":"us","latitude":40.73061,"longitude":-73.93524,"reserved":0,"last_update":"0001-01-01T00:00:00Z","name_a2s":"Uncletopia | New York City | 4 | Community","protocol":17,"map":"pl_frontier_final","folder":"tf","game":"Team Fortress","app_id":440,"player_count":0,"max_players":24,"Bots":0,"server_type":"Dedicated","server_os":"Linux","password":true,"vac":true,"version":"7757534","steam_id":85568392924742821,"keywords":["nocrits","nodmgspread","payload","uncletopia"],"game_id":440,"stv_port":27046,"stv_name":"Uncletopia | New York City | 4 | Community | STV","players":null},{"server_id":142,"name":"Uncletopia | S√£o Paulo | 1 | All Maps","name_short":"sao-1","host":"sao-1.br.uncletopia.com","port":27015,"enabled":true,"region":"sa","cc":"br","latitude":-23.533773,"longitude":-46.62529,"reserved":0,"last_update":"0001-01-01T00:00:00Z","name_a2s":"Uncletopia | S√£o Paulo | 1 | All Maps","protocol":17,"map":"koth_viaduct","folder":"tf","game":"Team Fortress","app_id":440,"player_count":0,"max_players":24,"Bots":0,"server_type":"Dedicated","server_os":"Linux","password":true,"vac":true,"version":"7757534","steam_id":85568392924469996,"keywords":["cp","nocrits","nodmgspread","uncletopia"],"game_id":440,"stv_port":27016,"stv_name":"Uncletopia | S√£o Paulo | 1 | All Maps | STV","players":null},{"server_id":143,"name":"Uncletopia | S√£o Paulo | 2 | All Maps","name_short":"sao-2","host":"sao-2.br.uncletopia.com","port":27015,"enabled":true,"region":"sa","cc":"br","latitude":-23.533773,"longitude":-46.62529,"reserved":0,"last_update":"0001-01-01T00:00:00Z","name_a2s":"Uncletopia | S√£o Paulo | 2 | All Maps","protocol":17,"map":"koth_viaduct","folder":"tf","game":"Team Fortress","app_id":440,"player_count":0,"max_players":24,"Bots":0,"server_type":"Dedicated","server_os":"Linux","password":true,"vac":true,"version":"7757534","steam_id":85568392924485349,"keywords":["cp","nocrits","nodmgspread","uncletopia"],"game_id":440,"stv_port":27016,"stv_name":"Uncletopia | S√£o Paulo | 2 | All Maps | STV","players":null},{"server_id":7,"name":"Uncletopia | Seattle | 1 | All Maps","name_short":"sea-1","host":"sea-1.us.uncletopia.com","port":27015,"enabled":true,"region":"us-west","cc":"us","latitude":47.608013,"longitude":-122.33517,"reserved":0,"last_update":"0001-01-01T00:00:00Z","name_a2s":"Uncletopia | Seattle | 1 | All Maps","protocol":17,"map":"pl_upward","folder":"tf","game":"Team Fortress","app_id":440,"player_count":23,"max_players":24,"Bots":0,"server_type":"Dedicated","server_os":"Linux","password":true,"vac":true,"version":"7757534","steam_id":85568392924469997,"keywords":["nocrits","nodmgspread","payload","uncletopia"],"game_id":440,"stv_port":27016,"stv_name":"Uncletopia | Seattle | 1 | All Maps | STV","players":[{"user_id":356,"name":"Speedy","steam_id":76561198080761661,"connected_time":2257000000000,"state":"active","ping":125},{"user_id":201,"name":"crumblejon","steam_id":76561198111273302,"connected_time":13530000000000,"state":"active","ping":60},{"user_id":364,"name":"Sloppy John (Extra Sauce)","steam_id":76561198359703432,"connected_time":772000000000,"state":"active","ping":74},{"user_id":349,"name":"EatSomeBEES","steam_id":76561198047334307,"connected_time":2328000000000,"state":"active","ping":81},{"user_id":325,"name":"„Ä£dust„Ä£ -she/it-","steam_id":76561198045218909,"connected_time":5034000000000,"state":"active","ping":42},{"user_id":309,"name":"DatFluffyPancake","steam_id":76561198271958697,"connected_time":6162000000000,"state":"active","ping":64},{"user_id":363,"name":"Frog","steam_id":76561198093257083,"connected_time":946000000000,"state":"active","ping":45},{"user_id":365,"name":"jas_the_man","steam_id":76561198147991471,"connected_time":767000000000,"state":"active","ping":86},{"user_id":352,"name":"VampWolfDoll (She/Her)","steam_id":76561198102301491,"connected_time":2311000000000,"state":"active","ping":130},{"user_id":339,"name":"SpinetinglingToast","steam_id":76561198099470670,"connected_time":3690000000000,"state":"active","ping":122},{"user_id":343,"name":"Thequirka","steam_id":76561198968058652,"connected_time":2998000000000,"state":"active","ping":51},{"user_id":368,"name":"enolteiii","steam_id":76561198140843225,"connected_time":625000000000,"state":"active","ping":123},{"user_id":372,"name":"William","steam_id":76561199471434875,"connected_time":346000000000,"state":"active","ping":79},{"user_id":298,"name":"Luca","steam_id":76561198125087140,"connected_time":7239000000000,"state":"active","ping":45},{"user_id":370,"name":"Scythe07","steam_id":76561199064810353,"connected_time":593000000000,"state":"active","ping":134},{"user_id":350,"name":"Lil Urge","steam_id":76561198162207470,"connected_time":2323000000000,"state":"active","ping":62},{"user_id":371,"name":"AmiableNebula","steam_id":76561198094306627,"connected_time":492000000000,"state":"active","ping":75},{"user_id":369,"name":"Oldengie","steam_id":76561199074712665,"connected_time":613000000000,"state":"active","ping":152},{"user_id":181,"name":"LProduct","steam_id":76561199442139670,"connected_time":15303000000000,"state":"active","ping":74},{"user_id":373,"name":"Ducks","steam_id":76561198130038345,"connected_time":14000000000,"state":"spawning","ping":92},{"user_id":355,"name":"Korey","steam_id":76561198210734407,"connected_time":2299000000000,"state":"active","ping":112},{"user_id":359,"name":"Toad :)","steam_id":76561198163008022,"connected_time":2023000000000,"state":"active","ping":50},{"user_id":340,"name":"egyptiangodcard","steam_id":76561198855935442,"connected_time":3678000000000,"state":"active","ping":61}]},{"server_id":119,"name":"Uncletopia | Seattle | 2 | All Maps","name_short":"sea-2","host":"sea-1.us.uncletopia.com","port":27025,"enabled":true,"region":"us-west","cc":"us","latitude":47.608013,"longitude":-122.33517,"reserved":0,"last_update":"0001-01-01T00:00:00Z","name_a2s":"Uncletopia | Seattle | 2 | All Maps","protocol":17,"map":"pl_frontier_final","folder":"tf","game":"Team Fortress","app_id":440,"player_count":24,"max_players":24,"Bots":0,"server_type":"Dedicated","server_os":"Linux","password":true,"vac":true,"version":"7757534","steam_id":85568392924469998,"keywords":["nocrits","nodmgspread","payload","uncletopia"],"game_id":440,"stv_port":27026,"stv_name":"Uncletopia | Seattle | 2 | All Maps | STV","players":[{"user_id":11,"name":"WaffleWithNoToppings","steam_id":76561199088280111,"connected_time":11129000000000,"state":"active","ping":57},{"user_id":131,"name":"Swag6","steam_id":76561198064110837,"connected_time":1151000000000,"state":"active","ping":67},{"user_id":109,"name":"DesolateCabbage","steam_id":76561198064467423,"connected_time":3876000000000,"state":"active","ping":98},{"user_id":129,"name":"shy guy","steam_id":76561198151246059,"connected_time":1325000000000,"state":"active","ping":71},{"user_id":145,"name":"SuperFresh","steam_id":76561198200723198,"connected_time":360000000000,"state":"active","ping":88},{"user_id":150,"name":"chicken","steam_id":76561198982373765,"connected_time":273000000000,"state":"active","ping":133},{"user_id":125,"name":"UWBW","steam_id":76561198007524241,"connected_time":1538000000000,"state":"active","ping":117},{"user_id":148,"name":"DerMann","steam_id":76561198354781811,"connected_time":305000000000,"state":"active","ping":69},{"user_id":149,"name":"ShiftShock01","steam_id":76561199049488870,"connected_time":303000000000,"state":"active","ping":47},{"user_id":140,"name":"blahturretx","steam_id":76561198062998225,"connected_time":584000000000,"state":"active","ping":70},{"user_id":65,"name":"soda","steam_id":76561198105924953,"connected_time":6777000000000,"state":"active","ping":65},{"user_id":94,"name":"‚ùÑ «ùldd…ê«ùu·¥âd ‚ùÑ","steam_id":76561198041108726,"connected_time":4565000000000,"state":"active","ping":52},{"user_id":107,"name":"Novaside","steam_id":76561198079461961,"connected_time":3900000000000,"state":"active","ping":143},{"user_id":152,"name":"jams","steam_id":76561198131701290,"connected_time":239000000000,"state":"active","ping":86},{"user_id":144,"name":"Defeat","steam_id":76561198065203818,"connected_time":430000000000,"state":"active","ping":44},{"user_id":147,"name":"Icy","steam_id":76561198125015366,"connected_time":344000000000,"state":"active","ping":117},{"user_id":134,"name":"wiz","steam_id":76561198045731206,"connected_time":1113000000000,"state":"active","ping":45},{"user_id":136,"name":"land0","steam_id":76561198321264704,"connected_time":965000000000,"state":"active","ping":88},{"user_id":141,"name":"Milotic","steam_id":76561198047995713,"connected_time":569000000000,"state":"active","ping":92},{"user_id":153,"name":"Cheeki","steam_id":76561198024375176,"connected_time":216000000000,"state":"active","ping":105},{"user_id":154,"name":"goob the 3st","steam_id":76561198158735758,"connected_time":214000000000,"state":"active","ping":129},{"user_id":143,"name":"Desperate Gamer","steam_id":76561198217261328,"connected_time":543000000000,"state":"active","ping":77},{"user_id":155,"name":"OrangeShoes","steam_id":76561197971249940,"connected_time":212000000000,"state":"active","ping":128},{"user_id":73,"name":"The Pepsi¬Æ Superbowl¬Æ!","steam_id":76561198080828981,"connected_time":6523000000000,"state":"active","ping":81}]},{"server_id":406,"name":"Uncletopia | Seattle | 3 | Stopwatch Beta","name_short":"sea-3","host":"sea-1.us.uncletopia.com","port":27035,"enabled":true,"region":"us-west","cc":"us","latitude":47.608013,"longitude":-122.33517,"reserved":0,"last_update":"0001-01-01T00:00:00Z","name_a2s":"Uncletopia | Seattle | 3 | Stopwatch Beta","protocol":17,"map":"cp_process_final","folder":"tf","game":"Team Fortress","app_id":440,"player_count":0,"max_players":24,"Bots":0,"server_type":"Dedicated","server_os":"Linux","password":true,"vac":true,"version":"7757534","steam_id":85568392924515217,"keywords":["cp","nocrits","nodmgspread","uncletopia"],"game_id":440,"stv_port":27036,"stv_name":"Uncletopia | Seattle | 3 | Stopwatch Beta | STV","players":null},{"server_id":17,"name":"Uncletopia | San Francisco | 1 | All Maps","name_short":"sfo-1","host":"sfo-1.us.uncletopia.com","port":27015,"enabled":true,"region":"us-west","cc":"us","latitude":37.77397,"longitude":-122.4313,"reserved":0,"last_update":"0001-01-01T00:00:00Z","name_a2s":"Uncletopia | San Francisco | 1 | All Maps","protocol":17,"map":"koth_highpass","folder":"tf","game":"Team Fortress","app_id":440,"player_count":0,"max_players":24,"Bots":0,"server_type":"Dedicated","server_os":"Linux","password":true,"vac":true,"version":"7757534","steam_id":85568392924469999,"keywords":["cp","nocrits","nodmgspread","uncletopia"],"game_id":440,"stv_port":27016,"stv_name":"Uncletopia | San Francisco | 1 | All Maps | STV","players":null},{"server_id":18,"name":"Uncletopia | San Francisco | 2 | All Maps","name_short":"sfo-2","host":"sfo-1.us.uncletopia.com","port":27025,"enabled":true,"region":"us-west","cc":"us","latitude":37.77397,"longitude":-122.4313,"reserved":0,"last_update":"0001-01-01T00:00:00Z","name_a2s":"Uncletopia | San Francisco | 2 | All Maps","protocol":17,"map":"koth_viaduct","folder":"tf","game":"Team Fortress","app_id":440,"player_count":0,"max_players":24,"Bots":0,"server_type":"Dedicated","server_os":"Linux","password":true,"vac":true,"version":"7757534","steam_id":85568392924470000,"keywords":["cp","nocrits","nodmgspread","uncletopia"],"game_id":440,"stv_port":27026,"stv_name":"Uncletopia | San Francisco | 2 | All Maps | STV","players":null},{"server_id":19,"name":"Uncletopia | San Francisco | 3 | Stopwatch Beta","name_short":"sfo-3","host":"sfo-1.us.uncletopia.com","port":27035,"enabled":true,"region":"us-west","cc":"us","latitude":37.77397,"longitude":-122.4313,"reserved":0,"last_update":"0001-01-01T00:00:00Z","name_a2s":"Uncletopia | San Francisco | 3 | Stopwatch Beta","protocol":17,"map":"cp_snakewater_final1","folder":"tf","game":"Team Fortress","app_id":440,"player_count":0,"max_players":24,"Bots":0,"server_type":"Dedicated","server_os":"Linux","password":true,"vac":true,"version":"7757534","steam_id":85568392924742824,"keywords":["cp","nocrits","nodmgspread","uncletopia"],"game_id":440,"stv_port":27036,"stv_name":"Uncletopia | San Francisco | 3 | Stopwatch Beta | STV","players":null},{"server_id":20,"name":"Uncletopia | San Francisco | 4 | Community","name_short":"sfo-4","host":"sfo-1.us.uncletopia.com","port":27045,"enabled":true,"region":"us-west","cc":"us","latitude":37.77397,"longitude":-122.4313,"reserved":0,"last_update":"0001-01-01T00:00:00Z","name_a2s":"Uncletopia | San Francisco | 4 | Community","protocol":17,"map":"pl_frontier_final","folder":"tf","game":"Team Fortress","app_id":440,"player_count":0,"max_players":24,"Bots":0,"server_type":"Dedicated","server_os":"Linux","password":true,"vac":true,"version":"7757534","steam_id":85568392924742826,"keywords":["nocrits","nodmgspread","payload","uncletopia"],"game_id":440,"stv_port":27046,"stv_name":"Uncletopia | San Francisco | 4 | Community | STV","players":null},{"server_id":141,"name":"Uncletopia | Sydney | 1 | All Maps","name_short":"syd-1","host":"syd-1.au.uncletopia.com","port":27015,"enabled":true,"region":"au","cc":"au","latitude":-33.865143,"longitude":151.2099,"reserved":0,"last_update":"0001-01-01T00:00:00Z","name_a2s":"Uncletopia | Sydney | 1 | All Maps","protocol":17,"map":"pl_borneo","folder":"tf","game":"Team Fortress","app_id":440,"player_count":0,"max_players":24,"Bots":0,"server_type":"Dedicated","server_os":"Linux","password":true,"vac":true,"version":"7757534","steam_id":85568392924470001,"keywords":["nocrits","nodmgspread","payload","uncletopia"],"game_id":440,"stv_port":27016,"stv_name":"Uncletopia | Sydney | 1 | All Maps | STV","players":null},{"server_id":123,"name":"Uncletopia | Sydney | 2 | All Maps","name_short":"syd-2","host":"syd-1.au.uncletopia.com","port":27025,"enabled":true,"region":"au","cc":"au","latitude":-33.865143,"longitude":151.2099,"reserved":0,"last_update":"0001-01-01T00:00:00Z","name_a2s":"Uncletopia | Sydney | 2 | All Maps","protocol":17,"map":"pl_upward","folder":"tf","game":"Team Fortress","app_id":440,"player_count":0,"max_players":24,"Bots":0,"server_type":"Dedicated","server_os":"Linux","password":true,"vac":true,"version":"7757534","steam_id":85568392924470002,"keywords":["nocrits","nodmgspread","payload","uncletopia"],"game_id":440,"stv_port":27026,"stv_name":"Uncletopia | Sydney | 2 | All Maps | STV","players":null},{"server_id":395,"name":"Uncletopia | Sydney | 3 | All Maps","name_short":"syd-3","host":"syd-1.au.uncletopia.com","port":27035,"enabled":true,"region":"au","cc":"au","latitude":-33.865143,"longitude":151.2099,"reserved":0,"last_update":"0001-01-01T00:00:00Z","name_a2s":"Uncletopia | Sydney | 3 | All Maps","protocol":17,"map":"pl_borneo","folder":"tf","game":"Team Fortress","app_id":440,"player_count":0,"max_players":24,"Bots":0,"server_type":"Dedicated","server_os":"Linux","password":true,"vac":true,"version":"7757534","steam_id":85568392925194467,"keywords":["nocrits","nodmgspread","payload","uncletopia"],"game_id":440,"stv_port":27036,"stv_name":"Uncletopia | Sydney | 3 | All Maps | STV","players":null},{"server_id":396,"name":"Uncletopia | Sydney | 4 | All Maps","name_short":"syd-4","host":"syd-1.au.uncletopia.com","port":27045,"enabled":true,"region":"au","cc":"au","latitude":-33.865143,"longitude":151.2099,"reserved":0,"last_update":"0001-01-01T00:00:00Z","name_a2s":"Uncletopia | Sydney | 4 | All Maps","protocol":17,"map":"cp_process_final","folder":"tf","game":"Team Fortress","app_id":440,"player_count":0,"max_players":24,"Bots":0,"server_type":"Dedicated","server_os":"Linux","password":true,"vac":true,"version":"7757534","steam_id":85568392925397958,"keywords":["cp","nocrits","nodmgspread","uncletopia"],"game_id":440,"stv_port":27046,"stv_name":"Uncletopia | Sydney | 4 | All Maps | STV","players":null},{"server_id":58,"name":"Uncletopia | Sydney | 5 | Stopwatch Beta","name_short":"syd-5","host":"syd-1.au.uncletopia.com","port":27055,"enabled":true,"region":"au","cc":"au","latitude":-33.865143,"longitude":151.2099,"reserved":0,"last_update":"0001-01-01T00:00:00Z","name_a2s":"Uncletopia | Sydney | 5 | Stopwatch Beta","protocol":17,"map":"koth_cascade","folder":"tf","game":"Team Fortress","app_id":440,"player_count":0,"max_players":24,"Bots":0,"server_type":"Dedicated","server_os":"Linux","password":true,"vac":true,"version":"7757534","steam_id":85568392925397959,"keywords":["cp","nocrits","nodmgspread","uncletopia"],"game_id":440,"stv_port":27056,"stv_name":"Uncletopia | Sydney | 5 | Stopwatch Beta | STV","players":null},{"server_id":59,"name":"Uncletopia | Sydney | 6 | Community","name_short":"syd-6","host":"syd-1.au.uncletopia.com","port":27065,"enabled":true,"region":"au","cc":"au","latitude":-33.865143,"longitude":151.2099,"reserved":0,"last_update":"0001-01-01T00:00:00Z","name_a2s":"Uncletopia | Sydney | 6 | Community","protocol":17,"map":"pl_badwater","folder":"tf","game":"Team Fortress","app_id":440,"player_count":0,"max_players":24,"Bots":0,"server_type":"Dedicated","server_os":"Linux","password":true,"vac":true,"version":"7757534","steam_id":85568392925397960,"keywords":["nocrits","nodmgspread","payload","uncletopia"],"game_id":440,"stv_port":27066,"stv_name":"Uncletopia | Sydney | 6 | Community | STV","players":null},{"server_id":49,"name":"Uncletopia | Warsaw | 1 | All Maps","name_short":"waw-1","host":"waw-1.pl.uncletopia.com","port":27015,"enabled":true,"region":"eu","cc":"pl","latitude":52.2297,"longitude":21.017532,"reserved":0,"last_update":"0001-01-01T00:00:00Z","name_a2s":"","protocol":0,"map":"","folder":"","game":"","app_id":0,"player_count":0,"max_players":0,"Bots":0,"server_type":"","server_os":"","password":false,"vac":false,"version":"","steam_id":0,"keywords":null,"game_id":0,"stv_port":0,"stv_name":"","players":null},{"server_id":50,"name":"Uncletopia | Warsaw | 2 | All Maps","name_short":"waw-2","host":"waw-1.pl.uncletopia.com","port":27025,"enabled":true,"region":"eu","cc":"pl","latitude":52.2297,"longitude":21.017532,"reserved":0,"last_update":"0001-01-01T00:00:00Z","name_a2s":"Uncletopia | Warsaw | 2 | All Maps","protocol":17,"map":"koth_highpass","folder":"tf","game":"Team Fortress","app_id":440,"player_count":0,"max_players":24,"Bots":0,"server_type":"Dedicated","server_os":"Linux","password":true,"vac":true,"version":"7757534","steam_id":85568392925397851,"keywords":["cp","nocrits","nodmgspread","uncletopia"],"game_id":440,"stv_port":27026,"stv_name":"Uncletopia | Warsaw | 2 | All Maps | STV","players":null},{"server_id":51,"name":"Uncletopia | Warsaw | 3 | All Maps","name_short":"waw-3","host":"waw-1.pl.uncletopia.com","port":27035,"enabled":true,"region":"eu","cc":"pl","latitude":52.2297,"longitude":21.017532,"reserved":0,"last_update":"0001-01-01T00:00:00Z","name_a2s":"Uncletopia | Warsaw | 3 | All Maps","protocol":17,"map":"pl_pier","folder":"tf","game":"Team Fortress","app_id":440,"player_count":0,"max_players":24,"Bots":0,"server_type":"Dedicated","server_os":"Linux","password":true,"vac":true,"version":"7757534","steam_id":85568392925397852,"keywords":["nocrits","nodmgspread","payload","uncletopia"],"game_id":440,"stv_port":27036,"stv_name":"Uncletopia | Warsaw | 3 | All Maps | STV","players":null},{"server_id":52,"name":"Uncletopia | Warsaw | 4 | All Maps","name_short":"waw-4","host":"waw-1.pl.uncletopia.com","port":27045,"enabled":true,"region":"eu","cc":"pl","latitude":52.2297,"longitude":21.017532,"reserved":0,"last_update":"0001-01-01T00:00:00Z","name_a2s":"Uncletopia | Warsaw | 4 | All Maps","protocol":17,"map":"koth_highpass","folder":"tf","game":"Team Fortress","app_id":440,"player_count":0,"max_players":24,"Bots":0,"server_type":"Dedicated","server_os":"Linux","password":true,"vac":true,"version":"7757534","steam_id":85568392925397853,"keywords":["cp","nocrits","nodmgspread","uncletopia"],"game_id":440,"stv_port":27046,"stv_name":"Uncletopia | Warsaw | 4 | All Maps | STV","players":null},{"server_id":53,"name":"Uncletopia | Warsaw | 5 | Stopwatch Beta","name_short":"waw-5","host":"waw-1.pl.uncletopia.com","port":27055,"enabled":true,"region":"eu","cc":"pl","latitude":52.2297,"longitude":21.017532,"reserved":0,"last_update":"0001-01-01T00:00:00Z","name_a2s":"Uncletopia | Warsaw | 5 | Stopwatch Beta","protocol":17,"map":"pl_pier","folder":"tf","game":"Team Fortress","app_id":440,"player_count":0,"max_players":24,"Bots":0,"server_type":"Dedicated","server_os":"Linux","password":true,"vac":true,"version":"7757534","steam_id":85568392925397854,"keywords":["nocrits","nodmgspread","payload","uncletopia"],"game_id":440,"stv_port":27056,"stv_name":"Uncletopia | Warsaw | 5 | Stopwatch Beta | STV","players":null},{"server_id":54,"name":"Uncletopia | Warsaw | 6 | Community","name_short":"waw-6","host":"waw-1.pl.uncletopia.com","port":27065,"enabled":true,"region":"eu","cc":"pl","latitude":52.2297,"longitude":21.017532,"reserved":0,"last_update":"0001-01-01T00:00:00Z","name_a2s":"Uncletopia | Warsaw | 6 | Community","protocol":17,"map":"koth_highpass","folder":"tf","game":"Team Fortress","app_id":440,"player_count":0,"max_players":24,"Bots":0,"server_type":"Dedicated","server_os":"Linux","password":true,"vac":true,"version":"7757534","steam_id":85568392925397856,"keywords":["cp","nocrits","nodmgspread","uncletopia"],"game_id":440,"stv_port":27066,"stv_name":"Uncletopia | Warsaw | 6 | Community | STV","players":null}]}