{"status":true,"message":"","result":[{"server_id":9,"name":"Uncletopia | Atlanta | 1 | All Maps","name_short":"atl-1","host":"atl-1.us.uncletopia.com","port":27015,"enabled":true,"region":"us-east","cc":"us","latitude":33.753746,"longitude":-84.38633,"reserved":0,"last_update":"0001-01-01T00:00:00Z","name_a2s":"Uncletopia | Atlanta | 1 | All Maps","protocol":17,"map":"pl_frontier_final","folder":"tf","game":"Team Fortress","app_id":440,"player_count":0,"max_players":24,"Bots":0,"server_type":"Dedicated","server_os":"Linux","password":true,"vac":true,"version":"7882260","steam_id":85568392924469982,"keywords":["nocrits","nodmgspread","payload","uncletopia"],"game_id":440,"stv_port":27016,"stv_name":"Uncletopia | Atlanta | 1 | All Maps | STV","players":null},{"server_id":104,"name":"Uncletopia | Atlanta | 2 | All Maps","name_short":"atl-2","host":"atl-1.us.uncletopia.com","port":27025,"enabled":true,"region":"us-east","cc":"us","latitude":33.753746,"longitude":-84.38633,"reserved":0,"last_update":"0001-01-01T00:00:00Z","name_a2s":"Uncletopia | Atlanta | 2 | All Maps","protocol":17,"map":"pl_swiftwater_final1","folder":"tf","game":"Team Fortress","app_id":440,"player_count":0,"max_players":24,"Bots":0,"server_type":"Dedicated","server_os":"Linux","password":true,"vac":true,"version":"7882260","steam_id":85568392924469983,"keywords":["nocrits","nodmgspread","payload","uncletopia"],"game_id":440,"stv_port":27026,"stv_name":"Uncletopia | Atlanta | 2 | All Maps | STV","players":null},{"server_id":400,"name":"Uncletopia | Atlanta | 3 | Community","name_short":"atl-3","host":"atl-1.us.uncletopia.com","port":27035,"enabled":true,"region":"us-east","cc":"us","latitude":33.753746,"longitude":-84.38633,"reserved":0,"last_update":"0001-01-01T00:00:00Z","name_a2s":"Uncletopia | Atlanta | 3 | Community","protocol":17,"map":"workshop/koth_ramjam_rc1.ugc459778887","folder":"tf","game":"Team Fortress","app_id":440,"player_count":0,"max_players":24,"Bots":0,"server_type":"Dedicated","server_os":"Linux","password":true,"vac":true,"version":"7882260","steam_id":85568392924515187,"keywords":["cp","nocrits","nodmgspread","uncletopia"],"game_id":440,"stv_port":27036,"stv_name":"Uncletopia | Atlanta | 3 | Community | STV","players":null},{"server_id":401,"name":"Uncletopia | Atlanta | 4 | No Payload","name_short":"atl-4","host":"atl-1.us.uncletopia.com","port":27045,"enabled":true,"region":"us-east","cc":"us","latitude":33.753746,"longitude":-84.38633,"reserved":0,"last_update":"0001-01-01T00:00:00Z","name_a2s":"","protocol":0,"map":"","folder":"","game":"","app_id":0,"player_count":0,"max_players":0,"Bots":0,"server_type":"","server_os":"","password":false,"vac":false,"version":"","steam_id":0,"keywords":null,"game_id":0,"stv_port":0,"stv_name":"","players":null},{"server_id":2,"name":"Uncletopia | Chicago | 1 | All Maps","name_short":"chi-1","host":"chi-1.us.uncletopia.com","port":27015,"enabled":true,"region":"us-central","cc":"us","latitude":41.881832,"longitude":-87.62318,"reserved":0,"last_update":"0001-01-01T00:00:00Z","name_a2s":"Uncletopia | Chicago | 1 | All Maps","protocol":17,"map":"cp_mountainlab","folder":"tf","game":"Team Fortress","app_id":440,"player_count":23,"max_players":24,"Bots":0,"server_type":"Dedicated","server_os":"Linux","password":true,"vac":true,"version":"7882260","steam_id":85568392924469984,"keywords":["cp","nocrits","nodmgspread","uncletopia"],"game_id":440,"stv_port":27016,"stv_name":"Uncletopia | Chicago | 1 | All Maps | STV","players":[{"user_id":956,"name":"cc","steam_id":76561199215821942,"connected_time":1808000000000,"state":"active","ping":67},{"user_id":962,"name":"Kegs","steam_id":76561198353712949,"connected_time":1283000000000,"state":"active","ping":163},{"user_id":979,"name":"Townze","steam_id":76561198081827165,"connected_time":186000000000,"state":"active","ping":57},{"user_id":980,"name":"Aradia","steam_id":76561198255575892,"connected_time":146000000000,"state":"active","ping":109},{"user_id":977,"name":"Totally not CIA","steam_id":76561198237827742,"connected_time":386000000000,"state":"active","ping":62},{"user_id":974,"name":"Team Fartpiss Poo","steam_id":76561199163591880,"connected_time":647000000000,"state":"active","ping":90},{"user_id":865,"name":"Snake Handler","steam_id":76561198027198306,"connected_time":10428000000000,"state":"active","ping":53},{"user_id":981,"name":"Fraudulent Tuna","steam_id":76561197972268728,"connected_time":107000000000,"state":"active","ping":65},{"user_id":935,"name":"waga baga boo boo","steam_id":76561198057903129,"connected_time":3085000000000,"state":"active","ping":45},{"user_id":965,"name":"Tomoko2001","steam_id":76561198047117990,"connected_time":1261000000000,"state":"active","ping":89},{"user_id":982,"name":"MeAmJosh","steam_id":76561198064983436,"connected_time":34000000000,"state":"active","ping":86},{"user_id":880,"name":"Tskuno","steam_id":76561198129291597,"connected_time":8558000000000,"state":"active","ping":51},{"user_id":968,"name":"frank","steam_id":76561198137777483,"connected_time":1037000000000,"state":"active","ping":65},{"user_id":976,"name":"invb","steam_id":76561197998263914,"connected_time":421000000000,"state":"active","ping":52},{"user_id":983,"name":"Captain Zyrin","steam_id":76561197983121824,"connected_time":2000000000,"state":"spawning","ping":71},{"user_id":949,"name":"hotguy6pack","steam_id":76561198881665250,"connected_time":2246000000000,"state":"active","ping":102},{"user_id":900,"name":"Mank","steam_id":76561198189421005,"connected_time":5935000000000,"state":"active","ping":53},{"user_id":948,"name":"PheebsyDeebsy","steam_id":76561198101509436,"connected_time":2264000000000,"state":"active","ping":91},{"user_id":958,"name":"ae","steam_id":76561198185490827,"connected_time":1590000000000,"state":"active","ping":89},{"user_id":960,"name":"Allegro","steam_id":76561198084599587,"connected_time":1355000000000,"state":"active","ping":71},{"user_id":973,"name":"Ta5K","steam_id":76561198939558155,"connected_time":703000000000,"state":"active","ping":41},{"user_id":978,"name":"puppy :3","steam_id":76561198011196264,"connected_time":342000000000,"state":"active","ping":46},{"user_id":953,"name":"Wheaties","steam_id":76561198060909578,"connected_time":2158000000000,"state":"active","ping":95}]},{"server_id":106,"name":"Uncletopia | Chicago | 2 | All Maps","name_short":"chi-2","host":"chi-1.us.uncletopia.com","port":27025,"enabled":true,"region":"us-central","cc":"us","latitude":41.881832,"longitude":-87.62318,"reserved":0,"last_update":"0001-01-01T00:00:00Z","name_a2s":"Uncletopia | Chicago | 2 | All Maps","protocol":17,"map":"koth_highpass","folder":"tf","game":"Team Fortress","app_id":440,"player_count":0,"max_players":24,"Bots":0,"server_type":"Dedicated","server_os":"Linux","password":true,"vac":true,"version":"7882260","steam_id":85568392924469985,"keywords":["cp","nocrits","nodmgspread","uncletopia"],"game_id":440,"stv_port":27026,"stv_name":"Uncletopia | Chicago | 2 | All Maps | STV","players":null},{"server_id":402,"name":"Uncletopia | Chicago | 3 | All Maps","name_short":"chi-3","host":"chi-1.us.uncletopia.com","port":27035,"enabled":true,"region":"us-central","cc":"us","latitude":41.881832,"longitude":-87.62318,"reserved":0,"last_update":"0001-01-01T00:00:00Z","name_a2s":"Uncletopia | Chicago | 3 | All Maps","protocol":17,"map":"cp_mountainlab","folder":"tf","game":"Team Fortress","app_id":440,"player_count":0,"max_players":24,"Bots":0,"server_type":"Dedicated","server_os":"Linux","password":true,"vac":true,"version":"7882260","steam_id":85568392924515191,"keywords":["cp","nocrits","nodmgspread","uncletopia"],"game_id":440,"stv_port":27036,"stv_name":"Uncletopia | Chicago | 3 | All Maps | STV","players":null},{"server_id":403,"name":"Uncletopia | Chicago | 4 | All Maps","name_short":"chi-4","host":"chi-1.us.uncletopia.com","port":27045,"enabled":true,"region":"us-central","cc":"us","latitude":41.881832,"longitude":-87.62318,"reserved":0,"last_update":"0001-01-01T00:00:00Z","name_a2s":"Uncletopia | Chicago | 4 | All Maps","protocol":17,"map":"koth_lakeside_final","folder":"tf","game":"Team Fortress","app_id":440,"player_count":19,"max_players":24,"Bots":0,"server_type":"Dedicated","server_os":"Linux","password":true,"vac":true,"version":"7882260","steam_id":85568392924515193,"keywords":["cp","nocrits","nodmgspread","uncletopia"],"game_id":440,"stv_port":27046,"stv_name":"Uncletopia | Chicago | 4 | All Maps | STV","players":[{"user_id":432,"name":"MajorasMinion99","steam_id":76561199228885586,"connected_time":716000000000,"state":"active","ping":96},{"user_id":443,"name":"ozbulu! troutsupply.net","steam_id":76561198067176829,"connected_time":34000000000,"state":"active","ping":107},{"user_id":409,"name":"Benwyatt88","steam_id":76561198823755174,"connected_time":2263000000000,"state":"active","ping":129},{"user_id":444,"name":"god's silliest puppygirl","steam_id":76561198128164970,"connected_time":15000000000,"state":"spawning","ping":112},{"user_id":445,"name":"Out Like a Light","steam_id":76561198410957728,"connected_time":11000000000,"state":"active","ping":44},{"user_id":446,"name":"//MPinkStahli //_^","steam_id":76561198014421477,"connected_time":9000000000,"state":"active","ping":59},{"user_id":424,"name":"eat Pant","steam_id":76561197974965536,"connected_time":1476000000000,"state":"active","ping":55},{"user_id":218,"name":"Elias","steam_id":76561198106431732,"connected_time":16997000000000,"state":"active","ping":37},{"user_id":431,"name":"Looking for my marbles","steam_id":76561198208078111,"connected_time":776000000000,"state":"active","ping":95},{"user_id":433,"name":"Sgt. Dornan","steam_id":76561198063308122,"connected_time":615000000000,"state":"active","ping":75},{"user_id":426,"name":"Nikolich","steam_id":76561199042046592,"connected_time":1371000000000,"state":"active","ping":140},{"user_id":428,"name":"arkona","steam_id":76561198368556572,"connected_time":1055000000000,"state":"active","ping":153},{"user_id":390,"name":"Wang of Wall St","steam_id":76561198047460598,"connected_time":4375000000000,"state":"active","ping":69},{"user_id":434,"name":"Coinclever","steam_id":76561198099972692,"connected_time":520000000000,"state":"active","ping":59},{"user_id":416,"name":"dahperson","steam_id":76561198067207467,"connected_time":1945000000000,"state":"active","ping":52},{"user_id":350,"name":"Grand","steam_id":76561198290143399,"connected_time":8729000000000,"state":"active","ping":72},{"user_id":435,"name":"Mastermind","steam_id":76561198127783432,"connected_time":518000000000,"state":"active","ping":60},{"user_id":441,"name":"Sneek","steam_id":76561198368636879,"connected_time":228000000000,"state":"active","ping":82},{"user_id":438,"name":"s-9","steam_id":76561198065339248,"connected_time":480000000000,"state":"active","ping":90}]},{"server_id":36,"name":"Uncletopia | Chicago | 5 | All Maps","name_short":"chi-5","host":"chi-2.us.uncletopia.com","port":27015,"enabled":true,"region":"us-central","cc":"us","latitude":41.881832,"longitude":-87.62318,"reserved":0,"last_update":"0001-01-01T00:00:00Z","name_a2s":"Uncletopia | Chicago | 5 | All Maps","protocol":17,"map":"cp_mountainlab","folder":"tf","game":"Team Fortress","app_id":440,"player_count":0,"max_players":24,"Bots":0,"server_type":"Dedicated","server_os":"Linux","password":true,"vac":true,"version":"7882260","steam_id":85568392924866362,"keywords":["cp","nocrits","nodmgspread","uncletopia"],"game_id":440,"stv_port":27016,"stv_name":"Uncletopia | Chicago | 5 | All Maps | STV","players":null},{"server_id":37,"name":"Uncletopia | Chicago | 6 | All Maps","name_short":"chi-6","host":"chi-2.us.uncletopia.com","port":27025,"enabled":true,"region":"us-central","cc":"us","latitude":41.881832,"longitude":-87.62318,"reserved":0,"last_update":"0001-01-01T00:00:00Z","name_a2s":"Uncletopia | Chicago | 6 | All Maps","protocol":17,"map":"koth_viaduct","folder":"tf","game":"Team Fortress","app_id":440,"player_count":2,"max_players":24,"Bots":0,"server_type":"Dedicated","server_os":"Linux","password":true,"vac":true,"version":"7882260","steam_id":85568392924866363,"keywords":["cp","nocrits","nodmgspread","uncletopia"],"game_id":440,"stv_port":27026,"stv_name":"Uncletopia | Chicago | 6 | All Maps | STV","players":[{"user_id":886,"name":"Regular Dog","steam_id":76561198042898614,"connected_time":2287000000000,"state":"active","ping":54},{"user_id":877,"name":"dyyd7706","steam_id":76561199230461523,"connected_time":3281000000000,"state":"active","ping":73}]},{"server_id":38,"name":"Uncletopia | Chicago | 7 | Stopwatch Beta","name_short":"chi-7","host":"chi-2.us.uncletopia.com","port":27035,"enabled":true,"region":"us-central","cc":"us","latitude":41.881832,"longitude":-87.62318,"reserved":0,"last_update":"0001-01-01T00:00:00Z","name_a2s":"Uncletopia | Chicago | 7 | Stopwatch Beta","protocol":17,"map":"workshop/koth_clearcut_b15.ugc2107050255","folder":"tf","game":"Team Fortress","app_id":440,"player_count":0,"max_players":24,"Bots":0,"server_type":"Dedicated","server_os":"Linux","password":true,"vac":true,"version":"7882260","steam_id":85568392924866364,"keywords":["cp","nocrits","nodmgspread","uncletopia"],"game_id":440,"stv_port":27036,"stv_name":"Uncletopia | Chicago | 7 | Stopwatch Beta | STV","players":null},{"server_id":39,"name":"Uncletopia | Chicago | 8 | Community","name_short":"chi-8","host":"chi-2.us.uncletopia.com","port":27045,"enabled":true,"region":"us-central","cc":"us","latitude":41.881832,"longitude":-87.62318,"reserved":0,"last_update":"0001-01-01T00:00:00Z","name_a2s":"Uncletopia | Chicago | 8 | Community","protocol":17,"map":"workshop/pl_corrode_rc2.ugc546577989","folder":"tf","game":"Team Fortress","app_id":440,"player_count":12,"max_players":24,"Bots":0,"server_type":"Dedicated","server_os":"Linux","password":true,"vac":true,"version":"7882260","steam_id":85568392924866365,"keywords":["nocrits","nodmgspread","payload","uncletopia"],"game_id":440,"stv_port":27046,"stv_name":"Uncletopia | Chicago | 8 | Community | STV","players":[{"user_id":264,"name":"RED","steam_id":76561198069598439,"connected_time":3478000000000,"state":"active","ping":85},{"user_id":273,"name":"Ludcmorais","steam_id":76561198359217809,"connected_time":3020000000000,"state":"active","ping":182},{"user_id":291,"name":"JohnnyGitGud","steam_id":76561198401455467,"connected_time":1516000000000,"state":"active","ping":114},{"user_id":262,"name":"DragoDuck","steam_id":76561198385685683,"connected_time":3852000000000,"state":"active","ping":104},{"user_id":279,"name":"meisNate","steam_id":76561198215261695,"connected_time":2725000000000,"state":"active","ping":129},{"user_id":263,"name":"Lope","steam_id":76561198169381232,"connected_time":3515000000000,"state":"active","ping":88},{"user_id":281,"name":"BigDeac","steam_id":76561198091237274,"connected_time":2281000000000,"state":"active","ping":55},{"user_id":299,"name":"soupy","steam_id":76561197974283797,"connected_time":918000000000,"state":"active","ping":35},{"user_id":283,"name":"noah","steam_id":76561198173310157,"connected_time":2248000000000,"state":"active","ping":59},{"user_id":293,"name":"[DEEP] Danmar33","steam_id":76561198056453091,"connected_time":1384000000000,"state":"active","ping":45},{"user_id":253,"name":"CandorDanceFloor","steam_id":76561198062980511,"connected_time":4567000000000,"state":"active","ping":77},{"user_id":288,"name":"GuyGoom","steam_id":76561198254522178,"connected_time":2030000000000,"state":"active","ping":47}]},{"server_id":8,"name":"Uncletopia | Dallas | 1 | All Maps","name_short":"dal-1","host":"dal-1.us.uncletopia.com","port":27015,"enabled":true,"region":"us-central","cc":"us","latitude":32.779167,"longitude":-96.80889,"reserved":0,"last_update":"0001-01-01T00:00:00Z","name_a2s":"Uncletopia | Dallas | 1 | All Maps","protocol":17,"map":"cp_snakewater_final1","folder":"tf","game":"Team Fortress","app_id":440,"player_count":24,"max_players":24,"Bots":0,"server_type":"Dedicated","server_os":"Linux","password":true,"vac":true,"version":"7882260","steam_id":85568392924469986,"keywords":["cp","nocrits","nodmgspread","uncletopia"],"game_id":440,"stv_port":27016,"stv_name":"Uncletopia | Dallas | 1 | All Maps | STV","players":[{"user_id":739,"name":"SCUD missile up your ass","steam_id":76561198066452726,"connected_time":1908000000000,"state":"active","ping":82},{"user_id":772,"name":"Seshagrantch","steam_id":76561198112033660,"connected_time":434000000000,"state":"active","ping":57},{"user_id":741,"name":"Weiner Cleaner","steam_id":76561198147514577,"connected_time":1880000000000,"state":"active","ping":80},{"user_id":765,"name":"Look at me Ma! No jaw!","steam_id":76561198870122769,"connected_time":654000000000,"state":"active","ping":94},{"user_id":742,"name":"I throw a lot","steam_id":76561198209650964,"connected_time":1779000000000,"state":"active","ping":88},{"user_id":762,"name":"hedahman","steam_id":76561198052398134,"connected_time":725000000000,"state":"active","ping":100},{"user_id":754,"name":"sky walker","steam_id":76561198937717599,"connected_time":1391000000000,"state":"active","ping":38},{"user_id":745,"name":"Urist McDwarf","steam_id":76561198164004939,"connected_time":1676000000000,"state":"active","ping":102},{"user_id":746,"name":"catnap","steam_id":76561199128135362,"connected_time":1674000000000,"state":"active","ping":71},{"user_id":752,"name":"meth leppard","steam_id":76561198049947281,"connected_time":1519000000000,"state":"active","ping":94},{"user_id":763,"name":".-.. --- ...- . / -.-- --- ..-","steam_id":76561198002483206,"connected_time":699000000000,"state":"active","ping":39},{"user_id":748,"name":"Core Dump:DHC:","steam_id":76561197969394177,"connected_time":1636000000000,"state":"active","ping":76},{"user_id":766,"name":"We believe in you!","steam_id":76561198219252313,"connected_time":644000000000,"state":"active","ping":84},{"user_id":730,"name":"bolainassr0","steam_id":76561199079078845,"connected_time":3130000000000,"state":"active","ping":84},{"user_id":767,"name":"RickyGangs26","steam_id":76561198351453925,"connected_time":622000000000,"state":"active","ping":104},{"user_id":749,"name":"Lindes","steam_id":76561198132472867,"connected_time":1616000000000,"state":"active","ping":60},{"user_id":755,"name":"it's peanut time","steam_id":76561198236028020,"connected_time":1336000000000,"state":"active","ping":151},{"user_id":689,"name":"NexFrost","steam_id":76561197985774837,"connected_time":5668000000000,"state":"active","ping":37},{"user_id":768,"name":"Bean Marrow","steam_id":76561198116650223,"connected_time":590000000000,"state":"active","ping":67},{"user_id":769,"name":"goooot","steam_id":76561198155591052,"connected_time":573000000000,"state":"active","ping":56},{"user_id":773,"name":"SpeakerD","steam_id":76561198032618618,"connected_time":353000000000,"state":"active","ping":66},{"user_id":720,"name":"Smuggley","steam_id":76561198078130271,"connected_time":4015000000000,"state":"active","ping":85},{"user_id":771,"name":"Iron","steam_id":76561198247918478,"connected_time":535000000000,"state":"active","ping":74},{"user_id":737,"name":"FluttyPutty","steam_id":76561198218446556,"connected_time":2380000000000,"state":"active","ping":62}]},{"server_id":108,"name":"Uncletopia | Dallas | 2 | All Maps","name_short":"dal-2","host":"dal-1.us.uncletopia.com","port":27025,"enabled":true,"region":"us-central","cc":"us","latitude":32.779167,"longitude":-96.80889,"reserved":0,"last_update":"0001-01-01T00:00:00Z","name_a2s":"Uncletopia | Dallas | 2 | All Maps","protocol":17,"map":"cp_process_final","folder":"tf","game":"Team Fortress","app_id":440,"player_count":22,"max_players":24,"Bots":0,"server_type":"Dedicated","server_os":"Linux","password":true,"vac":true,"version":"7882260","steam_id":85568392924469988,"keywords":["cp","nocrits","nodmgspread","uncletopia"],"game_id":440,"stv_port":27026,"stv_name":"Uncletopia | Dallas | 2 | All Maps | STV","players":[{"user_id":963,"name":"elyina","steam_id":76561198035310295,"connected_time":464000000000,"state":"active","ping":78},{"user_id":948,"name":"Spinch","steam_id":76561198296224166,"connected_time":1504000000000,"state":"active","ping":71},{"user_id":949,"name":"Publo","steam_id":76561198161777140,"connected_time":1474000000000,"state":"active","ping":47},{"user_id":937,"name":"UnkownGamerLOL","steam_id":76561198225902368,"connected_time":2583000000000,"state":"active","ping":70},{"user_id":975,"name":"neptune","steam_id":76561198383404869,"connected_time":196000000000,"state":"active","ping":100},{"user_id":959,"name":"Super Ghostbusters (Full Album)","steam_id":76561198057415490,"connected_time":612000000000,"state":"active","ping":75},{"user_id":906,"name":"postgres","steam_id":76561198011204750,"connected_time":4744000000000,"state":"active","ping":78},{"user_id":976,"name":"pigswill","steam_id":76561197999081865,"connected_time":37000000000,"state":"active","ping":96},{"user_id":951,"name":"Medic Boyfriend","steam_id":76561198104086771,"connected_time":1342000000000,"state":"active","ping":73},{"user_id":977,"name":"ArnoldGamingﾠٴ","steam_id":76561198040140247,"connected_time":27000000000,"state":"spawning","ping":80},{"user_id":960,"name":"sun","steam_id":76561198011329825,"connected_time":601000000000,"state":"active","ping":89},{"user_id":973,"name":"greeno","steam_id":76561198109901138,"connected_time":340000000000,"state":"active","ping":90},{"user_id":978,"name":"Shift","steam_id":76561199152110481,"connected_time":0,"state":"connecting","ping":0},{"user_id":942,"name":"vetboy","steam_id":76561198087831038,"connected_time":2388000000000,"state":"active","ping":87},{"user_id":956,"name":"ScoutRoseDeuce","steam_id":76561198126515375,"connected_time":1182000000000,"state":"active","ping":84},{"user_id":972,"name":"mirrorcult","steam_id":76561198062263639,"connected_time":345000000000,"state":"active","ping":55},{"user_id":966,"name":"Frank.","steam_id":76561198225910596,"connected_time":439000000000,"state":"active","ping":52},{"user_id":967,"name":"Kushkatt","steam_id":76561198058397659,"connected_time":433000000000,"state":"active","ping":67},{"user_id":968,"name":"Bill from L4D","steam_id":76561198821762699,"connected_time":399000000000,"state":"active","ping":83},{"user_id":970,"name":"kermeeee","steam_id":76561198106278670,"connected_time":392000000000,"state":"active","ping":67},{"user_id":941,"name":"Cliffigriff","steam_id":76561198121924499,"connected_time":2466000000000,"state":"active","ping":45},{"user_id":974,"name":"Mr. Bixby","steam_id":76561198868839264,"connected_time":313000000000,"state":"active","ping":47}]},{"server_id":5,"name":"Uncletopia | Frankfurt | 1 | All Maps","name_short":"frk-1","host":"frk-1.de.uncletopia.com","port":27015,"enabled":true,"region":"eu","cc":"de","latitude":50.110924,"longitude":8.682127,"reserved":0,"last_update":"0001-01-01T00:00:00Z","name_a2s":"Uncletopia | Frankfurt | 1 | All Maps","protocol":17,"map":"pl_snowycoast","folder":"tf","game":"Team Fortress","app_id":440,"player_count":0,"max_players":24,"Bots":0,"server_type":"Dedicated","server_os":"Linux","password":true,"vac":true,"version":"7882260","steam_id":85568392924469989,"keywords":["nocrits","nodmgspread","payload","uncletopia"],"game_id":440,"stv_port":27016,"stv_name":"Uncletopia | Frankfurt | 1 | All Maps | STV","players":null},{"server_id":110,"name":"Uncletopia | Frankfurt | 2 | All Maps","name_short":"frk-2","host":"frk-1.de.uncletopia.com","port":27025,"enabled":true,"region":"eu","cc":"de","latitude":50.110924,"longitude":8.682127,"reserved":0,"last_update":"0001-01-01T00:00:00Z","name_a2s":"Uncletopia | Frankfurt | 2 | All Maps","protocol":17,"map":"pl_upward","folder":"tf","game":"Team Fortress","app_id":440,"player_count":0,"max_players":24,"Bots":0,"server_type":"Dedicated","server_os":"Linux","password":true,"vac":true,"version":"7882260","steam_id":85568392924469990,"keywords":["nocrits","nodmgspread","payload","uncletopia"],"game_id":440,"stv_port":27026,"stv_name":"Uncletopia | Frankfurt | 2 | All Maps | STV","players":null},{"server_id":308,"name":"Uncletopia | Frankfurt | 3 | All Maps","name_short":"frk-3","host":"frk-1.de.uncletopia.com","port":27035,"enabled":true,"region":"eu","cc":"de","latitude":50.110924,"longitude":8.682127,"reserved":0,"last_update":"0001-01-01T00:00:00Z","name_a2s":"Uncletopia | Frankfurt | 3 | All Maps","protocol":17,"map":"cp_process_final","folder":"tf","game":"Team Fortress","app_id":440,"player_count":0,"max_players":24,"Bots":0,"server_type":"Dedicated","server_os":"Linux","password":true,"vac":true,"version":"7882260","steam_id":85568392924504274,"keywords":["cp","nocrits","nodmgspread","uncletopia"],"game_id":440,"stv_port":27036,"stv_name":"Uncletopia | Frankfurt | 3 | All Maps | STV","players":null},{"server_id":309,"name":"Uncletopia | Frankfurt | 4 | All Maps","name_short":"frk-4","host":"frk-1.de.uncletopia.com","port":27045,"enabled":true,"region":"eu","cc":"de","latitude":50.110924,"longitude":8.682127,"reserved":0,"last_update":"0001-01-01T00:00:00Z","name_a2s":"Uncletopia | Frankfurt | 4 | All Maps","protocol":17,"map":"pl_swiftwater_final1","folder":"tf","game":"Team Fortress","app_id":440,"player_count":0,"max_players":24,"Bots":0,"server_type":"Dedicated","server_os":"Linux","password":true,"vac":true,"version":"7882260","steam_id":85568392924504275,"keywords":["nocrits","nodmgspread","payload","uncletopia"],"game_id":440,"stv_port":27046,"stv_name":"Uncletopia | Frankfurt | 4 | All Maps | STV","players":null},{"server_id":310,"name":"Uncletopia | Frankfurt | 5 | All Maps","name_short":"frk-5","host":"frk-1.de.uncletopia.com","port":27055,"enabled":true,"region":"eu","cc":"de","latitude":50.110924,"longitude":8.682127,"reserved":0,"last_update":"0001-01-01T00:00:00Z","name_a2s":"Uncletopia | Frankfurt | 5 | All Maps","protocol":17,"map":"pl_borneo","folder":"tf","game":"Team Fortress","app_id":440,"player_count":0,"max_players":24,"Bots":0,"server_type":"Dedicated","server_os":"Linux","password":true,"vac":true,"version":"7882260","steam_id":85568392924504277,"keywords":["nocrits","nodmgspread","payload","uncletopia"],"game_id":440,"stv_port":27056,"stv_name":"Uncletopia | Frankfurt | 5 | All Maps | STV","players":null},{"server_id":311,"name":"Uncletopia | Frankfurt | 6 | All Maps","name_short":"frk-6","host":"frk-1.de.uncletopia.com","port":27065,"enabled":true,"region":"eu","cc":"de","latitude":50.110924,"longitude":8.682127,"reserved":0,"last_update":"0001-01-01T00:00:00Z","name_a2s":"Uncletopia | Frankfurt | 6 | All Maps","protocol":17,"map":"cp_snakewater_final1","folder":"tf","game":"Team Fortress","app_id":440,"player_count":0,"max_players":24,"Bots":0,"server_type":"Dedicated","server_os":"Linux","password":true,"vac":true,"version":"7882260","steam_id":85568392924504278,"keywords":["cp","nocrits","nodmgspread","uncletopia"],"game_id":440,"stv_port":27066,"stv_name":"Uncletopia | Frankfurt | 6 | All Maps | STV","players":null},{"server_id":23,"name":"Uncletopia | Frankfurt | 7 | Stopwatch Beta","name_short":"frk-7","host":"frk-1.de.uncletopia.com","port":27075,"enabled":true,"region":"eu","cc":"de","latitude":50.110924,"longitude":8.682127,"reserved":0,"last_update":"0001-01-01T00:00:00Z","name_a2s":"Uncletopia | Frankfurt | 7 | Stopwatch Beta","protocol":17,"map":"cp_snakewater_final1","folder":"tf","game":"Team Fortress","app_id":440,"player_count":0,"max_players":24,"Bots":0,"server_type":"Dedicated","server_os":"Linux","password":true,"vac":true,"version":"7882260","steam_id":85568392924742827,"keywords":["cp","nocrits","nodmgspread","uncletopia"],"game_id":440,"stv_port":27076,"stv_name":"Uncletopia | Frankfurt | 7 | Stopwatch Beta | STV","players":null},{"server_id":24,"name":"Uncletopia | Frankfurt | 8 | Community","name_short":"frk-8","host":"frk-1.de.uncletopia.com","port":27085,"enabled":true,"region":"eu","cc":"de","latitude":50.110924,"longitude":8.682127,"reserved":0,"last_update":"0001-01-01T00:00:00Z","name_a2s":"Uncletopia | Frankfurt | 8 | Community","protocol":17,"map":"cp_mountainlab","folder":"tf","game":"Team Fortress","app_id":440,"player_count":0,"max_players":24,"Bots":0,"server_type":"Dedicated","server_os":"Linux","password":true,"vac":true,"version":"7882260","steam_id":85568392924742828,"keywords":["cp","nocrits","nodmgspread","uncletopia"],"game_id":440,"stv_port":27086,"stv_name":"Uncletopia | Frankfurt | 8 | Community | STV","players":null},{"server_id":202,"name":"Uncletopia | Hong Kong | 1 | All Maps","name_short":"hgk-1","host":"hgk-1.hk.uncletopia.com","port":27015,"enabled":true,"region":"asia","cc":"hk","latitude":22.302711,"longitude":114.177216,"reserved":0,"last_update":"0001-01-01T00:00:00Z","name_a2s":"Uncletopia | Hong Kong | 1 | All Maps","protocol":17,"map":"cp_dustbowl","folder":"tf","game":"Team Fortress","app_id":440,"player_count":10,"max_players":24,"Bots":0,"server_type":"Dedicated","server_os":"Linux","password":true,"vac":true,"version":"7882260","steam_id":85568392924494504,"keywords":["cp","nocrits","nodmgspread","uncletopia"],"game_id":440,"stv_port":27016,"stv_name":"Uncletopia | Hong Kong | 1 | All Maps | STV","players":[{"user_id":13,"name":"Joilee32","steam_id":76561199226255440,"connected_time":2525000000000,"state":"active","ping":90},{"user_id":14,"name":"Skeptikal01","steam_id":76561199064694137,"connected_time":2436000000000,"state":"active","ping":98},{"user_id":16,"name":"I crave chicken nuggets","steam_id":76561199221871877,"connected_time":2209000000000,"state":"active","ping":69},{"user_id":17,"name":"PutinXyilo","steam_id":76561199276474515,"connected_time":1657000000000,"state":"active","ping":267},{"user_id":18,"name":"Archer's Heatmaker","steam_id":76561198928406571,"connected_time":790000000000,"state":"active","ping":436},{"user_id":20,"name":"Duck Gaming","steam_id":76561199233387593,"connected_time":579000000000,"state":"active","ping":97},{"user_id":21,"name":"daigennki","steam_id":76561198046328609,"connected_time":571000000000,"state":"active","ping":99},{"user_id":22,"name":"water tastes good","steam_id":76561199375947670,"connected_time":521000000000,"state":"active","ping":76},{"user_id":23,"name":"Geecoz","steam_id":76561199466006054,"connected_time":298000000000,"state":"active","ping":46},{"user_id":25,"name":"Anna Jordan","steam_id":76561199401344657,"connected_time":222000000000,"state":"active","ping":152}]},{"server_id":1,"name":"Uncletopia | Los Angeles | 1 | All Maps","name_short":"lax-1","host":"lax-1.us.uncletopia.com","port":27015,"enabled":true,"region":"us-west","cc":"us","latitude":33.94279,"longitude":-118.41004,"reserved":0,"last_update":"0001-01-01T00:00:00Z","name_a2s":"Uncletopia | Los Angeles | 1 | All Maps","protocol":17,"map":"cp_granary","folder":"tf","game":"Team Fortress","app_id":440,"player_count":0,"max_players":24,"Bots":0,"server_type":"Dedicated","server_os":"Linux","password":true,"vac":true,"version":"7882260","steam_id":85568392924469991,"keywords":["cp","nocrits","nodmgspread","uncletopia"],"game_id":440,"stv_port":27016,"stv_name":"Uncletopia | Los Angeles | 1 | All Maps | STV","players":null},{"server_id":112,"name":"Uncletopia | Los Angeles | 2 | All Maps","name_short":"lax-2","host":"lax-1.us.uncletopia.com","port":27025,"enabled":true,"region":"us-west","cc":"us","latitude":33.94279,"longitude":-118.41004,"reserved":0,"last_update":"0001-01-01T00:00:00Z","name_a2s":"Uncletopia | Los Angeles | 2 | All Maps","protocol":17,"map":"pl_barnblitz","folder":"tf","game":"Team Fortress","app_id":440,"player_count":24,"max_players":24,"Bots":0,"server_type":"Dedicated","server_os":"Linux","password":true,"vac":true,"version":"7882260","steam_id":85568392924469992,"keywords":["nocrits","nodmgspread","payload","uncletopia"],"game_id":440,"stv_port":27026,"stv_name":"Uncletopia | Los Angeles | 2 | All Maps | STV","players":[{"user_id":362,"name":"BrightOrangeMango","steam_id":76561198023144607,"connected_time":2409000000000,"state":"active","ping":57},{"user_id":363,"name":"blu","steam_id":76561198166974318,"connected_time":2358000000000,"state":"active","ping":62},{"user_id":376,"name":"CrispyFangs","steam_id":76561198401739041,"connected_time":989000000000,"state":"active","ping":78},{"user_id":374,"name":"2MARZ ?","steam_id":76561198301501868,"connected_time":1456000000000,"state":"active","ping":58},{"user_id":377,"name":"Star","steam_id":76561198304206176,"connected_time":885000000000,"state":"active","ping":45},{"user_id":375,"name":"dewey","steam_id":76561198132791511,"connected_time":1101000000000,"state":"active","ping":57},{"user_id":337,"name":"SAVECASEY","steam_id":76561198857896847,"connected_time":4632000000000,"state":"active","ping":49},{"user_id":348,"name":"GlizzLord","steam_id":76561198321010427,"connected_time":4041000000000,"state":"active","ping":68},{"user_id":378,"name":"Feel the bern","steam_id":76561198078824519,"connected_time":885000000000,"state":"active","ping":53},{"user_id":379,"name":"Techne","steam_id":76561198090486583,"connected_time":864000000000,"state":"active","ping":120},{"user_id":312,"name":"SleeplessCollin","steam_id":76561198968140914,"connected_time":6520000000000,"state":"active","ping":47},{"user_id":336,"name":"rimble","steam_id":76561198150137369,"connected_time":4898000000000,"state":"active","ping":45},{"user_id":385,"name":"Squatter1","steam_id":76561198078987734,"connected_time":128000000000,"state":"active","ping":72},{"user_id":316,"name":"Moomin","steam_id":76561198072726213,"connected_time":6285000000000,"state":"active","ping":44},{"user_id":368,"name":"Chicken","steam_id":76561199118530334,"connected_time":2303000000000,"state":"active","ping":128},{"user_id":381,"name":"Artic_Ryuu","steam_id":76561198182194918,"connected_time":663000000000,"state":"active","ping":44},{"user_id":383,"name":"Skip Hop Doo Bop","steam_id":76561199161571849,"connected_time":543000000000,"state":"active","ping":54},{"user_id":372,"name":"MithStyck","steam_id":76561198071538489,"connected_time":1679000000000,"state":"active","ping":75},{"user_id":371,"name":"Nez","steam_id":76561197963109059,"connected_time":1987000000000,"state":"active","ping":64},{"user_id":294,"name":"[ØWQJØ]chubacaalatake","steam_id":76561198136201697,"connected_time":7412000000000,"state":"active","ping":88},{"user_id":344,"name":"Juligay","steam_id":76561198204873136,"connected_time":4374000000000,"state":"active","ping":63},{"user_id":384,"name":"Camohno","steam_id":76561198283519918,"connected_time":533000000000,"state":"active","ping":64},{"user_id":349,"name":"GLXy","steam_id":76561198207551544,"connected_time":4039000000000,"state":"active","ping":83},{"user_id":355,"name":"Dob Bole","steam_id":76561198056367220,"connected_time":3583000000000,"state":"active","ping":40}]},{"server_id":324,"name":"Uncletopia | Los Angeles | 3 | All Maps","name_short":"lax-3","host":"lax-1.us.uncletopia.com","port":27035,"enabled":true,"region":"us-west","cc":"us","latitude":33.94279,"longitude":-118.41004,"reserved":0,"last_update":"0001-01-01T00:00:00Z","name_a2s":"Uncletopia | Los Angeles | 3 | All Maps","protocol":17,"map":"koth_highpass","folder":"tf","game":"Team Fortress","app_id":440,"player_count":0,"max_players":24,"Bots":0,"server_type":"Dedicated","server_os":"Linux","password":true,"vac":true,"version":"7882260","steam_id":85568392924510198,"keywords":["cp","nocrits","nodmgspread","uncletopia"],"game_id":440,"stv_port":27036,"stv_name":"Uncletopia | Los Angeles | 3 | All Maps | STV","players":null},{"server_id":25,"name":"Uncletopia | Los Angeles | 4 | Stopwatch Beta","name_short":"lax-4","host":"lax-1.us.uncletopia.com","port":27045,"enabled":true,"region":"us-west","cc":"us","latitude":33.94279,"longitude":-118.41004,"reserved":0,"last_update":"0001-01-01T00:00:00Z","name_a2s":"Uncletopia | Los Angeles | 4 | Stopwatch Beta","protocol":17,"map":"koth_viaduct","folder":"tf","game":"Team Fortress","app_id":440,"player_count":0,"max_players":24,"Bots":0,"server_type":"Dedicated","server_os":"Linux","password":true,"vac":true,"version":"7882260","steam_id":85568392924510199,"keywords":["cp","nocrits","nodmgspread","uncletopia"],"game_id":440,"stv_port":27046,"stv_name":"Uncletopia | Los Angeles | 4 | Stopwatch Beta | STV","players":null},{"server_id":11,"name":"Uncletopia | London | 1 | All Maps","name_short":"lon-1","host":"lon-1.uk.uncletopia.com","port":27015,"enabled":true,"region":"eu","cc":"gb","latitude":51.509865,"longitude":-0.118092,"reserved":0,"last_update":"0001-01-01T00:00:00Z","name_a2s":"Uncletopia | London | 1 | All Maps","protocol":17,"map":"pl_snowycoast","folder":"tf","game":"Team Fortress","app_id":440,"player_count":0,"max_players":24,"Bots":0,"server_type":"Dedicated","server_os":"Linux","password":true,"vac":true,"version":"7882260","steam_id":85568392924367362,"keywords":["nocrits","nodmgspread","payload","uncletopia"],"game_id":440,"stv_port":27016,"stv_name":"Uncletopia | London | 1 | All Maps | STV","players":null},{"server_id":114,"name":"Uncletopia | London | 2 | All Maps","name_short":"lon-2","host":"lon-1.uk.uncletopia.com","port":27025,"enabled":true,"region":"eu","cc":"gb","latitude":51.509865,"longitude":-0.118092,"reserved":0,"last_update":"0001-01-01T00:00:00Z","name_a2s":"Uncletopia | London | 2 | All Maps","protocol":17,"map":"koth_highpass","folder":"tf","game":"Team Fortress","app_id":440,"player_count":0,"max_players":24,"Bots":0,"server_type":"Dedicated","server_os":"Linux","password":true,"vac":true,"version":"7882260","steam_id":85568392924470941,"keywords":["cp","nocrits","nodmgspread","uncletopia"],"game_id":440,"stv_port":27026,"stv_name":"Uncletopia | London | 2 | All Maps | STV","players":null},{"server_id":320,"name":"Uncletopia | London | 3 | All Maps","name_short":"lon-3","host":"lon-1.uk.uncletopia.com","port":27035,"enabled":true,"region":"eu","cc":"gb","latitude":51.509865,"longitude":-0.118092,"reserved":0,"last_update":"0001-01-01T00:00:00Z","name_a2s":"Uncletopia | London | 3 | All Maps","protocol":17,"map":"pl_upward","folder":"tf","game":"Team Fortress","app_id":440,"player_count":0,"max_players":24,"Bots":0,"server_type":"Dedicated","server_os":"Linux","password":true,"vac":true,"version":"7882260","steam_id":85568392924510192,"keywords":["nocrits","nodmgspread","payload","uncletopia"],"game_id":440,"stv_port":27036,"stv_name":"Uncletopia | London | 3 | All Maps | STV","players":null},{"server_id":321,"name":"Uncletopia | London | 4 | All Maps","name_short":"lon-4","host":"lon-1.uk.uncletopia.com","port":27045,"enabled":true,"region":"eu","cc":"gb","latitude":51.509865,"longitude":-0.118092,"reserved":0,"last_update":"0001-01-01T00:00:00Z","name_a2s":"Uncletopia | London | 4 | All Maps","protocol":17,"map":"cp_snakewater_final1","folder":"tf","game":"Team Fortress","app_id":440,"player_count":9,"max_players":24,"Bots":0,"server_type":"Dedicated","server_os":"Linux","password":true,"vac":true,"version":"7882260","steam_id":85568392924510193,"keywords":["cp","nocrits","nodmgspread","uncletopia"],"game_id":440,"stv_port":27046,"stv_name":"Uncletopia | London | 4 | All Maps | STV","players":[{"user_id":3,"name":"Radic is having a bad time","steam_id":76561197995412573,"connected_time":1821000000000,"state":"active","ping":210},{"user_id":7,"name":"Budly","steam_id":76561198136923658,"connected_time":1410000000000,"state":"active","ping":182},{"user_id":5,"name":"Quonit","steam_id":76561198186348128,"connected_time":1786000000000,"state":"active","ping":197},{"user_id":6,"name":"full power heart attack","steam_id":76561199196568965,"connected_time":1759000000000,"state":"active","ping":82},{"user_id":8,"name":"ultra lox","steam_id":76561199427318825,"connected_time":1328000000000,"state":"active","ping":168},{"user_id":9,"name":"LordKnow$","steam_id":76561198373677713,"connected_time":1085000000000,"state":"active","ping":105},{"user_id":10,"name":"friendly_hoovypootis","steam_id":76561198152776132,"connected_time":1060000000000,"state":"active","ping":48},{"user_id":13,"name":"DoDonPachi","steam_id":76561199085984801,"connected_time":38000000000,"state":"active","ping":49},{"user_id":12,"name":"B19-PP","steam_id":76561198057733920,"connected_time":291000000000,"state":"active","ping":123}]},{"server_id":21,"name":"Uncletopia | London | 5 | All Maps","name_short":"lon-5","host":"lon-1.uk.uncletopia.com","port":27055,"enabled":true,"region":"eu","cc":"gb","latitude":51.509865,"longitude":-0.118092,"reserved":0,"last_update":"0001-01-01T00:00:00Z","name_a2s":"Uncletopia | London | 5 | All Maps","protocol":17,"map":"koth_viaduct","folder":"tf","game":"Team Fortress","app_id":440,"player_count":0,"max_players":24,"Bots":0,"server_type":"Dedicated","server_os":"Linux","password":true,"vac":true,"version":"7882260","steam_id":85568392924742829,"keywords":["cp","nocrits","nodmgspread","uncletopia"],"game_id":440,"stv_port":27056,"stv_name":"Uncletopia | London | 5 | All Maps | STV","players":null},{"server_id":22,"name":"Uncletopia | London | 6 | All Maps","name_short":"lon-6","host":"lon-1.uk.uncletopia.com","port":27065,"enabled":true,"region":"eu","cc":"gb","latitude":51.509865,"longitude":-0.118092,"reserved":0,"last_update":"0001-01-01T00:00:00Z","name_a2s":"Uncletopia | London | 6 | All Maps","protocol":17,"map":"koth_lakeside_final","folder":"tf","game":"Team Fortress","app_id":440,"player_count":0,"max_players":24,"Bots":0,"server_type":"Dedicated","server_os":"Linux","password":true,"vac":true,"version":"7882260","steam_id":85568392924742830,"keywords":["cp","nocrits","nodmgspread","uncletopia"],"game_id":440,"stv_port":27066,"stv_name":"Uncletopia | London | 6 | All Maps | STV","players":null},{"server_id":40,"name":"Uncletopia | London | 7 | No Payload","name_short":"lon-7","host":"lon-1.uk.uncletopia.com","port":27075,"enabled":true,"region":"eu","cc":"gb","latitude":51.509865,"longitude":-0.118092,"reserved":0,"last_update":"0001-01-01T00:00:00Z","name_a2s":"Uncletopia | London | 7 | No Payload","protocol":17,"map":"pl_upward","folder":"tf","game":"Team Fortress","app_id":440,"player_count":0,"max_players":24,"Bots":0,"server_type":"Dedicated","server_os":"Linux","password":true,"vac":true,"version":"7882260","steam_id":85568392924964314,"keywords":["nocrits","nodmgspread","payload","uncletopia"],"game_id":440,"stv_port":27076,"stv_name":"Uncletopia | London | 7 | No Payload | STV","players":null},{"server_id":41,"name":"Uncletopia | London | 8 | Community","name_short":"lon-8","host":"lon-1.uk.uncletopia.com","port":27085,"enabled":true,"region":"eu","cc":"gb","latitude":51.509865,"longitude":-0.118092,"reserved":0,"last_update":"0001-01-01T00:00:00Z","name_a2s":"Uncletopia | London | 8 | Community","protocol":17,"map":"pl_upward","folder":"tf","game":"Team Fortress","app_id":440,"player_count":0,"max_players":24,"Bots":0,"server_type":"Dedicated","server_os":"Linux","password":true,"vac":true,"version":"7882260","steam_id":85568392924964315,"keywords":["nocrits","nodmgspread","payload","uncletopia"],"game_id":440,"stv_port":27086,"stv_name":"Uncletopia | London | 8 | Community | STV","players":null},{"server_id":300,"name":"Uncletopia | Montréal | 1 | All Maps","name_short":"mtl-1","host":"mtl-1.ca.uncletopia.com","port":27015,"enabled":true,"region":"us-east","cc":"ca","latitude":45.50889,"longitude":-73.56167,"reserved":0,"last_update":"0001-01-01T00:00:00Z","name_a2s":"Uncletopia | Montréal | 1 | All Maps","protocol":17,"map":"koth_cascade","folder":"tf","game":"Team Fortress","app_id":440,"player_count":0,"max_players":24,"Bots":0,"server_type":"Dedicated","server_os":"Linux","password":true,"vac":true,"version":"7882260","steam_id":85568392924500087,"keywords":["cp","nocrits","nodmgspread","uncletopia"],"game_id":440,"stv_port":27016,"stv_name":"Uncletopia | Montréal | 1 | All Maps | STV","players":null},{"server_id":301,"name":"Uncletopia | Montréal | 2 | All Maps","name_short":"mtl-2","host":"mtl-1.ca.uncletopia.com","port":27025,"enabled":true,"region":"us-east","cc":"ca","latitude":45.50889,"longitude":-73.56167,"reserved":0,"last_update":"0001-01-01T00:00:00Z","name_a2s":"Uncletopia | Montréal | 2 | All Maps","protocol":17,"map":"pl_snowycoast","folder":"tf","game":"Team Fortress","app_id":440,"player_count":0,"max_players":24,"Bots":0,"server_type":"Dedicated","server_os":"Linux","password":true,"vac":true,"version":"7882260","steam_id":85568392924500088,"keywords":["nocrits","nodmgspread","payload","uncletopia"],"game_id":440,"stv_port":27026,"stv_name":"Uncletopia | Montréal | 2 | All Maps | STV","players":null},{"server_id":302,"name":"Uncletopia | Montréal | 3 | All Maps","name_short":"mtl-3","host":"mtl-1.ca.uncletopia.com","port":27035,"enabled":true,"region":"us-east","cc":"ca","latitude":45.50889,"longitude":-73.56167,"reserved":0,"last_update":"0001-01-01T00:00:00Z","name_a2s":"Uncletopia | Montréal | 3 | All Maps","protocol":17,"map":"koth_viaduct","folder":"tf","game":"Team Fortress","app_id":440,"player_count":0,"max_players":24,"Bots":0,"server_type":"Dedicated","server_os":"Linux","password":true,"vac":true,"version":"7882260","steam_id":85568392924500089,"keywords":["cp","nocrits","nodmgspread","uncletopia"],"game_id":440,"stv_port":27036,"stv_name":"Uncletopia | Montréal | 3 | All Maps | STV","players":null},{"server_id":303,"name":"Uncletopia | Montréal | 4 | No Payload","name_short":"mtl-4","host":"mtl-1.ca.uncletopia.com","port":27045,"enabled":true,"region":"us-east","cc":"ca","latitude":45.50889,"longitude":-73.56167,"reserved":0,"last_update":"0001-01-01T00:00:00Z","name_a2s":"Uncletopia | Montréal | 4 | No Payload","protocol":17,"map":"koth_highpass","folder":"tf","game":"Team Fortress","app_id":440,"player_count":0,"max_players":24,"Bots":0,"server_type":"Dedicated","server_os":"Linux","password":true,"vac":true,"version":"7882260","steam_id":85568392924500090,"keywords":["cp","nocrits","nodmgspread","uncletopia"],"game_id":440,"stv_port":27046,"stv_name":"Uncletopia | Montréal | 4 | No Payload | STV","players":null},{"server_id":13,"name":"Uncletopia | New York City | 1 | All Maps","name_short":"nyc-1","host":"nyc-1.us.uncletopia.com","port":27015,"enabled":true,"region":"us-east","cc":"us","latitude":40.73061,"longitude":-73.93524,"reserved":0,"last_update":"0001-01-01T00:00:00Z","name_a2s":"Uncletopia | New York City | 1 | All Maps","protocol":17,"map":"cp_altitude","folder":"tf","game":"Team Fortress","app_id":440,"player_count":0,"max_players":24,"Bots":0,"server_type":"Dedicated","server_os":"Linux","password":true,"vac":true,"version":"7882260","steam_id":85568392924469993,"keywords":["cp","nocrits","nodmgspread","uncletopia"],"game_id":440,"stv_port":27016,"stv_name":"Uncletopia | New York City | 1 | All Maps | STV","players":null},{"server_id":14,"name":"Uncletopia | New York City | 2 | All Maps","name_short":"nyc-2","host":"nyc-1.us.uncletopia.com","port":27025,"enabled":true,"region":"us-east","cc":"us","latitude":40.73061,"longitude":-73.93524,"reserved":0,"last_update":"0001-01-01T00:00:00Z","name_a2s":"Uncletopia | New York City | 2 | All Maps","protocol":17,"map":"cp_well","folder":"tf","game":"Team Fortress","app_id":440,"player_count":24,"max_players":24,"Bots":0,"server_type":"Dedicated","server_os":"Linux","password":true,"vac":true,"version":"7882260","steam_id":85568392924469994,"keywords":["cp","nocrits","nodmgspread","uncletopia"],"game_id":440,"stv_port":27026,"stv_name":"Uncletopia | New York City | 2 | All Maps | STV","players":[{"user_id":467,"name":"PokeYoshi","steam_id":76561198218015561,"connected_time":6696000000000,"state":"active","ping":79},{"user_id":572,"name":"Bomberman6868","steam_id":76561198101086506,"connected_time":405000000000,"state":"active","ping":61},{"user_id":571,"name":"ARGON| Soulidity","steam_id":76561198429603550,"connected_time":423000000000,"state":"active","ping":64},{"user_id":570,"name":"GardenOfStone","steam_id":76561199069870534,"connected_time":597000000000,"state":"active","ping":102},{"user_id":543,"name":"notjak000","steam_id":76561199472259735,"connected_time":2705000000000,"state":"active","ping":161},{"user_id":563,"name":"plasmaofthedawn","steam_id":76561198287916194,"connected_time":932000000000,"state":"active","ping":60},{"user_id":550,"name":"Twitch.tv/markblood2023tm","steam_id":76561198171746702,"connected_time":1699000000000,"state":"active","ping":44},{"user_id":566,"name":"Vinnie Gognitti","steam_id":76561198069814977,"connected_time":761000000000,"state":"active","ping":53},{"user_id":567,"name":"skinnypanda","steam_id":76561198084201779,"connected_time":759000000000,"state":"active","ping":44},{"user_id":502,"name":"Gentoo Linux Gaming","steam_id":76561197999657118,"connected_time":5373000000000,"state":"active","ping":64},{"user_id":548,"name":"gendermutt","steam_id":76561198152857317,"connected_time":1756000000000,"state":"active","ping":64},{"user_id":549,"name":"CherriKat (she/her)","steam_id":76561198821297512,"connected_time":1708000000000,"state":"active","ping":124},{"user_id":569,"name":"Caterpillar Friend","steam_id":76561198044298346,"connected_time":750000000000,"state":"active","ping":101},{"user_id":552,"name":"tr","steam_id":76561198046944222,"connected_time":1616000000000,"state":"active","ping":106},{"user_id":553,"name":"xXMLGDOODXx","steam_id":76561198080758365,"connected_time":1592000000000,"state":"active","ping":43},{"user_id":574,"name":"panapoly","steam_id":76561198808125985,"connected_time":373000000000,"state":"active","ping":168},{"user_id":575,"name":"scarecrow (malicious)","steam_id":76561198082979347,"connected_time":305000000000,"state":"active","ping":63},{"user_id":576,"name":"sunny","steam_id":76561198069380992,"connected_time":264000000000,"state":"active","ping":85},{"user_id":558,"name":"piss connoisseur","steam_id":76561198061455664,"connected_time":1157000000000,"state":"active","ping":53},{"user_id":559,"name":"J21","steam_id":76561198066590783,"connected_time":1141000000000,"state":"active","ping":58},{"user_id":560,"name":"Yummy Kabobz","steam_id":76561198067661705,"connected_time":1113000000000,"state":"active","ping":49},{"user_id":577,"name":"Landbox","steam_id":76561198997687023,"connected_time":134000000000,"state":"active","ping":50},{"user_id":562,"name":"Blue Eyes Ace Dragon.","steam_id":76561198048214237,"connected_time":1004000000000,"state":"active","ping":45},{"user_id":564,"name":"Scooter O'Boyl","steam_id":76561197971687069,"connected_time":915000000000,"state":"active","ping":57}]},{"server_id":15,"name":"Uncletopia | New York City | 3 | Stopwatch Beta","name_short":"nyc-3","host":"nyc-1.us.uncletopia.com","port":27035,"enabled":true,"region":"us-east","cc":"us","latitude":40.73061,"longitude":-73.93524,"reserved":0,"last_update":"0001-01-01T00:00:00Z","name_a2s":"Uncletopia | New York City | 3 | Stopwatch Beta","protocol":17,"map":"pl_borneo","folder":"tf","game":"Team Fortress","app_id":440,"player_count":0,"max_players":24,"Bots":0,"server_type":"Dedicated","server_os":"Linux","password":true,"vac":true,"version":"7882260","steam_id":85568392924742820,"keywords":["nocrits","nodmgspread","payload","uncletopia"],"game_id":440,"stv_port":27036,"stv_name":"Uncletopia | New York City | 3 | Stopwatch Beta | STV","players":null},{"server_id":16,"name":"Uncletopia | New York City | 4 | Community","name_short":"nyc-4","host":"nyc-1.us.uncletopia.com","port":27045,"enabled":true,"region":"us-east","cc":"us","latitude":40.73061,"longitude":-73.93524,"reserved":0,"last_update":"0001-01-01T00:00:00Z","name_a2s":"Uncletopia | New York City | 4 | Community","protocol":17,"map":"workshop/cp_propaganda_b18.ugc1603743849","folder":"tf","game":"Team Fortress","app_id":440,"player_count":0,"max_players":24,"Bots":0,"server_type":"Dedicated","server_os":"Linux","password":true,"vac":true,"version":"7882260","steam_id":85568392924742821,"keywords":["cp","nocrits","nodmgspread","uncletopia"],"game_id":440,"stv_port":27046,"stv_name":"Uncletopia | New York City | 4 | Community | STV","players":null},{"server_id":142,"name":"Uncletopia | São Paulo | 1 | All Maps","name_short":"sao-1","host":"sao-1.br.uncletopia.com","port":27015,"enabled":true,"region":"sa","cc":"br","latitude":-23.533773,"longitude":-46.62529,"reserved":0,"last_update":"0001-01-01T00:00:00Z","name_a2s":"Uncletopia | São Paulo | 1 | All Maps","protocol":17,"map":"pl_barnblitz","folder":"tf","game":"Team Fortress","app_id":440,"player_count":0,"max_players":24,"Bots":0,"server_type":"Dedicated","server_os":"Linux","password":true,"vac":true,"version":"7882260","steam_id":85568392924469996,"keywords":["nocrits","nodmgspread","payload","uncletopia"],"game_id":440,"stv_port":27016,"stv_name":"Uncletopia | São Paulo | 1 | All Maps | STV","players":null},{"server_id":143,"name":"Uncletopia | São Paulo | 2 | All Maps","name_short":"sao-2","host":"sao-2.br.uncletopia.com","port":27015,"enabled":true,"region":"sa","cc":"br","latitude":-23.533773,"longitude":-46.62529,"reserved":0,"last_update":"0001-01-01T00:00:00Z","name_a2s":"Uncletopia | São Paulo | 2 | All Maps","protocol":17,"map":"cp_sunshine","folder":"tf","game":"Team Fortress","app_id":440,"player_count":0,"max_players":24,"Bots":0,"server_type":"Dedicated","server_os":"Linux","password":true,"vac":true,"version":"7882260","steam_id":85568392924485349,"keywords":["cp","nocrits","nodmgspread","uncletopia"],"game_id":440,"stv_port":27016,"stv_name":"Uncletopia | São Paulo | 2 | All Maps | STV","players":null},{"server_id":7,"name":"Uncletopia | Seattle | 1 | All Maps","name_short":"sea-1","host":"sea-1.us.uncletopia.com","port":27015,"enabled":true,"region":"us-west","cc":"us","latitude":47.608013,"longitude":-122.33517,"reserved":0,"last_update":"0001-01-01T00:00:00Z","name_a2s":"Uncletopia | Seattle | 1 | All Maps","protocol":17,"map":"pl_frontier_final","folder":"tf","game":"Team Fortress","app_id":440,"player_count":24,"max_players":24,"Bots":0,"server_type":"Dedicated","server_os":"Linux","password":true,"vac":true,"version":"7882260","steam_id":85568392924469997,"keywords":["nocrits","nodmgspread","payload","uncletopia"],"game_id":440,"stv_port":27016,"stv_name":"Uncletopia | Seattle | 1 | All Maps | STV","players":[{"user_id":654,"name":"forest (italian)","steam_id":76561198157960257,"connected_time":6911000000000,"state":"active","ping":40},{"user_id":696,"name":"PopcornBucketGames","steam_id":76561199089562026,"connected_time":1991000000000,"state":"active","ping":52},{"user_id":694,"name":"p i n e ↟ ↟","steam_id":76561198058199952,"connected_time":3080000000000,"state":"active","ping":54},{"user_id":661,"name":"Lord Hater","steam_id":76561199158148782,"connected_time":5926000000000,"state":"active","ping":57},{"user_id":667,"name":"John Calibur","steam_id":76561197999986606,"connected_time":5629000000000,"state":"active","ping":69},{"user_id":637,"name":"NEBULA","steam_id":76561198086878595,"connected_time":7944000000000,"state":"active","ping":69},{"user_id":700,"name":"blizz","steam_id":76561199139715539,"connected_time":734000000000,"state":"active","ping":72},{"user_id":675,"name":"delight","steam_id":76561197980280272,"connected_time":4476000000000,"state":"active","ping":46},{"user_id":699,"name":"yeehaw","steam_id":76561198020475089,"connected_time":1897000000000,"state":"active","ping":44},{"user_id":652,"name":"soup","steam_id":76561198043209046,"connected_time":6980000000000,"state":"active","ping":85},{"user_id":676,"name":"ed","steam_id":76561198080475712,"connected_time":4471000000000,"state":"active","ping":69},{"user_id":687,"name":"NEЯO","steam_id":76561197965450216,"connected_time":3747000000000,"state":"active","ping":57},{"user_id":678,"name":"gorlab","steam_id":76561198025089694,"connected_time":4469000000000,"state":"active","ping":67},{"user_id":688,"name":"Arsonist Goose","steam_id":76561198147441830,"connected_time":3700000000000,"state":"active","ping":74},{"user_id":682,"name":"Sniff","steam_id":76561198010270922,"connected_time":4358000000000,"state":"active","ping":42},{"user_id":640,"name":"i.love.ants.321","steam_id":76561198169755734,"connected_time":7919000000000,"state":"active","ping":824},{"user_id":698,"name":"im_phox","steam_id":76561198070555429,"connected_time":1978000000000,"state":"active","ping":121},{"user_id":693,"name":"mega","steam_id":76561198089520959,"connected_time":3294000000000,"state":"active","ping":99},{"user_id":690,"name":"Finkly","steam_id":76561198049828110,"connected_time":3434000000000,"state":"active","ping":48},{"user_id":697,"name":"Chocc","steam_id":76561198068070211,"connected_time":1981000000000,"state":"active","ping":83},{"user_id":670,"name":"lasky","steam_id":76561198017030029,"connected_time":4661000000000,"state":"active","ping":86},{"user_id":630,"name":"jorts","steam_id":76561199041179985,"connected_time":8988000000000,"state":"active","ping":70},{"user_id":563,"name":"rorywashere /ᐠ - ˕ -マ Ⳋ","steam_id":76561198065825165,"connected_time":10090000000000,"state":"active","ping":100},{"user_id":702,"name":"resh","steam_id":76561198239598834,"connected_time":46000000000,"state":"active","ping":151}]},{"server_id":119,"name":"Uncletopia | Seattle | 2 | All Maps","name_short":"sea-2","host":"sea-1.us.uncletopia.com","port":27025,"enabled":true,"region":"us-west","cc":"us","latitude":47.608013,"longitude":-122.33517,"reserved":0,"last_update":"0001-01-01T00:00:00Z","name_a2s":"Uncletopia | Seattle | 2 | All Maps","protocol":17,"map":"cp_process_final","folder":"tf","game":"Team Fortress","app_id":440,"player_count":23,"max_players":24,"Bots":0,"server_type":"Dedicated","server_os":"Linux","password":true,"vac":true,"version":"7882260","steam_id":85568392924469998,"keywords":["cp","nocrits","nodmgspread","uncletopia"],"game_id":440,"stv_port":27026,"stv_name":"Uncletopia | Seattle | 2 | All Maps | STV","players":[{"user_id":503,"name":"Icekong","steam_id":76561198017218224,"connected_time":2877000000000,"state":"active","ping":85},{"user_id":542,"name":"Faefanger","steam_id":76561198201871002,"connected_time":276000000000,"state":"active","ping":64},{"user_id":525,"name":"RaixaR","steam_id":76561198025289430,"connected_time":1269000000000,"state":"active","ping":106},{"user_id":544,"name":"StrangeMachine","steam_id":76561198046628064,"connected_time":28000000000,"state":"active","ping":42},{"user_id":523,"name":"Wunderpicka","steam_id":76561198049846440,"connected_time":1333000000000,"state":"active","ping":94},{"user_id":521,"name":"Geek monster","steam_id":76561198084422657,"connected_time":1478000000000,"state":"active","ping":69},{"user_id":524,"name":"Mr defrost","steam_id":76561198322125657,"connected_time":1307000000000,"state":"active","ping":67},{"user_id":502,"name":"goldhed","steam_id":76561198051751133,"connected_time":2919000000000,"state":"active","ping":60},{"user_id":520,"name":"baguette","steam_id":76561198172310638,"connected_time":1499000000000,"state":"active","ping":39},{"user_id":526,"name":"gnomer","steam_id":76561198046926728,"connected_time":1156000000000,"state":"active","ping":41},{"user_id":543,"name":"gnoblin","steam_id":76561198314221897,"connected_time":211000000000,"state":"active","ping":52},{"user_id":533,"name":"charm quark","steam_id":76561198098770777,"connected_time":929000000000,"state":"active","ping":48},{"user_id":545,"name":"Gnarly Bones Real","steam_id":76561198175628151,"connected_time":24000000000,"state":"spawning","ping":47},{"user_id":534,"name":"doro","steam_id":76561198099041747,"connected_time":870000000000,"state":"active","ping":81},{"user_id":518,"name":"mango cafe","steam_id":76561198142328193,"connected_time":1571000000000,"state":"active","ping":46},{"user_id":528,"name":"Coowil","steam_id":76561198070985437,"connected_time":1135000000000,"state":"active","ping":43},{"user_id":540,"name":"smeasly","steam_id":76561198028718812,"connected_time":399000000000,"state":"active","ping":44},{"user_id":538,"name":"oil","steam_id":76561198099980149,"connected_time":667000000000,"state":"active","ping":71},{"user_id":513,"name":"Tezla","steam_id":76561198091180274,"connected_time":2277000000000,"state":"active","ping":45},{"user_id":539,"name":"Luna","steam_id":76561198082944789,"connected_time":451000000000,"state":"active","ping":82},{"user_id":531,"name":"Roxima","steam_id":76561198025708940,"connected_time":1026000000000,"state":"active","ping":84},{"user_id":537,"name":"bugsnaxdrainer","steam_id":76561198258221077,"connected_time":713000000000,"state":"active","ping":52},{"user_id":516,"name":"› Noir","steam_id":76561197977418994,"connected_time":2129000000000,"state":"active","ping":74}]},{"server_id":406,"name":"Uncletopia | Seattle | 3 | Stopwatch Beta","name_short":"sea-3","host":"sea-1.us.uncletopia.com","port":27035,"enabled":true,"region":"us-west","cc":"us","latitude":47.608013,"longitude":-122.33517,"reserved":0,"last_update":"0001-01-01T00:00:00Z","name_a2s":"Uncletopia | Seattle | 3 | Stopwatch Beta","protocol":17,"map":"workshop/pl_barnblitz_pro7.ugc582280235","folder":"tf","game":"Team Fortress","app_id":440,"player_count":0,"max_players":24,"Bots":0,"server_type":"Dedicated","server_os":"Linux","password":true,"vac":true,"version":"7882260","steam_id":85568392924515217,"keywords":["nocrits","nodmgspread","payload","uncletopia"],"game_id":440,"stv_port":27036,"stv_name":"Uncletopia | Seattle | 3 | Stopwatch Beta | STV","players":null},{"server_id":17,"name":"Uncletopia | San Francisco | 1 | All Maps","name_short":"sfo-1","host":"sfo-1.us.uncletopia.com","port":27015,"enabled":true,"region":"us-west","cc":"us","latitude":37.77397,"longitude":-122.4313,"reserved":0,"last_update":"0001-01-01T00:00:00Z","name_a2s":"Uncletopia | San Francisco | 1 | All Maps","protocol":17,"map":"pl_pier","folder":"tf","game":"Team Fortress","app_id":440,"player_count":24,"max_players":24,"Bots":0,"server_type":"Dedicated","server_os":"Linux","password":true,"vac":true,"version":"7882260","steam_id":85568392924469999,"keywords":["nocrits","nodmgspread","payload","uncletopia"],"game_id":440,"stv_port":27016,"stv_name":"Uncletopia | San Francisco | 1 | All Maps | STV","players":[{"user_id":324,"name":"Bandana Bullet","steam_id":76561198397347120,"connected_time":367000000000,"state":"active","ping":80},{"user_id":330,"name":"stboncho","steam_id":76561198172275301,"connected_time":114000000000,"state":"active","ping":59},{"user_id":312,"name":"Bread","steam_id":76561198251896612,"connected_time":1238000000000,"state":"active","ping":45},{"user_id":331,"name":"WazL","steam_id":76561198065113895,"connected_time":94000000000,"state":"active","ping":60},{"user_id":323,"name":"vanillain","steam_id":76561198058617608,"connected_time":385000000000,"state":"active","ping":60},{"user_id":328,"name":"Blurp","steam_id":76561198272417565,"connected_time":296000000000,"state":"active","ping":68},{"user_id":311,"name":"NotSharky","steam_id":76561198078910436,"connected_time":1268000000000,"state":"active","ping":60},{"user_id":308,"name":"NotAWeeb","steam_id":76561198165530739,"connected_time":2151000000000,"state":"active","ping":47},{"user_id":217,"name":"riSygneD","steam_id":76561198331618687,"connected_time":9811000000000,"state":"active","ping":45},{"user_id":326,"name":"stick","steam_id":76561198134334367,"connected_time":355000000000,"state":"active","ping":79},{"user_id":310,"name":"Jomdac","steam_id":76561198150447896,"connected_time":1686000000000,"state":"active","ping":54},{"user_id":306,"name":"Paul Gaming","steam_id":76561198065538229,"connected_time":2441000000000,"state":"active","ping":62},{"user_id":265,"name":"smiley","steam_id":76561198240116276,"connected_time":6184000000000,"state":"active","ping":101},{"user_id":314,"name":"SPACECOWBOY","steam_id":76561199093645953,"connected_time":1180000000000,"state":"active","ping":65},{"user_id":283,"name":"Nimro","steam_id":76561198049334200,"connected_time":4364000000000,"state":"active","ping":72},{"user_id":332,"name":"One Horned Bitch Destroyer","steam_id":76561198045810191,"connected_time":86000000000,"state":"spawning","ping":58},{"user_id":329,"name":"Jovo","steam_id":76561197993265970,"connected_time":241000000000,"state":"active","ping":59},{"user_id":315,"name":"Drift Stick","steam_id":76561198847048304,"connected_time":1180000000000,"state":"active","ping":74},{"user_id":301,"name":"00","steam_id":76561198041700636,"connected_time":2600000000000,"state":"active","ping":44},{"user_id":333,"name":"Scorpianswag","steam_id":76561198260651036,"connected_time":70000000000,"state":"active","ping":45},{"user_id":322,"name":"vuldrin","steam_id":76561198383695069,"connected_time":561000000000,"state":"active","ping":77},{"user_id":317,"name":"HeinzRichter","steam_id":76561198854966161,"connected_time":979000000000,"state":"active","ping":46},{"user_id":334,"name":"Matte \u003e:)","steam_id":76561198070631073,"connected_time":62000000000,"state":"active","ping":52},{"user_id":335,"name":"ghostwalker","steam_id":76561198388123421,"connected_time":47000000000,"state":"active","ping":60}]},{"server_id":18,"name":"Uncletopia | San Francisco | 2 | All Maps","name_short":"sfo-2","host":"sfo-1.us.uncletopia.com","port":27025,"enabled":true,"region":"us-west","cc":"us","latitude":37.77397,"longitude":-122.4313,"reserved":0,"last_update":"0001-01-01T00:00:00Z","name_a2s":"Uncletopia | San Francisco | 2 | All Maps","protocol":17,"map":"pl_badwater","folder":"tf","game":"Team Fortress","app_id":440,"player_count":16,"max_players":24,"Bots":0,"server_type":"Dedicated","server_os":"Linux","password":true,"vac":true,"version":"7882260","steam_id":85568392924470000,"keywords":["nocrits","nodmgspread","payload","uncletopia"],"game_id":440,"stv_port":27026,"stv_name":"Uncletopia | San Francisco | 2 | All Maps | STV","players":[{"user_id":412,"name":"my balls","steam_id":76561199472693860,"connected_time":73000000000,"state":"active","ping":293},{"user_id":373,"name":"crumblejon","steam_id":76561198111273302,"connected_time":3704000000000,"state":"active","ping":59},{"user_id":401,"name":"ondagazzz","steam_id":76561199439998694,"connected_time":1812000000000,"state":"active","ping":66},{"user_id":382,"name":"bad spy player","steam_id":76561198873699671,"connected_time":2835000000000,"state":"active","ping":70},{"user_id":413,"name":"Generator","steam_id":76561198011762257,"connected_time":25000000000,"state":"spawning","ping":104},{"user_id":403,"name":"SAP","steam_id":76561198005186905,"connected_time":1733000000000,"state":"active","ping":79},{"user_id":405,"name":"Farseer Ulwithy","steam_id":76561197965179245,"connected_time":1727000000000,"state":"active","ping":114},{"user_id":411,"name":"Rusty","steam_id":76561198055585129,"connected_time":699000000000,"state":"active","ping":60},{"user_id":378,"name":"Mr. Yoshida","steam_id":76561198263829831,"connected_time":2943000000000,"state":"active","ping":85},{"user_id":409,"name":"Nine Inch Иipples","steam_id":76561198149413947,"connected_time":949000000000,"state":"active","ping":56},{"user_id":400,"name":"lukamine","steam_id":76561198166827208,"connected_time":1845000000000,"state":"active","ping":64},{"user_id":410,"name":"Poppet","steam_id":76561198012301951,"connected_time":819000000000,"state":"active","ping":104},{"user_id":392,"name":"Fantastik","steam_id":76561198154963496,"connected_time":2335000000000,"state":"active","ping":98},{"user_id":406,"name":"TheAlphaDoor","steam_id":76561198336551859,"connected_time":1720000000000,"state":"active","ping":35},{"user_id":308,"name":"perc 10","steam_id":76561198116471653,"connected_time":11088000000000,"state":"active","ping":31},{"user_id":369,"name":"Phoenix","steam_id":76561199465534945,"connected_time":4412000000000,"state":"active","ping":76}]},{"server_id":19,"name":"Uncletopia | San Francisco | 3 | Stopwatch Beta","name_short":"sfo-3","host":"sfo-1.us.uncletopia.com","port":27035,"enabled":true,"region":"us-west","cc":"us","latitude":37.77397,"longitude":-122.4313,"reserved":0,"last_update":"0001-01-01T00:00:00Z","name_a2s":"Uncletopia | San Francisco | 3 | Stopwatch Beta","protocol":17,"map":"workshop/pl_barnblitz_pro7.ugc582280235","folder":"tf","game":"Team Fortress","app_id":440,"player_count":0,"max_players":24,"Bots":0,"server_type":"Dedicated","server_os":"Linux","password":true,"vac":true,"version":"7882260","steam_id":85568392924742824,"keywords":["nocrits","nodmgspread","payload","uncletopia"],"game_id":440,"stv_port":27036,"stv_name":"Uncletopia | San Francisco | 3 | Stopwatch Beta | STV","players":null},{"server_id":20,"name":"Uncletopia | San Francisco | 4 | Community","name_short":"sfo-4","host":"sfo-1.us.uncletopia.com","port":27045,"enabled":true,"region":"us-west","cc":"us","latitude":37.77397,"longitude":-122.4313,"reserved":0,"last_update":"0001-01-01T00:00:00Z","name_a2s":"Uncletopia | San Francisco | 4 | Community","protocol":17,"map":"workshop/cp_caldera_rc2.ugc2834196889","folder":"tf","game":"Team Fortress","app_id":440,"player_count":0,"max_players":24,"Bots":0,"server_type":"Dedicated","server_os":"Linux","password":true,"vac":true,"version":"7882260","steam_id":85568392924742826,"keywords":["cp","nocrits","nodmgspread","uncletopia"],"game_id":440,"stv_port":27046,"stv_name":"Uncletopia | San Francisco | 4 | Community | STV","players":null},{"server_id":141,"name":"Uncletopia | Sydney | 1 | All Maps","name_short":"syd-1","host":"syd-1.au.uncletopia.com","port":27015,"enabled":true,"region":"au","cc":"au","latitude":-33.865143,"longitude":151.2099,"reserved":0,"last_update":"0001-01-01T00:00:00Z","name_a2s":"Uncletopia | Sydney | 1 | All Maps","protocol":17,"map":"pl_pier","folder":"tf","game":"Team Fortress","app_id":440,"player_count":24,"max_players":24,"Bots":0,"server_type":"Dedicated","server_os":"Linux","password":true,"vac":true,"version":"7882260","steam_id":85568392924470001,"keywords":["nocrits","nodmgspread","payload","uncletopia"],"game_id":440,"stv_port":27016,"stv_name":"Uncletopia | Sydney | 1 | All Maps | STV","players":[{"user_id":266,"name":"Noble Chernobyl","steam_id":76561198011803825,"connected_time":2635000000000,"state":"active","ping":45},{"user_id":272,"name":"camchoobies","steam_id":76561198951609539,"connected_time":2197000000000,"state":"active","ping":66},{"user_id":192,"name":"Zieria","steam_id":76561199261811388,"connected_time":6380000000000,"state":"active","ping":30},{"user_id":297,"name":"shutterstock camel","steam_id":76561198079345240,"connected_time":471000000000,"state":"active","ping":59},{"user_id":307,"name":"The_Living_Pine","steam_id":76561198133850358,"connected_time":8000000000,"state":"spawning","ping":81},{"user_id":293,"name":"Original Glazed (Krispy/Kreme)","steam_id":76561197997362731,"connected_time":671000000000,"state":"active","ping":45},{"user_id":296,"name":"dreamydoggy","steam_id":76561198448243169,"connected_time":492000000000,"state":"active","ping":59},{"user_id":292,"name":"fourjaf","steam_id":76561198163147051,"connected_time":917000000000,"state":"active","ping":44},{"user_id":278,"name":"Kevin Parker","steam_id":76561198060677406,"connected_time":1956000000000,"state":"active","ping":89},{"user_id":294,"name":"♠³","steam_id":76561199140616120,"connected_time":620000000000,"state":"active","ping":99},{"user_id":298,"name":"DropBearWarrior","steam_id":76561198352774039,"connected_time":447000000000,"state":"active","ping":85},{"user_id":301,"name":"mada","steam_id":76561199436707447,"connected_time":320000000000,"state":"active","ping":45},{"user_id":300,"name":"[ѵƇity] it has been ages","steam_id":76561198016686295,"connected_time":404000000000,"state":"active","ping":74},{"user_id":302,"name":"vent","steam_id":76561197984081096,"connected_time":268000000000,"state":"active","ping":70},{"user_id":303,"name":"voxii","steam_id":76561198099698281,"connected_time":195000000000,"state":"active","ping":68},{"user_id":283,"name":"Second Lieutenant Pisser","steam_id":76561198866538028,"connected_time":1799000000000,"state":"active","ping":80},{"user_id":275,"name":"Skidallion","steam_id":76561198083922206,"connected_time":2112000000000,"state":"active","ping":63},{"user_id":291,"name":"Whyyan","steam_id":76561198123825900,"connected_time":1223000000000,"state":"active","ping":68},{"user_id":304,"name":"BeeKay™","steam_id":76561198126832649,"connected_time":128000000000,"state":"active","ping":54},{"user_id":284,"name":"benchwet","steam_id":76561197995358524,"connected_time":1785000000000,"state":"active","ping":55},{"user_id":305,"name":"weezer","steam_id":76561199439508788,"connected_time":88000000000,"state":"active","ping":64},{"user_id":306,"name":"whiteshaq","steam_id":76561198131988811,"connected_time":64000000000,"state":"active","ping":45},{"user_id":280,"name":"Happy Feet (A Tarantino Film)","steam_id":76561198055318716,"connected_time":1927000000000,"state":"active","ping":43},{"user_id":286,"name":"Scalalanthor","steam_id":76561198099805615,"connected_time":1701000000000,"state":"active","ping":64}]},{"server_id":123,"name":"Uncletopia | Sydney | 2 | All Maps","name_short":"syd-2","host":"syd-1.au.uncletopia.com","port":27025,"enabled":true,"region":"au","cc":"au","latitude":-33.865143,"longitude":151.2099,"reserved":0,"last_update":"0001-01-01T00:00:00Z","name_a2s":"Uncletopia | Sydney | 2 | All Maps","protocol":17,"map":"cp_sunshine","folder":"tf","game":"Team Fortress","app_id":440,"player_count":0,"max_players":24,"Bots":0,"server_type":"Dedicated","server_os":"Linux","password":true,"vac":true,"version":"7882260","steam_id":85568392924470002,"keywords":["cp","nocrits","nodmgspread","uncletopia"],"game_id":440,"stv_port":27026,"stv_name":"Uncletopia | Sydney | 2 | All Maps | STV","players":null},{"server_id":395,"name":"Uncletopia | Sydney | 3 | All Maps","name_short":"syd-3","host":"syd-1.au.uncletopia.com","port":27035,"enabled":true,"region":"au","cc":"au","latitude":-33.865143,"longitude":151.2099,"reserved":0,"last_update":"0001-01-01T00:00:00Z","name_a2s":"Uncletopia | Sydney | 3 | All Maps","protocol":17,"map":"koth_viaduct","folder":"tf","game":"Team Fortress","app_id":440,"player_count":0,"max_players":24,"Bots":0,"server_type":"Dedicated","server_os":"Linux","password":true,"vac":true,"version":"7882260","steam_id":85568392925194467,"keywords":["cp","nocrits","nodmgspread","uncletopia"],"game_id":440,"stv_port":27036,"stv_name":"Uncletopia | Sydney | 3 | All Maps | STV","players":null},{"server_id":396,"name":"Uncletopia | Sydney | 4 | All Maps","name_short":"syd-4","host":"syd-1.au.uncletopia.com","port":27045,"enabled":true,"region":"au","cc":"au","latitude":-33.865143,"longitude":151.2099,"reserved":0,"last_update":"0001-01-01T00:00:00Z","name_a2s":"Uncletopia | Sydney | 4 | All Maps","protocol":17,"map":"pl_snowycoast","folder":"tf","game":"Team Fortress","app_id":440,"player_count":0,"max_players":24,"Bots":0,"server_type":"Dedicated","server_os":"Linux","password":true,"vac":true,"version":"7882260","steam_id":85568392925397958,"keywords":["nocrits","nodmgspread","payload","uncletopia"],"game_id":440,"stv_port":27046,"stv_name":"Uncletopia | Sydney | 4 | All Maps | STV","players":null},{"server_id":58,"name":"Uncletopia | Sydney | 5 | Stopwatch Beta","name_short":"syd-5","host":"syd-1.au.uncletopia.com","port":27055,"enabled":true,"region":"au","cc":"au","latitude":-33.865143,"longitude":151.2099,"reserved":0,"last_update":"0001-01-01T00:00:00Z","name_a2s":"Uncletopia | Sydney | 5 | Stopwatch Beta","protocol":17,"map":"koth_viaduct","folder":"tf","game":"Team Fortress","app_id":440,"player_count":0,"max_players":24,"Bots":0,"server_type":"Dedicated","server_os":"Linux","password":true,"vac":true,"version":"7882260","steam_id":85568392925397959,"keywords":["cp","nocrits","nodmgspread","uncletopia"],"game_id":440,"stv_port":27056,"stv_name":"Uncletopia | Sydney | 5 | Stopwatch Beta | STV","players":null},{"server_id":59,"name":"Uncletopia | Sydney | 6 | Community","name_short":"syd-6","host":"syd-1.au.uncletopia.com","port":27065,"enabled":true,"region":"au","cc":"au","latitude":-33.865143,"longitude":151.2099,"reserved":0,"last_update":"0001-01-01T00:00:00Z","name_a2s":"Uncletopia | Sydney | 6 | Community","protocol":17,"map":"workshop/koth_ashville_final.ugc2130459942","folder":"tf","game":"Team Fortress","app_id":440,"player_count":0,"max_players":24,"Bots":0,"server_type":"Dedicated","server_os":"Linux","password":true,"vac":true,"version":"7882260","steam_id":85568392925397960,"keywords":["cp","nocrits","nodmgspread","uncletopia"],"game_id":440,"stv_port":27066,"stv_name":"Uncletopia | Sydney | 6 | Community | STV","players":null},{"server_id":49,"name":"Uncletopia | Warsaw | 1 | All Maps","name_short":"waw-1","host":"waw-1.pl.uncletopia.com","port":27015,"enabled":true,"region":"eu","cc":"pl","latitude":52.2297,"longitude":21.017532,"reserved":0,"last_update":"0001-01-01T00:00:00Z","name_a2s":"","protocol":0,"map":"","folder":"","game":"","app_id":0,"player_count":0,"max_players":0,"Bots":0,"server_type":"","server_os":"","password":false,"vac":false,"version":"","steam_id":0,"keywords":null,"game_id":0,"stv_port":0,"stv_name":"","players":null},{"server_id":50,"name":"Uncletopia | Warsaw | 2 | All Maps","name_short":"waw-2","host":"waw-1.pl.uncletopia.com","port":27025,"enabled":true,"region":"eu","cc":"pl","latitude":52.2297,"longitude":21.017532,"reserved":0,"last_update":"0001-01-01T00:00:00Z","name_a2s":"Uncletopia | Warsaw | 2 | All Maps","protocol":17,"map":"koth_viaduct","folder":"tf","game":"Team Fortress","app_id":440,"player_count":0,"max_players":24,"Bots":0,"server_type":"Dedicated","server_os":"Linux","password":true,"vac":true,"version":"7882260","steam_id":85568392925397851,"keywords":["cp","nocrits","nodmgspread","uncletopia"],"game_id":440,"stv_port":27026,"stv_name":"Uncletopia | Warsaw | 2 | All Maps | STV","players":null},{"server_id":51,"name":"Uncletopia | Warsaw | 3 | All Maps","name_short":"waw-3","host":"waw-1.pl.uncletopia.com","port":27035,"enabled":true,"region":"eu","cc":"pl","latitude":52.2297,"longitude":21.017532,"reserved":0,"last_update":"0001-01-01T00:00:00Z","name_a2s":"Uncletopia | Warsaw | 3 | All Maps","protocol":17,"map":"pl_badwater","folder":"tf","game":"Team Fortress","app_id":440,"player_count":0,"max_players":24,"Bots":0,"server_type":"Dedicated","server_os":"Linux","password":true,"vac":true,"version":"7882260","steam_id":85568392925397852,"keywords":["nocrits","nodmgspread","payload","uncletopia"],"game_id":440,"stv_port":27036,"stv_name":"Uncletopia | Warsaw | 3 | All Maps | STV","players":null},{"server_id":52,"name":"Uncletopia | Warsaw | 4 | All Maps","name_short":"waw-4","host":"waw-1.pl.uncletopia.com","port":27045,"enabled":true,"region":"eu","cc":"pl","latitude":52.2297,"longitude":21.017532,"reserved":0,"last_update":"0001-01-01T00:00:00Z","name_a2s":"Uncletopia | Warsaw | 4 | All Maps","protocol":17,"map":"koth_cascade","folder":"tf","game":"Team Fortress","app_id":440,"player_count":0,"max_players":24,"Bots":0,"server_type":"Dedicated","server_os":"Linux","password":true,"vac":true,"version":"7882260","steam_id":85568392925397853,"keywords":["cp","nocrits","nodmgspread","uncletopia"],"game_id":440,"stv_port":27046,"stv_name":"Uncletopia | Warsaw | 4 | All Maps | STV","players":null},{"server_id":53,"name":"Uncletopia | Warsaw | 5 | Stopwatch Beta","name_short":"waw-5","host":"waw-1.pl.uncletopia.com","port":27055,"enabled":true,"region":"eu","cc":"pl","latitude":52.2297,"longitude":21.017532,"reserved":0,"last_update":"0001-01-01T00:00:00Z","name_a2s":"Uncletopia | Warsaw | 5 | Stopwatch Beta","protocol":17,"map":"cp_dustbowl","folder":"tf","game":"Team Fortress","app_id":440,"player_count":0,"max_players":24,"Bots":0,"server_type":"Dedicated","server_os":"Linux","password":true,"vac":true,"version":"7882260","steam_id":85568392925397854,"keywords":["cp","nocrits","nodmgspread","uncletopia"],"game_id":440,"stv_port":27056,"stv_name":"Uncletopia | Warsaw | 5 | Stopwatch Beta | STV","players":null},{"server_id":54,"name":"Uncletopia | Warsaw | 6 | Community","name_short":"waw-6","host":"waw-1.pl.uncletopia.com","port":27065,"enabled":true,"region":"eu","cc":"pl","latitude":52.2297,"longitude":21.017532,"reserved":0,"last_update":"0001-01-01T00:00:00Z","name_a2s":"Uncletopia | Warsaw | 6 | Community","protocol":17,"map":"cp_dustbowl","folder":"tf","game":"Team Fortress","app_id":440,"player_count":0,"max_players":24,"Bots":0,"server_type":"Dedicated","server_os":"Linux","password":true,"vac":true,"version":"7882260","steam_id":85568392925397856,"keywords":["cp","nocrits","nodmgspread","uncletopia"],"game_id":440,"stv_port":27066,"stv_name":"Uncletopia | Warsaw | 6 | Community | STV","players":null}]}