{"status":true,"message":"","result":[{"server_id":9,"name":"Uncletopia | Atlanta | 1 | All Maps","name_short":"atl-1","host":"atl-1.us.uncletopia.com","port":27015,"enabled":true,"region":"us-east","cc":"us","latitude":33.753746,"longitude":-84.38633,"reserved":0,"last_update":"0001-01-01T00:00:00Z","name_a2s":"Uncletopia | Atlanta | 1 | All Maps","protocol":17,"map":"koth_cascade","folder":"tf","game":"Team Fortress","app_id":440,"player_count":0,"max_players":24,"Bots":0,"server_type":"Dedicated","server_os":"Linux","password":true,"vac":true,"version":"7757534","steam_id":85568392924469982,"keywords":["cp","nocrits","nodmgspread","uncletopia"],"game_id":440,"stv_port":27016,"stv_name":"Uncletopia | Atlanta | 1 | All Maps | STV","players":null},{"server_id":400,"name":"Uncletopia | Atlanta | 3 | Stopwatch Beta","name_short":"atl-3","host":"atl-1.us.uncletopia.com","port":27035,"enabled":true,"region":"us-east","cc":"us","latitude":33.753746,"longitude":-84.38633,"reserved":0,"last_update":"0001-01-01T00:00:00Z","name_a2s":"Uncletopia | Atlanta | 3 | Stopwatch Beta","protocol":17,"map":"pl_upward","folder":"tf","game":"Team Fortress","app_id":440,"player_count":0,"max_players":24,"Bots":0,"server_type":"Dedicated","server_os":"Linux","password":true,"vac":true,"version":"7757534","steam_id":85568392924515187,"keywords":["nocrits","nodmgspread","payload","uncletopia"],"game_id":440,"stv_port":27036,"stv_name":"Uncletopia | Atlanta | 3 | Stopwatch Beta | STV","players":null},{"server_id":401,"name":"Uncletopia | Atlanta | 4 | No Payload","name_short":"atl-4","host":"atl-1.us.uncletopia.com","port":27045,"enabled":true,"region":"us-east","cc":"us","latitude":33.753746,"longitude":-84.38633,"reserved":0,"last_update":"0001-01-01T00:00:00Z","name_a2s":"Uncletopia | Atlanta | 4 | No Payload","protocol":17,"map":"pl_pier","folder":"tf","game":"Team Fortress","app_id":440,"player_count":0,"max_players":24,"Bots":0,"server_type":"Dedicated","server_os":"Linux","password":true,"vac":true,"version":"7723704","steam_id":85568392924515188,"keywords":["nocrits","nodmgspread","payload","uncletopia"],"game_id":440,"stv_port":27046,"stv_name":"Uncletopia | Atlanta | 4 | No Payload | STV","players":null},{"server_id":2,"name":"Uncletopia | Chicago | 1 | All Maps","name_short":"chi-1","host":"chi-1.us.uncletopia.com","port":27015,"enabled":true,"region":"us-central","cc":"us","latitude":41.881832,"longitude":-87.62318,"reserved":0,"last_update":"0001-01-01T00:00:00Z","name_a2s":"Uncletopia | Chicago | 1 | All Maps","protocol":17,"map":"pl_upward","folder":"tf","game":"Team Fortress","app_id":440,"player_count":24,"max_players":24,"Bots":0,"server_type":"Dedicated","server_os":"Linux","password":true,"vac":true,"version":"7757534","steam_id":85568392924469984,"keywords":["nocrits","nodmgspread","payload","uncletopia"],"game_id":440,"stv_port":27016,"stv_name":"Uncletopia | Chicago | 1 | All Maps | STV","players":[{"user_id":17,"name":"capybara","steam_id":76561198798828328,"connected_time":6574000000000,"state":"active","ping":50},{"user_id":89,"name":"deech","steam_id":76561198066429444,"connected_time":1446000000000,"state":"active","ping":63},{"user_id":109,"name":"Fl4mingo","steam_id":76561198025601344,"connected_time":44000000000,"state":"active","ping":60},{"user_id":23,"name":"morbissey","steam_id":76561198072592880,"connected_time":5879000000000,"state":"active","ping":44},{"user_id":96,"name":"lu","steam_id":76561198080731872,"connected_time":792000000000,"state":"active","ping":71},{"user_id":56,"name":"BlackCity","steam_id":76561198404495042,"connected_time":4588000000000,"state":"active","ping":72},{"user_id":70,"name":"DuckKey","steam_id":76561198904477889,"connected_time":2808000000000,"state":"active","ping":58},{"user_id":90,"name":"[El Fail] MR.BadassMCLee","steam_id":76561198043787818,"connected_time":1443000000000,"state":"active","ping":122},{"user_id":74,"name":"Dr. Nobotnik","steam_id":76561198357339092,"connected_time":2625000000000,"state":"active","ping":94},{"user_id":103,"name":"Luucyf3r","steam_id":76561198141820085,"connected_time":347000000000,"state":"active","ping":75},{"user_id":68,"name":"YungKeet","steam_id":76561198293854963,"connected_time":3471000000000,"state":"active","ping":79},{"user_id":87,"name":"dan","steam_id":76561198061589465,"connected_time":1534000000000,"state":"active","ping":59},{"user_id":80,"name":"catboy phroliax","steam_id":76561198207075529,"connected_time":2039000000000,"state":"active","ping":104},{"user_id":67,"name":"Quansen","steam_id":76561198151594550,"connected_time":3574000000000,"state":"active","ping":59},{"user_id":104,"name":"The Funny man","steam_id":76561199053955604,"connected_time":331000000000,"state":"active","ping":69},{"user_id":98,"name":"Menlymen","steam_id":76561198046508051,"connected_time":445000000000,"state":"active","ping":71},{"user_id":101,"name":"Rein","steam_id":76561198300340427,"connected_time":351000000000,"state":"active","ping":60},{"user_id":86,"name":"fresco","steam_id":76561199101199477,"connected_time":1540000000000,"state":"active","ping":57},{"user_id":97,"name":"SsaucySam","steam_id":76561198362539268,"connected_time":633000000000,"state":"active","ping":85},{"user_id":106,"name":"Goosher","steam_id":76561198052121130,"connected_time":75000000000,"state":"active","ping":60},{"user_id":108,"name":"dbelow_","steam_id":76561198056148853,"connected_time":60000000000,"state":"active","ping":64},{"user_id":88,"name":"B45Guy","steam_id":76561198117290531,"connected_time":1521000000000,"state":"active","ping":60},{"user_id":71,"name":"Zamich","steam_id":76561198087033116,"connected_time":2725000000000,"state":"active","ping":71},{"user_id":72,"name":"blob","steam_id":76561198122375328,"connected_time":2725000000000,"state":"active","ping":67}]},{"server_id":106,"name":"Uncletopia | Chicago | 2 | All Maps","name_short":"chi-2","host":"chi-1.us.uncletopia.com","port":27025,"enabled":true,"region":"us-central","cc":"us","latitude":41.881832,"longitude":-87.62318,"reserved":0,"last_update":"0001-01-01T00:00:00Z","name_a2s":"Uncletopia | Chicago | 2 | All Maps","protocol":17,"map":"plr_hightower","folder":"tf","game":"Team Fortress","app_id":440,"player_count":24,"max_players":24,"Bots":0,"server_type":"Dedicated","server_os":"Linux","password":true,"vac":true,"version":"7757534","steam_id":85568392924469985,"keywords":["nocrits","nodmgspread","payload","uncletopia"],"game_id":440,"stv_port":27026,"stv_name":"Uncletopia | Chicago | 2 | All Maps | STV","players":[{"user_id":134,"name":"rizzard of oz","steam_id":76561198040907214,"connected_time":2901000000000,"state":"active","ping":60},{"user_id":157,"name":"Anon","steam_id":76561198109740776,"connected_time":2040000000000,"state":"active","ping":117},{"user_id":145,"name":"Tohubohu","steam_id":76561198077838448,"connected_time":2692000000000,"state":"active","ping":115},{"user_id":84,"name":"Fishstall","steam_id":76561198038126034,"connected_time":8096000000000,"state":"active","ping":83},{"user_id":153,"name":"Null","steam_id":76561198062791227,"connected_time":2150000000000,"state":"active","ping":68},{"user_id":137,"name":"perfect inCell","steam_id":76561198059182316,"connected_time":2866000000000,"state":"active","ping":54},{"user_id":167,"name":"dracula's dad","steam_id":76561198005776959,"connected_time":527000000000,"state":"active","ping":58},{"user_id":168,"name":"Critscare","steam_id":76561198087712508,"connected_time":428000000000,"state":"active","ping":43},{"user_id":144,"name":"Skelebob","steam_id":76561198880649335,"connected_time":2704000000000,"state":"active","ping":60},{"user_id":52,"name":"Motreir","steam_id":76561198151717946,"connected_time":10870000000000,"state":"active","ping":77},{"user_id":169,"name":"[LINUX] Konunkier","steam_id":76561198093538786,"connected_time":291000000000,"state":"active","ping":70},{"user_id":148,"name":"crunchy obama","steam_id":76561198044485217,"connected_time":2572000000000,"state":"active","ping":103},{"user_id":139,"name":"years","steam_id":76561197994098627,"connected_time":2833000000000,"state":"active","ping":116},{"user_id":83,"name":"Ojen","steam_id":76561197998414482,"connected_time":8211000000000,"state":"active","ping":77},{"user_id":149,"name":"FreonAddict9x19","steam_id":76561198060010824,"connected_time":2537000000000,"state":"active","ping":71},{"user_id":158,"name":"FG7","steam_id":76561198381197197,"connected_time":1786000000000,"state":"active","ping":194},{"user_id":117,"name":"Eden","steam_id":76561198075587475,"connected_time":5428000000000,"state":"active","ping":45},{"user_id":156,"name":"FiddyFoMike","steam_id":76561198057072581,"connected_time":2058000000000,"state":"active","ping":90},{"user_id":75,"name":"trasho","steam_id":76561198066867150,"connected_time":8952000000000,"state":"active","ping":68},{"user_id":121,"name":"cosmik","steam_id":76561198071193180,"connected_time":4236000000000,"state":"active","ping":72},{"user_id":150,"name":"Biogrease","steam_id":76561198215945072,"connected_time":2524000000000,"state":"active","ping":101},{"user_id":163,"name":"Nerdquake1","steam_id":76561198077261668,"connected_time":1197000000000,"state":"active","ping":65},{"user_id":152,"name":"Menace to Sobriety","steam_id":76561198245103000,"connected_time":2479000000000,"state":"active","ping":67},{"user_id":166,"name":"c64guy","steam_id":76561198023022744,"connected_time":1081000000000,"state":"active","ping":75}]},{"server_id":402,"name":"Uncletopia | Chicago | 3 | All Maps","name_short":"chi-3","host":"chi-1.us.uncletopia.com","port":27035,"enabled":true,"region":"us-central","cc":"us","latitude":41.881832,"longitude":-87.62318,"reserved":0,"last_update":"0001-01-01T00:00:00Z","name_a2s":"Uncletopia | Chicago | 3 | All Maps","protocol":17,"map":"koth_badlands","folder":"tf","game":"Team Fortress","app_id":440,"player_count":0,"max_players":24,"Bots":0,"server_type":"Dedicated","server_os":"Linux","password":true,"vac":true,"version":"7757534","steam_id":85568392924515191,"keywords":["cp","nocrits","nodmgspread","uncletopia"],"game_id":440,"stv_port":27036,"stv_name":"Uncletopia | Chicago | 3 | All Maps | STV","players":null},{"server_id":403,"name":"Uncletopia | Chicago | 4 | All Maps","name_short":"chi-4","host":"chi-1.us.uncletopia.com","port":27045,"enabled":true,"region":"us-central","cc":"us","latitude":41.881832,"longitude":-87.62318,"reserved":0,"last_update":"0001-01-01T00:00:00Z","name_a2s":"Uncletopia | Chicago | 4 | All Maps","protocol":17,"map":"koth_cascade","folder":"tf","game":"Team Fortress","app_id":440,"player_count":0,"max_players":24,"Bots":0,"server_type":"Dedicated","server_os":"Linux","password":true,"vac":true,"version":"7757534","steam_id":85568392924515193,"keywords":["cp","nocrits","nodmgspread","uncletopia"],"game_id":440,"stv_port":27046,"stv_name":"Uncletopia | Chicago | 4 | All Maps | STV","players":null},{"server_id":36,"name":"Uncletopia | Chicago | 5 | All Maps","name_short":"chi-5","host":"chi-2.us.uncletopia.com","port":27015,"enabled":true,"region":"us-central","cc":"us","latitude":41.881832,"longitude":-87.62318,"reserved":0,"last_update":"0001-01-01T00:00:00Z","name_a2s":"Uncletopia | Chicago | 5 | All Maps","protocol":17,"map":"pl_pier","folder":"tf","game":"Team Fortress","app_id":440,"player_count":24,"max_players":24,"Bots":0,"server_type":"Dedicated","server_os":"Linux","password":true,"vac":true,"version":"7757534","steam_id":85568392924866362,"keywords":["nocrits","nodmgspread","payload","uncletopia"],"game_id":440,"stv_port":27016,"stv_name":"Uncletopia | Chicago | 5 | All Maps | STV","players":[{"user_id":144,"name":"ZBaldTop","steam_id":76561199396318132,"connected_time":383000000000,"state":"active","ping":49},{"user_id":129,"name":"mvmnooob","steam_id":76561198041880486,"connected_time":1918000000000,"state":"active","ping":64},{"user_id":148,"name":"Toygar","steam_id":76561198023679830,"connected_time":172000000000,"state":"active","ping":56},{"user_id":152,"name":"c.atto","steam_id":76561198202448753,"connected_time":0,"state":"spawning","ping":62},{"user_id":126,"name":"SomeScuffedKid","steam_id":76561198086113234,"connected_time":1997000000000,"state":"active","ping":61},{"user_id":102,"name":"xxxDABGODxxx","steam_id":76561199061979040,"connected_time":3656000000000,"state":"active","ping":104},{"user_id":112,"name":"nvm_","steam_id":76561198843128678,"connected_time":3367000000000,"state":"active","ping":46},{"user_id":135,"name":"PrinceGrotle","steam_id":76561198206131603,"connected_time":1362000000000,"state":"active","ping":74},{"user_id":118,"name":"ShadowLotus","steam_id":76561198436367016,"connected_time":2693000000000,"state":"active","ping":94},{"user_id":85,"name":"debin","steam_id":76561198070711217,"connected_time":5771000000000,"state":"active","ping":59},{"user_id":136,"name":"Dallas","steam_id":76561198066542919,"connected_time":1359000000000,"state":"active","ping":90},{"user_id":97,"name":"T√ñZI","steam_id":76561198045268695,"connected_time":4205000000000,"state":"active","ping":61},{"user_id":79,"name":"fruity","steam_id":76561198855810297,"connected_time":6008000000000,"state":"active","ping":84},{"user_id":99,"name":"Sunvaar","steam_id":76561198852679851,"connected_time":4038000000000,"state":"active","ping":62},{"user_id":147,"name":"aimee","steam_id":76561198834309212,"connected_time":201000000000,"state":"active","ping":77},{"user_id":145,"name":"lost in the sauce","steam_id":76561199043827112,"connected_time":372000000000,"state":"active","ping":61},{"user_id":151,"name":"137mph","steam_id":76561199012802250,"connected_time":34000000000,"state":"spawning","ping":78},{"user_id":150,"name":"jrdoran","steam_id":76561197984753094,"connected_time":46000000000,"state":"active","ping":62},{"user_id":143,"name":"ScoutMoment420","steam_id":76561199316368867,"connected_time":393000000000,"state":"active","ping":80},{"user_id":131,"name":"green bean","steam_id":76561198113099204,"connected_time":1897000000000,"state":"active","ping":88},{"user_id":133,"name":"barbara","steam_id":76561198072417792,"connected_time":1675000000000,"state":"active","ping":70},{"user_id":134,"name":"three three","steam_id":76561198177354155,"connected_time":1393000000000,"state":"active","ping":56},{"user_id":87,"name":"Atlas","steam_id":76561198127975050,"connected_time":5549000000000,"state":"active","ping":68},{"user_id":111,"name":"ayr","steam_id":76561198083640961,"connected_time":3454000000000,"state":"active","ping":70}]},{"server_id":37,"name":"Uncletopia | Chicago | 6 | All Maps","name_short":"chi-6","host":"chi-2.us.uncletopia.com","port":27025,"enabled":true,"region":"us-central","cc":"us","latitude":41.881832,"longitude":-87.62318,"reserved":0,"last_update":"0001-01-01T00:00:00Z","name_a2s":"Uncletopia | Chicago | 6 | All Maps","protocol":17,"map":"cp_sunshine","folder":"tf","game":"Team Fortress","app_id":440,"player_count":24,"max_players":24,"Bots":0,"server_type":"Dedicated","server_os":"Linux","password":true,"vac":true,"version":"7757534","steam_id":85568392924866363,"keywords":["cp","nocrits","nodmgspread","uncletopia"],"game_id":440,"stv_port":27026,"stv_name":"Uncletopia | Chicago | 6 | All Maps | STV","players":[{"user_id":11,"name":"dicksnip","steam_id":76561198356515396,"connected_time":3293000000000,"state":"active","ping":91},{"user_id":58,"name":"Bobbn","steam_id":76561198876124683,"connected_time":242000000000,"state":"active","ping":75},{"user_id":14,"name":"The man who sold 2Fort","steam_id":76561199100003132,"connected_time":2692000000000,"state":"active","ping":152},{"user_id":56,"name":"FROYO domando","steam_id":76561199150367705,"connected_time":273000000000,"state":"active","ping":77},{"user_id":63,"name":"Mister36","steam_id":76561198019132100,"connected_time":14000000000,"state":"active","ping":89},{"user_id":18,"name":"volta","steam_id":76561199214283884,"connected_time":2238000000000,"state":"active","ping":103},{"user_id":57,"name":"frank","steam_id":76561198045436159,"connected_time":259000000000,"state":"active","ping":79},{"user_id":21,"name":"Epicsans24","steam_id":76561199113260090,"connected_time":1877000000000,"state":"active","ping":74},{"user_id":32,"name":"[TSG] Turner's Chocolate Milk","steam_id":76561198058963288,"connected_time":1640000000000,"state":"active","ping":67},{"user_id":59,"name":"Dipping_Eggs","steam_id":76561198354606995,"connected_time":239000000000,"state":"active","ping":89},{"user_id":24,"name":"Pixeled","steam_id":76561198088917077,"connected_time":1802000000000,"state":"active","ping":92},{"user_id":26,"name":"Dr. Faust","steam_id":76561199132607207,"connected_time":1691000000000,"state":"active","ping":70},{"user_id":27,"name":"Thaberii","steam_id":76561198275818707,"connected_time":1684000000000,"state":"active","ping":118},{"user_id":60,"name":"·ïï( ·êõ )·ïó","steam_id":76561198110033681,"connected_time":227000000000,"state":"active","ping":46},{"user_id":49,"name":"Xeno","steam_id":76561198089138085,"connected_time":943000000000,"state":"active","ping":114},{"user_id":30,"name":"Jack from Jack in The Box","steam_id":76561199083594971,"connected_time":1668000000000,"state":"active","ping":87},{"user_id":31,"name":"LARGE","steam_id":76561198124583948,"connected_time":1667000000000,"state":"active","ping":85},{"user_id":64,"name":"pim","steam_id":76561198095163441,"connected_time":14000000000,"state":"spawning","ping":66},{"user_id":53,"name":"Kaypo","steam_id":76561198262420097,"connected_time":314000000000,"state":"active","ping":63},{"user_id":42,"name":"Kuddly Kay (She/Her)","steam_id":76561198353432576,"connected_time":1363000000000,"state":"active","ping":103},{"user_id":36,"name":"Winter the Witchie","steam_id":76561198151971178,"connected_time":1630000000000,"state":"active","ping":62},{"user_id":37,"name":"CBTgaeming","steam_id":76561199089290128,"connected_time":1617000000000,"state":"active","ping":139},{"user_id":48,"name":"Yule","steam_id":76561198087404667,"connected_time":982000000000,"state":"active","ping":90},{"user_id":62,"name":"garfield","steam_id":76561198114119308,"connected_time":211000000000,"state":"active","ping":70}]},{"server_id":38,"name":"Uncletopia | Chicago | 7 | Stopwatch Beta","name_short":"chi-7","host":"chi-2.us.uncletopia.com","port":27035,"enabled":true,"region":"us-central","cc":"us","latitude":41.881832,"longitude":-87.62318,"reserved":0,"last_update":"0001-01-01T00:00:00Z","name_a2s":"Uncletopia | Chicago | 7 | Stopwatch Beta","protocol":17,"map":"cp_sunshine","folder":"tf","game":"Team Fortress","app_id":440,"player_count":0,"max_players":24,"Bots":0,"server_type":"Dedicated","server_os":"Linux","password":true,"vac":true,"version":"7757534","steam_id":85568392924866364,"keywords":["cp","nocrits","nodmgspread","uncletopia"],"game_id":440,"stv_port":27036,"stv_name":"Uncletopia | Chicago | 7 | Stopwatch Beta | STV","players":null},{"server_id":39,"name":"Uncletopia | Chicago | 8 | Community","name_short":"chi-8","host":"chi-2.us.uncletopia.com","port":27045,"enabled":true,"region":"us-central","cc":"us","latitude":41.881832,"longitude":-87.62318,"reserved":0,"last_update":"0001-01-01T00:00:00Z","name_a2s":"Uncletopia | Chicago | 8 | Community","protocol":17,"map":"pl_pier","folder":"tf","game":"Team Fortress","app_id":440,"player_count":0,"max_players":24,"Bots":0,"server_type":"Dedicated","server_os":"Linux","password":true,"vac":true,"version":"7757534","steam_id":85568392924866365,"keywords":["nocrits","nodmgspread","payload","uncletopia"],"game_id":440,"stv_port":27046,"stv_name":"Uncletopia | Chicago | 8 | Community | STV","players":null},{"server_id":8,"name":"Uncletopia | Dallas | 1 | All Maps","name_short":"dal-1","host":"dal-1.us.uncletopia.com","port":27015,"enabled":true,"region":"us-central","cc":"us","latitude":32.779167,"longitude":-96.80889,"reserved":0,"last_update":"0001-01-01T00:00:00Z","name_a2s":"Uncletopia | Dallas | 1 | All Maps","protocol":17,"map":"pl_badwater","folder":"tf","game":"Team Fortress","app_id":440,"player_count":24,"max_players":24,"Bots":0,"server_type":"Dedicated","server_os":"Linux","password":true,"vac":true,"version":"7757534","steam_id":85568392924469986,"keywords":["nocrits","nodmgspread","payload","uncletopia"],"game_id":440,"stv_port":27016,"stv_name":"Uncletopia | Dallas | 1 | All Maps | STV","players":[{"user_id":122,"name":"The Horselords and Animal Gods","steam_id":76561197975094050,"connected_time":1457000000000,"state":"active","ping":79},{"user_id":124,"name":"Biznickel","steam_id":76561199422511230,"connected_time":1245000000000,"state":"active","ping":93},{"user_id":133,"name":"Sticky","steam_id":76561198031581547,"connected_time":1013000000000,"state":"active","ping":61},{"user_id":126,"name":"keep it piping hot","steam_id":76561199195104977,"connected_time":1243000000000,"state":"active","ping":76},{"user_id":66,"name":"PJSekai Player","steam_id":76561198025668771,"connected_time":5723000000000,"state":"active","ping":106},{"user_id":109,"name":"Drive-By-Fish-Guy","steam_id":76561198105513652,"connected_time":2509000000000,"state":"active","ping":93},{"user_id":136,"name":"Luna","steam_id":76561198075944196,"connected_time":21000000000,"state":"spawning","ping":59},{"user_id":79,"name":"sebjzy","steam_id":76561198009959034,"connected_time":5186000000000,"state":"active","ping":55},{"user_id":104,"name":"Buttsteak123","steam_id":76561198166558900,"connected_time":2823000000000,"state":"active","ping":113},{"user_id":78,"name":"barker bill","steam_id":76561198018451994,"connected_time":5305000000000,"state":"active","ping":61},{"user_id":128,"name":"Broadsword","steam_id":76561198011160411,"connected_time":1214000000000,"state":"active","ping":91},{"user_id":81,"name":"Hooray!","steam_id":76561198136487957,"connected_time":4810000000000,"state":"active","ping":61},{"user_id":110,"name":"crusty sock","steam_id":76561198134212003,"connected_time":2423000000000,"state":"active","ping":75},{"user_id":97,"name":"Tom!","steam_id":76561198110937717,"connected_time":3281000000000,"state":"active","ping":77},{"user_id":129,"name":"manbearswineflu","steam_id":76561198083945137,"connected_time":1210000000000,"state":"active","ping":80},{"user_id":130,"name":"Quaker Oats","steam_id":76561197992800293,"connected_time":1201000000000,"state":"active","ping":88},{"user_id":131,"name":"Pancreas Enjoyer","steam_id":76561199438598904,"connected_time":1197000000000,"state":"active","ping":119},{"user_id":135,"name":"squaggles!","steam_id":76561197994995011,"connected_time":833000000000,"state":"active","ping":54},{"user_id":118,"name":"JJDrowsy","steam_id":76561198274501963,"connected_time":1604000000000,"state":"active","ping":59},{"user_id":132,"name":"drifter","steam_id":76561197998271149,"connected_time":1155000000000,"state":"active","ping":161},{"user_id":115,"name":"The Lonely Croc","steam_id":76561198123241396,"connected_time":2293000000000,"state":"active","ping":72},{"user_id":123,"name":"Krissy14","steam_id":76561198841508041,"connected_time":1273000000000,"state":"active","ping":132},{"user_id":107,"name":"RtfmDude","steam_id":76561198347025549,"connected_time":2728000000000,"state":"active","ping":128},{"user_id":119,"name":"trash beast","steam_id":76561198015792736,"connected_time":1603000000000,"state":"active","ping":83}]},{"server_id":108,"name":"Uncletopia | Dallas | 2 | All Maps","name_short":"dal-2","host":"dal-1.us.uncletopia.com","port":27025,"enabled":true,"region":"us-central","cc":"us","latitude":32.779167,"longitude":-96.80889,"reserved":0,"last_update":"0001-01-01T00:00:00Z","name_a2s":"Uncletopia | Dallas | 2 | All Maps","protocol":17,"map":"koth_highpass","folder":"tf","game":"Team Fortress","app_id":440,"player_count":0,"max_players":24,"Bots":0,"server_type":"Dedicated","server_os":"Linux","password":true,"vac":true,"version":"7757534","steam_id":85568392924469988,"keywords":["cp","nocrits","nodmgspread","uncletopia"],"game_id":440,"stv_port":27026,"stv_name":"Uncletopia | Dallas | 2 | All Maps | STV","players":null},{"server_id":5,"name":"Uncletopia | Frankfurt | 1 | All Maps","name_short":"frk-1","host":"frk-1.de.uncletopia.com","port":27015,"enabled":true,"region":"eu","cc":"de","latitude":50.110924,"longitude":8.682127,"reserved":0,"last_update":"0001-01-01T00:00:00Z","name_a2s":"Uncletopia | Frankfurt | 1 | All Maps","protocol":17,"map":"pl_borneo","folder":"tf","game":"Team Fortress","app_id":440,"player_count":24,"max_players":24,"Bots":0,"server_type":"Dedicated","server_os":"Linux","password":true,"vac":true,"version":"7757534","steam_id":85568392924469989,"keywords":["nocrits","nodmgspread","payload","uncletopia"],"game_id":440,"stv_port":27016,"stv_name":"Uncletopia | Frankfurt | 1 | All Maps | STV","players":[{"user_id":341,"name":"LOBZIK","steam_id":76561198114830120,"connected_time":2003000000000,"state":"active","ping":79},{"user_id":347,"name":"remove xenia","steam_id":76561199433578516,"connected_time":1256000000000,"state":"active","ping":77},{"user_id":343,"name":"Rob Rotten","steam_id":76561198170543542,"connected_time":1591000000000,"state":"active","ping":158},{"user_id":361,"name":"Milk","steam_id":76561198125876588,"connected_time":207000000000,"state":"active","ping":57},{"user_id":314,"name":"siarczan (VI) miedzi (II)","steam_id":76561198327848460,"connected_time":2824000000000,"state":"active","ping":57},{"user_id":323,"name":"akakez","steam_id":76561198095432821,"connected_time":2411000000000,"state":"active","ping":119},{"user_id":308,"name":"tallen","steam_id":76561198061708595,"connected_time":3024000000000,"state":"active","ping":76},{"user_id":329,"name":"20BB Raxor","steam_id":76561198239927434,"connected_time":2183000000000,"state":"active","ping":84},{"user_id":270,"name":"Aimer","steam_id":76561198005935655,"connected_time":6532000000000,"state":"active","ping":106},{"user_id":363,"name":"Mundy","steam_id":76561198208580177,"connected_time":85000000000,"state":"active","ping":91},{"user_id":344,"name":"xenia","steam_id":76561198062107879,"connected_time":1575000000000,"state":"active","ping":76},{"user_id":207,"name":"LasagnaLarry22","steam_id":76561198089478290,"connected_time":11156000000000,"state":"active","ping":57},{"user_id":310,"name":"lyudmilakh","steam_id":76561198362779878,"connected_time":3017000000000,"state":"active","ping":91},{"user_id":362,"name":"Pestdoktor","steam_id":76561198058159271,"connected_time":103000000000,"state":"active","ping":58},{"user_id":332,"name":"Crimea a bridge","steam_id":76561198030898371,"connected_time":2136000000000,"state":"active","ping":78},{"user_id":333,"name":"GoodCombine","steam_id":76561198014057015,"connected_time":2136000000000,"state":"active","ping":75},{"user_id":353,"name":"XeniasPimp","steam_id":76561198126398022,"connected_time":567000000000,"state":"active","ping":75},{"user_id":335,"name":"Lolihunter","steam_id":76561198285406228,"connected_time":2125000000000,"state":"active","ping":77},{"user_id":319,"name":"Ptahotep","steam_id":76561198008708645,"connected_time":2658000000000,"state":"active","ping":67},{"user_id":364,"name":"The Fellow Feller","steam_id":76561198188864306,"connected_time":84000000000,"state":"active","ping":67},{"user_id":345,"name":"man juice","steam_id":76561198126524735,"connected_time":1559000000000,"state":"active","ping":74},{"user_id":348,"name":"Esculd ‚éù('‚óÅ')‚é†","steam_id":76561198043948445,"connected_time":1243000000000,"state":"active","ping":81},{"user_id":112,"name":"Fat Pigeon","steam_id":76561198817940142,"connected_time":19806000000000,"state":"active","ping":54},{"user_id":346,"name":"ralek","steam_id":76561198337027746,"connected_time":1518000000000,"state":"active","ping":95}]},{"server_id":110,"name":"Uncletopia | Frankfurt | 2 | All Maps","name_short":"frk-2","host":"frk-1.de.uncletopia.com","port":27025,"enabled":true,"region":"eu","cc":"de","latitude":50.110924,"longitude":8.682127,"reserved":0,"last_update":"0001-01-01T00:00:00Z","name_a2s":"Uncletopia | Frankfurt | 2 | All Maps","protocol":17,"map":"cp_dustbowl","folder":"tf","game":"Team Fortress","app_id":440,"player_count":24,"max_players":24,"Bots":0,"server_type":"Dedicated","server_os":"Linux","password":true,"vac":true,"version":"7757534","steam_id":85568392924469990,"keywords":["cp","nocrits","nodmgspread","uncletopia"],"game_id":440,"stv_port":27026,"stv_name":"Uncletopia | Frankfurt | 2 | All Maps | STV","players":[{"user_id":208,"name":"Gordon Birdman","steam_id":76561198013382324,"connected_time":3873000000000,"state":"active","ping":74},{"user_id":217,"name":"üåº HugeE","steam_id":76561198245495152,"connected_time":2707000000000,"state":"active","ping":60},{"user_id":249,"name":"Wiwern","steam_id":76561198114641930,"connected_time":89000000000,"state":"active","ping":81},{"user_id":247,"name":"lolp.","steam_id":76561199197101468,"connected_time":89000000000,"state":"active","ping":97},{"user_id":215,"name":"Alibi","steam_id":76561198061845595,"connected_time":3377000000000,"state":"active","ping":61},{"user_id":234,"name":"ƒåamuga‚öú","steam_id":76561198324252599,"connected_time":1646000000000,"state":"active","ping":78},{"user_id":248,"name":"Dolcelatte","steam_id":76561198038501770,"connected_time":89000000000,"state":"active","ping":54},{"user_id":220,"name":"Super Noob","steam_id":76561199179611350,"connected_time":2636000000000,"state":"active","ping":173},{"user_id":201,"name":"cockwater","steam_id":76561198209101861,"connected_time":4369000000000,"state":"active","ping":66},{"user_id":237,"name":"r0la","steam_id":76561198128315340,"connected_time":1024000000000,"state":"active","ping":88},{"user_id":243,"name":"foo","steam_id":76561198042000263,"connected_time":831000000000,"state":"active","ping":80},{"user_id":251,"name":"Dave The Sloth","steam_id":76561199135831355,"connected_time":67000000000,"state":"active","ping":68},{"user_id":207,"name":"L.A. Palm Tree","steam_id":76561199289526521,"connected_time":3876000000000,"state":"active","ping":83},{"user_id":250,"name":"Brick Top","steam_id":76561198035586064,"connected_time":87000000000,"state":"active","ping":61},{"user_id":252,"name":"Mr.O #deletesniper","steam_id":76561198039567498,"connected_time":62000000000,"state":"active","ping":60},{"user_id":196,"name":"Nameless_Mann","steam_id":76561198015543601,"connected_time":4610000000000,"state":"active","ping":66},{"user_id":206,"name":"Sacrishee","steam_id":76561198169853697,"connected_time":4028000000000,"state":"active","ping":46},{"user_id":254,"name":"Kernew√´k","steam_id":76561198271772640,"connected_time":47000000000,"state":"spawning","ping":75},{"user_id":235,"name":"better call selo","steam_id":76561198976793469,"connected_time":1056000000000,"state":"active","ping":93},{"user_id":159,"name":"xddinside","steam_id":76561198037237664,"connected_time":7049000000000,"state":"active","ping":71},{"user_id":242,"name":"cute girl (not true)","steam_id":76561198140754824,"connected_time":975000000000,"state":"active","ping":61},{"user_id":255,"name":"‚òûLaZe‚òú","steam_id":76561198202191400,"connected_time":46000000000,"state":"active","ping":63},{"user_id":170,"name":"gorp enyojer","steam_id":76561198044293799,"connected_time":6845000000000,"state":"active","ping":59},{"user_id":241,"name":"»õigan manglitor","steam_id":76561198175433731,"connected_time":993000000000,"state":"active","ping":74}]},{"server_id":308,"name":"Uncletopia | Frankfurt | 3 | All Maps","name_short":"frk-3","host":"frk-1.de.uncletopia.com","port":27035,"enabled":true,"region":"eu","cc":"de","latitude":50.110924,"longitude":8.682127,"reserved":0,"last_update":"0001-01-01T00:00:00Z","name_a2s":"Uncletopia | Frankfurt | 3 | All Maps","protocol":17,"map":"koth_highpass","folder":"tf","game":"Team Fortress","app_id":440,"player_count":23,"max_players":24,"Bots":0,"server_type":"Dedicated","server_os":"Linux","password":true,"vac":true,"version":"7757534","steam_id":85568392924504274,"keywords":["cp","nocrits","nodmgspread","uncletopia"],"game_id":440,"stv_port":27036,"stv_name":"Uncletopia | Frankfurt | 3 | All Maps | STV","players":[{"user_id":420,"name":"gRocc0","steam_id":76561198283840637,"connected_time":1536000000000,"state":"active","ping":154},{"user_id":432,"name":"Naginacz","steam_id":76561199099232534,"connected_time":928000000000,"state":"active","ping":59},{"user_id":388,"name":"Milosz52","steam_id":76561199060940204,"connected_time":4358000000000,"state":"active","ping":162},{"user_id":434,"name":"PartyPooper","steam_id":76561198010119627,"connected_time":28000000000,"state":"active","ping":60},{"user_id":378,"name":"Danipp","steam_id":76561198027147377,"connected_time":5405000000000,"state":"spawning","ping":69},{"user_id":401,"name":"karvla","steam_id":76561197991453444,"connected_time":3280000000000,"state":"active","ping":165},{"user_id":391,"name":"Blastrock64","steam_id":76561199008932704,"connected_time":4135000000000,"state":"active","ping":146},{"user_id":429,"name":"leadsquid","steam_id":76561198071544109,"connected_time":1234000000000,"state":"active","ping":127},{"user_id":437,"name":"Buenos D√≠as!","steam_id":76561198417999443,"connected_time":5000000000,"state":"spawning","ping":96},{"user_id":422,"name":"Talking Balaclava","steam_id":76561198308076832,"connected_time":1534000000000,"state":"spawning","ping":243},{"user_id":374,"name":"B¬£BSI MAN!","steam_id":76561198297817474,"connected_time":6144000000000,"state":"spawning","ping":52},{"user_id":406,"name":"Sven Tsuro","steam_id":76561198973179445,"connected_time":2486000000000,"state":"active","ping":57},{"user_id":414,"name":"√°rv√≠zt≈±r≈ë t√ºk√∂rf√∫r√≥g√©p","steam_id":76561198296643061,"connected_time":2062000000000,"state":"spawning","ping":1623},{"user_id":402,"name":"eeeeee","steam_id":76561198427092596,"connected_time":2960000000000,"state":"active","ping":125},{"user_id":268,"name":"vroom doom","steam_id":76561198192671475,"connected_time":14072000000000,"state":"active","ping":45},{"user_id":407,"name":"Ravshan","steam_id":76561198380938702,"connected_time":2472000000000,"state":"active","ping":84},{"user_id":380,"name":"Ape","steam_id":76561198322703872,"connected_time":5195000000000,"state":"active","ping":81},{"user_id":431,"name":"LL66","steam_id":76561198269997109,"connected_time":982000000000,"state":"active","ping":87},{"user_id":424,"name":"Pineapple Okan„Å§ ‚óï_‚óï ‡ºΩ\ufffd\ufffd","steam_id":76561198069199449,"connected_time":1532000000000,"state":"spawning","ping":107},{"user_id":435,"name":"AWJ ÀÜ-ÀÜ","steam_id":76561198053628243,"connected_time":17000000000,"state":"connecting","ping":58},{"user_id":398,"name":"G-Man (sad)","steam_id":76561199179702903,"connected_time":3908000000000,"state":"spawning","ping":158},{"user_id":384,"name":"Sleetler","steam_id":76561198021646640,"connected_time":4751000000000,"state":"spawning","ping":66},{"user_id":436,"name":"I'm not your brah","steam_id":76561198873306107,"connected_time":15000000000,"state":"active","ping":44}]},{"server_id":309,"name":"Uncletopia | Frankfurt | 4 | All Maps","name_short":"frk-4","host":"frk-1.de.uncletopia.com","port":27045,"enabled":true,"region":"eu","cc":"de","latitude":50.110924,"longitude":8.682127,"reserved":0,"last_update":"0001-01-01T00:00:00Z","name_a2s":"Uncletopia | Frankfurt | 4 | All Maps","protocol":17,"map":"cp_process_final","folder":"tf","game":"Team Fortress","app_id":440,"player_count":24,"max_players":24,"Bots":0,"server_type":"Dedicated","server_os":"Linux","password":true,"vac":true,"version":"7757534","steam_id":85568392924504275,"keywords":["cp","nocrits","nodmgspread","uncletopia"],"game_id":440,"stv_port":27046,"stv_name":"Uncletopia | Frankfurt | 4 | All Maps | STV","players":[{"user_id":284,"name":"PWizard","steam_id":76561198026458489,"connected_time":230000000000,"state":"active","ping":74},{"user_id":265,"name":"clouds","steam_id":76561198111134021,"connected_time":1410000000000,"state":"active","ping":69},{"user_id":288,"name":"Jeff","steam_id":76561198426044127,"connected_time":172000000000,"state":"active","ping":58},{"user_id":242,"name":"USBug999","steam_id":76561199174677820,"connected_time":2726000000000,"state":"active","ping":124},{"user_id":238,"name":"Microwave","steam_id":76561199467385560,"connected_time":3118000000000,"state":"active","ping":77},{"user_id":274,"name":"Wedgeridoo","steam_id":76561198082813907,"connected_time":852000000000,"state":"active","ping":84},{"user_id":282,"name":"MtnDew","steam_id":76561199100059743,"connected_time":627000000000,"state":"active","ping":127},{"user_id":193,"name":"...jla","steam_id":76561198052435481,"connected_time":5467000000000,"state":"active","ping":58},{"user_id":152,"name":"–†–∞—Å–∫—É—Ä","steam_id":76561199467678674,"connected_time":8621000000000,"state":"active","ping":108},{"user_id":276,"name":"impulse 101","steam_id":76561198210709281,"connected_time":821000000000,"state":"active","ping":68},{"user_id":256,"name":"Ganix","steam_id":76561199058610171,"connected_time":2004000000000,"state":"active","ping":162},{"user_id":257,"name":"Florua","steam_id":76561198182297846,"connected_time":1993000000000,"state":"active","ping":58},{"user_id":277,"name":"Tywhip","steam_id":76561199207545191,"connected_time":809000000000,"state":"active","ping":59},{"user_id":278,"name":"Sloppy Blowjob Devil","steam_id":76561198259924721,"connected_time":807000000000,"state":"active","ping":71},{"user_id":269,"name":"Bagels","steam_id":76561198389646406,"connected_time":1270000000000,"state":"active","ping":92},{"user_id":279,"name":"Innocent Bystander","steam_id":76561198259885007,"connected_time":805000000000,"state":"active","ping":59},{"user_id":249,"name":"Kakograf","steam_id":76561198148375639,"connected_time":2174000000000,"state":"active","ping":84},{"user_id":252,"name":"ricorno","steam_id":76561199441603388,"connected_time":2051000000000,"state":"active","ping":97},{"user_id":280,"name":"Esso Vew","steam_id":76561198288776967,"connected_time":804000000000,"state":"active","ping":81},{"user_id":245,"name":"Dom.","steam_id":76561199065917088,"connected_time":2670000000000,"state":"active","ping":71},{"user_id":263,"name":"Plop_","steam_id":76561198112567921,"connected_time":1610000000000,"state":"active","ping":47},{"user_id":268,"name":"vladixxk","steam_id":76561198273199378,"connected_time":1307000000000,"state":"active","ping":65},{"user_id":272,"name":"frosty","steam_id":76561198094560834,"connected_time":968000000000,"state":"active","ping":63},{"user_id":287,"name":"akela","steam_id":76561198122010232,"connected_time":186000000000,"state":"active","ping":130}]},{"server_id":310,"name":"Uncletopia | Frankfurt | 5 | All Maps","name_short":"frk-5","host":"frk-1.de.uncletopia.com","port":27055,"enabled":true,"region":"eu","cc":"de","latitude":50.110924,"longitude":8.682127,"reserved":0,"last_update":"0001-01-01T00:00:00Z","name_a2s":"Uncletopia | Frankfurt | 5 | All Maps","protocol":17,"map":"cp_coldfront","folder":"tf","game":"Team Fortress","app_id":440,"player_count":24,"max_players":24,"Bots":0,"server_type":"Dedicated","server_os":"Linux","password":true,"vac":true,"version":"7757534","steam_id":85568392924504277,"keywords":["cp","nocrits","nodmgspread","uncletopia"],"game_id":440,"stv_port":27056,"stv_name":"Uncletopia | Frankfurt | 5 | All Maps | STV","players":[{"user_id":419,"name":"skywalkerr2012","steam_id":76561198255623584,"connected_time":1066000000000,"state":"active","ping":80},{"user_id":441,"name":"radu.rota2","steam_id":76561198929386604,"connected_time":287000000000,"state":"active","ping":85},{"user_id":388,"name":"MEGOS","steam_id":76561198172740637,"connected_time":2457000000000,"state":"active","ping":49},{"user_id":389,"name":"The‚òÜCops","steam_id":76561198146358073,"connected_time":2322000000000,"state":"active","ping":94},{"user_id":429,"name":"101 000 tuns of democracy","steam_id":76561198218257120,"connected_time":761000000000,"state":"active","ping":64},{"user_id":438,"name":"EZPK","steam_id":76561197987474355,"connected_time":544000000000,"state":"active","ping":61},{"user_id":446,"name":"Micha≈Ç","steam_id":76561198320346362,"connected_time":71000000000,"state":"active","ping":62},{"user_id":437,"name":"PH4NTOMtry","steam_id":76561198979390263,"connected_time":557000000000,"state":"active","ping":93},{"user_id":397,"name":"Mazanec","steam_id":76561198965590155,"connected_time":1900000000000,"state":"active","ping":53},{"user_id":436,"name":"My Name is Jeff XDDDDDD","steam_id":76561198163644527,"connected_time":582000000000,"state":"active","ping":60},{"user_id":418,"name":"DN77","steam_id":76561199121396324,"connected_time":1084000000000,"state":"active","ping":100},{"user_id":435,"name":"‚òÖpoyo‚òÖ","steam_id":76561198150078959,"connected_time":677000000000,"state":"active","ping":74},{"user_id":425,"name":"Carrot Arc","steam_id":76561198164957006,"connected_time":954000000000,"state":"active","ping":87},{"user_id":414,"name":"ViktorYoshi","steam_id":76561199157555246,"connected_time":1268000000000,"state":"active","ping":51},{"user_id":433,"name":"Cliff Barnes","steam_id":76561198032213783,"connected_time":722000000000,"state":"active","ping":61},{"user_id":404,"name":"Your friend (maybe)","steam_id":76561198240278328,"connected_time":1729000000000,"state":"active","ping":75},{"user_id":447,"name":"frederik","steam_id":76561198107605938,"connected_time":22000000000,"state":"active","ping":84},{"user_id":381,"name":"nidhalmbarkihere","steam_id":76561199252399754,"connected_time":2868000000000,"state":"active","ping":120},{"user_id":445,"name":".bRdyyy","steam_id":76561198057256978,"connected_time":156000000000,"state":"active","ping":45},{"user_id":440,"name":"Fizzy","steam_id":76561198929807785,"connected_time":335000000000,"state":"active","ping":61},{"user_id":444,"name":"Jeans Plus","steam_id":76561198052125103,"connected_time":181000000000,"state":"active","ping":60},{"user_id":408,"name":"HatMann","steam_id":76561198821664938,"connected_time":1671000000000,"state":"active","ping":94},{"user_id":409,"name":"New","steam_id":76561198402195911,"connected_time":1640000000000,"state":"active","ping":114},{"user_id":428,"name":"vitekk","steam_id":76561199008374950,"connected_time":910000000000,"state":"active","ping":75}]},{"server_id":311,"name":"Uncletopia | Frankfurt | 6 | All Maps","name_short":"frk-6","host":"frk-1.de.uncletopia.com","port":27065,"enabled":true,"region":"eu","cc":"de","latitude":50.110924,"longitude":8.682127,"reserved":0,"last_update":"0001-01-01T00:00:00Z","name_a2s":"Uncletopia | Frankfurt | 6 | All Maps","protocol":17,"map":"pl_pier","folder":"tf","game":"Team Fortress","app_id":440,"player_count":24,"max_players":24,"Bots":0,"server_type":"Dedicated","server_os":"Linux","password":true,"vac":true,"version":"7757534","steam_id":85568392924504278,"keywords":["nocrits","nodmgspread","payload","uncletopia"],"game_id":440,"stv_port":27066,"stv_name":"Uncletopia | Frankfurt | 6 | All Maps | STV","players":[{"user_id":119,"name":"Syll","steam_id":76561198040736202,"connected_time":5031000000000,"state":"active","ping":91},{"user_id":175,"name":"DrunkHungarian","steam_id":76561198853346540,"connected_time":43000000000,"state":"active","ping":58},{"user_id":130,"name":"Nunya","steam_id":76561198198691921,"connected_time":4296000000000,"state":"active","ping":95},{"user_id":171,"name":"jt7","steam_id":76561198073655162,"connected_time":898000000000,"state":"active","ping":69},{"user_id":89,"name":"Cosmetic brain","steam_id":76561198055936410,"connected_time":7862000000000,"state":"active","ping":88},{"user_id":152,"name":"lun4tic","steam_id":76561198850496647,"connected_time":2705000000000,"state":"active","ping":73},{"user_id":104,"name":"sleep","steam_id":76561198034882276,"connected_time":7151000000000,"state":"active","ping":75},{"user_id":164,"name":"Vanta_BlackLD","steam_id":76561198346271576,"connected_time":2149000000000,"state":"active","ping":62},{"user_id":172,"name":"clean carp","steam_id":76561198127053294,"connected_time":786000000000,"state":"active","ping":60},{"user_id":166,"name":"marcus","steam_id":76561198053429589,"connected_time":1707000000000,"state":"active","ping":64},{"user_id":159,"name":"—Ç—É–∫–∫—É –∏—Ä–º–∞","steam_id":76561197998715016,"connected_time":2478000000000,"state":"active","ping":58},{"user_id":147,"name":"Sch","steam_id":76561198071341689,"connected_time":3244000000000,"state":"active","ping":57},{"user_id":150,"name":"Aoshi","steam_id":76561198043868358,"connected_time":2905000000000,"state":"active","ping":60},{"user_id":75,"name":":)","steam_id":76561198039964082,"connected_time":8627000000000,"state":"active","ping":62},{"user_id":170,"name":"Lempii","steam_id":76561198433507634,"connected_time":988000000000,"state":"active","ping":87},{"user_id":87,"name":"0xDEADBEEF","steam_id":76561199075416111,"connected_time":8024000000000,"state":"active","ping":93},{"user_id":174,"name":"Mata","steam_id":76561198308191713,"connected_time":55000000000,"state":"active","ping":79},{"user_id":173,"name":"P00tis","steam_id":76561199121999261,"connected_time":786000000000,"state":"active","ping":116},{"user_id":169,"name":"Control Panel","steam_id":76561198154677956,"connected_time":1107000000000,"state":"active","ping":81},{"user_id":158,"name":"Pabs :D","steam_id":76561198000016962,"connected_time":2571000000000,"state":"active","ping":60},{"user_id":127,"name":"Gnarville","steam_id":76561198006373329,"connected_time":4437000000000,"state":"active","ping":60},{"user_id":157,"name":"Miton","steam_id":76561197970323209,"connected_time":2667000000000,"state":"active","ping":88},{"user_id":97,"name":"Vsevers","steam_id":76561198984861515,"connected_time":7625000000000,"state":"active","ping":83},{"user_id":168,"name":"James","steam_id":76561198138558005,"connected_time":1341000000000,"state":"active","ping":63}]},{"server_id":23,"name":"Uncletopia | Frankfurt | 7 | Stopwatch Beta","name_short":"frk-7","host":"frk-1.de.uncletopia.com","port":27075,"enabled":true,"region":"eu","cc":"de","latitude":50.110924,"longitude":8.682127,"reserved":0,"last_update":"0001-01-01T00:00:00Z","name_a2s":"Uncletopia | Frankfurt | 7 | Stopwatch Beta","protocol":17,"map":"pl_borneo","folder":"tf","game":"Team Fortress","app_id":440,"player_count":0,"max_players":24,"Bots":0,"server_type":"Dedicated","server_os":"Linux","password":true,"vac":true,"version":"7757534","steam_id":85568392924742827,"keywords":["nocrits","nodmgspread","payload","uncletopia"],"game_id":440,"stv_port":27076,"stv_name":"Uncletopia | Frankfurt | 7 | Stopwatch Beta | STV","players":null},{"server_id":24,"name":"Uncletopia | Frankfurt | 8 | Community","name_short":"frk-8","host":"frk-1.de.uncletopia.com","port":27085,"enabled":true,"region":"eu","cc":"de","latitude":50.110924,"longitude":8.682127,"reserved":0,"last_update":"0001-01-01T00:00:00Z","name_a2s":"Uncletopia | Frankfurt | 8 | Community","protocol":17,"map":"workshop/koth_ashville_final.ugc2130459942","folder":"tf","game":"Team Fortress","app_id":440,"player_count":0,"max_players":24,"Bots":0,"server_type":"Dedicated","server_os":"Linux","password":true,"vac":true,"version":"7757534","steam_id":85568392924742828,"keywords":["cp","nocrits","nodmgspread","uncletopia"],"game_id":440,"stv_port":27086,"stv_name":"Uncletopia | Frankfurt | 8 | Community | STV","players":null},{"server_id":202,"name":"Uncletopia | Hong Kong | 1 | All Maps","name_short":"hgk-1","host":"hgk-1.hk.uncletopia.com","port":27015,"enabled":true,"region":"asia","cc":"hk","latitude":22.302711,"longitude":114.177216,"reserved":0,"last_update":"0001-01-01T00:00:00Z","name_a2s":"Uncletopia | Hong Kong | 1 | All Maps","protocol":17,"map":"koth_viaduct","folder":"tf","game":"Team Fortress","app_id":440,"player_count":0,"max_players":24,"Bots":0,"server_type":"Dedicated","server_os":"Linux","password":true,"vac":true,"version":"7757534","steam_id":85568392924494504,"keywords":["cp","nocrits","nodmgspread","uncletopia"],"game_id":440,"stv_port":27016,"stv_name":"Uncletopia | Hong Kong | 1 | All Maps | STV","players":null},{"server_id":1,"name":"Uncletopia | Los Angeles | 1 | All Maps","name_short":"lax-1","host":"lax-1.us.uncletopia.com","port":27015,"enabled":true,"region":"us-west","cc":"us","latitude":33.94279,"longitude":-118.41004,"reserved":0,"last_update":"0001-01-01T00:00:00Z","name_a2s":"Uncletopia | Los Angeles | 1 | All Maps","protocol":17,"map":"pl_swiftwater_final1","folder":"tf","game":"Team Fortress","app_id":440,"player_count":16,"max_players":24,"Bots":0,"server_type":"Dedicated","server_os":"Linux","password":true,"vac":true,"version":"7757534","steam_id":85568392924469991,"keywords":["nocrits","nodmgspread","payload","uncletopia"],"game_id":440,"stv_port":27016,"stv_name":"Uncletopia | Los Angeles | 1 | All Maps | STV","players":[{"user_id":6,"name":"‚ô• Dumbass Bisexual Furry ‚ô•","steam_id":76561199013129784,"connected_time":929000000000,"state":"active","ping":91},{"user_id":7,"name":"Compress Dong","steam_id":76561198018950826,"connected_time":923000000000,"state":"active","ping":59},{"user_id":8,"name":"Fatbellypig","steam_id":76561198341726034,"connected_time":922000000000,"state":"active","ping":146},{"user_id":9,"name":"controller tf2","steam_id":76561199246175180,"connected_time":916000000000,"state":"active","ping":102},{"user_id":11,"name":"a grade 9 fixer","steam_id":76561198116908911,"connected_time":742000000000,"state":"active","ping":110},{"user_id":18,"name":"a grade 6 fixer","steam_id":76561198132031026,"connected_time":499000000000,"state":"active","ping":113},{"user_id":14,"name":"u/unhinged_person","steam_id":76561198085839920,"connected_time":702000000000,"state":"active","ping":127},{"user_id":15,"name":"Goblin64","steam_id":76561198969156830,"connected_time":687000000000,"state":"active","ping":59},{"user_id":16,"name":"Sauce Hut","steam_id":76561198151922248,"connected_time":611000000000,"state":"active","ping":117},{"user_id":21,"name":"Beta Chimp Ultra-Violence","steam_id":76561198011675372,"connected_time":288000000000,"state":"active","ping":80},{"user_id":19,"name":"Matt the Waffling-Iron","steam_id":76561198044066043,"connected_time":406000000000,"state":"active","ping":202},{"user_id":20,"name":"Danielneitor555","steam_id":76561199003205711,"connected_time":308000000000,"state":"active","ping":100},{"user_id":22,"name":"Alabit","steam_id":76561198065578560,"connected_time":283000000000,"state":"active","ping":75},{"user_id":23,"name":"Interrobang","steam_id":76561198385044529,"connected_time":246000000000,"state":"active","ping":95},{"user_id":24,"name":"trapper wit som swag+i lurk too","steam_id":76561198885055475,"connected_time":96000000000,"state":"active","ping":82},{"user_id":25,"name":"Shmebulock","steam_id":76561198046941925,"connected_time":72000000000,"state":"active","ping":111}]},{"server_id":112,"name":"Uncletopia | Los Angeles | 2 | All Maps","name_short":"lax-2","host":"lax-1.us.uncletopia.com","port":27025,"enabled":true,"region":"us-west","cc":"us","latitude":33.94279,"longitude":-118.41004,"reserved":0,"last_update":"0001-01-01T00:00:00Z","name_a2s":"Uncletopia | Los Angeles | 2 | All Maps","protocol":17,"map":"cp_mountainlab","folder":"tf","game":"Team Fortress","app_id":440,"player_count":0,"max_players":24,"Bots":0,"server_type":"Dedicated","server_os":"Linux","password":true,"vac":true,"version":"7757534","steam_id":85568392924469992,"keywords":["cp","nocrits","nodmgspread","uncletopia"],"game_id":440,"stv_port":27026,"stv_name":"Uncletopia | Los Angeles | 2 | All Maps | STV","players":null},{"server_id":324,"name":"Uncletopia | Los Angeles | 3 | All Maps","name_short":"lax-3","host":"lax-1.us.uncletopia.com","port":27035,"enabled":true,"region":"us-west","cc":"us","latitude":33.94279,"longitude":-118.41004,"reserved":0,"last_update":"0001-01-01T00:00:00Z","name_a2s":"Uncletopia | Los Angeles | 3 | All Maps","protocol":17,"map":"cp_mountainlab","folder":"tf","game":"Team Fortress","app_id":440,"player_count":0,"max_players":24,"Bots":0,"server_type":"Dedicated","server_os":"Linux","password":true,"vac":true,"version":"7757534","steam_id":85568392924510198,"keywords":["cp","nocrits","nodmgspread","uncletopia"],"game_id":440,"stv_port":27036,"stv_name":"Uncletopia | Los Angeles | 3 | All Maps | STV","players":null},{"server_id":25,"name":"Uncletopia | Los Angeles | 4 | Stopwatch Beta","name_short":"lax-4","host":"lax-1.us.uncletopia.com","port":27045,"enabled":true,"region":"us-west","cc":"us","latitude":33.94279,"longitude":-118.41004,"reserved":0,"last_update":"0001-01-01T00:00:00Z","name_a2s":"Uncletopia | Los Angeles | 4 | Stopwatch Beta","protocol":17,"map":"koth_viaduct","folder":"tf","game":"Team Fortress","app_id":440,"player_count":0,"max_players":24,"Bots":0,"server_type":"Dedicated","server_os":"Linux","password":true,"vac":true,"version":"7757534","steam_id":85568392924510199,"keywords":["cp","nocrits","nodmgspread","uncletopia"],"game_id":440,"stv_port":27046,"stv_name":"Uncletopia | Los Angeles | 4 | Stopwatch Beta | STV","players":null},{"server_id":11,"name":"Uncletopia | London | 1 | All Maps","name_short":"lon-1","host":"lon-1.uk.uncletopia.com","port":27015,"enabled":true,"region":"eu","cc":"gb","latitude":51.509865,"longitude":-0.118092,"reserved":0,"last_update":"0001-01-01T00:00:00Z","name_a2s":"Uncletopia | London | 1 | All Maps","protocol":17,"map":"ctf_2fort","folder":"tf","game":"Team Fortress","app_id":440,"player_count":22,"max_players":24,"Bots":0,"server_type":"Dedicated","server_os":"Linux","password":true,"vac":true,"version":"7757534","steam_id":85568392924367362,"keywords":["ctf","nocrits","nodmgspread","uncletopia"],"game_id":440,"stv_port":27016,"stv_name":"Uncletopia | London | 1 | All Maps | STV","players":[{"user_id":601,"name":"Kahvi","steam_id":76561198723244199,"connected_time":569000000000,"state":"active","ping":75},{"user_id":619,"name":"Guru","steam_id":76561198093853069,"connected_time":2000000000,"state":"spawning","ping":69},{"user_id":548,"name":"moser23","steam_id":76561197960543171,"connected_time":5015000000000,"state":"active","ping":62},{"user_id":609,"name":"GMsU | AuxiliusM","steam_id":76561198071903356,"connected_time":209000000000,"state":"active","ping":52},{"user_id":606,"name":"fear the old blood","steam_id":76561199026097466,"connected_time":263000000000,"state":"active","ping":76},{"user_id":617,"name":"CEO of Pen Island","steam_id":76561198037212191,"connected_time":69000000000,"state":"spawning","ping":48},{"user_id":610,"name":"Amoru","steam_id":76561198798161817,"connected_time":204000000000,"state":"active","ping":81},{"user_id":582,"name":"Whyx","steam_id":76561198064909404,"connected_time":1749000000000,"state":"active","ping":60},{"user_id":603,"name":"Hermitcrack","steam_id":76561198149216441,"connected_time":552000000000,"state":"active","ping":76},{"user_id":612,"name":"‚õß AlphaSatanOmega ‚õß","steam_id":76561198035125511,"connected_time":195000000000,"state":"active","ping":125},{"user_id":568,"name":"king251311","steam_id":76561199063310889,"connected_time":2909000000000,"state":"active","ping":107},{"user_id":605,"name":"Celtins","steam_id":76561198839837475,"connected_time":443000000000,"state":"active","ping":56},{"user_id":593,"name":"Vincere aut mori.","steam_id":76561198170994682,"connected_time":1395000000000,"state":"active","ping":91},{"user_id":614,"name":"cof","steam_id":76561199128417805,"connected_time":164000000000,"state":"active","ping":55},{"user_id":534,"name":"Suspicious Cabin","steam_id":76561198083261198,"connected_time":6438000000000,"state":"active","ping":39},{"user_id":591,"name":"Sniper apple (F2P)","steam_id":76561199080693759,"connected_time":1417000000000,"state":"active","ping":76},{"user_id":583,"name":"Pranked Pulsive","steam_id":76561198074604626,"connected_time":1457000000000,"state":"active","ping":60},{"user_id":616,"name":"Medieval Doktor","steam_id":76561198075373362,"connected_time":162000000000,"state":"active","ping":43},{"user_id":598,"name":"Kid named thumb (Real)","steam_id":76561199244331109,"connected_time":1277000000000,"state":"active","ping":63},{"user_id":576,"name":"Favi","steam_id":76561198013236935,"connected_time":2752000000000,"state":"active","ping":73},{"user_id":589,"name":"Art The Clown Surprise Gun","steam_id":76561198133538209,"connected_time":1426000000000,"state":"active","ping":43},{"user_id":580,"name":"GMsU | DaLuigi","steam_id":76561198054486188,"connected_time":2510000000000,"state":"active","ping":60}]},{"server_id":114,"name":"Uncletopia | London | 2 | All Maps","name_short":"lon-2","host":"lon-1.uk.uncletopia.com","port":27025,"enabled":true,"region":"eu","cc":"gb","latitude":51.509865,"longitude":-0.118092,"reserved":0,"last_update":"0001-01-01T00:00:00Z","name_a2s":"Uncletopia | London | 2 | All Maps","protocol":17,"map":"pl_frontier_final","folder":"tf","game":"Team Fortress","app_id":440,"player_count":24,"max_players":24,"Bots":0,"server_type":"Dedicated","server_os":"Linux","password":true,"vac":true,"version":"7757534","steam_id":85568392924470941,"keywords":["nocrits","nodmgspread","payload","uncletopia"],"game_id":440,"stv_port":27026,"stv_name":"Uncletopia | London | 2 | All Maps | STV","players":[{"user_id":460,"name":"Laxslow","steam_id":76561198065361846,"connected_time":3482000000000,"state":"active","ping":69},{"user_id":491,"name":"I AM DOT","steam_id":76561198354118090,"connected_time":1022000000000,"state":"active","ping":85},{"user_id":474,"name":"„ÉÜ„Ç§„É´„Çπ","steam_id":76561198022403271,"connected_time":2052000000000,"state":"active","ping":57},{"user_id":440,"name":"average f2p","steam_id":76561199136308055,"connected_time":4681000000000,"state":"active","ping":56},{"user_id":468,"name":"Johnny Cockroach","steam_id":76561198049648277,"connected_time":3001000000000,"state":"active","ping":98},{"user_id":501,"name":"- 84n4n3n8r07 -","steam_id":76561198047887705,"connected_time":518000000000,"state":"active","ping":58},{"user_id":496,"name":"waffle","steam_id":76561198800573494,"connected_time":920000000000,"state":"active","ping":116},{"user_id":438,"name":"Spetse","steam_id":76561197990649972,"connected_time":4695000000000,"state":"active","ping":91},{"user_id":479,"name":"„ÄåK I L L E R  Q U E E N„Äç","steam_id":76561198010269803,"connected_time":1969000000000,"state":"active","ping":47},{"user_id":490,"name":"benibachi","steam_id":76561198190816499,"connected_time":1036000000000,"state":"active","ping":87},{"user_id":473,"name":"klv","steam_id":76561198052158288,"connected_time":2120000000000,"state":"active","ping":83},{"user_id":470,"name":"—Ä—É—Å–æ—Ä–µ–∑","steam_id":76561198113126186,"connected_time":2402000000000,"state":"active","ping":104},{"user_id":499,"name":"KFC Enjoyer","steam_id":76561198840259819,"connected_time":798000000000,"state":"active","ping":58},{"user_id":487,"name":"born to shit forced to wipe","steam_id":76561198053116096,"connected_time":1695000000000,"state":"active","ping":94},{"user_id":495,"name":"Runkletookle","steam_id":76561198158321127,"connected_time":954000000000,"state":"active","ping":134},{"user_id":500,"name":"daanvanliempt05","steam_id":76561198355398948,"connected_time":541000000000,"state":"active","ping":45},{"user_id":493,"name":"Spoingus","steam_id":76561198161402859,"connected_time":968000000000,"state":"active","ping":79},{"user_id":498,"name":"Dr. Uberschwein","steam_id":76561198111367431,"connected_time":887000000000,"state":"active","ping":74},{"user_id":484,"name":"Bronze Age GRINDSET","steam_id":76561198859118263,"connected_time":1842000000000,"state":"active","ping":138},{"user_id":485,"name":"Dkz","steam_id":76561197970673402,"connected_time":1782000000000,"state":"active","ping":50},{"user_id":486,"name":"SteveyWonder","steam_id":76561198168234878,"connected_time":1780000000000,"state":"active","ping":55},{"user_id":494,"name":"The Blues Brother","steam_id":76561198043935491,"connected_time":967000000000,"state":"active","ping":119},{"user_id":488,"name":"milikicz","steam_id":76561198050626103,"connected_time":1676000000000,"state":"active","ping":80},{"user_id":467,"name":"Speckle","steam_id":76561199194591435,"connected_time":3225000000000,"state":"active","ping":65}]},{"server_id":320,"name":"Uncletopia | London | 3 | All Maps","name_short":"lon-3","host":"lon-1.uk.uncletopia.com","port":27035,"enabled":true,"region":"eu","cc":"gb","latitude":51.509865,"longitude":-0.118092,"reserved":0,"last_update":"0001-01-01T00:00:00Z","name_a2s":"Uncletopia | London | 3 | All Maps","protocol":17,"map":"pl_snowycoast","folder":"tf","game":"Team Fortress","app_id":440,"player_count":24,"max_players":24,"Bots":0,"server_type":"Dedicated","server_os":"Linux","password":true,"vac":true,"version":"7757534","steam_id":85568392924510192,"keywords":["nocrits","nodmgspread","payload","uncletopia"],"game_id":440,"stv_port":27036,"stv_name":"Uncletopia | London | 3 | All Maps | STV","players":[{"user_id":946,"name":"Gforcez","steam_id":76561197988201371,"connected_time":144000000000,"state":"active","ping":62},{"user_id":928,"name":"HEAGO","steam_id":76561198082632365,"connected_time":1136000000000,"state":"active","ping":58},{"user_id":922,"name":"onku","steam_id":76561199230709660,"connected_time":1186000000000,"state":"active","ping":60},{"user_id":826,"name":"Futa Lover","steam_id":76561198056775795,"connected_time":5606000000000,"state":"active","ping":147},{"user_id":936,"name":"MatesThePlayer","steam_id":76561198066156449,"connected_time":654000000000,"state":"active","ping":68},{"user_id":938,"name":"abigail","steam_id":76561198132932617,"connected_time":608000000000,"state":"active","ping":57},{"user_id":850,"name":"–∏–≤–∞–Ω","steam_id":76561198072730591,"connected_time":4163000000000,"state":"active","ping":65},{"user_id":945,"name":"Silky","steam_id":76561198141776731,"connected_time":235000000000,"state":"active","ping":115},{"user_id":847,"name":"C√©l√©rio","steam_id":76561198088253576,"connected_time":4447000000000,"state":"active","ping":45},{"user_id":944,"name":"RIFT","steam_id":76561198991622379,"connected_time":513000000000,"state":"active","ping":42},{"user_id":948,"name":"Man of Testicular Proportions","steam_id":76561198055949151,"connected_time":131000000000,"state":"active","ping":46},{"user_id":932,"name":"ÁÉ§ÁöÑÈù¢ÂåÖ","steam_id":76561198334194731,"connected_time":878000000000,"state":"active","ping":87},{"user_id":881,"name":"tactical783","steam_id":76561199051688560,"connected_time":3266000000000,"state":"active","ping":70},{"user_id":933,"name":"stonebum","steam_id":76561198057004606,"connected_time":874000000000,"state":"active","ping":60},{"user_id":908,"name":"Jeikku","steam_id":76561198078651679,"connected_time":2161000000000,"state":"active","ping":42},{"user_id":924,"name":"Hydro","steam_id":76561199081791855,"connected_time":1179000000000,"state":"active","ping":93},{"user_id":943,"name":"PinkAndPathetic","steam_id":76561198047109016,"connected_time":517000000000,"state":"active","ping":134},{"user_id":917,"name":"Certified Hood pybro (ua)","steam_id":76561198970562699,"connected_time":1635000000000,"state":"active","ping":55},{"user_id":925,"name":"Fart Sniffer","steam_id":76561198064513206,"connected_time":1163000000000,"state":"active","ping":59},{"user_id":934,"name":"monster","steam_id":76561198272925849,"connected_time":865000000000,"state":"active","ping":104},{"user_id":900,"name":"bkktrans","steam_id":76561198264393359,"connected_time":2460000000000,"state":"active","ping":43},{"user_id":876,"name":"Noob_with_source","steam_id":76561198870362103,"connected_time":3436000000000,"state":"active","ping":60},{"user_id":927,"name":"MEDiUM","steam_id":76561198112328561,"connected_time":1157000000000,"state":"active","ping":89},{"user_id":939,"name":"–µ–±–∞—Ç–µ–ª—å","steam_id":76561198220179531,"connected_time":608000000000,"state":"active","ping":101}]},{"server_id":321,"name":"Uncletopia | London | 4 | All Maps","name_short":"lon-4","host":"lon-1.uk.uncletopia.com","port":27045,"enabled":true,"region":"eu","cc":"gb","latitude":51.509865,"longitude":-0.118092,"reserved":0,"last_update":"0001-01-01T00:00:00Z","name_a2s":"Uncletopia | London | 4 | All Maps","protocol":17,"map":"koth_suijin","folder":"tf","game":"Team Fortress","app_id":440,"player_count":24,"max_players":24,"Bots":0,"server_type":"Dedicated","server_os":"Linux","password":true,"vac":true,"version":"7757534","steam_id":85568392924510193,"keywords":["cp","nocrits","nodmgspread","uncletopia"],"game_id":440,"stv_port":27046,"stv_name":"Uncletopia | London | 4 | All Maps | STV","players":[{"user_id":366,"name":"TheBeardedM1G","steam_id":76561198040208946,"connected_time":193000000000,"state":"active","ping":48},{"user_id":357,"name":"Miczu555PL","steam_id":76561198058500895,"connected_time":792000000000,"state":"active","ping":73},{"user_id":361,"name":"Bones","steam_id":76561198065081225,"connected_time":658000000000,"state":"active","ping":38},{"user_id":298,"name":"Regan","steam_id":76561198100631086,"connected_time":5253000000000,"state":"active","ping":50},{"user_id":332,"name":"slifty","steam_id":76561198166682199,"connected_time":3076000000000,"state":"active","ping":64},{"user_id":343,"name":"cris","steam_id":76561198047662200,"connected_time":1939000000000,"state":"active","ping":47},{"user_id":351,"name":"GARbageTrash","steam_id":76561199101269633,"connected_time":1251000000000,"state":"active","ping":92},{"user_id":367,"name":"Jonas Destark","steam_id":76561198030327441,"connected_time":188000000000,"state":"active","ping":56},{"user_id":365,"name":"Omsi","steam_id":76561198061668984,"connected_time":241000000000,"state":"active","ping":73},{"user_id":345,"name":"heatburn","steam_id":76561198019001992,"connected_time":1773000000000,"state":"active","ping":42},{"user_id":372,"name":"Joff-tchoff-tchoffo-tchoffo-tch","steam_id":76561198044167743,"connected_time":43000000000,"state":"active","ping":90},{"user_id":289,"name":"SuntanPikachu","steam_id":76561198121242476,"connected_time":5480000000000,"state":"active","ping":70},{"user_id":318,"name":"Feelin' Supersonic","steam_id":76561198005738407,"connected_time":4079000000000,"state":"active","ping":93},{"user_id":336,"name":"Cheshireycat","steam_id":76561198067204908,"connected_time":2463000000000,"state":"active","ping":60},{"user_id":369,"name":"Hitman from Hitman 2","steam_id":76561199099667066,"connected_time":153000000000,"state":"active","ping":67},{"user_id":363,"name":"Benzo Fury","steam_id":76561198025259336,"connected_time":246000000000,"state":"active","ping":43},{"user_id":327,"name":"lucagonzales2012","steam_id":76561199102542822,"connected_time":3818000000000,"state":"active","ping":146},{"user_id":370,"name":"monster98787energy","steam_id":76561198103899658,"connected_time":116000000000,"state":"active","ping":62},{"user_id":353,"name":"Lambda","steam_id":76561198108011349,"connected_time":1235000000000,"state":"active","ping":90},{"user_id":350,"name":"Silvan","steam_id":76561198415391988,"connected_time":1263000000000,"state":"active","ping":59},{"user_id":371,"name":"Bentley","steam_id":76561197978252169,"connected_time":116000000000,"state":"active","ping":56},{"user_id":355,"name":"Lukas","steam_id":76561198009118452,"connected_time":948000000000,"state":"active","ping":68},{"user_id":360,"name":"Hound Jackal","steam_id":76561198378357559,"connected_time":728000000000,"state":"active","ping":44},{"user_id":301,"name":"pizzaboob","steam_id":76561198097507847,"connected_time":5225000000000,"state":"active","ping":85}]},{"server_id":21,"name":"Uncletopia | London | 5 | All Maps","name_short":"lon-5","host":"lon-1.uk.uncletopia.com","port":27055,"enabled":true,"region":"eu","cc":"gb","latitude":51.509865,"longitude":-0.118092,"reserved":0,"last_update":"0001-01-01T00:00:00Z","name_a2s":"Uncletopia | London | 5 | All Maps","protocol":17,"map":"pl_badwater","folder":"tf","game":"Team Fortress","app_id":440,"player_count":24,"max_players":24,"Bots":0,"server_type":"Dedicated","server_os":"Linux","password":true,"vac":true,"version":"7757534","steam_id":85568392924742829,"keywords":["nocrits","nodmgspread","payload","uncletopia"],"game_id":440,"stv_port":27056,"stv_name":"Uncletopia | London | 5 | All Maps | STV","players":[{"user_id":215,"name":"Sipsu","steam_id":76561198059424107,"connected_time":3399000000000,"state":"active","ping":85},{"user_id":249,"name":"Sharp","steam_id":76561198055639843,"connected_time":1433000000000,"state":"active","ping":54},{"user_id":227,"name":"crolee","steam_id":76561198865817316,"connected_time":2967000000000,"state":"active","ping":58},{"user_id":250,"name":"NotExactlyAName","steam_id":76561199131759230,"connected_time":1386000000000,"state":"active","ping":82},{"user_id":260,"name":"Immortalyes","steam_id":76561198050800698,"connected_time":1227000000000,"state":"active","ping":73},{"user_id":208,"name":"makin' piss","steam_id":76561198052136478,"connected_time":4033000000000,"state":"active","ping":61},{"user_id":261,"name":"Jouppi","steam_id":76561198063725468,"connected_time":1189000000000,"state":"active","ping":95},{"user_id":221,"name":"Sigmar's Weakest Soldier","steam_id":76561198320506848,"connected_time":3015000000000,"state":"active","ping":44},{"user_id":226,"name":"azzy","steam_id":76561198061293740,"connected_time":2994000000000,"state":"active","ping":83},{"user_id":222,"name":"Hexagon","steam_id":76561198151205758,"connected_time":3014000000000,"state":"active","ping":60},{"user_id":272,"name":"degrade me goth mommy","steam_id":76561198075539799,"connected_time":283000000000,"state":"active","ping":47},{"user_id":237,"name":"mishka.*","steam_id":76561198040003628,"connected_time":2392000000000,"state":"active","ping":88},{"user_id":266,"name":"Charliecoal","steam_id":76561198385252450,"connected_time":652000000000,"state":"active","ping":43},{"user_id":223,"name":"nynon","steam_id":76561197998432126,"connected_time":3009000000000,"state":"active","ping":90},{"user_id":267,"name":"HoTTLInEr #PrioraLOVE","steam_id":76561198059170163,"connected_time":642000000000,"state":"active","ping":136},{"user_id":271,"name":"Maximalsound","steam_id":76561198068246502,"connected_time":306000000000,"state":"active","ping":47},{"user_id":270,"name":"Mr. Hunts","steam_id":76561197981910397,"connected_time":353000000000,"state":"active","ping":62},{"user_id":257,"name":"Mowelic","steam_id":76561198873641222,"connected_time":1331000000000,"state":"active","ping":78},{"user_id":256,"name":"ExplosivePanda","steam_id":76561198068592669,"connected_time":1342000000000,"state":"active","ping":77},{"user_id":269,"name":"Fridge","steam_id":76561198071665589,"connected_time":489000000000,"state":"active","ping":109},{"user_id":233,"name":"sv_opor 13123","steam_id":76561198002229612,"connected_time":2708000000000,"state":"active","ping":82},{"user_id":258,"name":"Spacerain","steam_id":76561198316971970,"connected_time":1329000000000,"state":"active","ping":58},{"user_id":255,"name":"Mr.Cupcake","steam_id":76561198152711174,"connected_time":1352000000000,"state":"active","ping":87},{"user_id":268,"name":"warpig","steam_id":76561199226313309,"connected_time":640000000000,"state":"active","ping":129}]},{"server_id":22,"name":"Uncletopia | London | 6 | All Maps","name_short":"lon-6","host":"lon-1.uk.uncletopia.com","port":27065,"enabled":true,"region":"eu","cc":"gb","latitude":51.509865,"longitude":-0.118092,"reserved":0,"last_update":"0001-01-01T00:00:00Z","name_a2s":"Uncletopia | London | 6 | All Maps","protocol":17,"map":"cp_mountainlab","folder":"tf","game":"Team Fortress","app_id":440,"player_count":24,"max_players":24,"Bots":0,"server_type":"Dedicated","server_os":"Linux","password":true,"vac":true,"version":"7757534","steam_id":85568392924742830,"keywords":["cp","nocrits","nodmgspread","uncletopia"],"game_id":440,"stv_port":27066,"stv_name":"Uncletopia | London | 6 | All Maps | STV","players":[{"user_id":194,"name":"‚ò≠ybercat","steam_id":76561198014070417,"connected_time":133000000000,"state":"active","ping":62},{"user_id":197,"name":"Yos","steam_id":76561199056318258,"connected_time":85000000000,"state":"active","ping":95},{"user_id":161,"name":"dotdotdot","steam_id":76561198057628751,"connected_time":1401000000000,"state":"active","ping":60},{"user_id":172,"name":"a sticky situation","steam_id":76561198011692496,"connected_time":484000000000,"state":"active","ping":67},{"user_id":158,"name":"Phrog","steam_id":76561197994499500,"connected_time":1415000000000,"state":"active","ping":57},{"user_id":168,"name":"Regular Human","steam_id":76561198083228561,"connected_time":1148000000000,"state":"active","ping":111},{"user_id":173,"name":"Dextro","steam_id":76561198349648942,"connected_time":471000000000,"state":"active","ping":73},{"user_id":196,"name":"Hive","steam_id":76561198207343209,"connected_time":88000000000,"state":"active","ping":76},{"user_id":162,"name":"Lokinn","steam_id":76561198127117580,"connected_time":1385000000000,"state":"active","ping":74},{"user_id":163,"name":"Nanitus","steam_id":76561198241772340,"connected_time":1355000000000,"state":"active","ping":99},{"user_id":191,"name":"sks ÀÑÀÖ","steam_id":76561197996485230,"connected_time":227000000000,"state":"active","ping":75},{"user_id":195,"name":"heavy sings (real)","steam_id":76561199023804405,"connected_time":122000000000,"state":"connecting","ping":78},{"user_id":149,"name":"NonProphet","steam_id":76561198280149820,"connected_time":2191000000000,"state":"active","ping":57},{"user_id":174,"name":"AlexTheBestWarrior","steam_id":76561198321974834,"connected_time":469000000000,"state":"active","ping":88},{"user_id":176,"name":"Pruff","steam_id":76561198377084417,"connected_time":459000000000,"state":"active","ping":66},{"user_id":61,"name":"Penis Contortionist","steam_id":76561198073663784,"connected_time":7092000000000,"state":"active","ping":33},{"user_id":183,"name":"john fortresstwo","steam_id":76561198202668788,"connected_time":372000000000,"state":"active","ping":68},{"user_id":125,"name":"NotFionn","steam_id":76561198890525176,"connected_time":4229000000000,"state":"active","ping":70},{"user_id":186,"name":"Acucutl","steam_id":76561198133867096,"connected_time":336000000000,"state":"active","ping":89},{"user_id":177,"name":"AshieTheVixen","steam_id":76561199061018034,"connected_time":459000000000,"state":"active","ping":82},{"user_id":178,"name":"original name","steam_id":76561199186288763,"connected_time":458000000000,"state":"active","ping":173},{"user_id":179,"name":"etc","steam_id":76561197998394797,"connected_time":457000000000,"state":"active","ping":48},{"user_id":189,"name":"SimonTheOverseer","steam_id":76561198957685588,"connected_time":297000000000,"state":"active","ping":93},{"user_id":193,"name":"stars.","steam_id":76561198092355604,"connected_time":199000000000,"state":"active","ping":99}]},{"server_id":40,"name":"Uncletopia | London | 7 | No Payload","name_short":"lon-7","host":"lon-1.uk.uncletopia.com","port":27075,"enabled":true,"region":"eu","cc":"gb","latitude":51.509865,"longitude":-0.118092,"reserved":0,"last_update":"0001-01-01T00:00:00Z","name_a2s":"Uncletopia | London | 7 | No Payload","protocol":17,"map":"koth_cascade","folder":"tf","game":"Team Fortress","app_id":440,"player_count":24,"max_players":24,"Bots":0,"server_type":"Dedicated","server_os":"Linux","password":true,"vac":true,"version":"7757534","steam_id":85568392924964314,"keywords":["cp","nocrits","nodmgspread","uncletopia"],"game_id":440,"stv_port":27076,"stv_name":"Uncletopia | London | 7 | No Payload | STV","players":[{"user_id":101,"name":"Pinkchup","steam_id":76561198106802803,"connected_time":1074000000000,"state":"active","ping":76},{"user_id":86,"name":"fume.","steam_id":76561197960476801,"connected_time":2028000000000,"state":"active","ping":55},{"user_id":115,"name":"CommanderLex","steam_id":76561198123115529,"connected_time":113000000000,"state":"active","ping":61},{"user_id":114,"name":"Superiumentarius","steam_id":76561198081642249,"connected_time":201000000000,"state":"active","ping":59},{"user_id":77,"name":"SnugTaro","steam_id":76561198207515803,"connected_time":2501000000000,"state":"active","ping":56},{"user_id":110,"name":"Magiccomplex","steam_id":76561199203555188,"connected_time":379000000000,"state":"active","ping":62},{"user_id":106,"name":"Der Einzige ‚í∂","steam_id":76561198423518671,"connected_time":711000000000,"state":"active","ping":104},{"user_id":103,"name":"TheFox.tf","steam_id":76561197996851702,"connected_time":1022000000000,"state":"active","ping":74},{"user_id":104,"name":"Haggabah,WhoPliesTheUmbralPath","steam_id":76561198846984399,"connected_time":1009000000000,"state":"active","ping":90},{"user_id":116,"name":"DarthPaul8181","steam_id":76561198373050455,"connected_time":27000000000,"state":"spawning","ping":44},{"user_id":108,"name":"—Ñ—É—Ä—Ä–∏–º–∞–ª—å—á–∏–∫","steam_id":76561199433913089,"connected_time":628000000000,"state":"active","ping":100},{"user_id":96,"name":"dochris.2","steam_id":76561198026478625,"connected_time":1109000000000,"state":"active","ping":60},{"user_id":105,"name":"hondjo","steam_id":76561198119324108,"connected_time":933000000000,"state":"active","ping":53},{"user_id":91,"name":"[KoT] HandyCZ","steam_id":76561198999147224,"connected_time":1551000000000,"state":"active","ping":62},{"user_id":93,"name":"okyriosy","steam_id":76561198043848122,"connected_time":1347000000000,"state":"active","ping":86},{"user_id":109,"name":"pizza time","steam_id":76561199015899793,"connected_time":428000000000,"state":"active","ping":53},{"user_id":75,"name":"ronnie","steam_id":76561198377533237,"connected_time":2581000000000,"state":"active","ping":75},{"user_id":76,"name":"Caliban","steam_id":76561197999696839,"connected_time":2571000000000,"state":"active","ping":112},{"user_id":95,"name":"Minimi","steam_id":76561198873850443,"connected_time":1142000000000,"state":"active","ping":44},{"user_id":59,"name":"XavierSweet","steam_id":76561198091781913,"connected_time":3586000000000,"state":"active","ping":54},{"user_id":78,"name":"snIpey","steam_id":76561197988311311,"connected_time":2447000000000,"state":"active","ping":90},{"user_id":100,"name":"dr.cumfart","steam_id":76561198045330758,"connected_time":1077000000000,"state":"active","ping":143},{"user_id":97,"name":"Telivan","steam_id":76561198026048940,"connected_time":1108000000000,"state":"active","ping":80},{"user_id":102,"name":"sareena","steam_id":76561198810194062,"connected_time":1059000000000,"state":"active","ping":75}]},{"server_id":41,"name":"Uncletopia | London | 8 | Community","name_short":"lon-8","host":"lon-1.uk.uncletopia.com","port":27085,"enabled":true,"region":"eu","cc":"gb","latitude":51.509865,"longitude":-0.118092,"reserved":0,"last_update":"0001-01-01T00:00:00Z","name_a2s":"Uncletopia | London | 8 | Community","protocol":17,"map":"workshop/koth_synthetic_rc6a.ugc1549817316","folder":"tf","game":"Team Fortress","app_id":440,"player_count":1,"max_players":24,"Bots":0,"server_type":"Dedicated","server_os":"Linux","password":true,"vac":true,"version":"7757534","steam_id":85568392924964315,"keywords":["cp","nocrits","nodmgspread","uncletopia"],"game_id":440,"stv_port":27086,"stv_name":"Uncletopia | London | 8 | Community | STV","players":[{"user_id":20,"name":"David Random","steam_id":76561198144497918,"connected_time":313000000000,"state":"active","ping":69}]},{"server_id":300,"name":"Uncletopia | Montr√©al | 1 | All Maps","name_short":"mtl-1","host":"mtl-1.ca.uncletopia.com","port":27015,"enabled":true,"region":"us-east","cc":"ca","latitude":45.50889,"longitude":-73.56167,"reserved":0,"last_update":"0001-01-01T00:00:00Z","name_a2s":"Uncletopia | Montr√©al | 1 | All Maps","protocol":17,"map":"koth_viaduct","folder":"tf","game":"Team Fortress","app_id":440,"player_count":0,"max_players":24,"Bots":0,"server_type":"Dedicated","server_os":"Linux","password":true,"vac":true,"version":"7757534","steam_id":85568392924500087,"keywords":["cp","nocrits","nodmgspread","uncletopia"],"game_id":440,"stv_port":27016,"stv_name":"Uncletopia | Montr√©al | 1 | All Maps | STV","players":null},{"server_id":301,"name":"Uncletopia | Montr√©al | 2 | All Maps","name_short":"mtl-2","host":"mtl-1.ca.uncletopia.com","port":27025,"enabled":true,"region":"us-east","cc":"ca","latitude":45.50889,"longitude":-73.56167,"reserved":0,"last_update":"0001-01-01T00:00:00Z","name_a2s":"Uncletopia | Montr√©al | 2 | All Maps","protocol":17,"map":"pl_borneo","folder":"tf","game":"Team Fortress","app_id":440,"player_count":0,"max_players":24,"Bots":0,"server_type":"Dedicated","server_os":"Linux","password":true,"vac":true,"version":"7757534","steam_id":85568392924500088,"keywords":["nocrits","nodmgspread","payload","uncletopia"],"game_id":440,"stv_port":27026,"stv_name":"Uncletopia | Montr√©al | 2 | All Maps | STV","players":null},{"server_id":302,"name":"Uncletopia | Montr√©al | 3 | All Maps","name_short":"mtl-3","host":"mtl-1.ca.uncletopia.com","port":27035,"enabled":true,"region":"us-east","cc":"ca","latitude":45.50889,"longitude":-73.56167,"reserved":0,"last_update":"0001-01-01T00:00:00Z","name_a2s":"Uncletopia | Montr√©al | 3 | All Maps","protocol":17,"map":"cp_sunshine","folder":"tf","game":"Team Fortress","app_id":440,"player_count":0,"max_players":24,"Bots":0,"server_type":"Dedicated","server_os":"Linux","password":true,"vac":true,"version":"7757534","steam_id":85568392924500089,"keywords":["cp","nocrits","nodmgspread","uncletopia"],"game_id":440,"stv_port":27036,"stv_name":"Uncletopia | Montr√©al | 3 | All Maps | STV","players":null},{"server_id":303,"name":"Uncletopia | Montr√©al | 4 | No Payload","name_short":"mtl-4","host":"mtl-1.ca.uncletopia.com","port":27045,"enabled":true,"region":"us-east","cc":"ca","latitude":45.50889,"longitude":-73.56167,"reserved":0,"last_update":"0001-01-01T00:00:00Z","name_a2s":"Uncletopia | Montr√©al | 4 | No Payload","protocol":17,"map":"koth_lakeside_final","folder":"tf","game":"Team Fortress","app_id":440,"player_count":0,"max_players":24,"Bots":0,"server_type":"Dedicated","server_os":"Linux","password":true,"vac":true,"version":"7757534","steam_id":85568392924500090,"keywords":["cp","nocrits","nodmgspread","uncletopia"],"game_id":440,"stv_port":27046,"stv_name":"Uncletopia | Montr√©al | 4 | No Payload | STV","players":null},{"server_id":13,"name":"Uncletopia | New York City | 1 | All Maps","name_short":"nyc-1","host":"nyc-1.us.uncletopia.com","port":27015,"enabled":true,"region":"us-east","cc":"us","latitude":40.73061,"longitude":-73.93524,"reserved":0,"last_update":"0001-01-01T00:00:00Z","name_a2s":"Uncletopia | New York City | 1 | All Maps","protocol":17,"map":"pl_barnblitz","folder":"tf","game":"Team Fortress","app_id":440,"player_count":0,"max_players":24,"Bots":0,"server_type":"Dedicated","server_os":"Linux","password":true,"vac":true,"version":"7757534","steam_id":85568392924469993,"keywords":["nocrits","nodmgspread","payload","uncletopia"],"game_id":440,"stv_port":27016,"stv_name":"Uncletopia | New York City | 1 | All Maps | STV","players":null},{"server_id":14,"name":"Uncletopia | New York City | 2 | All Maps","name_short":"nyc-2","host":"nyc-1.us.uncletopia.com","port":27025,"enabled":true,"region":"us-east","cc":"us","latitude":40.73061,"longitude":-73.93524,"reserved":0,"last_update":"0001-01-01T00:00:00Z","name_a2s":"Uncletopia | New York City | 2 | All Maps","protocol":17,"map":"pl_frontier_final","folder":"tf","game":"Team Fortress","app_id":440,"player_count":24,"max_players":24,"Bots":0,"server_type":"Dedicated","server_os":"Linux","password":true,"vac":true,"version":"7757534","steam_id":85568392924469994,"keywords":["nocrits","nodmgspread","payload","uncletopia"],"game_id":440,"stv_port":27026,"stv_name":"Uncletopia | New York City | 2 | All Maps | STV","players":[{"user_id":406,"name":"bikerkid207","steam_id":76561198390782783,"connected_time":3557000000000,"state":"active","ping":56},{"user_id":425,"name":"THRILLHO","steam_id":76561198371663047,"connected_time":2188000000000,"state":"active","ping":43},{"user_id":231,"name":"Convict Police Officers","steam_id":76561197993527275,"connected_time":8772000000000,"state":"active","ping":68},{"user_id":441,"name":"LittleJoeRambler","steam_id":76561198015890576,"connected_time":583000000000,"state":"active","ping":74},{"user_id":440,"name":"MILF Gaming","steam_id":76561198155378170,"connected_time":846000000000,"state":"active","ping":56},{"user_id":450,"name":"Salt","steam_id":76561199137060333,"connected_time":498000000000,"state":"active","ping":81},{"user_id":395,"name":"Forge","steam_id":76561198042751067,"connected_time":4589000000000,"state":"active","ping":59},{"user_id":446,"name":"Waffle Wannabe","steam_id":76561198064510650,"connected_time":543000000000,"state":"active","ping":44},{"user_id":452,"name":"Dexter","steam_id":76561198050149035,"connected_time":322000000000,"state":"active","ping":45},{"user_id":422,"name":"jumbo shrimp","steam_id":76561199085931379,"connected_time":2378000000000,"state":"active","ping":73},{"user_id":433,"name":"koob","steam_id":76561198987464129,"connected_time":1977000000000,"state":"active","ping":55},{"user_id":445,"name":"KORF","steam_id":76561197981904410,"connected_time":554000000000,"state":"active","ping":80},{"user_id":437,"name":"MurpAMurp","steam_id":76561198374437261,"connected_time":1550000000000,"state":"active","ping":74},{"user_id":451,"name":"Sheppy","steam_id":76561198295126940,"connected_time":443000000000,"state":"active","ping":72},{"user_id":431,"name":"foreskin gaming","steam_id":76561198113407992,"connected_time":2084000000000,"state":"active","ping":38},{"user_id":416,"name":"kwout","steam_id":76561197997139225,"connected_time":2787000000000,"state":"active","ping":52},{"user_id":439,"name":"Spirit","steam_id":76561199069322627,"connected_time":1254000000000,"state":"active","ping":68},{"user_id":448,"name":"Mr Struggle","steam_id":76561198320434551,"connected_time":525000000000,"state":"active","ping":104},{"user_id":424,"name":"toastman","steam_id":76561198207073088,"connected_time":2222000000000,"state":"active","ping":77},{"user_id":449,"name":"westward","steam_id":76561198805512350,"connected_time":518000000000,"state":"active","ping":119},{"user_id":302,"name":"FUSION","steam_id":76561197972659738,"connected_time":7185000000000,"state":"active","ping":39},{"user_id":202,"name":"Sodemo","steam_id":76561198074987146,"connected_time":9421000000000,"state":"active","ping":75},{"user_id":435,"name":"leonardo doujinshi","steam_id":76561198025810326,"connected_time":1911000000000,"state":"active","ping":61},{"user_id":386,"name":"Amogus The Sussy Baka ‡∂û","steam_id":76561198008577961,"connected_time":4912000000000,"state":"active","ping":54}]},{"server_id":15,"name":"Uncletopia | New York City | 3 | Stopwatch Beta","name_short":"nyc-3","host":"nyc-1.us.uncletopia.com","port":27035,"enabled":true,"region":"us-east","cc":"us","latitude":40.73061,"longitude":-73.93524,"reserved":0,"last_update":"0001-01-01T00:00:00Z","name_a2s":"Uncletopia | New York City | 3 | Stopwatch Beta","protocol":17,"map":"koth_lakeside_final","folder":"tf","game":"Team Fortress","app_id":440,"player_count":0,"max_players":24,"Bots":0,"server_type":"Dedicated","server_os":"Linux","password":true,"vac":true,"version":"7757534","steam_id":85568392924742820,"keywords":["cp","nocrits","nodmgspread","uncletopia"],"game_id":440,"stv_port":27036,"stv_name":"Uncletopia | New York City | 3 | Stopwatch Beta | STV","players":null},{"server_id":16,"name":"Uncletopia | New York City | 4 | Community","name_short":"nyc-4","host":"nyc-1.us.uncletopia.com","port":27045,"enabled":true,"region":"us-east","cc":"us","latitude":40.73061,"longitude":-73.93524,"reserved":0,"last_update":"0001-01-01T00:00:00Z","name_a2s":"Uncletopia | New York City | 4 | Community","protocol":17,"map":"workshop/koth_synthetic_rc6a.ugc1549817316","folder":"tf","game":"Team Fortress","app_id":440,"player_count":22,"max_players":24,"Bots":0,"server_type":"Dedicated","server_os":"Linux","password":true,"vac":true,"version":"7757534","steam_id":85568392924742821,"keywords":["cp","nocrits","nodmgspread","uncletopia"],"game_id":440,"stv_port":27046,"stv_name":"Uncletopia | New York City | 4 | Community | STV","players":[{"user_id":108,"name":"ck_rene","steam_id":76561199079260488,"connected_time":1363000000000,"state":"active","ping":56},{"user_id":127,"name":"energem beholder","steam_id":76561197998344127,"connected_time":549000000000,"state":"active","ping":77},{"user_id":126,"name":"DOMINOS","steam_id":76561198334591211,"connected_time":592000000000,"state":"active","ping":148},{"user_id":128,"name":"jliu","steam_id":76561198052172341,"connected_time":379000000000,"state":"active","ping":73},{"user_id":129,"name":"Grugpuff","steam_id":76561198207537468,"connected_time":370000000000,"state":"active","ping":129},{"user_id":134,"name":"The Phopanator","steam_id":76561198084578092,"connected_time":92000000000,"state":"active","ping":77},{"user_id":45,"name":"The Prankster‚Ñ¢","steam_id":76561199123285878,"connected_time":5524000000000,"state":"active","ping":75},{"user_id":135,"name":"Tourmaline Lazuli","steam_id":76561198987049358,"connected_time":91000000000,"state":"active","ping":63},{"user_id":111,"name":"ÔºîÔºê Ôº¶Ôº∞Ôº≥","steam_id":76561198272394965,"connected_time":1143000000000,"state":"active","ping":132},{"user_id":83,"name":"300 Gigafarts","steam_id":76561198080169497,"connected_time":3249000000000,"state":"active","ping":60},{"user_id":106,"name":"caberknight tf2","steam_id":76561199273882768,"connected_time":1924000000000,"state":"active","ping":60},{"user_id":133,"name":"floppy muppet","steam_id":76561198003076261,"connected_time":287000000000,"state":"active","ping":86},{"user_id":122,"name":"abolish the federal reserve","steam_id":76561198047796437,"connected_time":797000000000,"state":"active","ping":121},{"user_id":131,"name":"bycrist","steam_id":76561198250395366,"connected_time":357000000000,"state":"active","ping":121},{"user_id":123,"name":"Apollo","steam_id":76561198110961007,"connected_time":761000000000,"state":"active","ping":60},{"user_id":132,"name":"deserted_code","steam_id":76561199111564998,"connected_time":351000000000,"state":"active","ping":85},{"user_id":115,"name":"Astrocircuit","steam_id":76561198014437544,"connected_time":1062000000000,"state":"active","ping":42},{"user_id":77,"name":"Chicanery","steam_id":76561198977589038,"connected_time":3478000000000,"state":"active","ping":92},{"user_id":116,"name":"BoyOHBoy","steam_id":76561198364754109,"connected_time":1061000000000,"state":"active","ping":75},{"user_id":94,"name":"QuakAtack","steam_id":76561198870770157,"connected_time":2967000000000,"state":"active","ping":93},{"user_id":105,"name":"Wallace J","steam_id":76561198131397161,"connected_time":2270000000000,"state":"active","ping":33},{"user_id":81,"name":"PigPig","steam_id":76561198068190834,"connected_time":3324000000000,"state":"active","ping":115}]},{"server_id":142,"name":"Uncletopia | S√£o Paulo | 1 | All Maps","name_short":"sao-1","host":"sao-1.br.uncletopia.com","port":27015,"enabled":true,"region":"sa","cc":"br","latitude":-23.533773,"longitude":-46.62529,"reserved":0,"last_update":"0001-01-01T00:00:00Z","name_a2s":"Uncletopia | S√£o Paulo | 1 | All Maps","protocol":17,"map":"pl_badwater","folder":"tf","game":"Team Fortress","app_id":440,"player_count":0,"max_players":24,"Bots":0,"server_type":"Dedicated","server_os":"Linux","password":true,"vac":true,"version":"7757534","steam_id":85568392924469996,"keywords":["nocrits","nodmgspread","payload","uncletopia"],"game_id":440,"stv_port":27016,"stv_name":"Uncletopia | S√£o Paulo | 1 | All Maps | STV","players":null},{"server_id":143,"name":"Uncletopia | S√£o Paulo | 2 | All Maps","name_short":"sao-2","host":"sao-2.br.uncletopia.com","port":27015,"enabled":true,"region":"sa","cc":"br","latitude":-23.533773,"longitude":-46.62529,"reserved":0,"last_update":"0001-01-01T00:00:00Z","name_a2s":"Uncletopia | S√£o Paulo | 2 | All Maps","protocol":17,"map":"pl_badwater","folder":"tf","game":"Team Fortress","app_id":440,"player_count":10,"max_players":24,"Bots":0,"server_type":"Dedicated","server_os":"Linux","password":true,"vac":true,"version":"7757534","steam_id":85568392924485349,"keywords":["nocrits","nodmgspread","payload","uncletopia"],"game_id":440,"stv_port":27016,"stv_name":"Uncletopia | S√£o Paulo | 2 | All Maps | STV","players":[{"user_id":15,"name":"Zodd","steam_id":76561198940541282,"connected_time":2125000000000,"state":"active","ping":72},{"user_id":19,"name":"feli_potter","steam_id":76561198965109010,"connected_time":951000000000,"state":"active","ping":50},{"user_id":21,"name":"Duckman","steam_id":76561198256238125,"connected_time":632000000000,"state":"active","ping":146},{"user_id":12,"name":"n.","steam_id":76561198963738808,"connected_time":2606000000000,"state":"active","ping":47},{"user_id":14,"name":"ARK","steam_id":76561198253139686,"connected_time":2328000000000,"state":"active","ping":76},{"user_id":18,"name":"galvo","steam_id":76561198120578397,"connected_time":1199000000000,"state":"active","ping":85},{"user_id":26,"name":"Mykael","steam_id":76561198339753639,"connected_time":77000000000,"state":"active","ping":87},{"user_id":24,"name":"Seby","steam_id":76561198141369181,"connected_time":378000000000,"state":"active","ping":42},{"user_id":25,"name":"i must apologise","steam_id":76561199097626414,"connected_time":263000000000,"state":"active","ping":49},{"user_id":28,"name":"Ribeiro","steam_id":76561198990000538,"connected_time":2000000000,"state":"spawning","ping":55}]},{"server_id":7,"name":"Uncletopia | Seattle | 1 | All Maps","name_short":"sea-1","host":"sea-1.us.uncletopia.com","port":27015,"enabled":true,"region":"us-west","cc":"us","latitude":47.608013,"longitude":-122.33517,"reserved":0,"last_update":"0001-01-01T00:00:00Z","name_a2s":"Uncletopia | Seattle | 1 | All Maps","protocol":17,"map":"pl_upward","folder":"tf","game":"Team Fortress","app_id":440,"player_count":24,"max_players":24,"Bots":0,"server_type":"Dedicated","server_os":"Linux","password":true,"vac":true,"version":"7757534","steam_id":85568392924469997,"keywords":["nocrits","nodmgspread","payload","uncletopia"],"game_id":440,"stv_port":27016,"stv_name":"Uncletopia | Seattle | 1 | All Maps | STV","players":[{"user_id":203,"name":"Dimple","steam_id":76561198980324190,"connected_time":765000000000,"state":"active","ping":59},{"user_id":196,"name":"aon135","steam_id":76561197966931637,"connected_time":1413000000000,"state":"active","ping":59},{"user_id":191,"name":"Saulce","steam_id":76561198066142119,"connected_time":2041000000000,"state":"active","ping":91},{"user_id":178,"name":"LeRoy42","steam_id":76561198035591428,"connected_time":2962000000000,"state":"active","ping":126},{"user_id":198,"name":"Schnitz(Lost my Glasses)","steam_id":76561198265484253,"connected_time":978000000000,"state":"active","ping":81},{"user_id":205,"name":"Himiko Toga","steam_id":76561198055617626,"connected_time":722000000000,"state":"active","ping":87},{"user_id":169,"name":"AlaNo","steam_id":76561198133099582,"connected_time":3535000000000,"state":"active","ping":75},{"user_id":151,"name":"no vc no c","steam_id":76561197989503095,"connected_time":5492000000000,"state":"active","ping":159},{"user_id":207,"name":"squid game","steam_id":76561199248960166,"connected_time":179000000000,"state":"active","ping":42},{"user_id":194,"name":"dearender","steam_id":76561199427644498,"connected_time":1616000000000,"state":"active","ping":60},{"user_id":200,"name":"East","steam_id":76561197973050453,"connected_time":957000000000,"state":"active","ping":40},{"user_id":182,"name":"TheMagicMrWaffle","steam_id":76561198104357256,"connected_time":2660000000000,"state":"active","ping":73},{"user_id":186,"name":"Spud","steam_id":76561198878000618,"connected_time":2487000000000,"state":"active","ping":72},{"user_id":206,"name":"Tyrone","steam_id":76561198189429665,"connected_time":715000000000,"state":"active","ping":116},{"user_id":193,"name":"Julien","steam_id":76561199389584938,"connected_time":1715000000000,"state":"active","ping":38},{"user_id":120,"name":"skittle ducks jr.","steam_id":76561198309823950,"connected_time":8318000000000,"state":"active","ping":39},{"user_id":201,"name":"McSpazatron","steam_id":76561198955942148,"connected_time":905000000000,"state":"active","ping":73},{"user_id":162,"name":"Muffim","steam_id":76561198056704533,"connected_time":4586000000000,"state":"active","ping":99},{"user_id":190,"name":"Mr_Annonymous50","steam_id":76561198274754019,"connected_time":2264000000000,"state":"active","ping":75},{"user_id":197,"name":"Dauntless Duelist","steam_id":76561198025056018,"connected_time":1403000000000,"state":"active","ping":49},{"user_id":163,"name":"Awildrock","steam_id":76561198040401086,"connected_time":4574000000000,"state":"active","ping":115},{"user_id":133,"name":"Bagged Milk","steam_id":76561198814181124,"connected_time":7611000000000,"state":"active","ping":106},{"user_id":208,"name":"gibbon","steam_id":76561198143796866,"connected_time":102000000000,"state":"active","ping":53},{"user_id":166,"name":"AirMan121","steam_id":76561198042951349,"connected_time":4049000000000,"state":"active","ping":70}]},{"server_id":119,"name":"Uncletopia | Seattle | 2 | All Maps","name_short":"sea-2","host":"sea-1.us.uncletopia.com","port":27025,"enabled":true,"region":"us-west","cc":"us","latitude":47.608013,"longitude":-122.33517,"reserved":0,"last_update":"0001-01-01T00:00:00Z","name_a2s":"Uncletopia | Seattle | 2 | All Maps","protocol":17,"map":"cp_mountainlab","folder":"tf","game":"Team Fortress","app_id":440,"player_count":2,"max_players":24,"Bots":0,"server_type":"Dedicated","server_os":"Linux","password":true,"vac":true,"version":"7757534","steam_id":85568392924469998,"keywords":["cp","nocrits","nodmgspread","uncletopia"],"game_id":440,"stv_port":27026,"stv_name":"Uncletopia | Seattle | 2 | All Maps | STV","players":[{"user_id":44,"name":"Birdman743","steam_id":76561198799636748,"connected_time":583000000000,"state":"active","ping":53},{"user_id":45,"name":"LowLevelIdot","steam_id":76561199302370113,"connected_time":309000000000,"state":"spawning","ping":330}]},{"server_id":406,"name":"Uncletopia | Seattle | 3 | Stopwatch Beta","name_short":"sea-3","host":"sea-1.us.uncletopia.com","port":27035,"enabled":true,"region":"us-west","cc":"us","latitude":47.608013,"longitude":-122.33517,"reserved":0,"last_update":"0001-01-01T00:00:00Z","name_a2s":"Uncletopia | Seattle | 3 | Stopwatch Beta","protocol":17,"map":"cp_sunshine","folder":"tf","game":"Team Fortress","app_id":440,"player_count":0,"max_players":24,"Bots":0,"server_type":"Dedicated","server_os":"Linux","password":true,"vac":true,"version":"7757534","steam_id":85568392924515217,"keywords":["cp","nocrits","nodmgspread","uncletopia"],"game_id":440,"stv_port":27036,"stv_name":"Uncletopia | Seattle | 3 | Stopwatch Beta | STV","players":null},{"server_id":17,"name":"Uncletopia | San Francisco | 1 | All Maps","name_short":"sfo-1","host":"sfo-1.us.uncletopia.com","port":27015,"enabled":true,"region":"us-west","cc":"us","latitude":37.77397,"longitude":-122.4313,"reserved":0,"last_update":"0001-01-01T00:00:00Z","name_a2s":"Uncletopia | San Francisco | 1 | All Maps","protocol":17,"map":"cp_mountainlab","folder":"tf","game":"Team Fortress","app_id":440,"player_count":0,"max_players":24,"Bots":0,"server_type":"Dedicated","server_os":"Linux","password":true,"vac":true,"version":"7757534","steam_id":85568392924469999,"keywords":["cp","nocrits","nodmgspread","uncletopia"],"game_id":440,"stv_port":27016,"stv_name":"Uncletopia | San Francisco | 1 | All Maps | STV","players":null},{"server_id":18,"name":"Uncletopia | San Francisco | 2 | All Maps","name_short":"sfo-2","host":"sfo-1.us.uncletopia.com","port":27025,"enabled":true,"region":"us-west","cc":"us","latitude":37.77397,"longitude":-122.4313,"reserved":0,"last_update":"0001-01-01T00:00:00Z","name_a2s":"Uncletopia | San Francisco | 2 | All Maps","protocol":17,"map":"cp_mountainlab","folder":"tf","game":"Team Fortress","app_id":440,"player_count":0,"max_players":24,"Bots":0,"server_type":"Dedicated","server_os":"Linux","password":true,"vac":true,"version":"7757534","steam_id":85568392924470000,"keywords":["cp","nocrits","nodmgspread","uncletopia"],"game_id":440,"stv_port":27026,"stv_name":"Uncletopia | San Francisco | 2 | All Maps | STV","players":null},{"server_id":19,"name":"Uncletopia | San Francisco | 3 | Stopwatch Beta","name_short":"sfo-3","host":"sfo-1.us.uncletopia.com","port":27035,"enabled":true,"region":"us-west","cc":"us","latitude":37.77397,"longitude":-122.4313,"reserved":0,"last_update":"0001-01-01T00:00:00Z","name_a2s":"Uncletopia | San Francisco | 3 | Stopwatch Beta","protocol":17,"map":"koth_viaduct","folder":"tf","game":"Team Fortress","app_id":440,"player_count":0,"max_players":24,"Bots":0,"server_type":"Dedicated","server_os":"Linux","password":true,"vac":true,"version":"7757534","steam_id":85568392924742824,"keywords":["cp","nocrits","nodmgspread","uncletopia"],"game_id":440,"stv_port":27036,"stv_name":"Uncletopia | San Francisco | 3 | Stopwatch Beta | STV","players":null},{"server_id":20,"name":"Uncletopia | San Francisco | 4 | Community","name_short":"sfo-4","host":"sfo-1.us.uncletopia.com","port":27045,"enabled":true,"region":"us-west","cc":"us","latitude":37.77397,"longitude":-122.4313,"reserved":0,"last_update":"0001-01-01T00:00:00Z","name_a2s":"Uncletopia | San Francisco | 4 | Community","protocol":17,"map":"pl_borneo","folder":"tf","game":"Team Fortress","app_id":440,"player_count":0,"max_players":24,"Bots":0,"server_type":"Dedicated","server_os":"Linux","password":true,"vac":true,"version":"7757534","steam_id":85568392924742826,"keywords":["nocrits","nodmgspread","payload","uncletopia"],"game_id":440,"stv_port":27046,"stv_name":"Uncletopia | San Francisco | 4 | Community | STV","players":null},{"server_id":141,"name":"Uncletopia | Sydney | 1 | All Maps","name_short":"syd-1","host":"syd-1.au.uncletopia.com","port":27015,"enabled":true,"region":"au","cc":"au","latitude":-33.865143,"longitude":151.2099,"reserved":0,"last_update":"0001-01-01T00:00:00Z","name_a2s":"Uncletopia | Sydney | 1 | All Maps","protocol":17,"map":"plr_nightfall_final","folder":"tf","game":"Team Fortress","app_id":440,"player_count":0,"max_players":24,"Bots":0,"server_type":"Dedicated","server_os":"Linux","password":true,"vac":true,"version":"7757534","steam_id":85568392924470001,"keywords":["nocrits","nodmgspread","payload","uncletopia"],"game_id":440,"stv_port":27016,"stv_name":"Uncletopia | Sydney | 1 | All Maps | STV","players":null},{"server_id":123,"name":"Uncletopia | Sydney | 2 | All Maps","name_short":"syd-2","host":"syd-1.au.uncletopia.com","port":27025,"enabled":true,"region":"au","cc":"au","latitude":-33.865143,"longitude":151.2099,"reserved":0,"last_update":"0001-01-01T00:00:00Z","name_a2s":"Uncletopia | Sydney | 2 | All Maps","protocol":17,"map":"koth_highpass","folder":"tf","game":"Team Fortress","app_id":440,"player_count":0,"max_players":24,"Bots":0,"server_type":"Dedicated","server_os":"Linux","password":true,"vac":true,"version":"7757534","steam_id":85568392924470002,"keywords":["cp","nocrits","nodmgspread","uncletopia"],"game_id":440,"stv_port":27026,"stv_name":"Uncletopia | Sydney | 2 | All Maps | STV","players":null},{"server_id":395,"name":"Uncletopia | Sydney | 3 | All Maps","name_short":"syd-3","host":"syd-1.au.uncletopia.com","port":27035,"enabled":true,"region":"au","cc":"au","latitude":-33.865143,"longitude":151.2099,"reserved":0,"last_update":"0001-01-01T00:00:00Z","name_a2s":"Uncletopia | Sydney | 3 | All Maps","protocol":17,"map":"pl_badwater","folder":"tf","game":"Team Fortress","app_id":440,"player_count":0,"max_players":24,"Bots":0,"server_type":"Dedicated","server_os":"Linux","password":true,"vac":true,"version":"7757534","steam_id":85568392925194467,"keywords":["nocrits","nodmgspread","payload","uncletopia"],"game_id":440,"stv_port":27036,"stv_name":"Uncletopia | Sydney | 3 | All Maps | STV","players":null},{"server_id":396,"name":"Uncletopia | Sydney | 4 | All Maps","name_short":"syd-4","host":"syd-1.au.uncletopia.com","port":27045,"enabled":true,"region":"au","cc":"au","latitude":-33.865143,"longitude":151.2099,"reserved":0,"last_update":"0001-01-01T00:00:00Z","name_a2s":"Uncletopia | Sydney | 4 | All Maps","protocol":17,"map":"koth_viaduct","folder":"tf","game":"Team Fortress","app_id":440,"player_count":0,"max_players":24,"Bots":0,"server_type":"Dedicated","server_os":"Linux","password":true,"vac":true,"version":"7757534","steam_id":85568392925397958,"keywords":["cp","nocrits","nodmgspread","uncletopia"],"game_id":440,"stv_port":27046,"stv_name":"Uncletopia | Sydney | 4 | All Maps | STV","players":null},{"server_id":58,"name":"Uncletopia | Sydney | 5 | Stopwatch Beta","name_short":"syd-5","host":"syd-1.au.uncletopia.com","port":27055,"enabled":true,"region":"au","cc":"au","latitude":-33.865143,"longitude":151.2099,"reserved":0,"last_update":"0001-01-01T00:00:00Z","name_a2s":"Uncletopia | Sydney | 5 | Stopwatch Beta","protocol":17,"map":"pl_barnblitz","folder":"tf","game":"Team Fortress","app_id":440,"player_count":0,"max_players":24,"Bots":0,"server_type":"Dedicated","server_os":"Linux","password":true,"vac":true,"version":"7757534","steam_id":85568392925397959,"keywords":["nocrits","nodmgspread","payload","uncletopia"],"game_id":440,"stv_port":27056,"stv_name":"Uncletopia | Sydney | 5 | Stopwatch Beta | STV","players":null},{"server_id":59,"name":"Uncletopia | Sydney | 6 | Community","name_short":"syd-6","host":"syd-1.au.uncletopia.com","port":27065,"enabled":true,"region":"au","cc":"au","latitude":-33.865143,"longitude":151.2099,"reserved":0,"last_update":"0001-01-01T00:00:00Z","name_a2s":"Uncletopia | Sydney | 6 | Community","protocol":17,"map":"workshop/koth_ashville_final.ugc2130459942","folder":"tf","game":"Team Fortress","app_id":440,"player_count":0,"max_players":24,"Bots":0,"server_type":"Dedicated","server_os":"Linux","password":true,"vac":true,"version":"7757534","steam_id":85568392925397960,"keywords":["cp","nocrits","nodmgspread","uncletopia"],"game_id":440,"stv_port":27066,"stv_name":"Uncletopia | Sydney | 6 | Community | STV","players":null},{"server_id":49,"name":"Uncletopia | Warsaw | 1 | All Maps","name_short":"waw-1","host":"waw-1.pl.uncletopia.com","port":27015,"enabled":true,"region":"eu","cc":"pl","latitude":52.2297,"longitude":21.017532,"reserved":0,"last_update":"0001-01-01T00:00:00Z","name_a2s":"","protocol":0,"map":"","folder":"","game":"","app_id":0,"player_count":0,"max_players":0,"Bots":0,"server_type":"","server_os":"","password":false,"vac":false,"version":"","steam_id":0,"keywords":null,"game_id":0,"stv_port":0,"stv_name":"","players":null},{"server_id":50,"name":"Uncletopia | Warsaw | 2 | All Maps","name_short":"waw-2","host":"waw-1.pl.uncletopia.com","port":27025,"enabled":true,"region":"eu","cc":"pl","latitude":52.2297,"longitude":21.017532,"reserved":0,"last_update":"0001-01-01T00:00:00Z","name_a2s":"","protocol":0,"map":"","folder":"","game":"","app_id":0,"player_count":0,"max_players":0,"Bots":0,"server_type":"","server_os":"","password":false,"vac":false,"version":"","steam_id":0,"keywords":null,"game_id":0,"stv_port":0,"stv_name":"","players":null},{"server_id":51,"name":"Uncletopia | Warsaw | 3 | All Maps","name_short":"waw-3","host":"waw-1.pl.uncletopia.com","port":27035,"enabled":true,"region":"eu","cc":"pl","latitude":52.2297,"longitude":21.017532,"reserved":0,"last_update":"0001-01-01T00:00:00Z","name_a2s":"","protocol":0,"map":"","folder":"","game":"","app_id":0,"player_count":0,"max_players":0,"Bots":0,"server_type":"","server_os":"","password":false,"vac":false,"version":"","steam_id":0,"keywords":null,"game_id":0,"stv_port":0,"stv_name":"","players":null},{"server_id":52,"name":"Uncletopia | Warsaw | 4 | All Maps","name_short":"waw-4","host":"waw-1.pl.uncletopia.com","port":27045,"enabled":true,"region":"eu","cc":"pl","latitude":52.2297,"longitude":21.017532,"reserved":0,"last_update":"0001-01-01T00:00:00Z","name_a2s":"","protocol":0,"map":"","folder":"","game":"","app_id":0,"player_count":8,"max_players":0,"Bots":0,"server_type":"","server_os":"","password":false,"vac":false,"version":"","steam_id":0,"keywords":null,"game_id":0,"stv_port":0,"stv_name":"","players":[{"user_id":13,"name":"Belemonguin","steam_id":76561198084706411,"connected_time":1434000000000,"state":"active","ping":89},{"user_id":14,"name":"Captain Red","steam_id":76561198070754199,"connected_time":1345000000000,"state":"active","ping":134},{"user_id":16,"name":"FiricelSolos123","steam_id":76561198901014065,"connected_time":573000000000,"state":"active","ping":82},{"user_id":21,"name":"Frank","steam_id":76561198086672774,"connected_time":567000000000,"state":"active","ping":81},{"user_id":24,"name":"avewszystkim","steam_id":76561199382492530,"connected_time":302000000000,"state":"active","ping":35},{"user_id":25,"name":"GMsU | Acoul","steam_id":76561198229222992,"connected_time":206000000000,"state":"active","ping":61},{"user_id":26,"name":"Technic","steam_id":76561198128096130,"connected_time":198000000000,"state":"active","ping":60},{"user_id":28,"name":"GMsU | Rebikas","steam_id":76561198077053764,"connected_time":112000000000,"state":"active","ping":61}]},{"server_id":53,"name":"Uncletopia | Warsaw | 5 | Stopwatch Beta","name_short":"waw-5","host":"waw-1.pl.uncletopia.com","port":27055,"enabled":true,"region":"eu","cc":"pl","latitude":52.2297,"longitude":21.017532,"reserved":0,"last_update":"0001-01-01T00:00:00Z","name_a2s":"","protocol":0,"map":"","folder":"","game":"","app_id":0,"player_count":0,"max_players":0,"Bots":0,"server_type":"","server_os":"","password":false,"vac":false,"version":"","steam_id":0,"keywords":null,"game_id":0,"stv_port":0,"stv_name":"","players":null},{"server_id":54,"name":"Uncletopia | Warsaw | 6 | Community","name_short":"waw-6","host":"waw-1.pl.uncletopia.com","port":27065,"enabled":true,"region":"eu","cc":"pl","latitude":52.2297,"longitude":21.017532,"reserved":0,"last_update":"0001-01-01T00:00:00Z","name_a2s":"","protocol":0,"map":"","folder":"","game":"","app_id":0,"player_count":0,"max_players":0,"Bots":0,"server_type":"","server_os":"","password":false,"vac":false,"version":"","steam_id":0,"keywords":null,"game_id":0,"stv_port":0,"stv_name":"","players":null}]}