{"status":true,"message":"","result":[{"server_id":9,"name":"Uncletopia | Atlanta | 1 | All Maps","name_short":"atl-1","host":"atl-1.us.uncletopia.com","port":27015,"enabled":true,"region":"us-east","cc":"us","latitude":33.753746,"longitude":-84.38633,"reserved":0,"last_update":"0001-01-01T00:00:00Z","name_a2s":"Uncletopia | Atlanta | 1 | All Maps","protocol":17,"map":"cp_mountainlab","folder":"tf","game":"Team Fortress","app_id":440,"player_count":0,"max_players":24,"Bots":0,"server_type":"Dedicated","server_os":"Linux","password":true,"vac":true,"version":"7961495","steam_id":85568392924469982,"keywords":["cp","nocrits","nodmgspread","uncletopia"],"game_id":440,"stv_port":27016,"stv_name":"Uncletopia | Atlanta | 1 | All Maps | STV","players":null},{"server_id":104,"name":"Uncletopia | Atlanta | 2 | All Maps","name_short":"atl-2","host":"atl-1.us.uncletopia.com","port":27025,"enabled":true,"region":"us-east","cc":"us","latitude":33.753746,"longitude":-84.38633,"reserved":0,"last_update":"0001-01-01T00:00:00Z","name_a2s":"","protocol":0,"map":"","folder":"","game":"","app_id":0,"player_count":0,"max_players":0,"Bots":0,"server_type":"","server_os":"","password":false,"vac":false,"version":"","steam_id":0,"keywords":null,"game_id":0,"stv_port":0,"stv_name":"","players":null},{"server_id":400,"name":"Uncletopia | Atlanta | 3 | All Maps","name_short":"atl-3","host":"atl-1.us.uncletopia.com","port":27035,"enabled":true,"region":"us-east","cc":"us","latitude":33.753746,"longitude":-84.38633,"reserved":0,"last_update":"0001-01-01T00:00:00Z","name_a2s":"","protocol":0,"map":"","folder":"","game":"","app_id":0,"player_count":0,"max_players":0,"Bots":0,"server_type":"","server_os":"","password":false,"vac":false,"version":"","steam_id":0,"keywords":null,"game_id":0,"stv_port":0,"stv_name":"","players":null},{"server_id":401,"name":"Uncletopia | Atlanta | 4 | Community","name_short":"atl-4","host":"atl-1.us.uncletopia.com","port":27045,"enabled":true,"region":"us-east","cc":"us","latitude":33.753746,"longitude":-84.38633,"reserved":0,"last_update":"0001-01-01T00:00:00Z","name_a2s":"","protocol":0,"map":"","folder":"","game":"","app_id":0,"player_count":0,"max_players":0,"Bots":0,"server_type":"","server_os":"","password":false,"vac":false,"version":"","steam_id":0,"keywords":null,"game_id":0,"stv_port":0,"stv_name":"","players":null},{"server_id":2,"name":"Uncletopia | Chicago | 1 | All Maps","name_short":"chi-1","host":"chi-1.us.uncletopia.com","port":27015,"enabled":true,"region":"us-central","cc":"us","latitude":41.881832,"longitude":-87.62318,"reserved":0,"last_update":"0001-01-01T00:00:00Z","name_a2s":"Uncletopia | Chicago | 1 | All Maps","protocol":17,"map":"pl_swiftwater_final1","folder":"tf","game":"Team Fortress","app_id":440,"player_count":23,"max_players":24,"Bots":0,"server_type":"Dedicated","server_os":"Linux","password":true,"vac":true,"version":"7961495","steam_id":85568392924469984,"keywords":["nocrits","nodmgspread","payload","uncletopia"],"game_id":440,"stv_port":27016,"stv_name":"Uncletopia | Chicago | 1 | All Maps | STV","players":[{"user_id":318,"name":"Just PYE","steam_id":76561199439622967,"connected_time":731000000000,"state":"spawning","ping":129},{"user_id":176,"name":"MetalNavigator","steam_id":76561198974231439,"connected_time":9950000000000,"state":"active","ping":193},{"user_id":278,"name":"atlas","steam_id":76561198398383076,"connected_time":2958000000000,"state":"active","ping":86},{"user_id":323,"name":"footoftheday","steam_id":76561198052712449,"connected_time":469000000000,"state":"active","ping":223},{"user_id":312,"name":"richard clock","steam_id":76561198048455671,"connected_time":1055000000000,"state":"spawning","ping":182},{"user_id":327,"name":"Xodium","steam_id":76561199009403605,"connected_time":201000000000,"state":"spawning","ping":96},{"user_id":304,"name":"blazzeh","steam_id":76561198053407069,"connected_time":1522000000000,"state":"spawning","ping":106},{"user_id":243,"name":"Obelisk","steam_id":76561198049416866,"connected_time":5352000000000,"state":"active","ping":113},{"user_id":322,"name":"nalezinik","steam_id":76561198030026119,"connected_time":512000000000,"state":"spawning","ping":51},{"user_id":319,"name":"asbestos","steam_id":76561198079178866,"connected_time":575000000000,"state":"active","ping":79},{"user_id":321,"name":"npc energy","steam_id":76561198035342207,"connected_time":520000000000,"state":"active","ping":57},{"user_id":310,"name":"Glue Gulper","steam_id":76561198158014525,"connected_time":1093000000000,"state":"active","ping":166},{"user_id":330,"name":"yaldabaoth","steam_id":76561198084606869,"connected_time":29000000000,"state":"active","ping":66},{"user_id":308,"name":"saskberrypie","steam_id":76561199213965613,"connected_time":1119000000000,"state":"spawning","ping":61},{"user_id":326,"name":"NovusOrdoDux","steam_id":76561198271936289,"connected_time":299000000000,"state":"active","ping":223},{"user_id":235,"name":"Doctor Emerald(real)","steam_id":76561199123003872,"connected_time":5428000000000,"state":"spawning","ping":210},{"user_id":244,"name":"big steve","steam_id":76561199037050183,"connected_time":5160000000000,"state":"active","ping":148},{"user_id":194,"name":"mountain","steam_id":76561198078395002,"connected_time":9274000000000,"state":"spawning","ping":187},{"user_id":306,"name":"Ashes!","steam_id":76561197998475441,"connected_time":1131000000000,"state":"spawning","ping":64},{"user_id":260,"name":"The Senator","steam_id":76561198941700660,"connected_time":4404000000000,"state":"active","ping":227},{"user_id":331,"name":"Mecha","steam_id":76561198014927379,"connected_time":22000000000,"state":"spawning","ping":57},{"user_id":328,"name":"BNT","steam_id":76561198044064831,"connected_time":80000000000,"state":"spawning","ping":201},{"user_id":329,"name":"DinoGoof","steam_id":76561198998427283,"connected_time":55000000000,"state":"active","ping":82}]},{"server_id":106,"name":"Uncletopia | Chicago | 2 | All Maps","name_short":"chi-2","host":"chi-1.us.uncletopia.com","port":27025,"enabled":true,"region":"us-central","cc":"us","latitude":41.881832,"longitude":-87.62318,"reserved":0,"last_update":"0001-01-01T00:00:00Z","name_a2s":"Uncletopia | Chicago | 2 | All Maps","protocol":17,"map":"cp_process_final","folder":"tf","game":"Team Fortress","app_id":440,"player_count":23,"max_players":24,"Bots":0,"server_type":"Dedicated","server_os":"Linux","password":true,"vac":true,"version":"7961495","steam_id":85568392924469985,"keywords":["cp","nocrits","nodmgspread","uncletopia"],"game_id":440,"stv_port":27026,"stv_name":"Uncletopia | Chicago | 2 | All Maps | STV","players":[{"user_id":249,"name":"Lwyz016","steam_id":76561199164626058,"connected_time":147000000000,"state":"active","ping":307},{"user_id":204,"name":"April's Fool","steam_id":76561198069068827,"connected_time":2091000000000,"state":"active","ping":45},{"user_id":242,"name":"allimadness","steam_id":76561199061698187,"connected_time":405000000000,"state":"active","ping":128},{"user_id":239,"name":"Retrace","steam_id":76561198080620966,"connected_time":1060000000000,"state":"active","ping":77},{"user_id":238,"name":"det lft","steam_id":76561198170859755,"connected_time":1063000000000,"state":"active","ping":57},{"user_id":250,"name":"Quinton Beef","steam_id":76561198117825609,"connected_time":52000000000,"state":"active","ping":137},{"user_id":244,"name":"Mkwhackertracker","steam_id":76561198128343704,"connected_time":390000000000,"state":"active","ping":63},{"user_id":245,"name":"millersamarri","steam_id":76561199492235982,"connected_time":374000000000,"state":"active","ping":78},{"user_id":229,"name":"Pontifex","steam_id":76561198013016489,"connected_time":1412000000000,"state":"active","ping":73},{"user_id":233,"name":"ggiP","steam_id":76561198815264672,"connected_time":1371000000000,"state":"active","ping":45},{"user_id":226,"name":"Kapu1178","steam_id":76561198107212766,"connected_time":1459000000000,"state":"active","ping":70},{"user_id":71,"name":"fischman","steam_id":76561199064142670,"connected_time":12588000000000,"state":"active","ping":151},{"user_id":246,"name":"Snow‚òÜ","steam_id":76561198031290573,"connected_time":349000000000,"state":"active","ping":52},{"user_id":253,"name":"Truck-kun2107","steam_id":76561199161417910,"connected_time":22000000000,"state":"spawning","ping":66},{"user_id":251,"name":"TheArachnidGamer","steam_id":76561198304986752,"connected_time":41000000000,"state":"active","ping":64},{"user_id":156,"name":"ThatGamingKiwi","steam_id":76561199170522237,"connected_time":6547000000000,"state":"active","ping":73},{"user_id":185,"name":"Aquiles Baesta","steam_id":76561198081053203,"connected_time":3166000000000,"state":"active","ping":128},{"user_id":236,"name":"money getting 1 percenter","steam_id":76561198012796388,"connected_time":1139000000000,"state":"active","ping":48},{"user_id":230,"name":"Sleepy","steam_id":76561198217133637,"connected_time":1405000000000,"state":"active","ping":84},{"user_id":247,"name":"eat Pant","steam_id":76561197974965536,"connected_time":346000000000,"state":"active","ping":61},{"user_id":181,"name":"Adawnby","steam_id":76561198103057295,"connected_time":3750000000000,"state":"active","ping":80},{"user_id":201,"name":"capeeKo","steam_id":76561197970346623,"connected_time":2202000000000,"state":"active","ping":80},{"user_id":215,"name":"Pabl0","steam_id":76561198065570956,"connected_time":1770000000000,"state":"active","ping":83}]},{"server_id":402,"name":"Uncletopia | Chicago | 3 | All Maps","name_short":"chi-3","host":"chi-1.us.uncletopia.com","port":27035,"enabled":true,"region":"us-central","cc":"us","latitude":41.881832,"longitude":-87.62318,"reserved":0,"last_update":"0001-01-01T00:00:00Z","name_a2s":"Uncletopia | Chicago | 3 | All Maps","protocol":17,"map":"pl_badwater","folder":"tf","game":"Team Fortress","app_id":440,"player_count":24,"max_players":24,"Bots":0,"server_type":"Dedicated","server_os":"Linux","password":true,"vac":true,"version":"7961495","steam_id":85568392924515191,"keywords":["nocrits","nodmgspread","payload","uncletopia"],"game_id":440,"stv_port":27036,"stv_name":"Uncletopia | Chicago | 3 | All Maps | STV","players":[{"user_id":147,"name":"H C N","steam_id":76561198106290021,"connected_time":247000000000,"state":"active","ping":76},{"user_id":103,"name":"Psychosis","steam_id":76561198078659070,"connected_time":4238000000000,"state":"active","ping":71},{"user_id":145,"name":"kinky n stinky","steam_id":76561198145366579,"connected_time":282000000000,"state":"active","ping":76},{"user_id":134,"name":"Petrivus","steam_id":76561198202152453,"connected_time":1952000000000,"state":"active","ping":99},{"user_id":148,"name":"dr peppah chug!","steam_id":76561198068835693,"connected_time":184000000000,"state":"active","ping":89},{"user_id":153,"name":"Banaman","steam_id":76561198329598223,"connected_time":69000000000,"state":"active","ping":72},{"user_id":108,"name":"Eyeless","steam_id":76561198094772431,"connected_time":3873000000000,"state":"active","ping":45},{"user_id":149,"name":"GoldtoothFour","steam_id":76561198055529332,"connected_time":169000000000,"state":"active","ping":52},{"user_id":152,"name":"Cutlery Box","steam_id":76561197978508626,"connected_time":114000000000,"state":"active","ping":77},{"user_id":130,"name":"Incoming","steam_id":76561199020244051,"connected_time":2134000000000,"state":"active","ping":98},{"user_id":151,"name":"g00bur","steam_id":76561197993622520,"connected_time":155000000000,"state":"active","ping":69},{"user_id":154,"name":"Porky Minch","steam_id":76561198116168773,"connected_time":40000000000,"state":"active","ping":41},{"user_id":138,"name":"Robin Suarez","steam_id":76561198014698593,"connected_time":1058000000000,"state":"active","ping":107},{"user_id":146,"name":"Machine Girl - SAD CLAPS","steam_id":76561198294013916,"connected_time":265000000000,"state":"active","ping":61},{"user_id":107,"name":"blitz","steam_id":76561198246638226,"connected_time":4003000000000,"state":"active","ping":62},{"user_id":131,"name":"Toest","steam_id":76561198076061844,"connected_time":2133000000000,"state":"active","ping":57},{"user_id":155,"name":"Roberto Del Fuego","steam_id":76561198043458554,"connected_time":39000000000,"state":"active","ping":50},{"user_id":116,"name":"krueger","steam_id":76561198268654031,"connected_time":3396000000000,"state":"active","ping":56},{"user_id":143,"name":"Buns","steam_id":76561199375435467,"connected_time":941000000000,"state":"active","ping":63},{"user_id":94,"name":"ungr8t","steam_id":76561198063521721,"connected_time":5018000000000,"state":"active","ping":75},{"user_id":156,"name":"Mr. Durian","steam_id":76561198093813212,"connected_time":39000000000,"state":"active","ping":66},{"user_id":74,"name":"strangejune","steam_id":76561198272400016,"connected_time":7190000000000,"state":"active","ping":81},{"user_id":133,"name":"MarauderOP","steam_id":76561199087316861,"connected_time":2033000000000,"state":"active","ping":75},{"user_id":119,"name":"The third, just the third","steam_id":76561199089290128,"connected_time":3367000000000,"state":"active","ping":145}]},{"server_id":403,"name":"Uncletopia | Chicago | 4 | All Maps","name_short":"chi-4","host":"chi-1.us.uncletopia.com","port":27045,"enabled":true,"region":"us-central","cc":"us","latitude":41.881832,"longitude":-87.62318,"reserved":0,"last_update":"0001-01-01T00:00:00Z","name_a2s":"Uncletopia | Chicago | 4 | All Maps","protocol":17,"map":"cp_process_final","folder":"tf","game":"Team Fortress","app_id":440,"player_count":0,"max_players":24,"Bots":0,"server_type":"Dedicated","server_os":"Linux","password":true,"vac":true,"version":"7961495","steam_id":85568392924515193,"keywords":["cp","nocrits","nodmgspread","uncletopia"],"game_id":440,"stv_port":27046,"stv_name":"Uncletopia | Chicago | 4 | All Maps | STV","players":null},{"server_id":36,"name":"Uncletopia | Chicago | 5 | All Maps","name_short":"chi-5","host":"chi-2.us.uncletopia.com","port":27015,"enabled":true,"region":"us-central","cc":"us","latitude":41.881832,"longitude":-87.62318,"reserved":0,"last_update":"0001-01-01T00:00:00Z","name_a2s":"Uncletopia | Chicago | 5 | All Maps","protocol":17,"map":"cp_snakewater_final1","folder":"tf","game":"Team Fortress","app_id":440,"player_count":0,"max_players":24,"Bots":0,"server_type":"Dedicated","server_os":"Linux","password":true,"vac":true,"version":"7961495","steam_id":85568392924866362,"keywords":["cp","nocrits","nodmgspread","uncletopia"],"game_id":440,"stv_port":27016,"stv_name":"Uncletopia | Chicago | 5 | All Maps | STV","players":null},{"server_id":37,"name":"Uncletopia | Chicago | 6 | All Maps","name_short":"chi-6","host":"chi-2.us.uncletopia.com","port":27025,"enabled":true,"region":"us-central","cc":"us","latitude":41.881832,"longitude":-87.62318,"reserved":0,"last_update":"0001-01-01T00:00:00Z","name_a2s":"Uncletopia | Chicago | 6 | All Maps","protocol":17,"map":"cp_altitude","folder":"tf","game":"Team Fortress","app_id":440,"player_count":0,"max_players":24,"Bots":0,"server_type":"Dedicated","server_os":"Linux","password":true,"vac":true,"version":"7961495","steam_id":85568392924866363,"keywords":["cp","nocrits","nodmgspread","uncletopia"],"game_id":440,"stv_port":27026,"stv_name":"Uncletopia | Chicago | 6 | All Maps | STV","players":null},{"server_id":38,"name":"Uncletopia | Chicago | 7 | Stopwatch Beta","name_short":"chi-7","host":"chi-2.us.uncletopia.com","port":27035,"enabled":true,"region":"us-central","cc":"us","latitude":41.881832,"longitude":-87.62318,"reserved":0,"last_update":"0001-01-01T00:00:00Z","name_a2s":"Uncletopia | Chicago | 7 | Stopwatch Beta","protocol":17,"map":"pl_badwater","folder":"tf","game":"Team Fortress","app_id":440,"player_count":0,"max_players":24,"Bots":0,"server_type":"Dedicated","server_os":"Linux","password":true,"vac":true,"version":"7961495","steam_id":85568392924866364,"keywords":["nocrits","nodmgspread","payload","uncletopia"],"game_id":440,"stv_port":27036,"stv_name":"Uncletopia | Chicago | 7 | Stopwatch Beta | STV","players":null},{"server_id":39,"name":"Uncletopia | Chicago | 8 | Community","name_short":"chi-8","host":"chi-2.us.uncletopia.com","port":27045,"enabled":true,"region":"us-central","cc":"us","latitude":41.881832,"longitude":-87.62318,"reserved":0,"last_update":"0001-01-01T00:00:00Z","name_a2s":"Uncletopia | Chicago | 8 | Community","protocol":17,"map":"koth_cascade","folder":"tf","game":"Team Fortress","app_id":440,"player_count":0,"max_players":24,"Bots":0,"server_type":"Dedicated","server_os":"Linux","password":true,"vac":true,"version":"7961495","steam_id":85568392924866365,"keywords":["cp","nocrits","nodmgspread","uncletopia"],"game_id":440,"stv_port":27046,"stv_name":"Uncletopia | Chicago | 8 | Community | STV","players":null},{"server_id":8,"name":"Uncletopia | Dallas | 1 | All Maps","name_short":"dal-1","host":"dal-1.us.uncletopia.com","port":27015,"enabled":true,"region":"us-central","cc":"us","latitude":32.779167,"longitude":-96.80889,"reserved":0,"last_update":"0001-01-01T00:00:00Z","name_a2s":"Uncletopia | Dallas | 1 | All Maps","protocol":17,"map":"pl_snowycoast","folder":"tf","game":"Team Fortress","app_id":440,"player_count":24,"max_players":24,"Bots":0,"server_type":"Dedicated","server_os":"Linux","password":true,"vac":true,"version":"7961495","steam_id":85568392924469986,"keywords":["nocrits","nodmgspread","payload","uncletopia"],"game_id":440,"stv_port":27016,"stv_name":"Uncletopia | Dallas | 1 | All Maps | STV","players":[{"user_id":133,"name":"Fletcher","steam_id":76561198317846538,"connected_time":9458000000000,"state":"active","ping":77},{"user_id":208,"name":"Stolid","steam_id":76561197998506423,"connected_time":2560000000000,"state":"active","ping":73},{"user_id":238,"name":"StealthGirl","steam_id":76561198024760666,"connected_time":103000000000,"state":"active","ping":56},{"user_id":233,"name":"Mellou","steam_id":76561198212048740,"connected_time":438000000000,"state":"active","ping":49},{"user_id":229,"name":"f","steam_id":76561198215559840,"connected_time":912000000000,"state":"active","ping":60},{"user_id":231,"name":"New Person, Same Old Mistakes","steam_id":76561198286792807,"connected_time":798000000000,"state":"active","ping":62},{"user_id":227,"name":"Pixler544","steam_id":76561198240575132,"connected_time":1111000000000,"state":"active","ping":80},{"user_id":200,"name":"zorp","steam_id":76561198115254326,"connected_time":3104000000000,"state":"active","ping":68},{"user_id":183,"name":"tsz","steam_id":76561199246231090,"connected_time":4176000000000,"state":"active","ping":85},{"user_id":234,"name":"MontellWilliams","steam_id":76561198172143015,"connected_time":415000000000,"state":"active","ping":82},{"user_id":222,"name":"The Sapper","steam_id":76561198255322968,"connected_time":1175000000000,"state":"active","ping":118},{"user_id":235,"name":"CF-TF2","steam_id":76561198145893044,"connected_time":413000000000,"state":"active","ping":94},{"user_id":216,"name":"GX thedittoguy (lfp demo)","steam_id":76561199013129784,"connected_time":1817000000000,"state":"active","ping":54},{"user_id":186,"name":"nunu and willump stan","steam_id":76561198155872356,"connected_time":4073000000000,"state":"active","ping":75},{"user_id":236,"name":"jeff_fan","steam_id":76561198086420687,"connected_time":370000000000,"state":"active","ping":85},{"user_id":178,"name":"Heat My Justice","steam_id":76561197995252750,"connected_time":4650000000000,"state":"active","ping":114},{"user_id":230,"name":"McDonald's Filet-O-Fish","steam_id":76561198104086771,"connected_time":891000000000,"state":"active","ping":75},{"user_id":226,"name":"Virtual Insanity","steam_id":76561198095245223,"connected_time":1126000000000,"state":"active","ping":86},{"user_id":232,"name":"David De Bergerac","steam_id":76561198010306294,"connected_time":615000000000,"state":"active","ping":90},{"user_id":239,"name":"Legless Amphibian","steam_id":76561198880476222,"connected_time":53000000000,"state":"active","ping":55},{"user_id":187,"name":"peep! qki","steam_id":76561198056198168,"connected_time":4051000000000,"state":"active","ping":58},{"user_id":151,"name":"Fatal","steam_id":76561198061407587,"connected_time":7494000000000,"state":"active","ping":63},{"user_id":224,"name":"Kuyumiester","steam_id":76561198126835302,"connected_time":1161000000000,"state":"active","ping":62},{"user_id":237,"name":"Big Business","steam_id":76561198353366625,"connected_time":204000000000,"state":"active","ping":87}]},{"server_id":108,"name":"Uncletopia | Dallas | 2 | All Maps","name_short":"dal-2","host":"dal-1.us.uncletopia.com","port":27025,"enabled":true,"region":"us-central","cc":"us","latitude":32.779167,"longitude":-96.80889,"reserved":0,"last_update":"0001-01-01T00:00:00Z","name_a2s":"Uncletopia | Dallas | 2 | All Maps","protocol":17,"map":"cp_sunshine","folder":"tf","game":"Team Fortress","app_id":440,"player_count":23,"max_players":24,"Bots":0,"server_type":"Dedicated","server_os":"Linux","password":true,"vac":true,"version":"7961495","steam_id":85568392924469988,"keywords":["cp","nocrits","nodmgspread","uncletopia"],"game_id":440,"stv_port":27026,"stv_name":"Uncletopia | Dallas | 2 | All Maps | STV","players":[{"user_id":4,"name":"Ceo of Anti-Racism","steam_id":76561198831997540,"connected_time":8958000000000,"state":"active","ping":66},{"user_id":92,"name":"InvaderAlex","steam_id":76561198039232451,"connected_time":2141000000000,"state":"active","ping":59},{"user_id":56,"name":"sweppy","steam_id":76561198035457667,"connected_time":4866000000000,"state":"active","ping":63},{"user_id":84,"name":"Sergeant Snowflake","steam_id":76561198041474489,"connected_time":2854000000000,"state":"active","ping":79},{"user_id":96,"name":"ApocAnarchy","steam_id":76561198225604700,"connected_time":2059000000000,"state":"active","ping":53},{"user_id":91,"name":"Blunty D. Luffy","steam_id":76561198164872861,"connected_time":2371000000000,"state":"active","ping":66},{"user_id":109,"name":"Titus Tyrwitt","steam_id":76561197990779673,"connected_time":208000000000,"state":"active","ping":76},{"user_id":113,"name":"joe iroh","steam_id":76561198173105270,"connected_time":23000000000,"state":"spawning","ping":92},{"user_id":99,"name":"Cold shoulder","steam_id":76561198453824178,"connected_time":1266000000000,"state":"active","ping":133},{"user_id":114,"name":"‚ù§To Lazy‚ù§","steam_id":76561198164211904,"connected_time":7000000000,"state":"spawning","ping":74},{"user_id":81,"name":"Jennifer Aniston's Nipples","steam_id":76561198086107548,"connected_time":2981000000000,"state":"active","ping":43},{"user_id":64,"name":"Satori Komeiji","steam_id":76561198158211423,"connected_time":3979000000000,"state":"active","ping":84},{"user_id":100,"name":"Charlotte","steam_id":76561199084344266,"connected_time":1239000000000,"state":"active","ping":90},{"user_id":88,"name":"Yukon Cornelius","steam_id":76561198261512781,"connected_time":2792000000000,"state":"active","ping":60},{"user_id":106,"name":"Cyrllo","steam_id":76561198207809512,"connected_time":370000000000,"state":"active","ping":46},{"user_id":107,"name":"Raine","steam_id":76561198055761141,"connected_time":311000000000,"state":"active","ping":118},{"user_id":111,"name":"Snoopy","steam_id":76561198273735974,"connected_time":155000000000,"state":"active","ping":81},{"user_id":105,"name":"sagejay","steam_id":76561198118149530,"connected_time":524000000000,"state":"active","ping":82},{"user_id":29,"name":"DiscoTraveler","steam_id":76561199240168088,"connected_time":6021000000000,"state":"active","ping":82},{"user_id":93,"name":"hill of the king","steam_id":76561198099491925,"connected_time":2136000000000,"state":"active","ping":75},{"user_id":112,"name":"Walmus","steam_id":76561198111416393,"connected_time":148000000000,"state":"active","ping":69},{"user_id":82,"name":"{SCG} Jon the Friendly Fox \u003c3","steam_id":76561198021136606,"connected_time":2974000000000,"state":"active","ping":46},{"user_id":89,"name":"motherfucker 2.0","steam_id":76561198141189209,"connected_time":2754000000000,"state":"active","ping":45}]},{"server_id":404,"name":"Uncletopia | Dallas | 3 | All Maps","name_short":"dal-3","host":"dal-1.us.uncletopia.com","port":27035,"enabled":true,"region":"us-central","cc":"us","latitude":32.779167,"longitude":-96.80889,"reserved":0,"last_update":"0001-01-01T00:00:00Z","name_a2s":"Uncletopia | Dallas | 3 | All Maps","protocol":17,"map":"koth_highpass","folder":"tf","game":"Team Fortress","app_id":440,"player_count":0,"max_players":24,"Bots":0,"server_type":"Dedicated","server_os":"Linux","password":true,"vac":true,"version":"7961495","steam_id":85568392924515219,"keywords":["cp","nocrits","nodmgspread","uncletopia"],"game_id":440,"stv_port":27036,"stv_name":"Uncletopia | Dallas | 3 | All Maps | STV","players":null},{"server_id":405,"name":"Uncletopia | Dallas | 4 | Community","name_short":"dal-4","host":"dal-1.us.uncletopia.com","port":27045,"enabled":true,"region":"us-central","cc":"us","latitude":32.779167,"longitude":-96.80889,"reserved":0,"last_update":"0001-01-01T00:00:00Z","name_a2s":"Uncletopia | Dallas | 4 | Community","protocol":17,"map":"workshop/cp_propaganda_b18.ugc1603743849","folder":"tf","game":"Team Fortress","app_id":440,"player_count":0,"max_players":24,"Bots":0,"server_type":"Dedicated","server_os":"Linux","password":true,"vac":true,"version":"7961495","steam_id":85568392924515220,"keywords":["cp","nocrits","nodmgspread","uncletopia"],"game_id":440,"stv_port":27046,"stv_name":"Uncletopia | Dallas | 4 | Community | STV","players":null},{"server_id":5,"name":"Uncletopia | Frankfurt | 1 | All Maps","name_short":"frk-1","host":"frk-1.de.uncletopia.com","port":27015,"enabled":true,"region":"eu","cc":"de","latitude":50.110924,"longitude":8.682127,"reserved":0,"last_update":"0001-01-01T00:00:00Z","name_a2s":"Uncletopia | Frankfurt | 1 | All Maps","protocol":17,"map":"pl_thundermountain","folder":"tf","game":"Team Fortress","app_id":440,"player_count":24,"max_players":24,"Bots":0,"server_type":"Dedicated","server_os":"Linux","password":true,"vac":true,"version":"7961495","steam_id":85568392924469989,"keywords":["nocrits","nodmgspread","payload","uncletopia"],"game_id":440,"stv_port":27016,"stv_name":"Uncletopia | Frankfurt | 1 | All Maps | STV","players":[{"user_id":603,"name":"brehs","steam_id":76561198150653454,"connected_time":1169000000000,"state":"active","ping":46},{"user_id":551,"name":"Shpee","steam_id":76561198065009070,"connected_time":5060000000000,"state":"active","ping":102},{"user_id":614,"name":"Idiotic :/","steam_id":76561199228019694,"connected_time":147000000000,"state":"active","ping":65},{"user_id":605,"name":"Erection Man","steam_id":76561198021714542,"connected_time":1013000000000,"state":"active","ping":60},{"user_id":604,"name":"Walter Black","steam_id":76561198309194819,"connected_time":1071000000000,"state":"active","ping":75},{"user_id":607,"name":"_Hot_Fuzz_","steam_id":76561198160304886,"connected_time":928000000000,"state":"active","ping":196},{"user_id":575,"name":"KingPotatoChips","steam_id":76561198035156465,"connected_time":3211000000000,"state":"active","ping":67},{"user_id":613,"name":"MoistMomMauler","steam_id":76561198069359049,"connected_time":235000000000,"state":"active","ping":81},{"user_id":589,"name":"nevim","steam_id":76561199120843402,"connected_time":2241000000000,"state":"active","ping":48},{"user_id":606,"name":"‚ôÇ Animan ‚ôÇ Studios ‚ôÇ","steam_id":76561198308302932,"connected_time":988000000000,"state":"active","ping":92},{"user_id":485,"name":"john fortress","steam_id":76561198013237629,"connected_time":9439000000000,"state":"active","ping":106},{"user_id":610,"name":"Boki","steam_id":76561198044553351,"connected_time":710000000000,"state":"active","ping":70},{"user_id":609,"name":"Kolomaster","steam_id":76561198143356545,"connected_time":766000000000,"state":"active","ping":72},{"user_id":514,"name":"halow","steam_id":76561198061505163,"connected_time":7606000000000,"state":"active","ping":92},{"user_id":581,"name":"tallen","steam_id":76561198061708595,"connected_time":2953000000000,"state":"active","ping":75},{"user_id":577,"name":"Webber192","steam_id":76561198252039422,"connected_time":3056000000000,"state":"active","ping":73},{"user_id":616,"name":"Lux","steam_id":76561198060417740,"connected_time":2000000000,"state":"spawning","ping":55},{"user_id":600,"name":"BELADIT","steam_id":76561198011911501,"connected_time":1856000000000,"state":"active","ping":64},{"user_id":571,"name":"Joejee","steam_id":76561199122423976,"connected_time":3355000000000,"state":"active","ping":80},{"user_id":533,"name":"rwota","steam_id":76561198385769722,"connected_time":6466000000000,"state":"active","ping":105},{"user_id":615,"name":"TAFI03","steam_id":76561198213082089,"connected_time":105000000000,"state":"active","ping":60},{"user_id":612,"name":"Fran","steam_id":76561199070516960,"connected_time":556000000000,"state":"active","ping":58},{"user_id":593,"name":"xXx_Á•û„ÄÖ„ÅÆÊ∂àË≤ªËÄÖ_xXx","steam_id":76561198382668057,"connected_time":2146000000000,"state":"active","ping":126},{"user_id":544,"name":"smalldolmar","steam_id":76561198028041542,"connected_time":5693000000000,"state":"active","ping":70}]},{"server_id":110,"name":"Uncletopia | Frankfurt | 2 | All Maps","name_short":"frk-2","host":"frk-1.de.uncletopia.com","port":27025,"enabled":true,"region":"eu","cc":"de","latitude":50.110924,"longitude":8.682127,"reserved":0,"last_update":"0001-01-01T00:00:00Z","name_a2s":"Uncletopia | Frankfurt | 2 | All Maps","protocol":17,"map":"pl_snowycoast","folder":"tf","game":"Team Fortress","app_id":440,"player_count":23,"max_players":24,"Bots":0,"server_type":"Dedicated","server_os":"Linux","password":true,"vac":true,"version":"7961495","steam_id":85568392924469990,"keywords":["nocrits","nodmgspread","payload","uncletopia"],"game_id":440,"stv_port":27026,"stv_name":"Uncletopia | Frankfurt | 2 | All Maps | STV","players":[{"user_id":347,"name":"sev//","steam_id":76561198797730418,"connected_time":1075000000000,"state":"active","ping":55},{"user_id":246,"name":"CAR DOOR","steam_id":76561198055283295,"connected_time":6618000000000,"state":"active","ping":45},{"user_id":354,"name":"Zero (Orbital Gear Mastermind)","steam_id":76561198017416816,"connected_time":745000000000,"state":"active","ping":46},{"user_id":299,"name":"Seiko Lili","steam_id":76561199097542270,"connected_time":4270000000000,"state":"active","ping":78},{"user_id":355,"name":"240km/h.PEEK Mizel","steam_id":76561199226604824,"connected_time":705000000000,"state":"active","ping":522},{"user_id":337,"name":"Kestrel","steam_id":76561198144033005,"connected_time":1755000000000,"state":"active","ping":60},{"user_id":291,"name":"Real Gangsta","steam_id":76561198872013525,"connected_time":4497000000000,"state":"active","ping":144},{"user_id":294,"name":"movementÊí≠ÊîæÊú∫","steam_id":76561197994492154,"connected_time":4448000000000,"state":"active","ping":60},{"user_id":353,"name":"ARTI","steam_id":76561199446989613,"connected_time":786000000000,"state":"active","ping":75},{"user_id":332,"name":"busgrabb","steam_id":76561198055768465,"connected_time":2105000000000,"state":"active","ping":59},{"user_id":368,"name":"Sheep in wolf's clothing","steam_id":76561198349648942,"connected_time":4000000000,"state":"spawning","ping":89},{"user_id":357,"name":"elmstJP ‚Ç™ F4.exe","steam_id":76561197997909480,"connected_time":560000000000,"state":"active","ping":76},{"user_id":363,"name":"Milk","steam_id":76561198125876588,"connected_time":455000000000,"state":"active","ping":57},{"user_id":359,"name":"HelwiiHill","steam_id":76561198066730552,"connected_time":502000000000,"state":"active","ping":82},{"user_id":313,"name":"Skuld","steam_id":76561198064734905,"connected_time":3662000000000,"state":"active","ping":117},{"user_id":338,"name":"Isuurn","steam_id":76561198150201094,"connected_time":1609000000000,"state":"active","ping":74},{"user_id":356,"name":"Littleyoshifan","steam_id":76561198445491045,"connected_time":686000000000,"state":"active","ping":52},{"user_id":351,"name":"PainKiller","steam_id":76561198131355710,"connected_time":828000000000,"state":"active","ping":74},{"user_id":362,"name":"UNPARALLELED INNOCENCE","steam_id":76561198104896547,"connected_time":461000000000,"state":"active","ping":74},{"user_id":367,"name":"Chucko Kokos","steam_id":76561198112553005,"connected_time":232000000000,"state":"active","ping":67},{"user_id":331,"name":"Dark Screen","steam_id":76561198243583612,"connected_time":2174000000000,"state":"active","ping":78},{"user_id":364,"name":"Joy","steam_id":76561198155314925,"connected_time":430000000000,"state":"active","ping":65},{"user_id":365,"name":"rex110","steam_id":76561198159631448,"connected_time":412000000000,"state":"active","ping":74}]},{"server_id":308,"name":"Uncletopia | Frankfurt | 3 | All Maps","name_short":"frk-3","host":"frk-1.de.uncletopia.com","port":27035,"enabled":true,"region":"eu","cc":"de","latitude":50.110924,"longitude":8.682127,"reserved":0,"last_update":"0001-01-01T00:00:00Z","name_a2s":"Uncletopia | Frankfurt | 3 | All Maps","protocol":17,"map":"cp_process_final","folder":"tf","game":"Team Fortress","app_id":440,"player_count":21,"max_players":24,"Bots":0,"server_type":"Dedicated","server_os":"Linux","password":true,"vac":true,"version":"7961495","steam_id":85568392924504274,"keywords":["cp","nocrits","nodmgspread","uncletopia"],"game_id":440,"stv_port":27036,"stv_name":"Uncletopia | Frankfurt | 3 | All Maps | STV","players":[{"user_id":33,"name":"Der Memer","steam_id":76561199012606676,"connected_time":3606000000000,"state":"active","ping":84},{"user_id":40,"name":"Olvustin","steam_id":76561198272011453,"connected_time":2445000000000,"state":"active","ping":91},{"user_id":80,"name":"Birch","steam_id":76561197998712822,"connected_time":15000000000,"state":"active","ping":52},{"user_id":42,"name":"siarczan (VI) miedzi (II)","steam_id":76561198327848460,"connected_time":2037000000000,"state":"active","ping":71},{"user_id":73,"name":"Josh","steam_id":76561198274546904,"connected_time":285000000000,"state":"active","ping":145},{"user_id":44,"name":"ash","steam_id":76561198159073505,"connected_time":1906000000000,"state":"active","ping":89},{"user_id":81,"name":"jov.jov","steam_id":76561198357153602,"connected_time":2000000000,"state":"spawning","ping":66},{"user_id":47,"name":"stefanbejenari","steam_id":76561199466718294,"connected_time":1863000000000,"state":"active","ping":74},{"user_id":52,"name":"Tweedle","steam_id":76561198160141785,"connected_time":1632000000000,"state":"active","ping":45},{"user_id":50,"name":"akakez","steam_id":76561198095432821,"connected_time":1649000000000,"state":"active","ping":116},{"user_id":51,"name":"ShadoWizardMONEYG4NG","steam_id":76561198114777963,"connected_time":1648000000000,"state":"active","ping":52},{"user_id":53,"name":"Nova","steam_id":76561198108601005,"connected_time":1616000000000,"state":"active","ping":93},{"user_id":54,"name":"Urfangonultasadana","steam_id":76561199389286151,"connected_time":1597000000000,"state":"active","ping":99},{"user_id":56,"name":"Maxy Luck","steam_id":76561199009583144,"connected_time":1539000000000,"state":"active","ping":100},{"user_id":57,"name":"ax","steam_id":76561199201206556,"connected_time":1530000000000,"state":"active","ping":75},{"user_id":67,"name":"7oid","steam_id":76561198142074232,"connected_time":1150000000000,"state":"active","ping":93},{"user_id":60,"name":"Bun","steam_id":76561197989239999,"connected_time":1499000000000,"state":"active","ping":59},{"user_id":61,"name":"Dr.Sees [F2P]","steam_id":76561199219233587,"connected_time":1497000000000,"state":"active","ping":80},{"user_id":76,"name":"WomenBeardLike","steam_id":76561198390184314,"connected_time":224000000000,"state":"active","ping":60},{"user_id":77,"name":"N","steam_id":76561198257342972,"connected_time":216000000000,"state":"active","ping":45},{"user_id":79,"name":"Cheers Mate!","steam_id":76561198265192382,"connected_time":165000000000,"state":"active","ping":63}]},{"server_id":309,"name":"Uncletopia | Frankfurt | 4 | All Maps","name_short":"frk-4","host":"frk-1.de.uncletopia.com","port":27045,"enabled":true,"region":"eu","cc":"de","latitude":50.110924,"longitude":8.682127,"reserved":0,"last_update":"0001-01-01T00:00:00Z","name_a2s":"Uncletopia | Frankfurt | 4 | All Maps","protocol":17,"map":"cp_mountainlab","folder":"tf","game":"Team Fortress","app_id":440,"player_count":24,"max_players":24,"Bots":0,"server_type":"Dedicated","server_os":"Linux","password":true,"vac":true,"version":"7961495","steam_id":85568392924504275,"keywords":["cp","nocrits","nodmgspread","uncletopia"],"game_id":440,"stv_port":27046,"stv_name":"Uncletopia | Frankfurt | 4 | All Maps | STV","players":[{"user_id":282,"name":"sHIFTINGvORTEX","steam_id":76561198231648332,"connected_time":522000000000,"state":"active","ping":75},{"user_id":270,"name":"Ronsteriz","steam_id":76561198016846055,"connected_time":1133000000000,"state":"active","ping":98},{"user_id":250,"name":"Rimx","steam_id":76561198053034840,"connected_time":2224000000000,"state":"active","ping":92},{"user_id":283,"name":"Elijah","steam_id":76561198104772540,"connected_time":478000000000,"state":"active","ping":59},{"user_id":263,"name":"Toasty5050","steam_id":76561198073540881,"connected_time":1367000000000,"state":"active","ping":44},{"user_id":280,"name":"Soerlssoelss√∂en","steam_id":76561197993060585,"connected_time":592000000000,"state":"active","ping":69},{"user_id":236,"name":"Peskyplumber64","steam_id":76561198044458330,"connected_time":3638000000000,"state":"active","ping":71},{"user_id":276,"name":"FORKLIFT CERTIFIED","steam_id":76561198044972340,"connected_time":897000000000,"state":"active","ping":72},{"user_id":262,"name":"Schl√∂rk #2","steam_id":76561198385531121,"connected_time":1536000000000,"state":"active","ping":59},{"user_id":243,"name":"kradgar","steam_id":76561198400173746,"connected_time":2819000000000,"state":"active","ping":133},{"user_id":279,"name":"Musicano","steam_id":76561198114541088,"connected_time":757000000000,"state":"active","ping":82},{"user_id":260,"name":"Darius","steam_id":76561198086091841,"connected_time":1956000000000,"state":"active","ping":67},{"user_id":285,"name":"ANGELFISH","steam_id":76561198027536466,"connected_time":404000000000,"state":"active","ping":104},{"user_id":286,"name":"TrollSechsMann1941","steam_id":76561198150569669,"connected_time":399000000000,"state":"active","ping":91},{"user_id":287,"name":"12222222[ikom]","steam_id":76561199203592404,"connected_time":367000000000,"state":"active","ping":85},{"user_id":288,"name":"Marcos","steam_id":76561198798925721,"connected_time":353000000000,"state":"active","ping":70},{"user_id":281,"name":"SoupER","steam_id":76561198063056668,"connected_time":576000000000,"state":"active","ping":56},{"user_id":289,"name":"Krefa12","steam_id":76561198268375393,"connected_time":339000000000,"state":"active","ping":76},{"user_id":257,"name":"tequila sunset","steam_id":76561198315969106,"connected_time":2130000000000,"state":"active","ping":87},{"user_id":247,"name":"Winston from Overwatch","steam_id":76561198267411149,"connected_time":2444000000000,"state":"active","ping":60},{"user_id":290,"name":"GrossViche","steam_id":76561198184620926,"connected_time":291000000000,"state":"active","ping":60},{"user_id":278,"name":"henrique_best","steam_id":76561199317304919,"connected_time":820000000000,"state":"active","ping":93},{"user_id":246,"name":"engineer movie night","steam_id":76561198394311697,"connected_time":2582000000000,"state":"active","ping":92},{"user_id":258,"name":"Andrea","steam_id":76561199487380678,"connected_time":2125000000000,"state":"active","ping":77}]},{"server_id":310,"name":"Uncletopia | Frankfurt | 5 | All Maps","name_short":"frk-5","host":"frk-1.de.uncletopia.com","port":27055,"enabled":true,"region":"eu","cc":"de","latitude":50.110924,"longitude":8.682127,"reserved":0,"last_update":"0001-01-01T00:00:00Z","name_a2s":"Uncletopia | Frankfurt | 5 | All Maps","protocol":17,"map":"pl_borneo","folder":"tf","game":"Team Fortress","app_id":440,"player_count":24,"max_players":24,"Bots":0,"server_type":"Dedicated","server_os":"Linux","password":true,"vac":true,"version":"7961495","steam_id":85568392924504277,"keywords":["nocrits","nodmgspread","payload","uncletopia"],"game_id":440,"stv_port":27056,"stv_name":"Uncletopia | Frankfurt | 5 | All Maps | STV","players":[{"user_id":279,"name":"Kin","steam_id":76561198161931698,"connected_time":2898000000000,"state":"active","ping":90},{"user_id":181,"name":"ehehehehehhe","steam_id":76561198044502435,"connected_time":10812000000000,"state":"active","ping":83},{"user_id":314,"name":"‚úûüòàprofesonale","steam_id":76561198049924024,"connected_time":107000000000,"state":"active","ping":113},{"user_id":315,"name":"Cagnus Marlsen","steam_id":76561198077859721,"connected_time":100000000000,"state":"active","ping":60},{"user_id":291,"name":"–µ–≥—Ä–æ—Ä –∫—Ä–∏–Ω–≥","steam_id":76561198260363387,"connected_time":1306000000000,"state":"active","ping":92},{"user_id":309,"name":"thomas3003","steam_id":76561198209860039,"connected_time":226000000000,"state":"active","ping":59},{"user_id":305,"name":"Doriian","steam_id":76561198071438810,"connected_time":417000000000,"state":"active","ping":81},{"user_id":316,"name":"RandoART","steam_id":76561198818165503,"connected_time":86000000000,"state":"active","ping":107},{"user_id":321,"name":"Dictatorial Karelian","steam_id":76561198196736457,"connected_time":70000000000,"state":"active","ping":75},{"user_id":313,"name":"Alekk","steam_id":76561198093533143,"connected_time":133000000000,"state":"active","ping":72},{"user_id":317,"name":"smookie20","steam_id":76561198435986481,"connected_time":86000000000,"state":"active","ping":61},{"user_id":293,"name":"FLYING DWARF","steam_id":76561199048614286,"connected_time":1282000000000,"state":"active","ping":107},{"user_id":307,"name":"Hussain_144","steam_id":76561198346029208,"connected_time":355000000000,"state":"active","ping":172},{"user_id":319,"name":"Krabs","steam_id":76561198161679477,"connected_time":83000000000,"state":"active","ping":55},{"user_id":306,"name":"Ryter","steam_id":76561198396279597,"connected_time":401000000000,"state":"active","ping":81},{"user_id":300,"name":"Matteo Besho","steam_id":76561199159657855,"connected_time":943000000000,"state":"active","ping":62},{"user_id":311,"name":"chrzƒÖszcz","steam_id":76561198358887237,"connected_time":203000000000,"state":"active","ping":73},{"user_id":320,"name":"dylanm0909","steam_id":76561198042433442,"connected_time":82000000000,"state":"active","ping":54},{"user_id":290,"name":"Magiccomplex","steam_id":76561199203555188,"connected_time":1316000000000,"state":"active","ping":44},{"user_id":267,"name":"AwterSix","steam_id":76561198042561678,"connected_time":3975000000000,"state":"active","ping":58},{"user_id":322,"name":"pep","steam_id":76561198207543607,"connected_time":57000000000,"state":"active","ping":65},{"user_id":168,"name":"AleXandriX","steam_id":76561198035203950,"connected_time":11705000000000,"state":"active","ping":61},{"user_id":323,"name":"c4ctus","steam_id":76561198925655488,"connected_time":50000000000,"state":"active","ping":84}]},{"server_id":311,"name":"Uncletopia | Frankfurt | 6 | All Maps","name_short":"frk-6","host":"frk-1.de.uncletopia.com","port":27065,"enabled":true,"region":"eu","cc":"de","latitude":50.110924,"longitude":8.682127,"reserved":0,"last_update":"0001-01-01T00:00:00Z","name_a2s":"Uncletopia | Frankfurt | 6 | All Maps","protocol":17,"map":"koth_lakeside_final","folder":"tf","game":"Team Fortress","app_id":440,"player_count":4,"max_players":24,"Bots":0,"server_type":"Dedicated","server_os":"Linux","password":true,"vac":true,"version":"7961495","steam_id":85568392924504278,"keywords":["cp","nocrits","nodmgspread","uncletopia"],"game_id":440,"stv_port":27066,"stv_name":"Uncletopia | Frankfurt | 6 | All Maps | STV","players":[{"user_id":21,"name":"MrX","steam_id":76561199003520265,"connected_time":2805000000000,"state":"active","ping":58},{"user_id":39,"name":"ÊØõÊ≥Ω‰∏ú gaming","steam_id":76561199049876132,"connected_time":650000000000,"state":"active","ping":46},{"user_id":40,"name":"sticks","steam_id":76561198127099299,"connected_time":78000000000,"state":"spawning","ping":62},{"user_id":41,"name":"bglaptop","steam_id":76561199465756040,"connected_time":23000000000,"state":"spawning","ping":70}]},{"server_id":23,"name":"Uncletopia | Frankfurt | 7 | Stopwatch Beta","name_short":"frk-7","host":"frk-1.de.uncletopia.com","port":27075,"enabled":true,"region":"eu","cc":"de","latitude":50.110924,"longitude":8.682127,"reserved":0,"last_update":"0001-01-01T00:00:00Z","name_a2s":"Uncletopia | Frankfurt | 7 | Stopwatch Beta","protocol":17,"map":"koth_cascade","folder":"tf","game":"Team Fortress","app_id":440,"player_count":0,"max_players":24,"Bots":0,"server_type":"Dedicated","server_os":"Linux","password":true,"vac":true,"version":"7961495","steam_id":85568392924742827,"keywords":["cp","nocrits","nodmgspread","uncletopia"],"game_id":440,"stv_port":27076,"stv_name":"Uncletopia | Frankfurt | 7 | Stopwatch Beta | STV","players":null},{"server_id":24,"name":"Uncletopia | Frankfurt | 8 | Community","name_short":"frk-8","host":"frk-1.de.uncletopia.com","port":27085,"enabled":true,"region":"eu","cc":"de","latitude":50.110924,"longitude":8.682127,"reserved":0,"last_update":"0001-01-01T00:00:00Z","name_a2s":"Uncletopia | Frankfurt | 8 | Community","protocol":17,"map":"workshop/cp_propaganda_b18.ugc1603743849","folder":"tf","game":"Team Fortress","app_id":440,"player_count":0,"max_players":24,"Bots":0,"server_type":"Dedicated","server_os":"Linux","password":true,"vac":true,"version":"7961495","steam_id":85568392924742828,"keywords":["cp","nocrits","nodmgspread","uncletopia"],"game_id":440,"stv_port":27086,"stv_name":"Uncletopia | Frankfurt | 8 | Community | STV","players":null},{"server_id":202,"name":"Uncletopia | Hong Kong | 1 | All Maps","name_short":"hgk-1","host":"hgk-1.hk.uncletopia.com","port":27015,"enabled":true,"region":"asia","cc":"hk","latitude":22.302711,"longitude":114.177216,"reserved":0,"last_update":"0001-01-01T00:00:00Z","name_a2s":"Uncletopia | Hong Kong | 1 | All Maps","protocol":17,"map":"cp_process_final","folder":"tf","game":"Team Fortress","app_id":440,"player_count":0,"max_players":24,"Bots":0,"server_type":"Dedicated","server_os":"Linux","password":true,"vac":true,"version":"7961495","steam_id":85568392924494504,"keywords":["cp","nocrits","nodmgspread","uncletopia"],"game_id":440,"stv_port":27016,"stv_name":"Uncletopia | Hong Kong | 1 | All Maps | STV","players":null},{"server_id":1,"name":"Uncletopia | Los Angeles | 1 | All Maps","name_short":"lax-1","host":"lax-1.us.uncletopia.com","port":27015,"enabled":true,"region":"us-west","cc":"us","latitude":33.94279,"longitude":-118.41004,"reserved":0,"last_update":"0001-01-01T00:00:00Z","name_a2s":"Uncletopia | Los Angeles | 1 | All Maps","protocol":17,"map":"cp_sunshine","folder":"tf","game":"Team Fortress","app_id":440,"player_count":0,"max_players":24,"Bots":0,"server_type":"Dedicated","server_os":"Linux","password":true,"vac":true,"version":"7961495","steam_id":85568392924469991,"keywords":["cp","nocrits","nodmgspread","uncletopia"],"game_id":440,"stv_port":27016,"stv_name":"Uncletopia | Los Angeles | 1 | All Maps | STV","players":null},{"server_id":112,"name":"Uncletopia | Los Angeles | 2 | All Maps","name_short":"lax-2","host":"lax-1.us.uncletopia.com","port":27025,"enabled":true,"region":"us-west","cc":"us","latitude":33.94279,"longitude":-118.41004,"reserved":0,"last_update":"0001-01-01T00:00:00Z","name_a2s":"Uncletopia | Los Angeles | 2 | All Maps","protocol":17,"map":"pl_borneo","folder":"tf","game":"Team Fortress","app_id":440,"player_count":0,"max_players":24,"Bots":0,"server_type":"Dedicated","server_os":"Linux","password":true,"vac":true,"version":"7961495","steam_id":85568392924469992,"keywords":["nocrits","nodmgspread","payload","uncletopia"],"game_id":440,"stv_port":27026,"stv_name":"Uncletopia | Los Angeles | 2 | All Maps | STV","players":null},{"server_id":324,"name":"Uncletopia | Los Angeles | 3 | All Maps","name_short":"lax-3","host":"lax-1.us.uncletopia.com","port":27035,"enabled":true,"region":"us-west","cc":"us","latitude":33.94279,"longitude":-118.41004,"reserved":0,"last_update":"0001-01-01T00:00:00Z","name_a2s":"Uncletopia | Los Angeles | 3 | All Maps","protocol":17,"map":"cp_process_final","folder":"tf","game":"Team Fortress","app_id":440,"player_count":0,"max_players":24,"Bots":0,"server_type":"Dedicated","server_os":"Linux","password":true,"vac":true,"version":"7961495","steam_id":85568392924510198,"keywords":["cp","nocrits","nodmgspread","uncletopia"],"game_id":440,"stv_port":27036,"stv_name":"Uncletopia | Los Angeles | 3 | All Maps | STV","players":null},{"server_id":25,"name":"Uncletopia | Los Angeles | 4 | Stopwatch Beta","name_short":"lax-4","host":"lax-1.us.uncletopia.com","port":27045,"enabled":true,"region":"us-west","cc":"us","latitude":33.94279,"longitude":-118.41004,"reserved":0,"last_update":"0001-01-01T00:00:00Z","name_a2s":"Uncletopia | Los Angeles | 4 | Stopwatch Beta","protocol":17,"map":"pl_upward","folder":"tf","game":"Team Fortress","app_id":440,"player_count":0,"max_players":24,"Bots":0,"server_type":"Dedicated","server_os":"Linux","password":true,"vac":true,"version":"7961495","steam_id":85568392924510199,"keywords":["nocrits","nodmgspread","payload","uncletopia"],"game_id":440,"stv_port":27046,"stv_name":"Uncletopia | Los Angeles | 4 | Stopwatch Beta | STV","players":null},{"server_id":11,"name":"Uncletopia | London | 1 | All Maps","name_short":"lon-1","host":"lon-1.uk.uncletopia.com","port":27015,"enabled":true,"region":"eu","cc":"gb","latitude":51.509865,"longitude":-0.118092,"reserved":0,"last_update":"0001-01-01T00:00:00Z","name_a2s":"Uncletopia | London | 1 | All Maps","protocol":17,"map":"koth_cascade","folder":"tf","game":"Team Fortress","app_id":440,"player_count":24,"max_players":24,"Bots":0,"server_type":"Dedicated","server_os":"Linux","password":true,"vac":true,"version":"7961495","steam_id":85568392924367362,"keywords":["cp","nocrits","nodmgspread","uncletopia"],"game_id":440,"stv_port":27016,"stv_name":"Uncletopia | London | 1 | All Maps | STV","players":[{"user_id":374,"name":"Topia","steam_id":76561198163571788,"connected_time":318000000000,"state":"active","ping":81},{"user_id":368,"name":"silicon based life form","steam_id":76561199127121346,"connected_time":810000000000,"state":"active","ping":56},{"user_id":354,"name":"Vilhelm","steam_id":76561198157521187,"connected_time":967000000000,"state":"active","ping":88},{"user_id":357,"name":"Carrot Arc","steam_id":76561198164957006,"connected_time":948000000000,"state":"active","ping":84},{"user_id":364,"name":"Nessieling","steam_id":76561198083556891,"connected_time":849000000000,"state":"active","ping":78},{"user_id":330,"name":"rapsterdude","steam_id":76561199388597561,"connected_time":3190000000000,"state":"active","ping":55},{"user_id":284,"name":"Romultra","steam_id":76561198354105082,"connected_time":5859000000000,"state":"active","ping":52},{"user_id":356,"name":"J√∏rn","steam_id":76561199073257952,"connected_time":963000000000,"state":"active","ping":72},{"user_id":370,"name":"TOMMY@monkehhhh¬¥StAyWiLd","steam_id":76561199012687477,"connected_time":758000000000,"state":"active","ping":79},{"user_id":358,"name":"$VIFT $NEAKY","steam_id":76561198061233344,"connected_time":947000000000,"state":"active","ping":47},{"user_id":338,"name":"ÔΩÑÔΩÖÔΩìÔΩãÔΩíÔΩÅÔΩô","steam_id":76561198805536170,"connected_time":2757000000000,"state":"active","ping":89},{"user_id":350,"name":"Dapper","steam_id":76561198081694974,"connected_time":1170000000000,"state":"active","ping":45},{"user_id":362,"name":"Morty","steam_id":76561198227437620,"connected_time":892000000000,"state":"active","ping":82},{"user_id":369,"name":"Kekster","steam_id":76561198302448192,"connected_time":795000000000,"state":"active","ping":28},{"user_id":302,"name":"Snake-chan","steam_id":76561199044755854,"connected_time":4530000000000,"state":"active","ping":81},{"user_id":351,"name":"Registered Sex Defender","steam_id":76561198039836567,"connected_time":1130000000000,"state":"active","ping":46},{"user_id":359,"name":"Kenny","steam_id":76561198070731150,"connected_time":938000000000,"state":"active","ping":99},{"user_id":326,"name":"Tynnyri","steam_id":76561198075516541,"connected_time":3304000000000,"state":"active","ping":108},{"user_id":360,"name":"Larry","steam_id":76561198051333590,"connected_time":922000000000,"state":"active","ping":107},{"user_id":361,"name":"Quuri_","steam_id":76561198155780752,"connected_time":901000000000,"state":"active","ping":76},{"user_id":175,"name":"krayy (she/her)","steam_id":76561198035037830,"connected_time":8811000000000,"state":"active","ping":58},{"user_id":372,"name":"jermany","steam_id":76561198126599355,"connected_time":452000000000,"state":"active","ping":76},{"user_id":363,"name":"someone","steam_id":76561199471582243,"connected_time":871000000000,"state":"active","ping":101},{"user_id":342,"name":"Croy","steam_id":76561197972552579,"connected_time":2665000000000,"state":"active","ping":49}]},{"server_id":114,"name":"Uncletopia | London | 2 | All Maps","name_short":"lon-2","host":"lon-1.uk.uncletopia.com","port":27025,"enabled":true,"region":"eu","cc":"gb","latitude":51.509865,"longitude":-0.118092,"reserved":0,"last_update":"0001-01-01T00:00:00Z","name_a2s":"Uncletopia | London | 2 | All Maps","protocol":17,"map":"pl_badwater","folder":"tf","game":"Team Fortress","app_id":440,"player_count":24,"max_players":24,"Bots":0,"server_type":"Dedicated","server_os":"Linux","password":true,"vac":true,"version":"7961495","steam_id":85568392924470941,"keywords":["nocrits","nodmgspread","payload","uncletopia"],"game_id":440,"stv_port":27026,"stv_name":"Uncletopia | London | 2 | All Maps | STV","players":[{"user_id":163,"name":"c0mpaz","steam_id":76561198165292894,"connected_time":1067000000000,"state":"active","ping":77},{"user_id":81,"name":"RealManiHACK","steam_id":76561198408081068,"connected_time":5849000000000,"state":"active","ping":75},{"user_id":82,"name":"s a i","steam_id":76561197970379754,"connected_time":5717000000000,"state":"active","ping":66},{"user_id":162,"name":"Rask","steam_id":76561198052934944,"connected_time":1137000000000,"state":"active","ping":90},{"user_id":164,"name":"soar","steam_id":76561198010662796,"connected_time":1064000000000,"state":"active","ping":50},{"user_id":165,"name":"whip","steam_id":76561198177059485,"connected_time":1047000000000,"state":"active","ping":62},{"user_id":119,"name":"Mr.Duck","steam_id":76561197983710667,"connected_time":3187000000000,"state":"active","ping":86},{"user_id":175,"name":"DwoaC","steam_id":76561198005686118,"connected_time":771000000000,"state":"active","ping":83},{"user_id":188,"name":"SnowShot","steam_id":76561198004766638,"connected_time":123000000000,"state":"active","ping":76},{"user_id":155,"name":"Vitamin Weee","steam_id":76561199183937747,"connected_time":1480000000000,"state":"active","ping":98},{"user_id":177,"name":"Swift","steam_id":76561197998799889,"connected_time":644000000000,"state":"active","ping":45},{"user_id":178,"name":"Solymr ibn Wali Barad","steam_id":76561198044008976,"connected_time":642000000000,"state":"active","ping":73},{"user_id":134,"name":"Spik√†","steam_id":76561197999582114,"connected_time":2573000000000,"state":"active","ping":75},{"user_id":168,"name":"jge","steam_id":76561198123186387,"connected_time":1012000000000,"state":"active","ping":60},{"user_id":176,"name":"RLCrazyCat3","steam_id":76561197983757878,"connected_time":652000000000,"state":"active","ping":68},{"user_id":169,"name":"charnock1208","steam_id":76561199090127017,"connected_time":986000000000,"state":"active","ping":60},{"user_id":186,"name":"bob budowniczy#safetf2","steam_id":76561199220053518,"connected_time":388000000000,"state":"active","ping":223},{"user_id":154,"name":"Svengelska #LHF","steam_id":76561198340886625,"connected_time":1503000000000,"state":"active","ping":96},{"user_id":187,"name":"Osqq :s","steam_id":76561198075465106,"connected_time":359000000000,"state":"active","ping":89},{"user_id":179,"name":"LSKi","steam_id":76561198215470228,"connected_time":639000000000,"state":"active","ping":73},{"user_id":183,"name":"leonardini.w","steam_id":76561199097963071,"connected_time":470000000000,"state":"active","ping":106},{"user_id":170,"name":"Penis Contortionist","steam_id":76561198073663784,"connected_time":970000000000,"state":"active","ping":41},{"user_id":182,"name":"najed","steam_id":76561198107767664,"connected_time":487000000000,"state":"active","ping":48},{"user_id":185,"name":"–Å–∂ –®—ç–¥–æ—É","steam_id":76561198323622980,"connected_time":397000000000,"state":"active","ping":88}]},{"server_id":320,"name":"Uncletopia | London | 3 | All Maps","name_short":"lon-3","host":"lon-1.uk.uncletopia.com","port":27035,"enabled":true,"region":"eu","cc":"gb","latitude":51.509865,"longitude":-0.118092,"reserved":0,"last_update":"0001-01-01T00:00:00Z","name_a2s":"Uncletopia | London | 3 | All Maps","protocol":17,"map":"pl_badwater","folder":"tf","game":"Team Fortress","app_id":440,"player_count":24,"max_players":24,"Bots":0,"server_type":"Dedicated","server_os":"Linux","password":true,"vac":true,"version":"7961495","steam_id":85568392924510192,"keywords":["nocrits","nodmgspread","payload","uncletopia"],"game_id":440,"stv_port":27036,"stv_name":"Uncletopia | London | 3 | All Maps | STV","players":[{"user_id":86,"name":"robu","steam_id":76561198113874116,"connected_time":782000000000,"state":"active","ping":85},{"user_id":130,"name":"Locker-Room Enjoyer","steam_id":76561199122613225,"connected_time":57000000000,"state":"spawning","ping":175},{"user_id":72,"name":"Swimpz","steam_id":76561198137479945,"connected_time":1411000000000,"state":"active","ping":90},{"user_id":85,"name":"SirCyu","steam_id":76561198279703610,"connected_time":821000000000,"state":"active","ping":57},{"user_id":49,"name":"nyanezt","steam_id":76561198253734265,"connected_time":2055000000000,"state":"active","ping":96},{"user_id":108,"name":"Gryoss","steam_id":76561197999837111,"connected_time":351000000000,"state":"active","ping":110},{"user_id":106,"name":"noot","steam_id":76561198148074472,"connected_time":391000000000,"state":"active","ping":47},{"user_id":133,"name":"smokey","steam_id":76561199121484411,"connected_time":4000000000,"state":"spawning","ping":44},{"user_id":80,"name":"Mike","steam_id":76561198228455736,"connected_time":959000000000,"state":"active","ping":50},{"user_id":126,"name":"Anzu","steam_id":76561198043953503,"connected_time":157000000000,"state":"active","ping":74},{"user_id":73,"name":"Gibus enjoyer","steam_id":76561198843396821,"connected_time":1364000000000,"state":"active","ping":86},{"user_id":88,"name":"Joe","steam_id":76561198061717026,"connected_time":768000000000,"state":"active","ping":72},{"user_id":92,"name":"mommyüñ§x_x","steam_id":76561199204257697,"connected_time":737000000000,"state":"active","ping":45},{"user_id":102,"name":"mothra","steam_id":76561198028444359,"connected_time":527000000000,"state":"active","ping":46},{"user_id":94,"name":"Uncle Sam","steam_id":76561197968551107,"connected_time":718000000000,"state":"active","ping":109},{"user_id":78,"name":"mea culpa","steam_id":76561198064115286,"connected_time":1157000000000,"state":"active","ping":73},{"user_id":67,"name":"Malinok","steam_id":76561198025681131,"connected_time":1728000000000,"state":"active","ping":153},{"user_id":62,"name":"Bottle O' Scrumpy","steam_id":76561199244250562,"connected_time":1794000000000,"state":"active","ping":80},{"user_id":77,"name":"gnarp gnap üëΩ","steam_id":76561198097712283,"connected_time":1171000000000,"state":"active","ping":84},{"user_id":95,"name":"Mophead","steam_id":76561198161328553,"connected_time":714000000000,"state":"active","ping":44},{"user_id":68,"name":"AnalBypass1989","steam_id":76561198052356557,"connected_time":1695000000000,"state":"active","ping":67},{"user_id":109,"name":"Hadmund Gaming","steam_id":76561198119454822,"connected_time":345000000000,"state":"active","ping":45},{"user_id":71,"name":"Sylvanas","steam_id":76561198154904165,"connected_time":1667000000000,"state":"active","ping":115},{"user_id":118,"name":"ra ra raz","steam_id":76561198147277460,"connected_time":266000000000,"state":"active","ping":72}]},{"server_id":321,"name":"Uncletopia | London | 4 | All Maps","name_short":"lon-4","host":"lon-1.uk.uncletopia.com","port":27045,"enabled":true,"region":"eu","cc":"gb","latitude":51.509865,"longitude":-0.118092,"reserved":0,"last_update":"0001-01-01T00:00:00Z","name_a2s":"Uncletopia | London | 4 | All Maps","protocol":17,"map":"ctf_2fort","folder":"tf","game":"Team Fortress","app_id":440,"player_count":23,"max_players":24,"Bots":0,"server_type":"Dedicated","server_os":"Linux","password":true,"vac":true,"version":"7961495","steam_id":85568392924510193,"keywords":["ctf","nocrits","nodmgspread","uncletopia"],"game_id":440,"stv_port":27046,"stv_name":"Uncletopia | London | 4 | All Maps | STV","players":[{"user_id":229,"name":"fartcollector","steam_id":76561198048304703,"connected_time":973000000000,"state":"active","ping":45},{"user_id":230,"name":"artonzhun","steam_id":76561198259104010,"connected_time":963000000000,"state":"active","ping":81},{"user_id":240,"name":"ZackInAShack","steam_id":76561198986754793,"connected_time":610000000000,"state":"active","ping":55},{"user_id":241,"name":"Mono","steam_id":76561198114569493,"connected_time":578000000000,"state":"active","ping":70},{"user_id":233,"name":"wunderrabbi","steam_id":76561198101210970,"connected_time":952000000000,"state":"active","ping":97},{"user_id":215,"name":"CobBrick","steam_id":76561199058898091,"connected_time":1668000000000,"state":"active","ping":124},{"user_id":234,"name":"Woman (Real)","steam_id":76561199151823932,"connected_time":913000000000,"state":"active","ping":84},{"user_id":242,"name":"nug","steam_id":76561198055396568,"connected_time":573000000000,"state":"active","ping":50},{"user_id":141,"name":"Boku no Pico best anime","steam_id":76561199195214616,"connected_time":6278000000000,"state":"active","ping":54},{"user_id":197,"name":"Heavy","steam_id":76561198988445453,"connected_time":2165000000000,"state":"active","ping":57},{"user_id":94,"name":"gronk","steam_id":76561199031539961,"connected_time":8669000000000,"state":"active","ping":57},{"user_id":217,"name":"Creative","steam_id":76561198835034247,"connected_time":1606000000000,"state":"active","ping":89},{"user_id":235,"name":"Bucket Face","steam_id":76561198846075989,"connected_time":891000000000,"state":"active","ping":54},{"user_id":209,"name":"enxy","steam_id":76561198100469355,"connected_time":1911000000000,"state":"active","ping":88},{"user_id":222,"name":"zipto","steam_id":76561198100492944,"connected_time":1439000000000,"state":"active","ping":81},{"user_id":236,"name":"TerraCole614","steam_id":76561198122842407,"connected_time":881000000000,"state":"active","ping":163},{"user_id":226,"name":"The Manager of Sex","steam_id":76561198385989487,"connected_time":1271000000000,"state":"active","ping":97},{"user_id":142,"name":"Male_07","steam_id":76561198079411460,"connected_time":6097000000000,"state":"active","ping":53},{"user_id":224,"name":"Augustinel","steam_id":76561198879389948,"connected_time":1384000000000,"state":"active","ping":96},{"user_id":183,"name":"professional nonprofessional","steam_id":76561199200442395,"connected_time":3018000000000,"state":"active","ping":85},{"user_id":237,"name":"fence_","steam_id":76561198150386379,"connected_time":880000000000,"state":"active","ping":44},{"user_id":239,"name":"Asat","steam_id":76561198862727465,"connected_time":698000000000,"state":"active","ping":56},{"user_id":214,"name":"UnexpectedItemInBaggingArea","steam_id":76561198381749449,"connected_time":1745000000000,"state":"active","ping":138}]},{"server_id":21,"name":"Uncletopia | London | 5 | All Maps","name_short":"lon-5","host":"lon-1.uk.uncletopia.com","port":27055,"enabled":true,"region":"eu","cc":"gb","latitude":51.509865,"longitude":-0.118092,"reserved":0,"last_update":"0001-01-01T00:00:00Z","name_a2s":"Uncletopia | London | 5 | All Maps","protocol":17,"map":"ctf_2fort","folder":"tf","game":"Team Fortress","app_id":440,"player_count":3,"max_players":24,"Bots":0,"server_type":"Dedicated","server_os":"Linux","password":true,"vac":true,"version":"7961495","steam_id":85568392924742829,"keywords":["ctf","nocrits","nodmgspread","uncletopia"],"game_id":440,"stv_port":27056,"stv_name":"Uncletopia | London | 5 | All Maps | STV","players":[{"user_id":19,"name":"Spectralius","steam_id":76561198111455006,"connected_time":2138000000000,"state":"active","ping":64},{"user_id":22,"name":"sycodog86","steam_id":76561199124026213,"connected_time":518000000000,"state":"active","ping":57},{"user_id":24,"name":"TheTallBOY","steam_id":76561198200506497,"connected_time":314000000000,"state":"active","ping":78}]},{"server_id":22,"name":"Uncletopia | London | 6 | All Maps","name_short":"lon-6","host":"lon-1.uk.uncletopia.com","port":27065,"enabled":true,"region":"eu","cc":"gb","latitude":51.509865,"longitude":-0.118092,"reserved":0,"last_update":"0001-01-01T00:00:00Z","name_a2s":"Uncletopia | London | 6 | All Maps","protocol":17,"map":"pl_pier","folder":"tf","game":"Team Fortress","app_id":440,"player_count":22,"max_players":24,"Bots":0,"server_type":"Dedicated","server_os":"Linux","password":true,"vac":true,"version":"7961495","steam_id":85568392924742830,"keywords":["nocrits","nodmgspread","payload","uncletopia"],"game_id":440,"stv_port":27066,"stv_name":"Uncletopia | London | 6 | All Maps | STV","players":[{"user_id":296,"name":"[503. ]captain swiftfingers","steam_id":76561198043684517,"connected_time":232000000000,"state":"spawning","ping":59},{"user_id":290,"name":"mbx8_rt","steam_id":76561198025742526,"connected_time":299000000000,"state":"active","ping":58},{"user_id":245,"name":"xXREALgamer3Xx‚Ñ¢‚Åß‚Åßlol","steam_id":76561198236494856,"connected_time":2973000000000,"state":"active","ping":52},{"user_id":283,"name":"Storm's Foreshadow","steam_id":76561198098462526,"connected_time":921000000000,"state":"active","ping":74},{"user_id":280,"name":"jt7","steam_id":76561198073655162,"connected_time":1224000000000,"state":"active","ping":76},{"user_id":299,"name":"Lord Lem0ns!","steam_id":76561198323174893,"connected_time":36000000000,"state":"active","ping":81},{"user_id":300,"name":"Geoff the Oracle","steam_id":76561198053759965,"connected_time":34000000000,"state":"active","ping":59},{"user_id":291,"name":"MeatBall","steam_id":76561199055196261,"connected_time":296000000000,"state":"active","ping":141},{"user_id":252,"name":"mook","steam_id":76561198175543442,"connected_time":2309000000000,"state":"active","ping":74},{"user_id":276,"name":"Sh3ba Spaniel","steam_id":76561198047412394,"connected_time":1327000000000,"state":"active","ping":158},{"user_id":223,"name":"Monky","steam_id":76561198167413545,"connected_time":3901000000000,"state":"active","ping":54},{"user_id":209,"name":"ùï∏ùñÜùñëùñäùñã","steam_id":76561198999963900,"connected_time":5404000000000,"state":"active","ping":138},{"user_id":284,"name":"flr","steam_id":76561198249327786,"connected_time":899000000000,"state":"active","ping":60},{"user_id":288,"name":"Palex","steam_id":76561198093219465,"connected_time":410000000000,"state":"active","ping":44},{"user_id":263,"name":"A Table","steam_id":76561198130963095,"connected_time":2091000000000,"state":"active","ping":63},{"user_id":294,"name":"Tomfool","steam_id":76561197993256481,"connected_time":248000000000,"state":"active","ping":84},{"user_id":237,"name":"Noob_with_source","steam_id":76561198870362103,"connected_time":3422000000000,"state":"active","ping":57},{"user_id":287,"name":"P1nnnnnnnn","steam_id":76561198382749493,"connected_time":813000000000,"state":"active","ping":89},{"user_id":258,"name":"night.s","steam_id":76561198326287823,"connected_time":2265000000000,"state":"active","ping":80},{"user_id":292,"name":"headsh‚äït","steam_id":76561199121285443,"connected_time":287000000000,"state":"active","ping":119},{"user_id":295,"name":"dshainre","steam_id":76561198143300048,"connected_time":239000000000,"state":"active","ping":52},{"user_id":289,"name":"Axord","steam_id":76561199289652176,"connected_time":369000000000,"state":"active","ping":64}]},{"server_id":40,"name":"Uncletopia | London | 7 | No Payload","name_short":"lon-7","host":"lon-1.uk.uncletopia.com","port":27075,"enabled":true,"region":"eu","cc":"gb","latitude":51.509865,"longitude":-0.118092,"reserved":0,"last_update":"0001-01-01T00:00:00Z","name_a2s":"Uncletopia | London | 7 | No Payload","protocol":17,"map":"koth_harvest_final","folder":"tf","game":"Team Fortress","app_id":440,"player_count":24,"max_players":24,"Bots":0,"server_type":"Dedicated","server_os":"Linux","password":true,"vac":true,"version":"7961495","steam_id":85568392924964314,"keywords":["cp","nocrits","nodmgspread","uncletopia"],"game_id":440,"stv_port":27076,"stv_name":"Uncletopia | London | 7 | No Payload | STV","players":[{"user_id":226,"name":"≈†tƒõp√°n","steam_id":76561198275742101,"connected_time":157000000000,"state":"active","ping":68},{"user_id":205,"name":"Mish","steam_id":76561198302973642,"connected_time":1522000000000,"state":"active","ping":84},{"user_id":216,"name":"Leffrey","steam_id":76561198231587928,"connected_time":787000000000,"state":"active","ping":72},{"user_id":218,"name":"Lorenzo Lovers","steam_id":76561198073973581,"connected_time":612000000000,"state":"active","ping":89},{"user_id":217,"name":"SmearierGold7","steam_id":76561198065689410,"connected_time":636000000000,"state":"active","ping":167},{"user_id":179,"name":"Zembis","steam_id":76561198008017918,"connected_time":3210000000000,"state":"active","ping":92},{"user_id":180,"name":"God's Goofiest Goober","steam_id":76561198103175187,"connected_time":3199000000000,"state":"active","ping":72},{"user_id":167,"name":"protoss gravy boat","steam_id":76561198105978107,"connected_time":3591000000000,"state":"active","ping":87},{"user_id":219,"name":"ZHMIL-17","steam_id":76561198065220818,"connected_time":545000000000,"state":"active","ping":102},{"user_id":99,"name":"Silvestro","steam_id":76561198021660066,"connected_time":7099000000000,"state":"active","ping":87},{"user_id":210,"name":"Û†Ä°Û†Ä°","steam_id":76561198199523126,"connected_time":1232000000000,"state":"active","ping":75},{"user_id":206,"name":"Shalalala","steam_id":76561198088707470,"connected_time":1496000000000,"state":"active","ping":47},{"user_id":220,"name":"DoctorTopLeL","steam_id":76561198088533595,"connected_time":528000000000,"state":"active","ping":104},{"user_id":212,"name":"pad6z23h8s","steam_id":76561198880756741,"connected_time":1045000000000,"state":"active","ping":86},{"user_id":225,"name":"Pƒ¨≈Å«æ≈¶","steam_id":76561198175090465,"connected_time":347000000000,"state":"active","ping":103},{"user_id":189,"name":"Martt","steam_id":76561198067363871,"connected_time":2845000000000,"state":"active","ping":57},{"user_id":227,"name":"Obama","steam_id":76561198094993151,"connected_time":5000000000,"state":"spawning","ping":77},{"user_id":213,"name":"3L","steam_id":76561198007208996,"connected_time":1024000000000,"state":"active","ping":53},{"user_id":185,"name":"‚ù§G a n K","steam_id":76561199125995565,"connected_time":3082000000000,"state":"active","ping":66},{"user_id":198,"name":"JAZZ COMMANDO","steam_id":76561198031766068,"connected_time":2199000000000,"state":"active","ping":48},{"user_id":222,"name":"‚óáKekovichka‚óá","steam_id":76561198339777174,"connected_time":400000000000,"state":"active","ping":102},{"user_id":223,"name":"Wubba","steam_id":76561198409725218,"connected_time":396000000000,"state":"active","ping":45},{"user_id":209,"name":"eMcP!","steam_id":76561198382509396,"connected_time":1276000000000,"state":"active","ping":53},{"user_id":224,"name":"Redline","steam_id":76561198336794034,"connected_time":378000000000,"state":"active","ping":136}]},{"server_id":41,"name":"Uncletopia | London | 8 | Community","name_short":"lon-8","host":"lon-1.uk.uncletopia.com","port":27085,"enabled":true,"region":"eu","cc":"gb","latitude":51.509865,"longitude":-0.118092,"reserved":0,"last_update":"0001-01-01T00:00:00Z","name_a2s":"Uncletopia | London | 8 | Community","protocol":17,"map":"workshop/cp_fulgur_rc2a.ugc2068252300","folder":"tf","game":"Team Fortress","app_id":440,"player_count":0,"max_players":24,"Bots":0,"server_type":"Dedicated","server_os":"Linux","password":true,"vac":true,"version":"7961495","steam_id":85568392924964315,"keywords":["cp","nocrits","nodmgspread","uncletopia"],"game_id":440,"stv_port":27086,"stv_name":"Uncletopia | London | 8 | Community | STV","players":null},{"server_id":300,"name":"Uncletopia | Montr√©al | 1 | All Maps","name_short":"mtl-1","host":"mtl-1.ca.uncletopia.com","port":27015,"enabled":true,"region":"us-east","cc":"ca","latitude":45.50889,"longitude":-73.56167,"reserved":0,"last_update":"0001-01-01T00:00:00Z","name_a2s":"Uncletopia | Montr√©al | 1 | All Maps","protocol":17,"map":"pl_swiftwater_final1","folder":"tf","game":"Team Fortress","app_id":440,"player_count":3,"max_players":24,"Bots":0,"server_type":"Dedicated","server_os":"Linux","password":true,"vac":true,"version":"7961495","steam_id":85568392924500087,"keywords":["nocrits","nodmgspread","payload","uncletopia"],"game_id":440,"stv_port":27016,"stv_name":"Uncletopia | Montr√©al | 1 | All Maps | STV","players":[{"user_id":3,"name":"J3FF","steam_id":76561199209782011,"connected_time":193000000000,"state":"active","ping":67},{"user_id":5,"name":"griffin","steam_id":76561199124109776,"connected_time":162000000000,"state":"active","ping":62},{"user_id":6,"name":"lachlanoptional","steam_id":76561199492629042,"connected_time":143000000000,"state":"active","ping":58}]},{"server_id":301,"name":"Uncletopia | Montr√©al | 2 | All Maps","name_short":"mtl-2","host":"mtl-1.ca.uncletopia.com","port":27025,"enabled":true,"region":"us-east","cc":"ca","latitude":45.50889,"longitude":-73.56167,"reserved":0,"last_update":"0001-01-01T00:00:00Z","name_a2s":"Uncletopia | Montr√©al | 2 | All Maps","protocol":17,"map":"cp_dustbowl","folder":"tf","game":"Team Fortress","app_id":440,"player_count":0,"max_players":24,"Bots":0,"server_type":"Dedicated","server_os":"Linux","password":true,"vac":true,"version":"7961495","steam_id":85568392924500088,"keywords":["cp","nocrits","nodmgspread","uncletopia"],"game_id":440,"stv_port":27026,"stv_name":"Uncletopia | Montr√©al | 2 | All Maps | STV","players":null},{"server_id":302,"name":"Uncletopia | Montr√©al | 3 | All Maps","name_short":"mtl-3","host":"mtl-1.ca.uncletopia.com","port":27035,"enabled":true,"region":"us-east","cc":"ca","latitude":45.50889,"longitude":-73.56167,"reserved":0,"last_update":"0001-01-01T00:00:00Z","name_a2s":"Uncletopia | Montr√©al | 3 | All Maps","protocol":17,"map":"koth_cascade","folder":"tf","game":"Team Fortress","app_id":440,"player_count":0,"max_players":24,"Bots":0,"server_type":"Dedicated","server_os":"Linux","password":true,"vac":true,"version":"7961495","steam_id":85568392924500089,"keywords":["cp","nocrits","nodmgspread","uncletopia"],"game_id":440,"stv_port":27036,"stv_name":"Uncletopia | Montr√©al | 3 | All Maps | STV","players":null},{"server_id":303,"name":"Uncletopia | Montr√©al | 4 | No Payload","name_short":"mtl-4","host":"mtl-1.ca.uncletopia.com","port":27045,"enabled":true,"region":"us-east","cc":"ca","latitude":45.50889,"longitude":-73.56167,"reserved":0,"last_update":"0001-01-01T00:00:00Z","name_a2s":"Uncletopia | Montr√©al | 4 | No Payload","protocol":17,"map":"koth_lakeside_final","folder":"tf","game":"Team Fortress","app_id":440,"player_count":0,"max_players":24,"Bots":0,"server_type":"Dedicated","server_os":"Linux","password":true,"vac":true,"version":"7961495","steam_id":85568392924500090,"keywords":["cp","nocrits","nodmgspread","uncletopia"],"game_id":440,"stv_port":27046,"stv_name":"Uncletopia | Montr√©al | 4 | No Payload | STV","players":null},{"server_id":13,"name":"Uncletopia | New York City | 1 | All Maps","name_short":"nyc-1","host":"nyc-1.us.uncletopia.com","port":27015,"enabled":true,"region":"us-east","cc":"us","latitude":40.73061,"longitude":-73.93524,"reserved":0,"last_update":"0001-01-01T00:00:00Z","name_a2s":"Uncletopia | New York City | 1 | All Maps","protocol":17,"map":"koth_cascade","folder":"tf","game":"Team Fortress","app_id":440,"player_count":24,"max_players":24,"Bots":0,"server_type":"Dedicated","server_os":"Linux","password":true,"vac":true,"version":"7961495","steam_id":85568392924469993,"keywords":["cp","nocrits","nodmgspread","uncletopia"],"game_id":440,"stv_port":27016,"stv_name":"Uncletopia | New York City | 1 | All Maps | STV","players":[{"user_id":60,"name":"Bother","steam_id":76561198336750909,"connected_time":108000000000,"state":"active","ping":40},{"user_id":17,"name":"Blitzy","steam_id":76561198149472890,"connected_time":2579000000000,"state":"active","ping":97},{"user_id":51,"name":"laddie","steam_id":76561198063029230,"connected_time":1115000000000,"state":"active","ping":53},{"user_id":48,"name":"Timon's high on crack cocaine!","steam_id":76561198180396430,"connected_time":1151000000000,"state":"active","ping":56},{"user_id":47,"name":"Artgrendadier","steam_id":76561198063305359,"connected_time":1187000000000,"state":"active","ping":59},{"user_id":54,"name":"Feces","steam_id":76561198380219187,"connected_time":568000000000,"state":"active","ping":66},{"user_id":61,"name":"Les Claypool","steam_id":76561198237827742,"connected_time":87000000000,"state":"active","ping":46},{"user_id":53,"name":"Acro","steam_id":76561198092451804,"connected_time":802000000000,"state":"active","ping":77},{"user_id":55,"name":"the pigeonkicker","steam_id":76561199078815637,"connected_time":413000000000,"state":"active","ping":62},{"user_id":32,"name":"Mika  Laakso","steam_id":76561198115035132,"connected_time":1650000000000,"state":"active","ping":74},{"user_id":33,"name":"Deph Pyro","steam_id":76561198065033546,"connected_time":1618000000000,"state":"active","ping":84},{"user_id":34,"name":"Spike Bones","steam_id":76561198234926120,"connected_time":1617000000000,"state":"active","ping":87},{"user_id":58,"name":"DJ Absolute Garbage","steam_id":76561198068000747,"connected_time":117000000000,"state":"active","ping":47},{"user_id":36,"name":"RileyNiko","steam_id":76561198162093639,"connected_time":1596000000000,"state":"active","ping":46},{"user_id":37,"name":"{{{{{{{{{{{{E}}}}}}}}}}}}}}}}}}","steam_id":76561199492727315,"connected_time":1572000000000,"state":"active","ping":35},{"user_id":39,"name":"Pixeled","steam_id":76561198088917077,"connected_time":1545000000000,"state":"active","ping":106},{"user_id":40,"name":"rivera","steam_id":76561198051058706,"connected_time":1528000000000,"state":"active","ping":45},{"user_id":57,"name":"FROYO Yu Darvish","steam_id":76561198379421700,"connected_time":176000000000,"state":"active","ping":57},{"user_id":42,"name":"Generator","steam_id":76561198011762257,"connected_time":1468000000000,"state":"active","ping":144},{"user_id":50,"name":"b","steam_id":76561198208094321,"connected_time":1127000000000,"state":"active","ping":96},{"user_id":45,"name":"I am the traitor","steam_id":76561198012072536,"connected_time":1360000000000,"state":"active","ping":55},{"user_id":49,"name":"toastman","steam_id":76561198207073088,"connected_time":1147000000000,"state":"active","ping":100},{"user_id":59,"name":"Mr. Boogedy","steam_id":76561198963180673,"connected_time":117000000000,"state":"active","ping":55}]},{"server_id":14,"name":"Uncletopia | New York City | 2 | All Maps","name_short":"nyc-2","host":"nyc-1.us.uncletopia.com","port":27025,"enabled":true,"region":"us-east","cc":"us","latitude":40.73061,"longitude":-73.93524,"reserved":0,"last_update":"0001-01-01T00:00:00Z","name_a2s":"Uncletopia | New York City | 2 | All Maps","protocol":17,"map":"pl_frontier_final","folder":"tf","game":"Team Fortress","app_id":440,"player_count":0,"max_players":24,"Bots":0,"server_type":"Dedicated","server_os":"Linux","password":true,"vac":true,"version":"7961495","steam_id":85568392924469994,"keywords":["nocrits","nodmgspread","payload","uncletopia"],"game_id":440,"stv_port":27026,"stv_name":"Uncletopia | New York City | 2 | All Maps | STV","players":null},{"server_id":15,"name":"Uncletopia | New York City | 3 | Stopwatch Beta","name_short":"nyc-3","host":"nyc-1.us.uncletopia.com","port":27035,"enabled":true,"region":"us-east","cc":"us","latitude":40.73061,"longitude":-73.93524,"reserved":0,"last_update":"0001-01-01T00:00:00Z","name_a2s":"Uncletopia | New York City | 3 | Stopwatch Beta","protocol":17,"map":"cp_mountainlab","folder":"tf","game":"Team Fortress","app_id":440,"player_count":0,"max_players":24,"Bots":0,"server_type":"Dedicated","server_os":"Linux","password":true,"vac":true,"version":"7961495","steam_id":85568392924742820,"keywords":["cp","nocrits","nodmgspread","uncletopia"],"game_id":440,"stv_port":27036,"stv_name":"Uncletopia | New York City | 3 | Stopwatch Beta | STV","players":null},{"server_id":16,"name":"Uncletopia | New York City | 4 | Community","name_short":"nyc-4","host":"nyc-1.us.uncletopia.com","port":27045,"enabled":true,"region":"us-east","cc":"us","latitude":40.73061,"longitude":-73.93524,"reserved":0,"last_update":"0001-01-01T00:00:00Z","name_a2s":"Uncletopia | New York City | 4 | Community","protocol":17,"map":"koth_lakeside_final","folder":"tf","game":"Team Fortress","app_id":440,"player_count":4,"max_players":24,"Bots":0,"server_type":"Dedicated","server_os":"Linux","password":true,"vac":true,"version":"7961495","steam_id":85568392924742821,"keywords":["cp","nocrits","nodmgspread","uncletopia"],"game_id":440,"stv_port":27046,"stv_name":"Uncletopia | New York City | 4 | Community | STV","players":[{"user_id":23,"name":"Thunder","steam_id":76561199434110716,"connected_time":1067000000000,"state":"active","ping":73},{"user_id":25,"name":"CaptinBrown","steam_id":76561198127709638,"connected_time":470000000000,"state":"active","ping":54},{"user_id":26,"name":"exlhk7","steam_id":76561199468136783,"connected_time":462000000000,"state":"active","ping":78},{"user_id":20,"name":"wafflehamster2000","steam_id":76561198849161820,"connected_time":1129000000000,"state":"active","ping":75}]},{"server_id":142,"name":"Uncletopia | S√£o Paulo | 1 | All Maps","name_short":"sao-1","host":"sao-1.br.uncletopia.com","port":27015,"enabled":true,"region":"sa","cc":"br","latitude":-23.533773,"longitude":-46.62529,"reserved":0,"last_update":"0001-01-01T00:00:00Z","name_a2s":"Uncletopia | S√£o Paulo | 1 | All Maps","protocol":17,"map":"koth_highpass","folder":"tf","game":"Team Fortress","app_id":440,"player_count":0,"max_players":24,"Bots":0,"server_type":"Dedicated","server_os":"Linux","password":true,"vac":true,"version":"7961495","steam_id":85568392924469996,"keywords":["cp","nocrits","nodmgspread","uncletopia"],"game_id":440,"stv_port":27016,"stv_name":"Uncletopia | S√£o Paulo | 1 | All Maps | STV","players":null},{"server_id":143,"name":"Uncletopia | S√£o Paulo | 2 | Community","name_short":"sao-2","host":"sao-2.br.uncletopia.com","port":27015,"enabled":true,"region":"sa","cc":"br","latitude":-23.533773,"longitude":-46.62529,"reserved":0,"last_update":"0001-01-01T00:00:00Z","name_a2s":"Uncletopia | S√£o Paulo | 2 | Community","protocol":17,"map":"workshop/pl_divulgence_b4b.ugc2884808746","folder":"tf","game":"Team Fortress","app_id":440,"player_count":0,"max_players":24,"Bots":0,"server_type":"Dedicated","server_os":"Linux","password":true,"vac":true,"version":"7961495","steam_id":85568392924485349,"keywords":["nocrits","nodmgspread","payload","uncletopia"],"game_id":440,"stv_port":27016,"stv_name":"Uncletopia | S√£o Paulo | 2 | Community | STV","players":null},{"server_id":7,"name":"Uncletopia | Seattle | 1 | All Maps","name_short":"sea-1","host":"sea-1.us.uncletopia.com","port":27015,"enabled":true,"region":"us-west","cc":"us","latitude":47.608013,"longitude":-122.33517,"reserved":0,"last_update":"0001-01-01T00:00:00Z","name_a2s":"Uncletopia | Seattle | 1 | All Maps","protocol":17,"map":"koth_lakeside_final","folder":"tf","game":"Team Fortress","app_id":440,"player_count":7,"max_players":24,"Bots":0,"server_type":"Dedicated","server_os":"Linux","password":true,"vac":true,"version":"7961495","steam_id":85568392924469997,"keywords":["cp","nocrits","nodmgspread","uncletopia"],"game_id":440,"stv_port":27016,"stv_name":"Uncletopia | Seattle | 1 | All Maps | STV","players":[{"user_id":11,"name":"D34dR4bbit","steam_id":76561198167411455,"connected_time":938000000000,"state":"active","ping":55},{"user_id":12,"name":"blanch","steam_id":76561198850629951,"connected_time":929000000000,"state":"active","ping":121},{"user_id":13,"name":"EXTREME FEVER","steam_id":76561198282764599,"connected_time":743000000000,"state":"active","ping":97},{"user_id":14,"name":"Don't Fuckle with Shuckle","steam_id":76561199020102367,"connected_time":738000000000,"state":"active","ping":132},{"user_id":15,"name":"Pyrolimited","steam_id":76561198195455657,"connected_time":668000000000,"state":"active","ping":45},{"user_id":16,"name":"bobtheninjaman","steam_id":76561198066424544,"connected_time":658000000000,"state":"active","ping":83},{"user_id":18,"name":"Deliqene","steam_id":76561198227901308,"connected_time":398000000000,"state":"active","ping":71}]},{"server_id":119,"name":"Uncletopia | Seattle | 2 | All Maps","name_short":"sea-2","host":"sea-1.us.uncletopia.com","port":27025,"enabled":true,"region":"us-west","cc":"us","latitude":47.608013,"longitude":-122.33517,"reserved":0,"last_update":"0001-01-01T00:00:00Z","name_a2s":"Uncletopia | Seattle | 2 | All Maps","protocol":17,"map":"koth_nucleus","folder":"tf","game":"Team Fortress","app_id":440,"player_count":12,"max_players":24,"Bots":0,"server_type":"Dedicated","server_os":"Linux","password":true,"vac":true,"version":"7961495","steam_id":85568392924469998,"keywords":["cp","nocrits","nodmgspread","uncletopia"],"game_id":440,"stv_port":27026,"stv_name":"Uncletopia | Seattle | 2 | All Maps | STV","players":[{"user_id":271,"name":"fwoov","steam_id":76561198129166260,"connected_time":221000000000,"state":"active","ping":81},{"user_id":260,"name":"Username","steam_id":76561198198918781,"connected_time":946000000000,"state":"active","ping":87},{"user_id":275,"name":"Three(3)SlicesOfBread","steam_id":76561199386210740,"connected_time":14000000000,"state":"spawning","ping":74},{"user_id":274,"name":"2Fort Cactus","steam_id":76561199273395913,"connected_time":76000000000,"state":"active","ping":47},{"user_id":238,"name":"nosound","steam_id":76561198092135570,"connected_time":1511000000000,"state":"active","ping":89},{"user_id":225,"name":"The Ball Mangler","steam_id":76561198090419068,"connected_time":2286000000000,"state":"active","ping":69},{"user_id":250,"name":"Cost $400,000 to cheef this Za","steam_id":76561198208080773,"connected_time":1109000000000,"state":"active","ping":91},{"user_id":208,"name":"PvZ Enthusiast","steam_id":76561199089562026,"connected_time":3463000000000,"state":"active","ping":52},{"user_id":217,"name":"BlazedBunny","steam_id":76561198243610560,"connected_time":2570000000000,"state":"active","ping":71},{"user_id":242,"name":"gloobern","steam_id":76561198341190679,"connected_time":1375000000000,"state":"active","ping":77},{"user_id":235,"name":"TheMagicMrWaffle","steam_id":76561198104357256,"connected_time":1644000000000,"state":"active","ping":79},{"user_id":268,"name":"‚ù§[S'more]‚ù§","steam_id":76561198817361963,"connected_time":787000000000,"state":"active","ping":75}]},{"server_id":406,"name":"Uncletopia | Seattle | 3 | Stopwatch Beta","name_short":"sea-3","host":"sea-1.us.uncletopia.com","port":27035,"enabled":true,"region":"us-west","cc":"us","latitude":47.608013,"longitude":-122.33517,"reserved":0,"last_update":"0001-01-01T00:00:00Z","name_a2s":"Uncletopia | Seattle | 3 | Stopwatch Beta","protocol":17,"map":"koth_lakeside_final","folder":"tf","game":"Team Fortress","app_id":440,"player_count":0,"max_players":24,"Bots":0,"server_type":"Dedicated","server_os":"Linux","password":true,"vac":true,"version":"7961495","steam_id":85568392924515217,"keywords":["cp","nocrits","nodmgspread","uncletopia"],"game_id":440,"stv_port":27036,"stv_name":"Uncletopia | Seattle | 3 | Stopwatch Beta | STV","players":null},{"server_id":17,"name":"Uncletopia | San Francisco | 1 | All Maps","name_short":"sfo-1","host":"sfo-1.us.uncletopia.com","port":27015,"enabled":true,"region":"us-west","cc":"us","latitude":37.77397,"longitude":-122.4313,"reserved":0,"last_update":"0001-01-01T00:00:00Z","name_a2s":"Uncletopia | San Francisco | 1 | All Maps","protocol":17,"map":"pl_snowycoast","folder":"tf","game":"Team Fortress","app_id":440,"player_count":0,"max_players":24,"Bots":0,"server_type":"Dedicated","server_os":"Linux","password":true,"vac":true,"version":"7961495","steam_id":85568392924469999,"keywords":["nocrits","nodmgspread","payload","uncletopia"],"game_id":440,"stv_port":27016,"stv_name":"Uncletopia | San Francisco | 1 | All Maps | STV","players":null},{"server_id":18,"name":"Uncletopia | San Francisco | 2 | All Maps","name_short":"sfo-2","host":"sfo-1.us.uncletopia.com","port":27025,"enabled":true,"region":"us-west","cc":"us","latitude":37.77397,"longitude":-122.4313,"reserved":0,"last_update":"0001-01-01T00:00:00Z","name_a2s":"Uncletopia | San Francisco | 2 | All Maps","protocol":17,"map":"cp_process_final","folder":"tf","game":"Team Fortress","app_id":440,"player_count":0,"max_players":24,"Bots":0,"server_type":"Dedicated","server_os":"Linux","password":true,"vac":true,"version":"7961495","steam_id":85568392924470000,"keywords":["cp","nocrits","nodmgspread","uncletopia"],"game_id":440,"stv_port":27026,"stv_name":"Uncletopia | San Francisco | 2 | All Maps | STV","players":null},{"server_id":19,"name":"Uncletopia | San Francisco | 3 | Stopwatch Beta","name_short":"sfo-3","host":"sfo-1.us.uncletopia.com","port":27035,"enabled":true,"region":"us-west","cc":"us","latitude":37.77397,"longitude":-122.4313,"reserved":0,"last_update":"0001-01-01T00:00:00Z","name_a2s":"Uncletopia | San Francisco | 3 | Stopwatch Beta","protocol":17,"map":"pl_borneo","folder":"tf","game":"Team Fortress","app_id":440,"player_count":0,"max_players":24,"Bots":0,"server_type":"Dedicated","server_os":"Linux","password":true,"vac":true,"version":"7961495","steam_id":85568392924742824,"keywords":["nocrits","nodmgspread","payload","uncletopia"],"game_id":440,"stv_port":27036,"stv_name":"Uncletopia | San Francisco | 3 | Stopwatch Beta | STV","players":null},{"server_id":20,"name":"Uncletopia | San Francisco | 4 | Community","name_short":"sfo-4","host":"sfo-1.us.uncletopia.com","port":27045,"enabled":true,"region":"us-west","cc":"us","latitude":37.77397,"longitude":-122.4313,"reserved":0,"last_update":"0001-01-01T00:00:00Z","name_a2s":"Uncletopia | San Francisco | 4 | Community","protocol":17,"map":"koth_viaduct","folder":"tf","game":"Team Fortress","app_id":440,"player_count":0,"max_players":24,"Bots":0,"server_type":"Dedicated","server_os":"Linux","password":true,"vac":true,"version":"7961495","steam_id":85568392924742826,"keywords":["cp","nocrits","nodmgspread","uncletopia"],"game_id":440,"stv_port":27046,"stv_name":"Uncletopia | San Francisco | 4 | Community | STV","players":null},{"server_id":141,"name":"Uncletopia | Sydney | 1 | All Maps","name_short":"syd-1","host":"syd-1.au.uncletopia.com","port":27015,"enabled":true,"region":"au","cc":"au","latitude":-33.865143,"longitude":151.2099,"reserved":0,"last_update":"0001-01-01T00:00:00Z","name_a2s":"Uncletopia | Sydney | 1 | All Maps","protocol":17,"map":"koth_viaduct","folder":"tf","game":"Team Fortress","app_id":440,"player_count":2,"max_players":24,"Bots":0,"server_type":"Dedicated","server_os":"Linux","password":true,"vac":true,"version":"7961495","steam_id":85568392924470001,"keywords":["cp","nocrits","nodmgspread","uncletopia"],"game_id":440,"stv_port":27016,"stv_name":"Uncletopia | Sydney | 1 | All Maps | STV","players":[{"user_id":428,"name":"Penguin105 „Ç´„Éº„Éì„Ç£","steam_id":76561198096235032,"connected_time":815000000000,"state":"active","ping":65},{"user_id":429,"name":"Xophant","steam_id":76561198274570985,"connected_time":810000000000,"state":"active","ping":84}]},{"server_id":123,"name":"Uncletopia | Sydney | 2 | All Maps","name_short":"syd-2","host":"syd-1.au.uncletopia.com","port":27025,"enabled":true,"region":"au","cc":"au","latitude":-33.865143,"longitude":151.2099,"reserved":0,"last_update":"0001-01-01T00:00:00Z","name_a2s":"Uncletopia | Sydney | 2 | All Maps","protocol":17,"map":"cp_altitude","folder":"tf","game":"Team Fortress","app_id":440,"player_count":0,"max_players":24,"Bots":0,"server_type":"Dedicated","server_os":"Linux","password":true,"vac":true,"version":"7961495","steam_id":85568392924470002,"keywords":["cp","nocrits","nodmgspread","uncletopia"],"game_id":440,"stv_port":27026,"stv_name":"Uncletopia | Sydney | 2 | All Maps | STV","players":null},{"server_id":395,"name":"Uncletopia | Sydney | 3 | All Maps","name_short":"syd-3","host":"syd-1.au.uncletopia.com","port":27035,"enabled":true,"region":"au","cc":"au","latitude":-33.865143,"longitude":151.2099,"reserved":0,"last_update":"0001-01-01T00:00:00Z","name_a2s":"Uncletopia | Sydney | 3 | All Maps","protocol":17,"map":"pl_borneo","folder":"tf","game":"Team Fortress","app_id":440,"player_count":0,"max_players":24,"Bots":0,"server_type":"Dedicated","server_os":"Linux","password":true,"vac":true,"version":"7961495","steam_id":85568392925194467,"keywords":["nocrits","nodmgspread","payload","uncletopia"],"game_id":440,"stv_port":27036,"stv_name":"Uncletopia | Sydney | 3 | All Maps | STV","players":null},{"server_id":396,"name":"Uncletopia | Sydney | 4 | All Maps","name_short":"syd-4","host":"syd-1.au.uncletopia.com","port":27045,"enabled":true,"region":"au","cc":"au","latitude":-33.865143,"longitude":151.2099,"reserved":0,"last_update":"0001-01-01T00:00:00Z","name_a2s":"Uncletopia | Sydney | 4 | All Maps","protocol":17,"map":"koth_highpass","folder":"tf","game":"Team Fortress","app_id":440,"player_count":0,"max_players":24,"Bots":0,"server_type":"Dedicated","server_os":"Linux","password":true,"vac":true,"version":"7961495","steam_id":85568392925397958,"keywords":["cp","nocrits","nodmgspread","uncletopia"],"game_id":440,"stv_port":27046,"stv_name":"Uncletopia | Sydney | 4 | All Maps | STV","players":null},{"server_id":58,"name":"Uncletopia | Sydney | 5 | Stopwatch Beta","name_short":"syd-5","host":"syd-1.au.uncletopia.com","port":27055,"enabled":true,"region":"au","cc":"au","latitude":-33.865143,"longitude":151.2099,"reserved":0,"last_update":"0001-01-01T00:00:00Z","name_a2s":"Uncletopia | Sydney | 5 | Stopwatch Beta","protocol":17,"map":"koth_viaduct","folder":"tf","game":"Team Fortress","app_id":440,"player_count":0,"max_players":24,"Bots":0,"server_type":"Dedicated","server_os":"Linux","password":true,"vac":true,"version":"7961495","steam_id":85568392925397959,"keywords":["cp","nocrits","nodmgspread","uncletopia"],"game_id":440,"stv_port":27056,"stv_name":"Uncletopia | Sydney | 5 | Stopwatch Beta | STV","players":null},{"server_id":59,"name":"Uncletopia | Sydney | 6 | Community","name_short":"syd-6","host":"syd-1.au.uncletopia.com","port":27065,"enabled":true,"region":"au","cc":"au","latitude":-33.865143,"longitude":151.2099,"reserved":0,"last_update":"0001-01-01T00:00:00Z","name_a2s":"Uncletopia | Sydney | 6 | Community","protocol":17,"map":"koth_cascade","folder":"tf","game":"Team Fortress","app_id":440,"player_count":0,"max_players":24,"Bots":0,"server_type":"Dedicated","server_os":"Linux","password":true,"vac":true,"version":"7961495","steam_id":85568392925397960,"keywords":["cp","nocrits","nodmgspread","uncletopia"],"game_id":440,"stv_port":27066,"stv_name":"Uncletopia | Sydney | 6 | Community | STV","players":null},{"server_id":49,"name":"Uncletopia | Warsaw | 1 | All Maps","name_short":"waw-1","host":"waw-1.pl.uncletopia.com","port":27015,"enabled":true,"region":"eu","cc":"pl","latitude":52.2297,"longitude":21.017532,"reserved":0,"last_update":"0001-01-01T00:00:00Z","name_a2s":"Uncletopia | Warsaw | 1 | All Maps","protocol":17,"map":"cp_process_final","folder":"tf","game":"Team Fortress","app_id":440,"player_count":0,"max_players":24,"Bots":0,"server_type":"Dedicated","server_os":"Linux","password":true,"vac":true,"version":"7961495","steam_id":85568392925397850,"keywords":["cp","nocrits","nodmgspread","uncletopia"],"game_id":440,"stv_port":27016,"stv_name":"Uncletopia | Warsaw | 1 | All Maps | STV","players":null},{"server_id":50,"name":"Uncletopia | Warsaw | 2 | All Maps","name_short":"waw-2","host":"waw-1.pl.uncletopia.com","port":27025,"enabled":true,"region":"eu","cc":"pl","latitude":52.2297,"longitude":21.017532,"reserved":0,"last_update":"0001-01-01T00:00:00Z","name_a2s":"Uncletopia | Warsaw | 2 | All Maps","protocol":17,"map":"koth_lakeside_final","folder":"tf","game":"Team Fortress","app_id":440,"player_count":1,"max_players":24,"Bots":0,"server_type":"Dedicated","server_os":"Linux","password":true,"vac":true,"version":"7961495","steam_id":85568392925397851,"keywords":["cp","nocrits","nodmgspread","uncletopia"],"game_id":440,"stv_port":27026,"stv_name":"Uncletopia | Warsaw | 2 | All Maps | STV","players":[{"user_id":4,"name":"fexxor","steam_id":76561198030051719,"connected_time":43000000000,"state":"active","ping":85}]},{"server_id":51,"name":"Uncletopia | Warsaw | 3 | All Maps","name_short":"waw-3","host":"waw-1.pl.uncletopia.com","port":27035,"enabled":true,"region":"eu","cc":"pl","latitude":52.2297,"longitude":21.017532,"reserved":0,"last_update":"0001-01-01T00:00:00Z","name_a2s":"Uncletopia | Warsaw | 3 | All Maps","protocol":17,"map":"pl_badwater","folder":"tf","game":"Team Fortress","app_id":440,"player_count":1,"max_players":24,"Bots":0,"server_type":"Dedicated","server_os":"Linux","password":true,"vac":true,"version":"7961495","steam_id":85568392925397852,"keywords":["nocrits","nodmgspread","payload","uncletopia"],"game_id":440,"stv_port":27036,"stv_name":"Uncletopia | Warsaw | 3 | All Maps | STV","players":[{"user_id":19,"name":"Feigelman","steam_id":76561199404585461,"connected_time":18000000000,"state":"spawning","ping":98}]},{"server_id":52,"name":"Uncletopia | Warsaw | 4 | All Maps","name_short":"waw-4","host":"waw-1.pl.uncletopia.com","port":27045,"enabled":true,"region":"eu","cc":"pl","latitude":52.2297,"longitude":21.017532,"reserved":0,"last_update":"0001-01-01T00:00:00Z","name_a2s":"Uncletopia | Warsaw | 4 | All Maps","protocol":17,"map":"koth_viaduct","folder":"tf","game":"Team Fortress","app_id":440,"player_count":0,"max_players":24,"Bots":0,"server_type":"Dedicated","server_os":"Linux","password":true,"vac":true,"version":"7961495","steam_id":85568392925397853,"keywords":["cp","nocrits","nodmgspread","uncletopia"],"game_id":440,"stv_port":27046,"stv_name":"Uncletopia | Warsaw | 4 | All Maps | STV","players":null},{"server_id":53,"name":"Uncletopia | Warsaw | 5 | Stopwatch Beta","name_short":"waw-5","host":"waw-1.pl.uncletopia.com","port":27055,"enabled":true,"region":"eu","cc":"pl","latitude":52.2297,"longitude":21.017532,"reserved":0,"last_update":"0001-01-01T00:00:00Z","name_a2s":"Uncletopia | Warsaw | 5 | Stopwatch Beta","protocol":17,"map":"pl_swiftwater_final1","folder":"tf","game":"Team Fortress","app_id":440,"player_count":0,"max_players":24,"Bots":0,"server_type":"Dedicated","server_os":"Linux","password":true,"vac":true,"version":"7961495","steam_id":85568392925397854,"keywords":["nocrits","nodmgspread","payload","uncletopia"],"game_id":440,"stv_port":27056,"stv_name":"Uncletopia | Warsaw | 5 | Stopwatch Beta | STV","players":null},{"server_id":54,"name":"Uncletopia | Warsaw | 6 | Community","name_short":"waw-6","host":"waw-1.pl.uncletopia.com","port":27065,"enabled":true,"region":"eu","cc":"pl","latitude":52.2297,"longitude":21.017532,"reserved":0,"last_update":"0001-01-01T00:00:00Z","name_a2s":"Uncletopia | Warsaw | 6 | Community","protocol":17,"map":"workshop/cp_glacier_rc6.ugc2905735376","folder":"tf","game":"Team Fortress","app_id":440,"player_count":0,"max_players":24,"Bots":0,"server_type":"Dedicated","server_os":"Linux","password":true,"vac":true,"version":"7961495","steam_id":85568392925397856,"keywords":["cp","nocrits","nodmgspread","uncletopia"],"game_id":440,"stv_port":27066,"stv_name":"Uncletopia | Warsaw | 6 | Community | STV","players":null}]}