{"status":true,"message":"","result":[{"server_id":9,"name":"Uncletopia | Atlanta | 1 | All Maps","name_short":"atl-1","host":"atl-1.us.uncletopia.com","port":27015,"enabled":true,"region":"us-east","cc":"us","latitude":33.753746,"longitude":-84.38633,"reserved":0,"last_update":"0001-01-01T00:00:00Z","name_a2s":"Uncletopia | Atlanta | 1 | All Maps","protocol":17,"map":"cp_altitude","folder":"tf","game":"Team Fortress","app_id":440,"player_count":0,"max_players":24,"Bots":0,"server_type":"Dedicated","server_os":"Linux","password":true,"vac":true,"version":"7932396","steam_id":85568392924469982,"keywords":["cp","nocrits","nodmgspread","uncletopia"],"game_id":440,"stv_port":27016,"stv_name":"Uncletopia | Atlanta | 1 | All Maps | STV","players":null},{"server_id":104,"name":"Uncletopia | Atlanta | 2 | All Maps","name_short":"atl-2","host":"atl-1.us.uncletopia.com","port":27025,"enabled":true,"region":"us-east","cc":"us","latitude":33.753746,"longitude":-84.38633,"reserved":0,"last_update":"0001-01-01T00:00:00Z","name_a2s":"Uncletopia | Atlanta | 2 | All Maps","protocol":17,"map":"cp_altitude","folder":"tf","game":"Team Fortress","app_id":440,"player_count":0,"max_players":24,"Bots":0,"server_type":"Dedicated","server_os":"Linux","password":true,"vac":true,"version":"7932396","steam_id":85568392924469983,"keywords":["cp","nocrits","nodmgspread","uncletopia"],"game_id":440,"stv_port":27026,"stv_name":"Uncletopia | Atlanta | 2 | All Maps | STV","players":null},{"server_id":400,"name":"Uncletopia | Atlanta | 3 | Community","name_short":"atl-3","host":"atl-1.us.uncletopia.com","port":27035,"enabled":true,"region":"us-east","cc":"us","latitude":33.753746,"longitude":-84.38633,"reserved":0,"last_update":"0001-01-01T00:00:00Z","name_a2s":"Uncletopia | Atlanta | 3 | Community","protocol":17,"map":"pl_badwater","folder":"tf","game":"Team Fortress","app_id":440,"player_count":0,"max_players":24,"Bots":0,"server_type":"Dedicated","server_os":"Linux","password":true,"vac":true,"version":"7932396","steam_id":85568392924515187,"keywords":["nocrits","nodmgspread","payload","uncletopia"],"game_id":440,"stv_port":27036,"stv_name":"Uncletopia | Atlanta | 3 | Community | STV","players":null},{"server_id":401,"name":"Uncletopia | Atlanta | 4 | No Payload","name_short":"atl-4","host":"atl-1.us.uncletopia.com","port":27045,"enabled":true,"region":"us-east","cc":"us","latitude":33.753746,"longitude":-84.38633,"reserved":0,"last_update":"0001-01-01T00:00:00Z","name_a2s":"","protocol":0,"map":"","folder":"","game":"","app_id":0,"player_count":0,"max_players":0,"Bots":0,"server_type":"","server_os":"","password":false,"vac":false,"version":"","steam_id":0,"keywords":null,"game_id":0,"stv_port":0,"stv_name":"","players":null},{"server_id":2,"name":"Uncletopia | Chicago | 1 | All Maps","name_short":"chi-1","host":"chi-1.us.uncletopia.com","port":27015,"enabled":true,"region":"us-central","cc":"us","latitude":41.881832,"longitude":-87.62318,"reserved":0,"last_update":"0001-01-01T00:00:00Z","name_a2s":"Uncletopia | Chicago | 1 | All Maps","protocol":17,"map":"cp_mountainlab","folder":"tf","game":"Team Fortress","app_id":440,"player_count":0,"max_players":24,"Bots":0,"server_type":"Dedicated","server_os":"Linux","password":true,"vac":true,"version":"7932396","steam_id":85568392924469984,"keywords":["cp","nocrits","nodmgspread","uncletopia"],"game_id":440,"stv_port":27016,"stv_name":"Uncletopia | Chicago | 1 | All Maps | STV","players":null},{"server_id":106,"name":"Uncletopia | Chicago | 2 | All Maps","name_short":"chi-2","host":"chi-1.us.uncletopia.com","port":27025,"enabled":true,"region":"us-central","cc":"us","latitude":41.881832,"longitude":-87.62318,"reserved":0,"last_update":"0001-01-01T00:00:00Z","name_a2s":"Uncletopia | Chicago | 2 | All Maps","protocol":17,"map":"pl_barnblitz","folder":"tf","game":"Team Fortress","app_id":440,"player_count":0,"max_players":24,"Bots":0,"server_type":"Dedicated","server_os":"Linux","password":true,"vac":true,"version":"7932396","steam_id":85568392924469985,"keywords":["nocrits","nodmgspread","payload","uncletopia"],"game_id":440,"stv_port":27026,"stv_name":"Uncletopia | Chicago | 2 | All Maps | STV","players":null},{"server_id":402,"name":"Uncletopia | Chicago | 3 | All Maps","name_short":"chi-3","host":"chi-1.us.uncletopia.com","port":27035,"enabled":true,"region":"us-central","cc":"us","latitude":41.881832,"longitude":-87.62318,"reserved":0,"last_update":"0001-01-01T00:00:00Z","name_a2s":"Uncletopia | Chicago | 3 | All Maps","protocol":17,"map":"cp_snakewater_final1","folder":"tf","game":"Team Fortress","app_id":440,"player_count":0,"max_players":24,"Bots":0,"server_type":"Dedicated","server_os":"Linux","password":true,"vac":true,"version":"7932396","steam_id":85568392924515191,"keywords":["cp","nocrits","nodmgspread","uncletopia"],"game_id":440,"stv_port":27036,"stv_name":"Uncletopia | Chicago | 3 | All Maps | STV","players":null},{"server_id":403,"name":"Uncletopia | Chicago | 4 | All Maps","name_short":"chi-4","host":"chi-1.us.uncletopia.com","port":27045,"enabled":true,"region":"us-central","cc":"us","latitude":41.881832,"longitude":-87.62318,"reserved":0,"last_update":"0001-01-01T00:00:00Z","name_a2s":"Uncletopia | Chicago | 4 | All Maps","protocol":17,"map":"pl_borneo","folder":"tf","game":"Team Fortress","app_id":440,"player_count":0,"max_players":24,"Bots":0,"server_type":"Dedicated","server_os":"Linux","password":true,"vac":true,"version":"7932396","steam_id":85568392924515193,"keywords":["nocrits","nodmgspread","payload","uncletopia"],"game_id":440,"stv_port":27046,"stv_name":"Uncletopia | Chicago | 4 | All Maps | STV","players":null},{"server_id":36,"name":"Uncletopia | Chicago | 5 | All Maps","name_short":"chi-5","host":"chi-2.us.uncletopia.com","port":27015,"enabled":true,"region":"us-central","cc":"us","latitude":41.881832,"longitude":-87.62318,"reserved":0,"last_update":"0001-01-01T00:00:00Z","name_a2s":"Uncletopia | Chicago | 5 | All Maps","protocol":17,"map":"pl_barnblitz","folder":"tf","game":"Team Fortress","app_id":440,"player_count":0,"max_players":24,"Bots":0,"server_type":"Dedicated","server_os":"Linux","password":true,"vac":true,"version":"7932396","steam_id":85568392924866362,"keywords":["nocrits","nodmgspread","payload","uncletopia"],"game_id":440,"stv_port":27016,"stv_name":"Uncletopia | Chicago | 5 | All Maps | STV","players":null},{"server_id":37,"name":"Uncletopia | Chicago | 6 | All Maps","name_short":"chi-6","host":"chi-2.us.uncletopia.com","port":27025,"enabled":true,"region":"us-central","cc":"us","latitude":41.881832,"longitude":-87.62318,"reserved":0,"last_update":"0001-01-01T00:00:00Z","name_a2s":"Uncletopia | Chicago | 6 | All Maps","protocol":17,"map":"pl_swiftwater_final1","folder":"tf","game":"Team Fortress","app_id":440,"player_count":18,"max_players":24,"Bots":0,"server_type":"Dedicated","server_os":"Linux","password":true,"vac":true,"version":"7932396","steam_id":85568392924866363,"keywords":["nocrits","nodmgspread","payload","uncletopia"],"game_id":440,"stv_port":27026,"stv_name":"Uncletopia | Chicago | 6 | All Maps | STV","players":[{"user_id":3,"name":"daemon","steam_id":76561198001541433,"connected_time":2303000000000,"state":"active","ping":45},{"user_id":4,"name":"BenBigBalls","steam_id":76561198047389266,"connected_time":2302000000000,"state":"active","ping":103},{"user_id":14,"name":"Node‚ãÑ","steam_id":76561198219359475,"connected_time":2269000000000,"state":"active","ping":93},{"user_id":49,"name":"WM1 PYRO","steam_id":76561198045893896,"connected_time":147000000000,"state":"active","ping":101},{"user_id":34,"name":"lilirouxxx","steam_id":76561198000522179,"connected_time":1184000000000,"state":"active","ping":63},{"user_id":8,"name":"jooby","steam_id":76561198131065492,"connected_time":2297000000000,"state":"active","ping":63},{"user_id":28,"name":"·ï¶(√≤_√≥Àá)·ï§","steam_id":76561198072646165,"connected_time":1745000000000,"state":"active","ping":104},{"user_id":10,"name":"Shaunt","steam_id":76561198171551057,"connected_time":2290000000000,"state":"active","ping":49},{"user_id":50,"name":"Cynicalrage #TF2center","steam_id":76561198085805532,"connected_time":31000000000,"state":"active","ping":32},{"user_id":32,"name":"Mank","steam_id":76561198189421005,"connected_time":1320000000000,"state":"active","ping":46},{"user_id":15,"name":"True","steam_id":76561198168708790,"connected_time":2265000000000,"state":"active","ping":63},{"user_id":19,"name":"ogmo","steam_id":76561198060566145,"connected_time":2189000000000,"state":"active","ping":68},{"user_id":40,"name":"largefish","steam_id":76561198066215341,"connected_time":626000000000,"state":"active","ping":68},{"user_id":41,"name":"Ekohtwo","steam_id":76561198067994868,"connected_time":560000000000,"state":"active","ping":66},{"user_id":43,"name":"Taterboy07","steam_id":76561199236691088,"connected_time":358000000000,"state":"active","ping":69},{"user_id":37,"name":"DenverDSnail","steam_id":76561198182543578,"connected_time":808000000000,"state":"active","ping":70},{"user_id":44,"name":"DinoGoof","steam_id":76561198998427283,"connected_time":347000000000,"state":"active","ping":74},{"user_id":33,"name":"mothra","steam_id":76561198028444359,"connected_time":1240000000000,"state":"active","ping":150}]},{"server_id":38,"name":"Uncletopia | Chicago | 7 | Stopwatch Beta","name_short":"chi-7","host":"chi-2.us.uncletopia.com","port":27035,"enabled":true,"region":"us-central","cc":"us","latitude":41.881832,"longitude":-87.62318,"reserved":0,"last_update":"0001-01-01T00:00:00Z","name_a2s":"Uncletopia | Chicago | 7 | Stopwatch Beta","protocol":17,"map":"koth_highpass","folder":"tf","game":"Team Fortress","app_id":440,"player_count":0,"max_players":24,"Bots":0,"server_type":"Dedicated","server_os":"Linux","password":true,"vac":true,"version":"7932396","steam_id":85568392924866364,"keywords":["cp","nocrits","nodmgspread","uncletopia"],"game_id":440,"stv_port":27036,"stv_name":"Uncletopia | Chicago | 7 | Stopwatch Beta | STV","players":null},{"server_id":39,"name":"Uncletopia | Chicago | 8 | Community","name_short":"chi-8","host":"chi-2.us.uncletopia.com","port":27045,"enabled":true,"region":"us-central","cc":"us","latitude":41.881832,"longitude":-87.62318,"reserved":0,"last_update":"0001-01-01T00:00:00Z","name_a2s":"Uncletopia | Chicago | 8 | Community","protocol":17,"map":"pl_frontier_final","folder":"tf","game":"Team Fortress","app_id":440,"player_count":0,"max_players":24,"Bots":0,"server_type":"Dedicated","server_os":"Linux","password":true,"vac":true,"version":"7932396","steam_id":85568392924866365,"keywords":["nocrits","nodmgspread","payload","uncletopia"],"game_id":440,"stv_port":27046,"stv_name":"Uncletopia | Chicago | 8 | Community | STV","players":null},{"server_id":8,"name":"Uncletopia | Dallas | 1 | All Maps","name_short":"dal-1","host":"dal-1.us.uncletopia.com","port":27015,"enabled":true,"region":"us-central","cc":"us","latitude":32.779167,"longitude":-96.80889,"reserved":0,"last_update":"0001-01-01T00:00:00Z","name_a2s":"Uncletopia | Dallas | 1 | All Maps","protocol":17,"map":"pl_frontier_final","folder":"tf","game":"Team Fortress","app_id":440,"player_count":0,"max_players":24,"Bots":0,"server_type":"Dedicated","server_os":"Linux","password":true,"vac":true,"version":"7932396","steam_id":85568392924469986,"keywords":["nocrits","nodmgspread","payload","uncletopia"],"game_id":440,"stv_port":27016,"stv_name":"Uncletopia | Dallas | 1 | All Maps | STV","players":null},{"server_id":108,"name":"Uncletopia | Dallas | 2 | All Maps","name_short":"dal-2","host":"dal-1.us.uncletopia.com","port":27025,"enabled":true,"region":"us-central","cc":"us","latitude":32.779167,"longitude":-96.80889,"reserved":0,"last_update":"0001-01-01T00:00:00Z","name_a2s":"Uncletopia | Dallas | 2 | All Maps","protocol":17,"map":"koth_lakeside_final","folder":"tf","game":"Team Fortress","app_id":440,"player_count":0,"max_players":24,"Bots":0,"server_type":"Dedicated","server_os":"Linux","password":true,"vac":true,"version":"7932396","steam_id":85568392924469988,"keywords":["cp","nocrits","nodmgspread","uncletopia"],"game_id":440,"stv_port":27026,"stv_name":"Uncletopia | Dallas | 2 | All Maps | STV","players":null},{"server_id":5,"name":"Uncletopia | Frankfurt | 1 | All Maps","name_short":"frk-1","host":"frk-1.de.uncletopia.com","port":27015,"enabled":true,"region":"eu","cc":"de","latitude":50.110924,"longitude":8.682127,"reserved":0,"last_update":"0001-01-01T00:00:00Z","name_a2s":"Uncletopia | Frankfurt | 1 | All Maps","protocol":17,"map":"pl_badwater","folder":"tf","game":"Team Fortress","app_id":440,"player_count":22,"max_players":24,"Bots":0,"server_type":"Dedicated","server_os":"Linux","password":true,"vac":true,"version":"7932396","steam_id":85568392924469989,"keywords":["nocrits","nodmgspread","payload","uncletopia"],"game_id":440,"stv_port":27016,"stv_name":"Uncletopia | Frankfurt | 1 | All Maps | STV","players":[{"user_id":78,"name":"Leibeigener","steam_id":76561199275478305,"connected_time":827000000000,"state":"active","ping":30},{"user_id":51,"name":"„Åô LightFlight „Åó","steam_id":76561198079007530,"connected_time":3081000000000,"state":"active","ping":65},{"user_id":70,"name":"Ganasti","steam_id":76561198382925185,"connected_time":1781000000000,"state":"active","ping":95},{"user_id":86,"name":"john dickson","steam_id":76561198120166752,"connected_time":425000000000,"state":"active","ping":85},{"user_id":50,"name":"vadr","steam_id":76561198334528186,"connected_time":3334000000000,"state":"active","ping":56},{"user_id":87,"name":"beurgeur","steam_id":76561198872426314,"connected_time":403000000000,"state":"active","ping":45},{"user_id":82,"name":"LoolFR","steam_id":76561198175758511,"connected_time":768000000000,"state":"active","ping":61},{"user_id":10,"name":"revolver CHEH","steam_id":76561198851411530,"connected_time":5022000000000,"state":"active","ping":56},{"user_id":90,"name":"Praise The Sun","steam_id":76561199028749999,"connected_time":28000000000,"state":"spawning","ping":196},{"user_id":75,"name":"FastestDuckAlive","steam_id":76561198063138371,"connected_time":1043000000000,"state":"active","ping":72},{"user_id":72,"name":"–ö–æ–Ω–Ω–æ—Ä","steam_id":76561198020304242,"connected_time":1512000000000,"state":"active","ping":65},{"user_id":67,"name":"the indomitable human spirit","steam_id":76561198718760200,"connected_time":1805000000000,"state":"active","ping":61},{"user_id":88,"name":"Kwizine","steam_id":76561198147999400,"connected_time":298000000000,"state":"active","ping":67},{"user_id":80,"name":"gothmoth","steam_id":76561198386910896,"connected_time":822000000000,"state":"active","ping":63},{"user_id":77,"name":"The Communist","steam_id":76561199099995357,"connected_time":910000000000,"state":"active","ping":77},{"user_id":19,"name":"ja","steam_id":76561199228540618,"connected_time":5010000000000,"state":"active","ping":71},{"user_id":83,"name":"kotowski pl","steam_id":76561198278581815,"connected_time":761000000000,"state":"active","ping":71},{"user_id":54,"name":"OliTheRockHardCockJohnson","steam_id":76561198251293288,"connected_time":3014000000000,"state":"active","ping":91},{"user_id":73,"name":"Û†Ä°Û†Ä°","steam_id":76561198125381319,"connected_time":1407000000000,"state":"active","ping":50},{"user_id":44,"name":"Cars","steam_id":76561198173329977,"connected_time":3384000000000,"state":"active","ping":62},{"user_id":58,"name":"QR code 78","steam_id":76561198073749509,"connected_time":2419000000000,"state":"active","ping":59},{"user_id":69,"name":"Anadest","steam_id":76561198992528373,"connected_time":1791000000000,"state":"active","ping":64}]},{"server_id":110,"name":"Uncletopia | Frankfurt | 2 | All Maps","name_short":"frk-2","host":"frk-1.de.uncletopia.com","port":27025,"enabled":true,"region":"eu","cc":"de","latitude":50.110924,"longitude":8.682127,"reserved":0,"last_update":"0001-01-01T00:00:00Z","name_a2s":"Uncletopia | Frankfurt | 2 | All Maps","protocol":17,"map":"koth_sawmill","folder":"tf","game":"Team Fortress","app_id":440,"player_count":23,"max_players":24,"Bots":0,"server_type":"Dedicated","server_os":"Linux","password":true,"vac":true,"version":"7932396","steam_id":85568392924469990,"keywords":["cp","nocrits","nodmgspread","uncletopia"],"game_id":440,"stv_port":27026,"stv_name":"Uncletopia | Frankfurt | 2 | All Maps | STV","players":[{"user_id":53,"name":"Bobo","steam_id":76561198052308399,"connected_time":3040000000000,"state":"active","ping":64},{"user_id":92,"name":"Meshuggah","steam_id":76561198013743168,"connected_time":533000000000,"state":"active","ping":98},{"user_id":86,"name":"Virgil","steam_id":76561198248786778,"connected_time":882000000000,"state":"active","ping":111},{"user_id":98,"name":"BloodFuel","steam_id":76561198146340825,"connected_time":380000000000,"state":"active","ping":121},{"user_id":47,"name":"Bagingi","steam_id":76561198052197810,"connected_time":3505000000000,"state":"active","ping":71},{"user_id":99,"name":"Kahvi","steam_id":76561198723244199,"connected_time":377000000000,"state":"active","ping":89},{"user_id":72,"name":"lordofsexmaster62","steam_id":76561198892776023,"connected_time":2008000000000,"state":"active","ping":130},{"user_id":95,"name":"Maximus","steam_id":76561198032472655,"connected_time":429000000000,"state":"active","ping":47},{"user_id":103,"name":"mkwii","steam_id":76561198062507768,"connected_time":219000000000,"state":"active","ping":48},{"user_id":101,"name":"Roxy_Joestar","steam_id":76561199122275646,"connected_time":280000000000,"state":"active","ping":109},{"user_id":100,"name":"Aubribac","steam_id":76561198057689763,"connected_time":355000000000,"state":"active","ping":49},{"user_id":106,"name":"Hejnus","steam_id":76561197988395035,"connected_time":5000000000,"state":"spawning","ping":81},{"user_id":94,"name":"Suspicious Viktor","steam_id":76561198136496249,"connected_time":455000000000,"state":"active","ping":65},{"user_id":71,"name":"Xiqui","steam_id":76561198818386611,"connected_time":2055000000000,"state":"active","ping":96},{"user_id":96,"name":"yeldad","steam_id":76561198447264153,"connected_time":421000000000,"state":"active","ping":123},{"user_id":80,"name":"PapaMaxy","steam_id":76561198256362726,"connected_time":1280000000000,"state":"active","ping":70},{"user_id":51,"name":"êÇÉ","steam_id":76561198874987906,"connected_time":3329000000000,"state":"active","ping":86},{"user_id":68,"name":"XFACTOR | {Moshik Roth}","steam_id":76561198352842114,"connected_time":2280000000000,"state":"active","ping":120},{"user_id":81,"name":"mentally disabled","steam_id":76561198163362186,"connected_time":1275000000000,"state":"active","ping":172},{"user_id":102,"name":"strideŒî","steam_id":76561199007826093,"connected_time":267000000000,"state":"active","ping":79},{"user_id":104,"name":"joachym","steam_id":76561198428579761,"connected_time":177000000000,"state":"active","ping":58},{"user_id":35,"name":"K.V. #RemoveRandomCrits","steam_id":76561197994832993,"connected_time":4471000000000,"state":"active","ping":80},{"user_id":79,"name":"Invoker-sama","steam_id":76561198128470403,"connected_time":1324000000000,"state":"active","ping":108}]},{"server_id":308,"name":"Uncletopia | Frankfurt | 3 | All Maps","name_short":"frk-3","host":"frk-1.de.uncletopia.com","port":27035,"enabled":true,"region":"eu","cc":"de","latitude":50.110924,"longitude":8.682127,"reserved":0,"last_update":"0001-01-01T00:00:00Z","name_a2s":"Uncletopia | Frankfurt | 3 | All Maps","protocol":17,"map":"pl_badwater","folder":"tf","game":"Team Fortress","app_id":440,"player_count":20,"max_players":24,"Bots":0,"server_type":"Dedicated","server_os":"Linux","password":true,"vac":true,"version":"7932396","steam_id":85568392924504274,"keywords":["nocrits","nodmgspread","payload","uncletopia"],"game_id":440,"stv_port":27036,"stv_name":"Uncletopia | Frankfurt | 3 | All Maps | STV","players":[{"user_id":74,"name":"I am bad in TF2 (not bot)","steam_id":76561199214000895,"connected_time":522000000000,"state":"active","ping":72},{"user_id":81,"name":"Fenty","steam_id":76561198044991858,"connected_time":81000000000,"state":"active","ping":73},{"user_id":82,"name":"Spoony","steam_id":76561198144204860,"connected_time":63000000000,"state":"active","ping":90},{"user_id":70,"name":"spy gaming","steam_id":76561199023265517,"connected_time":996000000000,"state":"active","ping":45},{"user_id":33,"name":"Teathling","steam_id":76561198061580505,"connected_time":3135000000000,"state":"active","ping":60},{"user_id":65,"name":"Black Sheep","steam_id":76561198042244701,"connected_time":1504000000000,"state":"active","ping":67},{"user_id":52,"name":"iClip","steam_id":76561198272834630,"connected_time":1791000000000,"state":"active","ping":62},{"user_id":75,"name":"hunte","steam_id":76561198063483484,"connected_time":517000000000,"state":"active","ping":62},{"user_id":44,"name":"Old Boy Anter","steam_id":76561198153786963,"connected_time":2520000000000,"state":"active","ping":84},{"user_id":14,"name":"Fales","steam_id":76561198126124929,"connected_time":3643000000000,"state":"active","ping":63},{"user_id":76,"name":"unikeko","steam_id":76561199149378965,"connected_time":479000000000,"state":"active","ping":73},{"user_id":78,"name":"Qdarks","steam_id":76561198013391340,"connected_time":289000000000,"state":"active","ping":160},{"user_id":79,"name":"I eat human babys","steam_id":76561199248584098,"connected_time":279000000000,"state":"active","ping":89},{"user_id":61,"name":"Samuel L. Jackson","steam_id":76561198130427881,"connected_time":1566000000000,"state":"active","ping":155},{"user_id":64,"name":"darkwater","steam_id":76561197986978738,"connected_time":1505000000000,"state":"active","ping":59},{"user_id":55,"name":"Acro","steam_id":76561198080097071,"connected_time":1772000000000,"state":"active","ping":62},{"user_id":57,"name":"Charles Darwin","steam_id":76561197973496139,"connected_time":1733000000000,"state":"active","ping":57},{"user_id":36,"name":"Demaxim","steam_id":76561198362914847,"connected_time":2783000000000,"state":"active","ping":75},{"user_id":72,"name":"–µ–±—É—á–∏–π —Å–ª—É—á–∞–π","steam_id":76561199087920612,"connected_time":649000000000,"state":"active","ping":127},{"user_id":47,"name":"fifrok","steam_id":76561198799267621,"connected_time":2472000000000,"state":"active","ping":74}]},{"server_id":309,"name":"Uncletopia | Frankfurt | 4 | All Maps","name_short":"frk-4","host":"frk-1.de.uncletopia.com","port":27045,"enabled":true,"region":"eu","cc":"de","latitude":50.110924,"longitude":8.682127,"reserved":0,"last_update":"0001-01-01T00:00:00Z","name_a2s":"Uncletopia | Frankfurt | 4 | All Maps","protocol":17,"map":"koth_lakeside_final","folder":"tf","game":"Team Fortress","app_id":440,"player_count":0,"max_players":24,"Bots":0,"server_type":"Dedicated","server_os":"Linux","password":true,"vac":true,"version":"7932396","steam_id":85568392924504275,"keywords":["cp","nocrits","nodmgspread","uncletopia"],"game_id":440,"stv_port":27046,"stv_name":"Uncletopia | Frankfurt | 4 | All Maps | STV","players":null},{"server_id":310,"name":"Uncletopia | Frankfurt | 5 | All Maps","name_short":"frk-5","host":"frk-1.de.uncletopia.com","port":27055,"enabled":true,"region":"eu","cc":"de","latitude":50.110924,"longitude":8.682127,"reserved":0,"last_update":"0001-01-01T00:00:00Z","name_a2s":"Uncletopia | Frankfurt | 5 | All Maps","protocol":17,"map":"koth_viaduct","folder":"tf","game":"Team Fortress","app_id":440,"player_count":0,"max_players":24,"Bots":0,"server_type":"Dedicated","server_os":"Linux","password":true,"vac":true,"version":"7932396","steam_id":85568392924504277,"keywords":["cp","nocrits","nodmgspread","uncletopia"],"game_id":440,"stv_port":27056,"stv_name":"Uncletopia | Frankfurt | 5 | All Maps | STV","players":null},{"server_id":311,"name":"Uncletopia | Frankfurt | 6 | All Maps","name_short":"frk-6","host":"frk-1.de.uncletopia.com","port":27065,"enabled":true,"region":"eu","cc":"de","latitude":50.110924,"longitude":8.682127,"reserved":0,"last_update":"0001-01-01T00:00:00Z","name_a2s":"Uncletopia | Frankfurt | 6 | All Maps","protocol":17,"map":"pl_borneo","folder":"tf","game":"Team Fortress","app_id":440,"player_count":0,"max_players":24,"Bots":0,"server_type":"Dedicated","server_os":"Linux","password":true,"vac":true,"version":"7932396","steam_id":85568392924504278,"keywords":["nocrits","nodmgspread","payload","uncletopia"],"game_id":440,"stv_port":27066,"stv_name":"Uncletopia | Frankfurt | 6 | All Maps | STV","players":null},{"server_id":23,"name":"Uncletopia | Frankfurt | 7 | Stopwatch Beta","name_short":"frk-7","host":"frk-1.de.uncletopia.com","port":27075,"enabled":true,"region":"eu","cc":"de","latitude":50.110924,"longitude":8.682127,"reserved":0,"last_update":"0001-01-01T00:00:00Z","name_a2s":"Uncletopia | Frankfurt | 7 | Stopwatch Beta","protocol":17,"map":"cp_snakewater_final1","folder":"tf","game":"Team Fortress","app_id":440,"player_count":0,"max_players":24,"Bots":0,"server_type":"Dedicated","server_os":"Linux","password":true,"vac":true,"version":"7932396","steam_id":85568392924742827,"keywords":["cp","nocrits","nodmgspread","uncletopia"],"game_id":440,"stv_port":27076,"stv_name":"Uncletopia | Frankfurt | 7 | Stopwatch Beta | STV","players":null},{"server_id":24,"name":"Uncletopia | Frankfurt | 8 | Community","name_short":"frk-8","host":"frk-1.de.uncletopia.com","port":27085,"enabled":true,"region":"eu","cc":"de","latitude":50.110924,"longitude":8.682127,"reserved":0,"last_update":"0001-01-01T00:00:00Z","name_a2s":"Uncletopia | Frankfurt | 8 | Community","protocol":17,"map":"pl_pier","folder":"tf","game":"Team Fortress","app_id":440,"player_count":3,"max_players":24,"Bots":0,"server_type":"Dedicated","server_os":"Linux","password":true,"vac":true,"version":"7932396","steam_id":85568392924742828,"keywords":["nocrits","nodmgspread","payload","uncletopia"],"game_id":440,"stv_port":27086,"stv_name":"Uncletopia | Frankfurt | 8 | Community | STV","players":[{"user_id":4,"name":"ANGELFISH","steam_id":76561198027536466,"connected_time":498000000000,"state":"active","ping":96},{"user_id":5,"name":"Perfect Red","steam_id":76561199352931352,"connected_time":167000000000,"state":"spawning","ping":79},{"user_id":6,"name":"yuraigris","steam_id":76561199396587136,"connected_time":153000000000,"state":"active","ping":89}]},{"server_id":202,"name":"Uncletopia | Hong Kong | 1 | All Maps","name_short":"hgk-1","host":"hgk-1.hk.uncletopia.com","port":27015,"enabled":true,"region":"asia","cc":"hk","latitude":22.302711,"longitude":114.177216,"reserved":0,"last_update":"0001-01-01T00:00:00Z","name_a2s":"Uncletopia | Hong Kong | 1 | All Maps","protocol":17,"map":"pl_upward","folder":"tf","game":"Team Fortress","app_id":440,"player_count":21,"max_players":24,"Bots":0,"server_type":"Dedicated","server_os":"Linux","password":true,"vac":true,"version":"7932396","steam_id":85568392924494504,"keywords":["nocrits","nodmgspread","payload","uncletopia"],"game_id":440,"stv_port":27016,"stv_name":"Uncletopia | Hong Kong | 1 | All Maps | STV","players":[{"user_id":83,"name":"corpse_cadaver","steam_id":76561199225360457,"connected_time":1163000000000,"state":"active","ping":69},{"user_id":113,"name":"ksvk","steam_id":76561198152588681,"connected_time":129000000000,"state":"active","ping":83},{"user_id":108,"name":"juice","steam_id":76561199009556495,"connected_time":249000000000,"state":"active","ping":99},{"user_id":76,"name":"r/sinkpissers","steam_id":76561198413116920,"connected_time":1693000000000,"state":"active","ping":75},{"user_id":68,"name":"3rwynM","steam_id":76561198288311270,"connected_time":2504000000000,"state":"active","ping":119},{"user_id":74,"name":"fork","steam_id":76561199215763743,"connected_time":1709000000000,"state":"active","ping":86},{"user_id":101,"name":"DarkGamer TF2","steam_id":76561199234460334,"connected_time":666000000000,"state":"active","ping":88},{"user_id":114,"name":"prowalk3r0","steam_id":76561199419723427,"connected_time":49000000000,"state":"active","ping":308},{"user_id":102,"name":"Potsu - Lungs","steam_id":76561198981987710,"connected_time":666000000000,"state":"active","ping":100},{"user_id":81,"name":"huoh","steam_id":76561199480939609,"connected_time":1440000000000,"state":"active","ping":76},{"user_id":88,"name":"Theducktube","steam_id":76561198137265224,"connected_time":986000000000,"state":"active","ping":133},{"user_id":110,"name":"KHMaster","steam_id":76561199198453345,"connected_time":169000000000,"state":"active","ping":97},{"user_id":82,"name":"screaming sniper","steam_id":76561199085568674,"connected_time":1176000000000,"state":"active","ping":70},{"user_id":115,"name":"3wfFbdrjEze5d2G","steam_id":76561198435900451,"connected_time":11000000000,"state":"spawning","ping":129},{"user_id":91,"name":"Kpba32(Lego)","steam_id":76561198051927766,"connected_time":922000000000,"state":"active","ping":110},{"user_id":89,"name":"yw","steam_id":76561199382726488,"connected_time":969000000000,"state":"active","ping":44},{"user_id":65,"name":"Chomer","steam_id":76561199034546642,"connected_time":2536000000000,"state":"active","ping":112},{"user_id":84,"name":"Nat","steam_id":76561197995044074,"connected_time":1141000000000,"state":"active","ping":117},{"user_id":106,"name":"\"I will have order!\"","steam_id":76561199118887297,"connected_time":529000000000,"state":"active","ping":83},{"user_id":93,"name":"Gaz","steam_id":76561199081356069,"connected_time":891000000000,"state":"active","ping":134},{"user_id":97,"name":"imayellowknight","steam_id":76561199404725474,"connected_time":764000000000,"state":"active","ping":97}]},{"server_id":1,"name":"Uncletopia | Los Angeles | 1 | All Maps","name_short":"lax-1","host":"lax-1.us.uncletopia.com","port":27015,"enabled":true,"region":"us-west","cc":"us","latitude":33.94279,"longitude":-118.41004,"reserved":0,"last_update":"0001-01-01T00:00:00Z","name_a2s":"Uncletopia | Los Angeles | 1 | All Maps","protocol":17,"map":"pl_borneo","folder":"tf","game":"Team Fortress","app_id":440,"player_count":0,"max_players":24,"Bots":0,"server_type":"Dedicated","server_os":"Linux","password":true,"vac":true,"version":"7932396","steam_id":85568392924469991,"keywords":["nocrits","nodmgspread","payload","uncletopia"],"game_id":440,"stv_port":27016,"stv_name":"Uncletopia | Los Angeles | 1 | All Maps | STV","players":null},{"server_id":112,"name":"Uncletopia | Los Angeles | 2 | All Maps","name_short":"lax-2","host":"lax-1.us.uncletopia.com","port":27025,"enabled":true,"region":"us-west","cc":"us","latitude":33.94279,"longitude":-118.41004,"reserved":0,"last_update":"0001-01-01T00:00:00Z","name_a2s":"Uncletopia | Los Angeles | 2 | All Maps","protocol":17,"map":"cp_dustbowl","folder":"tf","game":"Team Fortress","app_id":440,"player_count":0,"max_players":24,"Bots":0,"server_type":"Dedicated","server_os":"Linux","password":true,"vac":true,"version":"7932396","steam_id":85568392924469992,"keywords":["cp","nocrits","nodmgspread","uncletopia"],"game_id":440,"stv_port":27026,"stv_name":"Uncletopia | Los Angeles | 2 | All Maps | STV","players":null},{"server_id":324,"name":"Uncletopia | Los Angeles | 3 | All Maps","name_short":"lax-3","host":"lax-1.us.uncletopia.com","port":27035,"enabled":true,"region":"us-west","cc":"us","latitude":33.94279,"longitude":-118.41004,"reserved":0,"last_update":"0001-01-01T00:00:00Z","name_a2s":"Uncletopia | Los Angeles | 3 | All Maps","protocol":17,"map":"koth_cascade","folder":"tf","game":"Team Fortress","app_id":440,"player_count":0,"max_players":24,"Bots":0,"server_type":"Dedicated","server_os":"Linux","password":true,"vac":true,"version":"7932396","steam_id":85568392924510198,"keywords":["cp","nocrits","nodmgspread","uncletopia"],"game_id":440,"stv_port":27036,"stv_name":"Uncletopia | Los Angeles | 3 | All Maps | STV","players":null},{"server_id":25,"name":"Uncletopia | Los Angeles | 4 | Stopwatch Beta","name_short":"lax-4","host":"lax-1.us.uncletopia.com","port":27045,"enabled":true,"region":"us-west","cc":"us","latitude":33.94279,"longitude":-118.41004,"reserved":0,"last_update":"0001-01-01T00:00:00Z","name_a2s":"Uncletopia | Los Angeles | 4 | Stopwatch Beta","protocol":17,"map":"koth_viaduct","folder":"tf","game":"Team Fortress","app_id":440,"player_count":0,"max_players":24,"Bots":0,"server_type":"Dedicated","server_os":"Linux","password":true,"vac":true,"version":"7932396","steam_id":85568392924510199,"keywords":["cp","nocrits","nodmgspread","uncletopia"],"game_id":440,"stv_port":27046,"stv_name":"Uncletopia | Los Angeles | 4 | Stopwatch Beta | STV","players":null},{"server_id":11,"name":"Uncletopia | London | 1 | All Maps","name_short":"lon-1","host":"lon-1.uk.uncletopia.com","port":27015,"enabled":true,"region":"eu","cc":"gb","latitude":51.509865,"longitude":-0.118092,"reserved":0,"last_update":"0001-01-01T00:00:00Z","name_a2s":"Uncletopia | London | 1 | All Maps","protocol":17,"map":"pl_badwater","folder":"tf","game":"Team Fortress","app_id":440,"player_count":24,"max_players":24,"Bots":0,"server_type":"Dedicated","server_os":"Linux","password":true,"vac":true,"version":"7932396","steam_id":85568392924367362,"keywords":["nocrits","nodmgspread","payload","uncletopia"],"game_id":440,"stv_port":27016,"stv_name":"Uncletopia | London | 1 | All Maps | STV","players":[{"user_id":4,"name":"Mega Saturn","steam_id":76561198024750500,"connected_time":3424000000000,"state":"active","ping":73},{"user_id":51,"name":"Girlboy Theenie","steam_id":76561198029025500,"connected_time":1127000000000,"state":"active","ping":56},{"user_id":26,"name":"Pinochet","steam_id":76561198194042394,"connected_time":1682000000000,"state":"active","ping":149},{"user_id":61,"name":"ice cream","steam_id":76561198087718730,"connected_time":415000000000,"state":"active","ping":54},{"user_id":52,"name":"koth_harvest","steam_id":76561199195985387,"connected_time":1081000000000,"state":"active","ping":85},{"user_id":12,"name":"n.mob","steam_id":76561198389356439,"connected_time":2331000000000,"state":"active","ping":70},{"user_id":14,"name":"Ferlo","steam_id":76561198095561504,"connected_time":2200000000000,"state":"active","ping":59},{"user_id":21,"name":"Fus in Boots","steam_id":76561198053897722,"connected_time":1852000000000,"state":"active","ping":52},{"user_id":64,"name":"Aether VI","steam_id":76561198139782454,"connected_time":279000000000,"state":"active","ping":53},{"user_id":58,"name":"Bob the Juicer","steam_id":76561198284932136,"connected_time":729000000000,"state":"active","ping":88},{"user_id":24,"name":"Femboy Melooni","steam_id":76561199035732179,"connected_time":1705000000000,"state":"active","ping":85},{"user_id":43,"name":"L34D","steam_id":76561197983029255,"connected_time":1300000000000,"state":"active","ping":69},{"user_id":25,"name":"Jeerven","steam_id":76561198259189841,"connected_time":1697000000000,"state":"active","ping":66},{"user_id":39,"name":"pu_gz","steam_id":76561198997625702,"connected_time":1372000000000,"state":"active","ping":130},{"user_id":54,"name":"Vi","steam_id":76561198036546142,"connected_time":825000000000,"state":"active","ping":36},{"user_id":41,"name":"Mak≈Çowicz","steam_id":76561198281831506,"connected_time":1348000000000,"state":"active","ping":85},{"user_id":32,"name":"Alx2k1","steam_id":76561198051544601,"connected_time":1519000000000,"state":"active","ping":78},{"user_id":35,"name":"–¢—Ä—É–ø –í–æ–ª–æ–¥—è","steam_id":76561198035718457,"connected_time":1463000000000,"state":"active","ping":91},{"user_id":56,"name":"blazeeight","steam_id":76561198159456502,"connected_time":783000000000,"state":"active","ping":45},{"user_id":62,"name":"Sylvanas","steam_id":76561198154904165,"connected_time":413000000000,"state":"active","ping":118},{"user_id":47,"name":"844box","steam_id":76561198368131280,"connected_time":1219000000000,"state":"active","ping":114},{"user_id":48,"name":"birb","steam_id":76561198084891833,"connected_time":1200000000000,"state":"active","ping":33},{"user_id":57,"name":"thebigcheif","steam_id":76561198236015392,"connected_time":752000000000,"state":"active","ping":119},{"user_id":63,"name":"eon","steam_id":76561197971360276,"connected_time":413000000000,"state":"active","ping":69}]},{"server_id":114,"name":"Uncletopia | London | 2 | All Maps","name_short":"lon-2","host":"lon-1.uk.uncletopia.com","port":27025,"enabled":true,"region":"eu","cc":"gb","latitude":51.509865,"longitude":-0.118092,"reserved":0,"last_update":"0001-01-01T00:00:00Z","name_a2s":"Uncletopia | London | 2 | All Maps","protocol":17,"map":"koth_cascade","folder":"tf","game":"Team Fortress","app_id":440,"player_count":0,"max_players":24,"Bots":0,"server_type":"Dedicated","server_os":"Linux","password":true,"vac":true,"version":"7932396","steam_id":85568392924470941,"keywords":["cp","nocrits","nodmgspread","uncletopia"],"game_id":440,"stv_port":27026,"stv_name":"Uncletopia | London | 2 | All Maps | STV","players":null},{"server_id":320,"name":"Uncletopia | London | 3 | All Maps","name_short":"lon-3","host":"lon-1.uk.uncletopia.com","port":27035,"enabled":true,"region":"eu","cc":"gb","latitude":51.509865,"longitude":-0.118092,"reserved":0,"last_update":"0001-01-01T00:00:00Z","name_a2s":"Uncletopia | London | 3 | All Maps","protocol":17,"map":"cp_snakewater_final1","folder":"tf","game":"Team Fortress","app_id":440,"player_count":0,"max_players":24,"Bots":0,"server_type":"Dedicated","server_os":"Linux","password":true,"vac":true,"version":"7932396","steam_id":85568392924510192,"keywords":["cp","nocrits","nodmgspread","uncletopia"],"game_id":440,"stv_port":27036,"stv_name":"Uncletopia | London | 3 | All Maps | STV","players":null},{"server_id":321,"name":"Uncletopia | London | 4 | All Maps","name_short":"lon-4","host":"lon-1.uk.uncletopia.com","port":27045,"enabled":true,"region":"eu","cc":"gb","latitude":51.509865,"longitude":-0.118092,"reserved":0,"last_update":"0001-01-01T00:00:00Z","name_a2s":"Uncletopia | London | 4 | All Maps","protocol":17,"map":"pl_swiftwater_final1","folder":"tf","game":"Team Fortress","app_id":440,"player_count":0,"max_players":24,"Bots":0,"server_type":"Dedicated","server_os":"Linux","password":true,"vac":true,"version":"7932396","steam_id":85568392924510193,"keywords":["nocrits","nodmgspread","payload","uncletopia"],"game_id":440,"stv_port":27046,"stv_name":"Uncletopia | London | 4 | All Maps | STV","players":null},{"server_id":21,"name":"Uncletopia | London | 5 | All Maps","name_short":"lon-5","host":"lon-1.uk.uncletopia.com","port":27055,"enabled":true,"region":"eu","cc":"gb","latitude":51.509865,"longitude":-0.118092,"reserved":0,"last_update":"0001-01-01T00:00:00Z","name_a2s":"Uncletopia | London | 5 | All Maps","protocol":17,"map":"pl_snowycoast","folder":"tf","game":"Team Fortress","app_id":440,"player_count":0,"max_players":24,"Bots":0,"server_type":"Dedicated","server_os":"Linux","password":true,"vac":true,"version":"7932396","steam_id":85568392924742829,"keywords":["nocrits","nodmgspread","payload","uncletopia"],"game_id":440,"stv_port":27056,"stv_name":"Uncletopia | London | 5 | All Maps | STV","players":null},{"server_id":22,"name":"Uncletopia | London | 6 | All Maps","name_short":"lon-6","host":"lon-1.uk.uncletopia.com","port":27065,"enabled":true,"region":"eu","cc":"gb","latitude":51.509865,"longitude":-0.118092,"reserved":0,"last_update":"0001-01-01T00:00:00Z","name_a2s":"Uncletopia | London | 6 | All Maps","protocol":17,"map":"pl_snowycoast","folder":"tf","game":"Team Fortress","app_id":440,"player_count":0,"max_players":24,"Bots":0,"server_type":"Dedicated","server_os":"Linux","password":true,"vac":true,"version":"7932396","steam_id":85568392924742830,"keywords":["nocrits","nodmgspread","payload","uncletopia"],"game_id":440,"stv_port":27066,"stv_name":"Uncletopia | London | 6 | All Maps | STV","players":null},{"server_id":40,"name":"Uncletopia | London | 7 | No Payload","name_short":"lon-7","host":"lon-1.uk.uncletopia.com","port":27075,"enabled":true,"region":"eu","cc":"gb","latitude":51.509865,"longitude":-0.118092,"reserved":0,"last_update":"0001-01-01T00:00:00Z","name_a2s":"Uncletopia | London | 7 | No Payload","protocol":17,"map":"cp_dustbowl","folder":"tf","game":"Team Fortress","app_id":440,"player_count":0,"max_players":24,"Bots":0,"server_type":"Dedicated","server_os":"Linux","password":true,"vac":true,"version":"7932396","steam_id":85568392924964314,"keywords":["cp","nocrits","nodmgspread","uncletopia"],"game_id":440,"stv_port":27076,"stv_name":"Uncletopia | London | 7 | No Payload | STV","players":null},{"server_id":41,"name":"Uncletopia | London | 8 | Community","name_short":"lon-8","host":"lon-1.uk.uncletopia.com","port":27085,"enabled":true,"region":"eu","cc":"gb","latitude":51.509865,"longitude":-0.118092,"reserved":0,"last_update":"0001-01-01T00:00:00Z","name_a2s":"Uncletopia | London | 8 | Community","protocol":17,"map":"cp_snakewater_final1","folder":"tf","game":"Team Fortress","app_id":440,"player_count":0,"max_players":24,"Bots":0,"server_type":"Dedicated","server_os":"Linux","password":true,"vac":true,"version":"7932396","steam_id":85568392924964315,"keywords":["cp","nocrits","nodmgspread","uncletopia"],"game_id":440,"stv_port":27086,"stv_name":"Uncletopia | London | 8 | Community | STV","players":null},{"server_id":300,"name":"Uncletopia | Montr√©al | 1 | All Maps","name_short":"mtl-1","host":"mtl-1.ca.uncletopia.com","port":27015,"enabled":true,"region":"us-east","cc":"ca","latitude":45.50889,"longitude":-73.56167,"reserved":0,"last_update":"0001-01-01T00:00:00Z","name_a2s":"Uncletopia | Montr√©al | 1 | All Maps","protocol":17,"map":"pl_swiftwater_final1","folder":"tf","game":"Team Fortress","app_id":440,"player_count":0,"max_players":24,"Bots":0,"server_type":"Dedicated","server_os":"Linux","password":true,"vac":true,"version":"7932396","steam_id":85568392924500087,"keywords":["nocrits","nodmgspread","payload","uncletopia"],"game_id":440,"stv_port":27016,"stv_name":"Uncletopia | Montr√©al | 1 | All Maps | STV","players":null},{"server_id":301,"name":"Uncletopia | Montr√©al | 2 | All Maps","name_short":"mtl-2","host":"mtl-1.ca.uncletopia.com","port":27025,"enabled":true,"region":"us-east","cc":"ca","latitude":45.50889,"longitude":-73.56167,"reserved":0,"last_update":"0001-01-01T00:00:00Z","name_a2s":"Uncletopia | Montr√©al | 2 | All Maps","protocol":17,"map":"pl_upward","folder":"tf","game":"Team Fortress","app_id":440,"player_count":0,"max_players":24,"Bots":0,"server_type":"Dedicated","server_os":"Linux","password":true,"vac":true,"version":"7932396","steam_id":85568392924500088,"keywords":["nocrits","nodmgspread","payload","uncletopia"],"game_id":440,"stv_port":27026,"stv_name":"Uncletopia | Montr√©al | 2 | All Maps | STV","players":null},{"server_id":302,"name":"Uncletopia | Montr√©al | 3 | All Maps","name_short":"mtl-3","host":"mtl-1.ca.uncletopia.com","port":27035,"enabled":true,"region":"us-east","cc":"ca","latitude":45.50889,"longitude":-73.56167,"reserved":0,"last_update":"0001-01-01T00:00:00Z","name_a2s":"Uncletopia | Montr√©al | 3 | All Maps","protocol":17,"map":"cp_dustbowl","folder":"tf","game":"Team Fortress","app_id":440,"player_count":0,"max_players":24,"Bots":0,"server_type":"Dedicated","server_os":"Linux","password":true,"vac":true,"version":"7932396","steam_id":85568392924500089,"keywords":["cp","nocrits","nodmgspread","uncletopia"],"game_id":440,"stv_port":27036,"stv_name":"Uncletopia | Montr√©al | 3 | All Maps | STV","players":null},{"server_id":303,"name":"Uncletopia | Montr√©al | 4 | No Payload","name_short":"mtl-4","host":"mtl-1.ca.uncletopia.com","port":27045,"enabled":true,"region":"us-east","cc":"ca","latitude":45.50889,"longitude":-73.56167,"reserved":0,"last_update":"0001-01-01T00:00:00Z","name_a2s":"Uncletopia | Montr√©al | 4 | No Payload","protocol":17,"map":"cp_sunshine","folder":"tf","game":"Team Fortress","app_id":440,"player_count":0,"max_players":24,"Bots":0,"server_type":"Dedicated","server_os":"Linux","password":true,"vac":true,"version":"7932396","steam_id":85568392924500090,"keywords":["cp","nocrits","nodmgspread","uncletopia"],"game_id":440,"stv_port":27046,"stv_name":"Uncletopia | Montr√©al | 4 | No Payload | STV","players":null},{"server_id":13,"name":"Uncletopia | New York City | 1 | All Maps","name_short":"nyc-1","host":"nyc-1.us.uncletopia.com","port":27015,"enabled":true,"region":"us-east","cc":"us","latitude":40.73061,"longitude":-73.93524,"reserved":0,"last_update":"0001-01-01T00:00:00Z","name_a2s":"Uncletopia | New York City | 1 | All Maps","protocol":17,"map":"koth_lakeside_final","folder":"tf","game":"Team Fortress","app_id":440,"player_count":0,"max_players":24,"Bots":0,"server_type":"Dedicated","server_os":"Linux","password":true,"vac":true,"version":"7932396","steam_id":85568392924469993,"keywords":["cp","nocrits","nodmgspread","uncletopia"],"game_id":440,"stv_port":27016,"stv_name":"Uncletopia | New York City | 1 | All Maps | STV","players":null},{"server_id":14,"name":"Uncletopia | New York City | 2 | All Maps","name_short":"nyc-2","host":"nyc-1.us.uncletopia.com","port":27025,"enabled":true,"region":"us-east","cc":"us","latitude":40.73061,"longitude":-73.93524,"reserved":0,"last_update":"0001-01-01T00:00:00Z","name_a2s":"Uncletopia | New York City | 2 | All Maps","protocol":17,"map":"koth_cascade","folder":"tf","game":"Team Fortress","app_id":440,"player_count":0,"max_players":24,"Bots":0,"server_type":"Dedicated","server_os":"Linux","password":true,"vac":true,"version":"7932396","steam_id":85568392924469994,"keywords":["cp","nocrits","nodmgspread","uncletopia"],"game_id":440,"stv_port":27026,"stv_name":"Uncletopia | New York City | 2 | All Maps | STV","players":null},{"server_id":15,"name":"Uncletopia | New York City | 3 | Stopwatch Beta","name_short":"nyc-3","host":"nyc-1.us.uncletopia.com","port":27035,"enabled":true,"region":"us-east","cc":"us","latitude":40.73061,"longitude":-73.93524,"reserved":0,"last_update":"0001-01-01T00:00:00Z","name_a2s":"Uncletopia | New York City | 3 | Stopwatch Beta","protocol":17,"map":"pl_frontier_final","folder":"tf","game":"Team Fortress","app_id":440,"player_count":0,"max_players":24,"Bots":0,"server_type":"Dedicated","server_os":"Linux","password":true,"vac":true,"version":"7932396","steam_id":85568392924742820,"keywords":["nocrits","nodmgspread","payload","uncletopia"],"game_id":440,"stv_port":27036,"stv_name":"Uncletopia | New York City | 3 | Stopwatch Beta | STV","players":null},{"server_id":16,"name":"Uncletopia | New York City | 4 | Community","name_short":"nyc-4","host":"nyc-1.us.uncletopia.com","port":27045,"enabled":true,"region":"us-east","cc":"us","latitude":40.73061,"longitude":-73.93524,"reserved":0,"last_update":"0001-01-01T00:00:00Z","name_a2s":"Uncletopia | New York City | 4 | Community","protocol":17,"map":"koth_highpass","folder":"tf","game":"Team Fortress","app_id":440,"player_count":0,"max_players":24,"Bots":0,"server_type":"Dedicated","server_os":"Linux","password":true,"vac":true,"version":"7932396","steam_id":85568392924742821,"keywords":["cp","nocrits","nodmgspread","uncletopia"],"game_id":440,"stv_port":27046,"stv_name":"Uncletopia | New York City | 4 | Community | STV","players":null},{"server_id":142,"name":"Uncletopia | S√£o Paulo | 1 | All Maps","name_short":"sao-1","host":"sao-1.br.uncletopia.com","port":27015,"enabled":true,"region":"sa","cc":"br","latitude":-23.533773,"longitude":-46.62529,"reserved":0,"last_update":"0001-01-01T00:00:00Z","name_a2s":"Uncletopia | S√£o Paulo | 1 | All Maps","protocol":17,"map":"koth_highpass","folder":"tf","game":"Team Fortress","app_id":440,"player_count":0,"max_players":24,"Bots":0,"server_type":"Dedicated","server_os":"Linux","password":true,"vac":true,"version":"7932396","steam_id":85568392924469996,"keywords":["cp","nocrits","nodmgspread","uncletopia"],"game_id":440,"stv_port":27016,"stv_name":"Uncletopia | S√£o Paulo | 1 | All Maps | STV","players":null},{"server_id":143,"name":"Uncletopia | S√£o Paulo | 2 | All Maps","name_short":"sao-2","host":"sao-2.br.uncletopia.com","port":27015,"enabled":true,"region":"sa","cc":"br","latitude":-23.533773,"longitude":-46.62529,"reserved":0,"last_update":"0001-01-01T00:00:00Z","name_a2s":"Uncletopia | S√£o Paulo | 2 | All Maps","protocol":17,"map":"pl_upward","folder":"tf","game":"Team Fortress","app_id":440,"player_count":0,"max_players":24,"Bots":0,"server_type":"Dedicated","server_os":"Linux","password":true,"vac":true,"version":"7932396","steam_id":85568392924485349,"keywords":["nocrits","nodmgspread","payload","uncletopia"],"game_id":440,"stv_port":27016,"stv_name":"Uncletopia | S√£o Paulo | 2 | All Maps | STV","players":null},{"server_id":7,"name":"Uncletopia | Seattle | 1 | All Maps","name_short":"sea-1","host":"sea-1.us.uncletopia.com","port":27015,"enabled":true,"region":"us-west","cc":"us","latitude":47.608013,"longitude":-122.33517,"reserved":0,"last_update":"0001-01-01T00:00:00Z","name_a2s":"Uncletopia | Seattle | 1 | All Maps","protocol":17,"map":"pl_pier","folder":"tf","game":"Team Fortress","app_id":440,"player_count":21,"max_players":24,"Bots":0,"server_type":"Dedicated","server_os":"Linux","password":true,"vac":true,"version":"7932396","steam_id":85568392924469997,"keywords":["nocrits","nodmgspread","payload","uncletopia"],"game_id":440,"stv_port":27016,"stv_name":"Uncletopia | Seattle | 1 | All Maps | STV","players":[{"user_id":66,"name":"Crutchletopia","steam_id":76561198046526036,"connected_time":281000000000,"state":"active","ping":75},{"user_id":47,"name":"human trafficking","steam_id":76561198309823950,"connected_time":2658000000000,"state":"active","ping":45},{"user_id":5,"name":"Ayayayayayahuasca","steam_id":76561199002906056,"connected_time":4967000000000,"state":"active","ping":45},{"user_id":52,"name":"OctoHam","steam_id":76561198143371318,"connected_time":1722000000000,"state":"active","ping":143},{"user_id":67,"name":"dweamy","steam_id":76561198119181880,"connected_time":266000000000,"state":"active","ping":85},{"user_id":8,"name":"Grill Skills","steam_id":76561198053575147,"connected_time":4962000000000,"state":"active","ping":57},{"user_id":43,"name":"Free1337","steam_id":76561198034160133,"connected_time":3723000000000,"state":"active","ping":105},{"user_id":56,"name":"Kirrran","steam_id":76561198306323581,"connected_time":1495000000000,"state":"active","ping":58},{"user_id":72,"name":"Elliot","steam_id":76561198052843856,"connected_time":1000000000,"state":"spawning","ping":69},{"user_id":54,"name":"Tripll-L","steam_id":76561197998077437,"connected_time":1576000000000,"state":"active","ping":62},{"user_id":61,"name":"sierra","steam_id":76561197969873415,"connected_time":989000000000,"state":"active","ping":140},{"user_id":68,"name":"Loaf","steam_id":76561198446378419,"connected_time":239000000000,"state":"active","ping":130},{"user_id":15,"name":"Your Local Queer Librarian","steam_id":76561198013077080,"connected_time":4912000000000,"state":"active","ping":108},{"user_id":48,"name":"Crunchy","steam_id":76561198240523882,"connected_time":2306000000000,"state":"active","ping":80},{"user_id":58,"name":"Lord_Manship","steam_id":76561198045168765,"connected_time":1445000000000,"state":"active","ping":125},{"user_id":50,"name":"Satan-2","steam_id":76561199231742764,"connected_time":1853000000000,"state":"active","ping":117},{"user_id":38,"name":"Ymiir","steam_id":76561198118284271,"connected_time":3865000000000,"state":"active","ping":84},{"user_id":60,"name":"Active Aggression","steam_id":76561198066619792,"connected_time":1293000000000,"state":"active","ping":65},{"user_id":25,"name":"RainboomCrash","steam_id":76561198065612273,"connected_time":4719000000000,"state":"active","ping":51},{"user_id":32,"name":"vuldrin","steam_id":76561198383695069,"connected_time":4515000000000,"state":"active","ping":86},{"user_id":64,"name":"checking out that gaming","steam_id":76561198211677460,"connected_time":762000000000,"state":"active","ping":105}]},{"server_id":119,"name":"Uncletopia | Seattle | 2 | All Maps","name_short":"sea-2","host":"sea-1.us.uncletopia.com","port":27025,"enabled":true,"region":"us-west","cc":"us","latitude":47.608013,"longitude":-122.33517,"reserved":0,"last_update":"0001-01-01T00:00:00Z","name_a2s":"Uncletopia | Seattle | 2 | All Maps","protocol":17,"map":"koth_highpass","folder":"tf","game":"Team Fortress","app_id":440,"player_count":0,"max_players":24,"Bots":0,"server_type":"Dedicated","server_os":"Linux","password":true,"vac":true,"version":"7932396","steam_id":85568392924469998,"keywords":["cp","nocrits","nodmgspread","uncletopia"],"game_id":440,"stv_port":27026,"stv_name":"Uncletopia | Seattle | 2 | All Maps | STV","players":null},{"server_id":406,"name":"Uncletopia | Seattle | 3 | Stopwatch Beta","name_short":"sea-3","host":"sea-1.us.uncletopia.com","port":27035,"enabled":true,"region":"us-west","cc":"us","latitude":47.608013,"longitude":-122.33517,"reserved":0,"last_update":"0001-01-01T00:00:00Z","name_a2s":"Uncletopia | Seattle | 3 | Stopwatch Beta","protocol":17,"map":"pl_barnblitz","folder":"tf","game":"Team Fortress","app_id":440,"player_count":0,"max_players":24,"Bots":0,"server_type":"Dedicated","server_os":"Linux","password":true,"vac":true,"version":"7932396","steam_id":85568392924515217,"keywords":["nocrits","nodmgspread","payload","uncletopia"],"game_id":440,"stv_port":27036,"stv_name":"Uncletopia | Seattle | 3 | Stopwatch Beta | STV","players":null},{"server_id":17,"name":"Uncletopia | San Francisco | 1 | All Maps","name_short":"sfo-1","host":"sfo-1.us.uncletopia.com","port":27015,"enabled":true,"region":"us-west","cc":"us","latitude":37.77397,"longitude":-122.4313,"reserved":0,"last_update":"0001-01-01T00:00:00Z","name_a2s":"Uncletopia | San Francisco | 1 | All Maps","protocol":17,"map":"pl_borneo","folder":"tf","game":"Team Fortress","app_id":440,"player_count":0,"max_players":24,"Bots":0,"server_type":"Dedicated","server_os":"Linux","password":true,"vac":true,"version":"7932396","steam_id":85568392924469999,"keywords":["nocrits","nodmgspread","payload","uncletopia"],"game_id":440,"stv_port":27016,"stv_name":"Uncletopia | San Francisco | 1 | All Maps | STV","players":null},{"server_id":18,"name":"Uncletopia | San Francisco | 2 | All Maps","name_short":"sfo-2","host":"sfo-1.us.uncletopia.com","port":27025,"enabled":true,"region":"us-west","cc":"us","latitude":37.77397,"longitude":-122.4313,"reserved":0,"last_update":"0001-01-01T00:00:00Z","name_a2s":"Uncletopia | San Francisco | 2 | All Maps","protocol":17,"map":"koth_cascade","folder":"tf","game":"Team Fortress","app_id":440,"player_count":0,"max_players":24,"Bots":0,"server_type":"Dedicated","server_os":"Linux","password":true,"vac":true,"version":"7932396","steam_id":85568392924470000,"keywords":["cp","nocrits","nodmgspread","uncletopia"],"game_id":440,"stv_port":27026,"stv_name":"Uncletopia | San Francisco | 2 | All Maps | STV","players":null},{"server_id":19,"name":"Uncletopia | San Francisco | 3 | Stopwatch Beta","name_short":"sfo-3","host":"sfo-1.us.uncletopia.com","port":27035,"enabled":true,"region":"us-west","cc":"us","latitude":37.77397,"longitude":-122.4313,"reserved":0,"last_update":"0001-01-01T00:00:00Z","name_a2s":"Uncletopia | San Francisco | 3 | Stopwatch Beta","protocol":17,"map":"cp_dustbowl","folder":"tf","game":"Team Fortress","app_id":440,"player_count":0,"max_players":24,"Bots":0,"server_type":"Dedicated","server_os":"Linux","password":true,"vac":true,"version":"7932396","steam_id":85568392924742824,"keywords":["cp","nocrits","nodmgspread","uncletopia"],"game_id":440,"stv_port":27036,"stv_name":"Uncletopia | San Francisco | 3 | Stopwatch Beta | STV","players":null},{"server_id":20,"name":"Uncletopia | San Francisco | 4 | Community","name_short":"sfo-4","host":"sfo-1.us.uncletopia.com","port":27045,"enabled":true,"region":"us-west","cc":"us","latitude":37.77397,"longitude":-122.4313,"reserved":0,"last_update":"0001-01-01T00:00:00Z","name_a2s":"Uncletopia | San Francisco | 4 | Community","protocol":17,"map":"workshop/cp_croissant_final.ugc458840209","folder":"tf","game":"Team Fortress","app_id":440,"player_count":0,"max_players":24,"Bots":0,"server_type":"Dedicated","server_os":"Linux","password":true,"vac":true,"version":"7932396","steam_id":85568392924742826,"keywords":["cp","nocrits","nodmgspread","uncletopia"],"game_id":440,"stv_port":27046,"stv_name":"Uncletopia | San Francisco | 4 | Community | STV","players":null},{"server_id":141,"name":"Uncletopia | Sydney | 1 | All Maps","name_short":"syd-1","host":"syd-1.au.uncletopia.com","port":27015,"enabled":true,"region":"au","cc":"au","latitude":-33.865143,"longitude":151.2099,"reserved":0,"last_update":"0001-01-01T00:00:00Z","name_a2s":"Uncletopia | Sydney | 1 | All Maps","protocol":17,"map":"koth_viaduct","folder":"tf","game":"Team Fortress","app_id":440,"player_count":23,"max_players":24,"Bots":0,"server_type":"Dedicated","server_os":"Linux","password":true,"vac":true,"version":"7932396","steam_id":85568392924470001,"keywords":["cp","nocrits","nodmgspread","uncletopia"],"game_id":440,"stv_port":27016,"stv_name":"Uncletopia | Sydney | 1 | All Maps | STV","players":[{"user_id":47,"name":"MindlessTie","steam_id":76561198107844324,"connected_time":1606000000000,"state":"active","ping":69},{"user_id":38,"name":"Original Glazed (Krispy/Kreme)","steam_id":76561197997362731,"connected_time":3948000000000,"state":"active","ping":44},{"user_id":44,"name":"Zebadar","steam_id":76561198121318474,"connected_time":2887000000000,"state":"active","ping":53},{"user_id":58,"name":"Aquila","steam_id":76561198042520637,"connected_time":1023000000000,"state":"active","ping":32},{"user_id":7,"name":"Lumalee ‚ù§","steam_id":76561198157613299,"connected_time":5028000000000,"state":"active","ping":66},{"user_id":51,"name":"Destroy Lonely","steam_id":76561198183714687,"connected_time":1126000000000,"state":"active","ping":41},{"user_id":60,"name":"Phill cumbuckets Jr","steam_id":76561198081187571,"connected_time":969000000000,"state":"active","ping":40},{"user_id":10,"name":"Jodelk√∂nig Franzl Lang","steam_id":76561198007667830,"connected_time":5025000000000,"state":"active","ping":47},{"user_id":31,"name":"Doctor Estonia","steam_id":76561198057365089,"connected_time":4795000000000,"state":"active","ping":78},{"user_id":12,"name":"uven","steam_id":76561198080981482,"connected_time":5016000000000,"state":"active","ping":34},{"user_id":13,"name":"mushroom","steam_id":76561197992336470,"connected_time":5016000000000,"state":"active","ping":90},{"user_id":15,"name":"infernoraz","steam_id":76561198117582261,"connected_time":5013000000000,"state":"active","ping":47},{"user_id":16,"name":"CypressFluff (She/Her)","steam_id":76561198174667818,"connected_time":5008000000000,"state":"active","ping":62},{"user_id":66,"name":"armenian jarry arc","steam_id":76561198061532381,"connected_time":369000000000,"state":"active","ping":67},{"user_id":67,"name":"huncho","steam_id":76561198162196243,"connected_time":321000000000,"state":"active","ping":40},{"user_id":69,"name":"Ratbagus","steam_id":76561197993827486,"connected_time":208000000000,"state":"active","ping":75},{"user_id":33,"name":"Charm","steam_id":76561198028891054,"connected_time":4262000000000,"state":"active","ping":60},{"user_id":22,"name":"stroob","steam_id":76561198045320644,"connected_time":4990000000000,"state":"active","ping":50},{"user_id":30,"name":"MrTrollTheMadGamer","steam_id":76561198095862889,"connected_time":4853000000000,"state":"active","ping":66},{"user_id":24,"name":"miyamoto is daddy","steam_id":76561199483818230,"connected_time":4988000000000,"state":"active","ping":70},{"user_id":63,"name":"Mouse Balls","steam_id":76561199037470627,"connected_time":908000000000,"state":"active","ping":110},{"user_id":53,"name":"Pompadouraus","steam_id":76561198327530525,"connected_time":1121000000000,"state":"active","ping":81},{"user_id":54,"name":"Doctor Vinnie Boombotz","steam_id":76561198062311556,"connected_time":1121000000000,"state":"active","ping":55}]},{"server_id":123,"name":"Uncletopia | Sydney | 2 | All Maps","name_short":"syd-2","host":"syd-1.au.uncletopia.com","port":27025,"enabled":true,"region":"au","cc":"au","latitude":-33.865143,"longitude":151.2099,"reserved":0,"last_update":"0001-01-01T00:00:00Z","name_a2s":"Uncletopia | Sydney | 2 | All Maps","protocol":17,"map":"pl_borneo","folder":"tf","game":"Team Fortress","app_id":440,"player_count":23,"max_players":24,"Bots":0,"server_type":"Dedicated","server_os":"Linux","password":true,"vac":true,"version":"7932396","steam_id":85568392924470002,"keywords":["nocrits","nodmgspread","payload","uncletopia"],"game_id":440,"stv_port":27026,"stv_name":"Uncletopia | Sydney | 2 | All Maps | STV","players":[{"user_id":83,"name":"you will be boiled","steam_id":76561198079351541,"connected_time":874000000000,"state":"active","ping":50},{"user_id":85,"name":"sentar","steam_id":76561198126692772,"connected_time":728000000000,"state":"active","ping":45},{"user_id":65,"name":"enraged husk","steam_id":76561198048064049,"connected_time":2359000000000,"state":"active","ping":82},{"user_id":75,"name":"you've left me be Wilbur'd","steam_id":76561198301282416,"connected_time":1358000000000,"state":"active","ping":130},{"user_id":74,"name":"dumbvent","steam_id":76561198190062810,"connected_time":1383000000000,"state":"active","ping":60},{"user_id":97,"name":"Rocketmaster","steam_id":76561198291383989,"connected_time":353000000000,"state":"active","ping":146},{"user_id":100,"name":"Evil Goblin","steam_id":76561198951178401,"connected_time":223000000000,"state":"active","ping":72},{"user_id":91,"name":"little raw meat boy","steam_id":76561199248254676,"connected_time":636000000000,"state":"active","ping":55},{"user_id":86,"name":"garnish master","steam_id":76561197996551827,"connected_time":707000000000,"state":"active","ping":54},{"user_id":87,"name":"The College Graduate","steam_id":76561198059981682,"connected_time":694000000000,"state":"active","ping":55},{"user_id":88,"name":"Smae ‚éä ‚éä","steam_id":76561198161497327,"connected_time":689000000000,"state":"active","ping":62},{"user_id":80,"name":"Mr Reginald","steam_id":76561198112479686,"connected_time":1100000000000,"state":"active","ping":97},{"user_id":79,"name":"That_Spooky_Dude","steam_id":76561198148488389,"connected_time":1114000000000,"state":"active","ping":55},{"user_id":89,"name":"fruit rat","steam_id":76561198326005477,"connected_time":677000000000,"state":"active","ping":62},{"user_id":68,"name":"\u003e:FrozenDragon:\u003c","steam_id":76561198227960928,"connected_time":1814000000000,"state":"active","ping":103},{"user_id":90,"name":"wizward","steam_id":76561198074621811,"connected_time":677000000000,"state":"active","ping":66},{"user_id":92,"name":"BillybutSilly","steam_id":76561198289470805,"connected_time":619000000000,"state":"active","ping":92},{"user_id":94,"name":"whatsapp","steam_id":76561199099744527,"connected_time":500000000000,"state":"active","ping":50},{"user_id":98,"name":"“ÇStorm","steam_id":76561198073213264,"connected_time":291000000000,"state":"active","ping":49},{"user_id":55,"name":"Xenix","steam_id":76561198795888766,"connected_time":3517000000000,"state":"active","ping":69},{"user_id":99,"name":"cas ganister","steam_id":76561198879023728,"connected_time":276000000000,"state":"active","ping":56},{"user_id":102,"name":"Golden Terrestrial","steam_id":76561198082713023,"connected_time":168000000000,"state":"active","ping":56},{"user_id":70,"name":"Archangel","steam_id":76561198847421088,"connected_time":1717000000000,"state":"active","ping":181}]},{"server_id":395,"name":"Uncletopia | Sydney | 3 | All Maps","name_short":"syd-3","host":"syd-1.au.uncletopia.com","port":27035,"enabled":true,"region":"au","cc":"au","latitude":-33.865143,"longitude":151.2099,"reserved":0,"last_update":"0001-01-01T00:00:00Z","name_a2s":"Uncletopia | Sydney | 3 | All Maps","protocol":17,"map":"cp_mountainlab","folder":"tf","game":"Team Fortress","app_id":440,"player_count":0,"max_players":24,"Bots":0,"server_type":"Dedicated","server_os":"Linux","password":true,"vac":true,"version":"7932396","steam_id":85568392925194467,"keywords":["cp","nocrits","nodmgspread","uncletopia"],"game_id":440,"stv_port":27036,"stv_name":"Uncletopia | Sydney | 3 | All Maps | STV","players":null},{"server_id":396,"name":"Uncletopia | Sydney | 4 | All Maps","name_short":"syd-4","host":"syd-1.au.uncletopia.com","port":27045,"enabled":true,"region":"au","cc":"au","latitude":-33.865143,"longitude":151.2099,"reserved":0,"last_update":"0001-01-01T00:00:00Z","name_a2s":"Uncletopia | Sydney | 4 | All Maps","protocol":17,"map":"koth_lakeside_final","folder":"tf","game":"Team Fortress","app_id":440,"player_count":0,"max_players":24,"Bots":0,"server_type":"Dedicated","server_os":"Linux","password":true,"vac":true,"version":"7932396","steam_id":85568392925397958,"keywords":["cp","nocrits","nodmgspread","uncletopia"],"game_id":440,"stv_port":27046,"stv_name":"Uncletopia | Sydney | 4 | All Maps | STV","players":null},{"server_id":58,"name":"Uncletopia | Sydney | 5 | Stopwatch Beta","name_short":"syd-5","host":"syd-1.au.uncletopia.com","port":27055,"enabled":true,"region":"au","cc":"au","latitude":-33.865143,"longitude":151.2099,"reserved":0,"last_update":"0001-01-01T00:00:00Z","name_a2s":"Uncletopia | Sydney | 5 | Stopwatch Beta","protocol":17,"map":"cp_altitude","folder":"tf","game":"Team Fortress","app_id":440,"player_count":0,"max_players":24,"Bots":0,"server_type":"Dedicated","server_os":"Linux","password":true,"vac":true,"version":"7932396","steam_id":85568392925397959,"keywords":["cp","nocrits","nodmgspread","uncletopia"],"game_id":440,"stv_port":27056,"stv_name":"Uncletopia | Sydney | 5 | Stopwatch Beta | STV","players":null},{"server_id":59,"name":"Uncletopia | Sydney | 6 | Community","name_short":"syd-6","host":"syd-1.au.uncletopia.com","port":27065,"enabled":true,"region":"au","cc":"au","latitude":-33.865143,"longitude":151.2099,"reserved":0,"last_update":"0001-01-01T00:00:00Z","name_a2s":"Uncletopia | Sydney | 6 | Community","protocol":17,"map":"cp_altitude","folder":"tf","game":"Team Fortress","app_id":440,"player_count":0,"max_players":24,"Bots":0,"server_type":"Dedicated","server_os":"Linux","password":true,"vac":true,"version":"7932396","steam_id":85568392925397960,"keywords":["cp","nocrits","nodmgspread","uncletopia"],"game_id":440,"stv_port":27066,"stv_name":"Uncletopia | Sydney | 6 | Community | STV","players":null},{"server_id":49,"name":"Uncletopia | Warsaw | 1 | All Maps","name_short":"waw-1","host":"waw-1.pl.uncletopia.com","port":27015,"enabled":true,"region":"eu","cc":"pl","latitude":52.2297,"longitude":21.017532,"reserved":0,"last_update":"0001-01-01T00:00:00Z","name_a2s":"","protocol":0,"map":"","folder":"","game":"","app_id":0,"player_count":0,"max_players":0,"Bots":0,"server_type":"","server_os":"","password":false,"vac":false,"version":"","steam_id":0,"keywords":null,"game_id":0,"stv_port":0,"stv_name":"","players":null},{"server_id":50,"name":"Uncletopia | Warsaw | 2 | All Maps","name_short":"waw-2","host":"waw-1.pl.uncletopia.com","port":27025,"enabled":true,"region":"eu","cc":"pl","latitude":52.2297,"longitude":21.017532,"reserved":0,"last_update":"0001-01-01T00:00:00Z","name_a2s":"Uncletopia | Warsaw | 2 | All Maps","protocol":17,"map":"pl_borneo","folder":"tf","game":"Team Fortress","app_id":440,"player_count":0,"max_players":24,"Bots":0,"server_type":"Dedicated","server_os":"Linux","password":true,"vac":true,"version":"7932396","steam_id":85568392925397851,"keywords":["nocrits","nodmgspread","payload","uncletopia"],"game_id":440,"stv_port":27026,"stv_name":"Uncletopia | Warsaw | 2 | All Maps | STV","players":null},{"server_id":51,"name":"Uncletopia | Warsaw | 3 | All Maps","name_short":"waw-3","host":"waw-1.pl.uncletopia.com","port":27035,"enabled":true,"region":"eu","cc":"pl","latitude":52.2297,"longitude":21.017532,"reserved":0,"last_update":"0001-01-01T00:00:00Z","name_a2s":"Uncletopia | Warsaw | 3 | All Maps","protocol":17,"map":"pl_pier","folder":"tf","game":"Team Fortress","app_id":440,"player_count":0,"max_players":24,"Bots":0,"server_type":"Dedicated","server_os":"Linux","password":true,"vac":true,"version":"7932396","steam_id":85568392925397852,"keywords":["nocrits","nodmgspread","payload","uncletopia"],"game_id":440,"stv_port":27036,"stv_name":"Uncletopia | Warsaw | 3 | All Maps | STV","players":null},{"server_id":52,"name":"Uncletopia | Warsaw | 4 | All Maps","name_short":"waw-4","host":"waw-1.pl.uncletopia.com","port":27045,"enabled":true,"region":"eu","cc":"pl","latitude":52.2297,"longitude":21.017532,"reserved":0,"last_update":"0001-01-01T00:00:00Z","name_a2s":"Uncletopia | Warsaw | 4 | All Maps","protocol":17,"map":"pl_borneo","folder":"tf","game":"Team Fortress","app_id":440,"player_count":0,"max_players":24,"Bots":0,"server_type":"Dedicated","server_os":"Linux","password":true,"vac":true,"version":"7932396","steam_id":85568392925397853,"keywords":["nocrits","nodmgspread","payload","uncletopia"],"game_id":440,"stv_port":27046,"stv_name":"Uncletopia | Warsaw | 4 | All Maps | STV","players":null},{"server_id":53,"name":"Uncletopia | Warsaw | 5 | Stopwatch Beta","name_short":"waw-5","host":"waw-1.pl.uncletopia.com","port":27055,"enabled":true,"region":"eu","cc":"pl","latitude":52.2297,"longitude":21.017532,"reserved":0,"last_update":"0001-01-01T00:00:00Z","name_a2s":"Uncletopia | Warsaw | 5 | Stopwatch Beta","protocol":17,"map":"koth_cascade","folder":"tf","game":"Team Fortress","app_id":440,"player_count":0,"max_players":24,"Bots":0,"server_type":"Dedicated","server_os":"Linux","password":true,"vac":true,"version":"7932396","steam_id":85568392925397854,"keywords":["cp","nocrits","nodmgspread","uncletopia"],"game_id":440,"stv_port":27056,"stv_name":"Uncletopia | Warsaw | 5 | Stopwatch Beta | STV","players":null},{"server_id":54,"name":"Uncletopia | Warsaw | 6 | Community","name_short":"waw-6","host":"waw-1.pl.uncletopia.com","port":27065,"enabled":true,"region":"eu","cc":"pl","latitude":52.2297,"longitude":21.017532,"reserved":0,"last_update":"0001-01-01T00:00:00Z","name_a2s":"Uncletopia | Warsaw | 6 | Community","protocol":17,"map":"pl_frontier_final","folder":"tf","game":"Team Fortress","app_id":440,"player_count":0,"max_players":24,"Bots":0,"server_type":"Dedicated","server_os":"Linux","password":true,"vac":true,"version":"7932396","steam_id":85568392925397856,"keywords":["nocrits","nodmgspread","payload","uncletopia"],"game_id":440,"stv_port":27066,"stv_name":"Uncletopia | Warsaw | 6 | Community | STV","players":null}]}