{"status":true,"message":"","result":[{"server_id":9,"name":"Uncletopia | Atlanta | 1 | All Maps","name_short":"atl-1","host":"atl-1.us.uncletopia.com","port":27015,"enabled":true,"region":"us-east","cc":"us","latitude":33.753746,"longitude":-84.38633,"reserved":0,"last_update":"0001-01-01T00:00:00Z","name_a2s":"Uncletopia | Atlanta | 1 | All Maps","protocol":17,"map":"koth_cascade","folder":"tf","game":"Team Fortress","app_id":440,"player_count":0,"max_players":24,"Bots":0,"server_type":"Dedicated","server_os":"Linux","password":true,"vac":true,"version":"7695204","steam_id":85568392924469982,"keywords":["cp","nocrits","nodmgspread","uncletopia"],"game_id":440,"stv_port":0,"stv_name":"","players":null},{"server_id":400,"name":"Uncletopia | Atlanta | 3 | All Maps","name_short":"atl-3","host":"atl-1.us.uncletopia.com","port":27035,"enabled":true,"region":"us-east","cc":"us","latitude":33.753746,"longitude":-84.38633,"reserved":0,"last_update":"0001-01-01T00:00:00Z","name_a2s":"Uncletopia | Atlanta | 3 | All Maps","protocol":17,"map":"pl_frontier_final","folder":"tf","game":"Team Fortress","app_id":440,"player_count":0,"max_players":24,"Bots":0,"server_type":"Dedicated","server_os":"Linux","password":true,"vac":true,"version":"7695204","steam_id":85568392924515187,"keywords":["nocrits","nodmgspread","payload","uncletopia"],"game_id":440,"stv_port":0,"stv_name":"","players":null},{"server_id":401,"name":"Uncletopia | Atlanta | 4 | No Payload","name_short":"atl-4","host":"atl-1.us.uncletopia.com","port":27045,"enabled":true,"region":"us-east","cc":"us","latitude":33.753746,"longitude":-84.38633,"reserved":0,"last_update":"0001-01-01T00:00:00Z","name_a2s":"Uncletopia | Atlanta | 4 | No Payload","protocol":17,"map":"cp_snakewater_final1","folder":"tf","game":"Team Fortress","app_id":440,"player_count":0,"max_players":24,"Bots":0,"server_type":"Dedicated","server_os":"Linux","password":true,"vac":true,"version":"7695204","steam_id":85568392924515188,"keywords":["cp","nocrits","nodmgspread","uncletopia"],"game_id":440,"stv_port":0,"stv_name":"","players":null},{"server_id":2,"name":"Uncletopia | Chicago | 1 | All Maps","name_short":"chi-1","host":"chi-1.us.uncletopia.com","port":27015,"enabled":true,"region":"us-central","cc":"us","latitude":41.881832,"longitude":-87.62318,"reserved":0,"last_update":"0001-01-01T00:00:00Z","name_a2s":"Uncletopia | Chicago | 1 | All Maps","protocol":17,"map":"cp_snakewater_final1","folder":"tf","game":"Team Fortress","app_id":440,"player_count":0,"max_players":24,"Bots":0,"server_type":"Dedicated","server_os":"Linux","password":true,"vac":true,"version":"7695204","steam_id":85568392924469984,"keywords":["cp","nocrits","nodmgspread","uncletopia"],"game_id":440,"stv_port":27016,"stv_name":"Uncletopia | Chicago | 1 | All Maps | STV","players":null},{"server_id":106,"name":"Uncletopia | Chicago | 2 | All Maps","name_short":"chi-2","host":"chi-1.us.uncletopia.com","port":27025,"enabled":true,"region":"us-central","cc":"us","latitude":41.881832,"longitude":-87.62318,"reserved":0,"last_update":"0001-01-01T00:00:00Z","name_a2s":"Uncletopia | Chicago | 2 | All Maps","protocol":17,"map":"cp_process_final","folder":"tf","game":"Team Fortress","app_id":440,"player_count":0,"max_players":24,"Bots":0,"server_type":"Dedicated","server_os":"Linux","password":true,"vac":true,"version":"7695204","steam_id":85568392924469985,"keywords":["cp","nocrits","nodmgspread","uncletopia"],"game_id":440,"stv_port":0,"stv_name":"","players":null},{"server_id":402,"name":"Uncletopia | Chicago | 3 | All Maps","name_short":"chi-3","host":"chi-1.us.uncletopia.com","port":27035,"enabled":true,"region":"us-central","cc":"us","latitude":41.881832,"longitude":-87.62318,"reserved":0,"last_update":"0001-01-01T00:00:00Z","name_a2s":"Uncletopia | Chicago | 3 | All Maps","protocol":17,"map":"pl_snowycoast","folder":"tf","game":"Team Fortress","app_id":440,"player_count":0,"max_players":24,"Bots":0,"server_type":"Dedicated","server_os":"Linux","password":true,"vac":true,"version":"7695204","steam_id":85568392924515191,"keywords":["nocrits","nodmgspread","payload","uncletopia"],"game_id":440,"stv_port":27036,"stv_name":"Uncletopia | Chicago | 3 | All Maps | STV","players":null},{"server_id":403,"name":"Uncletopia | Chicago | 4 | All Maps","name_short":"chi-4","host":"chi-1.us.uncletopia.com","port":27045,"enabled":true,"region":"us-central","cc":"us","latitude":41.881832,"longitude":-87.62318,"reserved":0,"last_update":"0001-01-01T00:00:00Z","name_a2s":"Uncletopia | Chicago | 4 | All Maps","protocol":17,"map":"koth_highpass","folder":"tf","game":"Team Fortress","app_id":440,"player_count":0,"max_players":24,"Bots":0,"server_type":"Dedicated","server_os":"Linux","password":true,"vac":true,"version":"7695204","steam_id":85568392924515193,"keywords":["cp","nocrits","nodmgspread","uncletopia"],"game_id":440,"stv_port":0,"stv_name":"","players":null},{"server_id":36,"name":"Uncletopia | Chicago | 5 | All Maps","name_short":"chi-5","host":"chi-2.us.uncletopia.com","port":27015,"enabled":true,"region":"us-central","cc":"us","latitude":41.881832,"longitude":-87.62318,"reserved":0,"last_update":"0001-01-01T00:00:00Z","name_a2s":"Uncletopia | Chicago | 5 | All Maps","protocol":17,"map":"cp_altitude","folder":"tf","game":"Team Fortress","app_id":440,"player_count":0,"max_players":24,"Bots":0,"server_type":"Dedicated","server_os":"Linux","password":true,"vac":true,"version":"7695204","steam_id":85568392924866362,"keywords":["cp","nocrits","nodmgspread","uncletopia"],"game_id":440,"stv_port":0,"stv_name":"","players":null},{"server_id":37,"name":"Uncletopia | Chicago | 6 | All Maps","name_short":"chi-6","host":"chi-2.us.uncletopia.com","port":27025,"enabled":true,"region":"us-central","cc":"us","latitude":41.881832,"longitude":-87.62318,"reserved":0,"last_update":"0001-01-01T00:00:00Z","name_a2s":"Uncletopia | Chicago | 6 | All Maps","protocol":17,"map":"cp_snakewater_final1","folder":"tf","game":"Team Fortress","app_id":440,"player_count":0,"max_players":24,"Bots":0,"server_type":"Dedicated","server_os":"Linux","password":true,"vac":true,"version":"7695204","steam_id":85568392924866363,"keywords":["cp","nocrits","nodmgspread","uncletopia"],"game_id":440,"stv_port":0,"stv_name":"","players":null},{"server_id":38,"name":"Uncletopia | Chicago | 7 | No Payload","name_short":"chi-7","host":"chi-2.us.uncletopia.com","port":27035,"enabled":true,"region":"us-central","cc":"us","latitude":41.881832,"longitude":-87.62318,"reserved":0,"last_update":"0001-01-01T00:00:00Z","name_a2s":"Uncletopia | Chicago | 7 | No Payload","protocol":17,"map":"cp_altitude","folder":"tf","game":"Team Fortress","app_id":440,"player_count":0,"max_players":24,"Bots":0,"server_type":"Dedicated","server_os":"Linux","password":true,"vac":true,"version":"7695204","steam_id":85568392924866364,"keywords":["cp","nocrits","nodmgspread","uncletopia"],"game_id":440,"stv_port":0,"stv_name":"","players":null},{"server_id":39,"name":"Uncletopia | Chicago | 8 | Community","name_short":"chi-8","host":"chi-2.us.uncletopia.com","port":27045,"enabled":true,"region":"us-central","cc":"us","latitude":41.881832,"longitude":-87.62318,"reserved":0,"last_update":"0001-01-01T00:00:00Z","name_a2s":"Uncletopia | Chicago | 8 | Community","protocol":17,"map":"cp_altitude","folder":"tf","game":"Team Fortress","app_id":440,"player_count":0,"max_players":24,"Bots":0,"server_type":"Dedicated","server_os":"Linux","password":true,"vac":true,"version":"7695204","steam_id":85568392924866365,"keywords":["cp","nocrits","nodmgspread","uncletopia"],"game_id":440,"stv_port":0,"stv_name":"","players":null},{"server_id":8,"name":"Uncletopia | Dallas | 1 | All Maps","name_short":"dal-1","host":"dal-1.us.uncletopia.com","port":27015,"enabled":true,"region":"us-central","cc":"us","latitude":32.779167,"longitude":-96.80889,"reserved":0,"last_update":"0001-01-01T00:00:00Z","name_a2s":"Uncletopia | Dallas | 1 | All Maps","protocol":17,"map":"plr_hightower","folder":"tf","game":"Team Fortress","app_id":440,"player_count":24,"max_players":24,"Bots":0,"server_type":"Dedicated","server_os":"Linux","password":true,"vac":true,"version":"7695204","steam_id":85568392924469986,"keywords":["nocrits","nodmgspread","payload","uncletopia"],"game_id":440,"stv_port":27016,"stv_name":"Uncletopia | Dallas | 1 | All Maps | STV","players":[{"user_id":103,"name":"kiewass","steam_id":76561198870729709,"connected_time":1998000000000,"state":"active","ping":174},{"user_id":115,"name":"ill fucking cough on you","steam_id":76561198035969198,"connected_time":1113000000000,"state":"active","ping":69},{"user_id":127,"name":"Fireman pyro","steam_id":76561199101808144,"connected_time":275000000000,"state":"active","ping":102},{"user_id":133,"name":"trash","steam_id":76561199050407628,"connected_time":21000000000,"state":"active","ping":85},{"user_id":68,"name":"Yuhh","steam_id":76561199112894955,"connected_time":4495000000000,"state":"active","ping":68},{"user_id":112,"name":"GREG","steam_id":76561198073021168,"connected_time":1347000000000,"state":"active","ping":60},{"user_id":129,"name":"obbeymaster19","steam_id":76561199197244143,"connected_time":234000000000,"state":"active","ping":81},{"user_id":113,"name":"Hemiphix","steam_id":76561198329316429,"connected_time":1265000000000,"state":"active","ping":82},{"user_id":128,"name":"LynBoByn","steam_id":76561198052911142,"connected_time":269000000000,"state":"active","ping":93},{"user_id":122,"name":"goober","steam_id":76561198127116199,"connected_time":618000000000,"state":"active","ping":75},{"user_id":105,"name":"toq","steam_id":76561198400316620,"connected_time":1988000000000,"state":"active","ping":73},{"user_id":36,"name":"Casual Costanza","steam_id":76561198024409325,"connected_time":7087000000000,"state":"active","ping":88},{"user_id":130,"name":"Ronald MCfondle","steam_id":76561198400938559,"connected_time":194000000000,"state":"active","ping":100},{"user_id":106,"name":"_Mannick_","steam_id":76561199018444829,"connected_time":1984000000000,"state":"active","ping":170},{"user_id":121,"name":"Chaotic Rushu","steam_id":76561198170054407,"connected_time":630000000000,"state":"active","ping":111},{"user_id":131,"name":"bdkaine1","steam_id":76561198133545467,"connected_time":186000000000,"state":"active","ping":69},{"user_id":126,"name":"bonk","steam_id":76561198004823930,"connected_time":450000000000,"state":"active","ping":74},{"user_id":114,"name":"dnl","steam_id":76561198096413059,"connected_time":1229000000000,"state":"active","ping":128},{"user_id":94,"name":"ThreatLvl9 (she/her)","steam_id":76561198079410533,"connected_time":2645000000000,"state":"active","ping":94},{"user_id":101,"name":"‚ô§ IceManAce ‚ô§","steam_id":76561198038295903,"connected_time":2081000000000,"state":"active","ping":61},{"user_id":125,"name":"Kiss Master","steam_id":76561198289572271,"connected_time":482000000000,"state":"active","ping":75},{"user_id":117,"name":"monke","steam_id":76561199124793880,"connected_time":937000000000,"state":"active","ping":74},{"user_id":132,"name":"CorneliusBongRippington","steam_id":76561198056134774,"connected_time":123000000000,"state":"active","ping":64},{"user_id":109,"name":"Takumi Fujiwara","steam_id":76561198146281101,"connected_time":1671000000000,"state":"active","ping":96}]},{"server_id":108,"name":"Uncletopia | Dallas | 2 | All Maps","name_short":"dal-2","host":"dal-1.us.uncletopia.com","port":27025,"enabled":true,"region":"us-central","cc":"us","latitude":32.779167,"longitude":-96.80889,"reserved":0,"last_update":"0001-01-01T00:00:00Z","name_a2s":"Uncletopia | Dallas | 2 | All Maps","protocol":17,"map":"cp_mountainlab","folder":"tf","game":"Team Fortress","app_id":440,"player_count":0,"max_players":24,"Bots":0,"server_type":"Dedicated","server_os":"Linux","password":true,"vac":true,"version":"7695204","steam_id":85568392924469988,"keywords":["cp","nocrits","nodmgspread","uncletopia"],"game_id":440,"stv_port":0,"stv_name":"","players":null},{"server_id":5,"name":"Uncletopia | Frankfurt | 1 | All Maps","name_short":"frk-1","host":"frk-1.de.uncletopia.com","port":27015,"enabled":true,"region":"eu","cc":"de","latitude":50.110924,"longitude":8.682127,"reserved":0,"last_update":"0001-01-01T00:00:00Z","name_a2s":"Uncletopia | Frankfurt | 1 | All Maps","protocol":17,"map":"pl_badwater","folder":"tf","game":"Team Fortress","app_id":440,"player_count":24,"max_players":24,"Bots":0,"server_type":"Dedicated","server_os":"Linux","password":true,"vac":true,"version":"7695204","steam_id":85568392924469989,"keywords":["nocrits","nodmgspread","payload","uncletopia"],"game_id":440,"stv_port":27016,"stv_name":"Uncletopia | Frankfurt | 1 | All Maps | STV","players":[{"user_id":216,"name":"quincy","steam_id":76561198059782462,"connected_time":2104000000000,"state":"active","ping":46},{"user_id":217,"name":"Andrea","steam_id":76561199350746762,"connected_time":2099000000000,"state":"active","ping":78},{"user_id":229,"name":"pootis.wagon","steam_id":76561198809738550,"connected_time":1127000000000,"state":"active","ping":76},{"user_id":243,"name":"Jam","steam_id":76561198090409013,"connected_time":254000000000,"state":"active","ping":77},{"user_id":248,"name":"Wujek Cacek","steam_id":76561198010267943,"connected_time":103000000000,"state":"active","ping":74},{"user_id":232,"name":"Spaenny","steam_id":76561198035850165,"connected_time":948000000000,"state":"active","ping":51},{"user_id":242,"name":"cosmetical","steam_id":76561198444036574,"connected_time":285000000000,"state":"active","ping":71},{"user_id":234,"name":"ToniGAM3S","steam_id":76561198128605351,"connected_time":895000000000,"state":"active","ping":52},{"user_id":244,"name":"TITS!!!1!!1????","steam_id":76561198412197820,"connected_time":238000000000,"state":"active","ping":76},{"user_id":202,"name":"weezer green album","steam_id":76561198863788240,"connected_time":3547000000000,"state":"active","ping":81},{"user_id":224,"name":"XPullaHiiri","steam_id":76561198031652375,"connected_time":1483000000000,"state":"active","ping":90},{"user_id":214,"name":"Bumblebee","steam_id":76561198033551105,"connected_time":2131000000000,"state":"active","ping":65},{"user_id":225,"name":"…ò∆ö…í‚ÖÉ…ò∆ö…í‚ÖÉ /./ =)(= \\.\\","steam_id":76561198053339372,"connected_time":1448000000000,"state":"active","ping":58},{"user_id":241,"name":"Animatic","steam_id":76561198186421601,"connected_time":540000000000,"state":"active","ping":173},{"user_id":231,"name":"Pfannkuchenkatze","steam_id":76561199171303050,"connected_time":1014000000000,"state":"active","ping":174},{"user_id":245,"name":"Diggity","steam_id":76561198297157085,"connected_time":223000000000,"state":"active","ping":53},{"user_id":240,"name":"big potato #savetf2","steam_id":76561199009525001,"connected_time":579000000000,"state":"active","ping":52},{"user_id":246,"name":"xSamyaza","steam_id":76561198058447257,"connected_time":206000000000,"state":"active","ping":50},{"user_id":247,"name":"Andr√©DahMan","steam_id":76561198820124480,"connected_time":180000000000,"state":"active","ping":94},{"user_id":239,"name":"Michael","steam_id":76561198003146906,"connected_time":652000000000,"state":"active","ping":70},{"user_id":227,"name":"Hardcore-man from Poland","steam_id":76561198126398022,"connected_time":1335000000000,"state":"active","ping":75},{"user_id":183,"name":"boat","steam_id":76561198044915818,"connected_time":5210000000000,"state":"active","ping":89},{"user_id":211,"name":"Ace","steam_id":76561198979117577,"connected_time":2597000000000,"state":"active","ping":56},{"user_id":222,"name":"Cass","steam_id":76561198934205195,"connected_time":2020000000000,"state":"active","ping":68}]},{"server_id":110,"name":"Uncletopia | Frankfurt | 2 | All Maps","name_short":"frk-2","host":"frk-1.de.uncletopia.com","port":27025,"enabled":true,"region":"eu","cc":"de","latitude":50.110924,"longitude":8.682127,"reserved":0,"last_update":"0001-01-01T00:00:00Z","name_a2s":"Uncletopia | Frankfurt | 2 | All Maps","protocol":17,"map":"koth_viaduct","folder":"tf","game":"Team Fortress","app_id":440,"player_count":0,"max_players":24,"Bots":0,"server_type":"Dedicated","server_os":"Linux","password":true,"vac":true,"version":"7695204","steam_id":85568392924469990,"keywords":["cp","nocrits","nodmgspread","uncletopia"],"game_id":440,"stv_port":27026,"stv_name":"Uncletopia | Frankfurt | 2 | All Maps | STV","players":null},{"server_id":308,"name":"Uncletopia | Frankfurt | 3 | All Maps","name_short":"frk-3","host":"frk-1.de.uncletopia.com","port":27035,"enabled":true,"region":"eu","cc":"de","latitude":50.110924,"longitude":8.682127,"reserved":0,"last_update":"0001-01-01T00:00:00Z","name_a2s":"Uncletopia | Frankfurt | 3 | All Maps","protocol":17,"map":"pl_barnblitz","folder":"tf","game":"Team Fortress","app_id":440,"player_count":24,"max_players":24,"Bots":0,"server_type":"Dedicated","server_os":"Linux","password":true,"vac":true,"version":"7695204","steam_id":85568392924504274,"keywords":["nocrits","nodmgspread","payload","uncletopia"],"game_id":440,"stv_port":27036,"stv_name":"Uncletopia | Frankfurt | 3 | All Maps | STV","players":[{"user_id":135,"name":"Wrabchev* Just_Smile","steam_id":76561198040645344,"connected_time":3059000000000,"state":"active","ping":71},{"user_id":107,"name":"Kali","steam_id":76561198796327257,"connected_time":5066000000000,"state":"active","ping":76},{"user_id":152,"name":"Maximalsound","steam_id":76561198068246502,"connected_time":1435000000000,"state":"active","ping":57},{"user_id":95,"name":"beanie_snail","steam_id":76561199111476299,"connected_time":5956000000000,"state":"active","ping":73},{"user_id":85,"name":"Rin-Nakaret","steam_id":76561197971051188,"connected_time":6885000000000,"state":"active","ping":72},{"user_id":160,"name":"Paulie Enjoyer","steam_id":76561198364121077,"connected_time":1140000000000,"state":"active","ping":92},{"user_id":89,"name":"Luke SpyWalker","steam_id":76561198008643276,"connected_time":6261000000000,"state":"active","ping":59},{"user_id":139,"name":"Tohtori gerhard (official)","steam_id":76561198835081622,"connected_time":2666000000000,"state":"active","ping":109},{"user_id":169,"name":"Bob Sacamano","steam_id":76561198085610701,"connected_time":552000000000,"state":"active","ping":74},{"user_id":164,"name":"viziborju","steam_id":76561199145340529,"connected_time":785000000000,"state":"active","ping":72},{"user_id":126,"name":"Big Gamer (real)","steam_id":76561198160114532,"connected_time":3948000000000,"state":"active","ping":53},{"user_id":97,"name":"Cippo95","steam_id":76561198255311582,"connected_time":5826000000000,"state":"active","ping":77},{"user_id":165,"name":"Ermayd","steam_id":76561199244995648,"connected_time":767000000000,"state":"active","ping":182},{"user_id":155,"name":"Farmercy","steam_id":76561198000038039,"connected_time":1297000000000,"state":"active","ping":62},{"user_id":157,"name":"Alexey Rykov","steam_id":76561198450868147,"connected_time":1283000000000,"state":"active","ping":176},{"user_id":158,"name":"where is my egg?","steam_id":76561198172542535,"connected_time":1239000000000,"state":"active","ping":69},{"user_id":148,"name":"Stepoface","steam_id":76561198091569863,"connected_time":2037000000000,"state":"active","ping":59},{"user_id":168,"name":"Bia≈Çy","steam_id":76561197996016988,"connected_time":620000000000,"state":"active","ping":75},{"user_id":161,"name":"BELADIT","steam_id":76561198011911501,"connected_time":1088000000000,"state":"active","ping":73},{"user_id":134,"name":"Mayor Wank from Wanker Town","steam_id":76561197998253588,"connected_time":3265000000000,"state":"active","ping":52},{"user_id":170,"name":"TK","steam_id":76561199384193338,"connected_time":535000000000,"state":"active","ping":59},{"user_id":171,"name":"default","steam_id":76561198186182298,"connected_time":201000000000,"state":"active","ping":55},{"user_id":130,"name":"Shlyk","steam_id":76561198333387103,"connected_time":3740000000000,"state":"active","ping":91},{"user_id":51,"name":"-ÀèÀã marruu ÀéÀä-","steam_id":76561198391108779,"connected_time":9352000000000,"state":"active","ping":66}]},{"server_id":309,"name":"Uncletopia | Frankfurt | 4 | All Maps","name_short":"frk-4","host":"frk-1.de.uncletopia.com","port":27045,"enabled":true,"region":"eu","cc":"de","latitude":50.110924,"longitude":8.682127,"reserved":0,"last_update":"0001-01-01T00:00:00Z","name_a2s":"Uncletopia | Frankfurt | 4 | All Maps","protocol":17,"map":"pl_upward","folder":"tf","game":"Team Fortress","app_id":440,"player_count":5,"max_players":24,"Bots":0,"server_type":"Dedicated","server_os":"Linux","password":true,"vac":true,"version":"7695204","steam_id":85568392924504275,"keywords":["nocrits","nodmgspread","payload","uncletopia"],"game_id":440,"stv_port":27046,"stv_name":"Uncletopia | Frankfurt | 4 | All Maps | STV","players":[{"user_id":26,"name":"1.99$ crippin","steam_id":76561198325760411,"connected_time":749000000000,"state":"active","ping":72},{"user_id":27,"name":"\u003e:3","steam_id":76561198368312026,"connected_time":729000000000,"state":"active","ping":75},{"user_id":28,"name":"Kapin","steam_id":76561199069712685,"connected_time":721000000000,"state":"active","ping":95},{"user_id":29,"name":"cheesily","steam_id":76561198881367552,"connected_time":690000000000,"state":"active","ping":67},{"user_id":30,"name":"ÈòøÂ§èa xia gumi„Äêcn„Äë","steam_id":76561199369609104,"connected_time":262000000000,"state":"active","ping":231}]},{"server_id":310,"name":"Uncletopia | Frankfurt | 5 | All Maps","name_short":"frk-5","host":"frk-1.de.uncletopia.com","port":27055,"enabled":true,"region":"eu","cc":"de","latitude":50.110924,"longitude":8.682127,"reserved":0,"last_update":"0001-01-01T00:00:00Z","name_a2s":"Uncletopia | Frankfurt | 5 | All Maps","protocol":17,"map":"koth_highpass","folder":"tf","game":"Team Fortress","app_id":440,"player_count":0,"max_players":24,"Bots":0,"server_type":"Dedicated","server_os":"Linux","password":true,"vac":true,"version":"7695204","steam_id":85568392924504277,"keywords":["cp","nocrits","nodmgspread","uncletopia"],"game_id":440,"stv_port":27056,"stv_name":"Uncletopia | Frankfurt | 5 | All Maps | STV","players":null},{"server_id":311,"name":"Uncletopia | Frankfurt | 6 | All Maps","name_short":"frk-6","host":"frk-1.de.uncletopia.com","port":27065,"enabled":true,"region":"eu","cc":"de","latitude":50.110924,"longitude":8.682127,"reserved":0,"last_update":"0001-01-01T00:00:00Z","name_a2s":"Uncletopia | Frankfurt | 6 | All Maps","protocol":17,"map":"pl_snowycoast","folder":"tf","game":"Team Fortress","app_id":440,"player_count":24,"max_players":24,"Bots":0,"server_type":"Dedicated","server_os":"Linux","password":true,"vac":true,"version":"7695204","steam_id":85568392924504278,"keywords":["nocrits","nodmgspread","payload","uncletopia"],"game_id":440,"stv_port":27066,"stv_name":"Uncletopia | Frankfurt | 6 | All Maps | STV","players":[{"user_id":186,"name":"Christian B.","steam_id":76561198437703253,"connected_time":597000000000,"state":"active","ping":146},{"user_id":124,"name":"hubbles","steam_id":76561197961142646,"connected_time":3557000000000,"state":"active","ping":55},{"user_id":165,"name":"jonttu","steam_id":76561198201999690,"connected_time":1864000000000,"state":"active","ping":97},{"user_id":187,"name":"CyberSyn","steam_id":76561198169966346,"connected_time":549000000000,"state":"active","ping":148},{"user_id":150,"name":"tortellini in brodo","steam_id":76561198066071855,"connected_time":2587000000000,"state":"active","ping":62},{"user_id":147,"name":"Scientific Idiocy","steam_id":76561198951206047,"connected_time":2673000000000,"state":"active","ping":113},{"user_id":190,"name":"clovis20051","steam_id":76561198255886864,"connected_time":332000000000,"state":"active","ping":57},{"user_id":191,"name":"nudjura","steam_id":76561198281986139,"connected_time":304000000000,"state":"active","ping":59},{"user_id":188,"name":"gwhq–ëv}–Ådtfb¬∑–Åweb–•","steam_id":76561198401523966,"connected_time":481000000000,"state":"active","ping":90},{"user_id":195,"name":"Basil","steam_id":76561198138300003,"connected_time":247000000000,"state":"active","ping":56},{"user_id":197,"name":"Purplenoogie","steam_id":76561198081872160,"connected_time":2000000000,"state":"spawning","ping":61},{"user_id":169,"name":"Mr.Schnittlauch","steam_id":76561198295868113,"connected_time":1721000000000,"state":"active","ping":60},{"user_id":196,"name":"maxi opossum","steam_id":76561198800637336,"connected_time":246000000000,"state":"active","ping":60},{"user_id":171,"name":"Carpet Tires","steam_id":76561198798428909,"connected_time":1639000000000,"state":"active","ping":86},{"user_id":120,"name":"The Imperial","steam_id":76561198374118102,"connected_time":3988000000000,"state":"active","ping":59},{"user_id":178,"name":"hyper #saveTF2","steam_id":76561198278194944,"connected_time":1511000000000,"state":"active","ping":59},{"user_id":160,"name":"Untermenshh","steam_id":76561198284636705,"connected_time":2086000000000,"state":"active","ping":89},{"user_id":192,"name":"Miro","steam_id":76561198014660873,"connected_time":290000000000,"state":"active","ping":91},{"user_id":193,"name":"Mrpg","steam_id":76561198183722103,"connected_time":265000000000,"state":"active","ping":70},{"user_id":144,"name":"3te Liga","steam_id":76561198009922500,"connected_time":2885000000000,"state":"active","ping":59},{"user_id":184,"name":"Chromatic","steam_id":76561198355976286,"connected_time":646000000000,"state":"active","ping":83},{"user_id":185,"name":"Û†Ä°Û†Ä°","steam_id":76561198015585266,"connected_time":642000000000,"state":"active","ping":65},{"user_id":175,"name":"Fox","steam_id":76561198079364100,"connected_time":1600000000000,"state":"active","ping":73},{"user_id":194,"name":"Sou1Eater7","steam_id":76561198011330131,"connected_time":254000000000,"state":"active","ping":173}]},{"server_id":23,"name":"Uncletopia | Frankfurt | 7 | No Payload","name_short":"frk-7","host":"frk-1.de.uncletopia.com","port":27075,"enabled":true,"region":"eu","cc":"de","latitude":50.110924,"longitude":8.682127,"reserved":0,"last_update":"0001-01-01T00:00:00Z","name_a2s":"Uncletopia | Frankfurt | 7 | No Payload","protocol":17,"map":"koth_badlands","folder":"tf","game":"Team Fortress","app_id":440,"player_count":0,"max_players":24,"Bots":0,"server_type":"Dedicated","server_os":"Linux","password":true,"vac":true,"version":"7695204","steam_id":85568392924742827,"keywords":["cp","nocrits","nodmgspread","uncletopia"],"game_id":440,"stv_port":27076,"stv_name":"Uncletopia | Frankfurt | 7 | No Payload | STV","players":null},{"server_id":24,"name":"Uncletopia | Frankfurt | 8 | Community","name_short":"frk-8","host":"frk-1.de.uncletopia.com","port":27085,"enabled":true,"region":"eu","cc":"de","latitude":50.110924,"longitude":8.682127,"reserved":0,"last_update":"0001-01-01T00:00:00Z","name_a2s":"Uncletopia | Frankfurt | 8 | Community","protocol":17,"map":"koth_lakeside_final","folder":"tf","game":"Team Fortress","app_id":440,"player_count":0,"max_players":24,"Bots":0,"server_type":"Dedicated","server_os":"Linux","password":true,"vac":true,"version":"7695204","steam_id":85568392924742828,"keywords":["cp","nocrits","nodmgspread","uncletopia"],"game_id":440,"stv_port":0,"stv_name":"","players":null},{"server_id":202,"name":"Uncletopia | Hong Kong | 1 | All Maps","name_short":"hgk-1","host":"hgk-1.hk.uncletopia.com","port":27015,"enabled":true,"region":"asia","cc":"hk","latitude":22.302711,"longitude":114.177216,"reserved":0,"last_update":"0001-01-01T00:00:00Z","name_a2s":"Uncletopia | Hong Kong | 1 | All Maps","protocol":17,"map":"cp_dustbowl","folder":"tf","game":"Team Fortress","app_id":440,"player_count":24,"max_players":24,"Bots":0,"server_type":"Dedicated","server_os":"Linux","password":true,"vac":true,"version":"7695204","steam_id":85568392924494504,"keywords":["cp","nocrits","nodmgspread","uncletopia"],"game_id":440,"stv_port":27016,"stv_name":"Uncletopia | Hong Kong | 1 | All Maps | STV","players":[{"user_id":494,"name":"Cum","steam_id":76561199244428779,"connected_time":6658000000000,"state":"active","ping":77},{"user_id":558,"name":"Lyds","steam_id":76561199005908018,"connected_time":390000000000,"state":"active","ping":83},{"user_id":506,"name":"Othopeus","steam_id":76561198283534382,"connected_time":5965000000000,"state":"active","ping":68},{"user_id":444,"name":"terrybl","steam_id":76561198055553140,"connected_time":11016000000000,"state":"active","ping":77},{"user_id":549,"name":"Puddin","steam_id":76561198140052918,"connected_time":1003000000000,"state":"active","ping":90},{"user_id":537,"name":"Core19","steam_id":76561198318126190,"connected_time":2622000000000,"state":"active","ping":97},{"user_id":553,"name":"xPhid","steam_id":76561199080808930,"connected_time":931000000000,"state":"active","ping":104},{"user_id":541,"name":"ÊØç„ÅÆËÇâÂõ£Â≠ê","steam_id":76561198069561896,"connected_time":1581000000000,"state":"active","ping":43},{"user_id":496,"name":"AmaiToxic","steam_id":76561199122491157,"connected_time":6623000000000,"state":"active","ping":68},{"user_id":559,"name":"ShiroKoi201","steam_id":76561198346532921,"connected_time":247000000000,"state":"active","ping":71},{"user_id":551,"name":"silversol","steam_id":76561198004570036,"connected_time":1001000000000,"state":"active","ping":97},{"user_id":514,"name":"cellum95","steam_id":76561198172146871,"connected_time":4410000000000,"state":"active","ping":64},{"user_id":548,"name":"Neji","steam_id":76561199045440852,"connected_time":1010000000000,"state":"active","ping":78},{"user_id":538,"name":"paga","steam_id":76561198296718007,"connected_time":2561000000000,"state":"active","ping":128},{"user_id":492,"name":"nick","steam_id":76561198400698408,"connected_time":7028000000000,"state":"active","ping":92},{"user_id":552,"name":"gave my love to a shooting star","steam_id":76561197990537324,"connected_time":1001000000000,"state":"active","ping":149},{"user_id":517,"name":"Du57Y","steam_id":76561198120973476,"connected_time":4249000000000,"state":"active","ping":82},{"user_id":540,"name":"Kurtie","steam_id":76561198144737876,"connected_time":1898000000000,"state":"active","ping":69},{"user_id":560,"name":"lewisthespacepope","steam_id":76561198166805585,"connected_time":195000000000,"state":"active","ping":104},{"user_id":477,"name":"Rephex","steam_id":76561198308185574,"connected_time":7907000000000,"state":"active","ping":62},{"user_id":544,"name":"Toygar","steam_id":76561198023679830,"connected_time":1207000000000,"state":"active","ping":40},{"user_id":547,"name":"eeeeeee","steam_id":76561199205561410,"connected_time":1156000000000,"state":"active","ping":110},{"user_id":532,"name":"godhood","steam_id":76561198412329672,"connected_time":3209000000000,"state":"active","ping":93},{"user_id":505,"name":"L√∫d","steam_id":76561198828840546,"connected_time":6046000000000,"state":"active","ping":71}]},{"server_id":1,"name":"Uncletopia | Los Angeles | 1 | All Maps","name_short":"lax-1","host":"lax-1.us.uncletopia.com","port":27015,"enabled":true,"region":"us-west","cc":"us","latitude":33.94279,"longitude":-118.41004,"reserved":0,"last_update":"0001-01-01T00:00:00Z","name_a2s":"Uncletopia | Los Angeles | 1 | All Maps","protocol":17,"map":"cp_sunshine","folder":"tf","game":"Team Fortress","app_id":440,"player_count":0,"max_players":24,"Bots":0,"server_type":"Dedicated","server_os":"Linux","password":true,"vac":true,"version":"7695204","steam_id":85568392924469991,"keywords":["cp","nocrits","nodmgspread","uncletopia"],"game_id":440,"stv_port":0,"stv_name":"","players":null},{"server_id":112,"name":"Uncletopia | Los Angeles | 2 | All Maps","name_short":"lax-2","host":"lax-1.us.uncletopia.com","port":27025,"enabled":true,"region":"us-west","cc":"us","latitude":33.94279,"longitude":-118.41004,"reserved":0,"last_update":"0001-01-01T00:00:00Z","name_a2s":"Uncletopia | Los Angeles | 2 | All Maps","protocol":17,"map":"cp_dustbowl","folder":"tf","game":"Team Fortress","app_id":440,"player_count":0,"max_players":24,"Bots":0,"server_type":"Dedicated","server_os":"Linux","password":true,"vac":true,"version":"7695204","steam_id":85568392924469992,"keywords":["cp","nocrits","nodmgspread","uncletopia"],"game_id":440,"stv_port":0,"stv_name":"","players":null},{"server_id":324,"name":"Uncletopia | Los Angeles | 3 | All Maps","name_short":"lax-3","host":"lax-1.us.uncletopia.com","port":27035,"enabled":true,"region":"us-west","cc":"us","latitude":33.94279,"longitude":-118.41004,"reserved":0,"last_update":"0001-01-01T00:00:00Z","name_a2s":"Uncletopia | Los Angeles | 3 | All Maps","protocol":17,"map":"cp_mountainlab","folder":"tf","game":"Team Fortress","app_id":440,"player_count":0,"max_players":24,"Bots":0,"server_type":"Dedicated","server_os":"Linux","password":true,"vac":true,"version":"7695204","steam_id":85568392924510198,"keywords":["cp","nocrits","nodmgspread","uncletopia"],"game_id":440,"stv_port":0,"stv_name":"","players":null},{"server_id":25,"name":"Uncletopia | Los Angeles | 4 | No Payload","name_short":"lax-4","host":"lax-1.us.uncletopia.com","port":27045,"enabled":true,"region":"us-west","cc":"us","latitude":33.94279,"longitude":-118.41004,"reserved":0,"last_update":"0001-01-01T00:00:00Z","name_a2s":"Uncletopia | Los Angeles | 4 | No Payload","protocol":17,"map":"pl_barnblitz","folder":"tf","game":"Team Fortress","app_id":440,"player_count":0,"max_players":24,"Bots":0,"server_type":"Dedicated","server_os":"Linux","password":true,"vac":true,"version":"7695204","steam_id":85568392924510199,"keywords":["nocrits","nodmgspread","payload","uncletopia"],"game_id":440,"stv_port":0,"stv_name":"","players":null},{"server_id":11,"name":"Uncletopia | London | 1 | All Maps","name_short":"lon-1","host":"lon-1.uk.uncletopia.com","port":27015,"enabled":true,"region":"eu","cc":"gb","latitude":51.509865,"longitude":-0.118092,"reserved":0,"last_update":"0001-01-01T00:00:00Z","name_a2s":"Uncletopia | London | 1 | All Maps","protocol":17,"map":"koth_lakeside_final","folder":"tf","game":"Team Fortress","app_id":440,"player_count":0,"max_players":24,"Bots":0,"server_type":"Dedicated","server_os":"Linux","password":true,"vac":true,"version":"7695204","steam_id":85568392924367362,"keywords":["cp","nocrits","nodmgspread","uncletopia"],"game_id":440,"stv_port":27016,"stv_name":"Uncletopia | London | 1 | All Maps | STV","players":null},{"server_id":114,"name":"Uncletopia | London | 2 | All Maps","name_short":"lon-2","host":"lon-1.uk.uncletopia.com","port":27025,"enabled":true,"region":"eu","cc":"gb","latitude":51.509865,"longitude":-0.118092,"reserved":0,"last_update":"0001-01-01T00:00:00Z","name_a2s":"Uncletopia | London | 2 | All Maps","protocol":17,"map":"cp_sunshine","folder":"tf","game":"Team Fortress","app_id":440,"player_count":0,"max_players":24,"Bots":0,"server_type":"Dedicated","server_os":"Linux","password":true,"vac":true,"version":"7695204","steam_id":85568392924470941,"keywords":["cp","nocrits","nodmgspread","uncletopia"],"game_id":440,"stv_port":0,"stv_name":"","players":null},{"server_id":320,"name":"Uncletopia | London | 3 | All Maps","name_short":"lon-3","host":"lon-1.uk.uncletopia.com","port":27035,"enabled":true,"region":"eu","cc":"gb","latitude":51.509865,"longitude":-0.118092,"reserved":0,"last_update":"0001-01-01T00:00:00Z","name_a2s":"Uncletopia | London | 3 | All Maps","protocol":17,"map":"pl_upward","folder":"tf","game":"Team Fortress","app_id":440,"player_count":24,"max_players":24,"Bots":0,"server_type":"Dedicated","server_os":"Linux","password":true,"vac":true,"version":"7695204","steam_id":85568392924510192,"keywords":["nocrits","nodmgspread","payload","uncletopia"],"game_id":440,"stv_port":27036,"stv_name":"Uncletopia | London | 3 | All Maps | STV","players":[{"user_id":22,"name":"‚ú™ LauQke","steam_id":76561198043418920,"connected_time":1911000000000,"state":"active","ping":57},{"user_id":14,"name":"Maken","steam_id":76561197995777078,"connected_time":2571000000000,"state":"active","ping":56},{"user_id":50,"name":"I love watermelons","steam_id":76561199067173157,"connected_time":1192000000000,"state":"active","ping":38},{"user_id":53,"name":"maakgis","steam_id":76561198851703804,"connected_time":1062000000000,"state":"active","ping":122},{"user_id":13,"name":"Blizzard","steam_id":76561198867563548,"connected_time":2624000000000,"state":"active","ping":89},{"user_id":30,"name":"phong","steam_id":76561198090990465,"connected_time":1489000000000,"state":"active","ping":54},{"user_id":55,"name":"mattua","steam_id":76561197966534457,"connected_time":947000000000,"state":"active","ping":79},{"user_id":18,"name":"ViktorYoshi","steam_id":76561199157555246,"connected_time":2142000000000,"state":"active","ping":56},{"user_id":24,"name":"_inton_","steam_id":76561199067425855,"connected_time":1805000000000,"state":"active","ping":42},{"user_id":31,"name":"4ngle_grinder","steam_id":76561199196369031,"connected_time":1484000000000,"state":"active","ping":30},{"user_id":52,"name":"silicon based life form","steam_id":76561199127121346,"connected_time":1169000000000,"state":"active","ping":45},{"user_id":25,"name":"Micha≈Ç","steam_id":76561198320346362,"connected_time":1792000000000,"state":"active","ping":75},{"user_id":59,"name":"moon","steam_id":76561199212557251,"connected_time":460000000000,"state":"active","ping":112},{"user_id":42,"name":"fia","steam_id":76561198049182003,"connected_time":1268000000000,"state":"active","ping":68},{"user_id":34,"name":"imthegerman","steam_id":76561198053401077,"connected_time":1414000000000,"state":"active","ping":105},{"user_id":35,"name":"Seizure Salad","steam_id":76561198406747803,"connected_time":1367000000000,"state":"active","ping":38},{"user_id":60,"name":"Slemonade","steam_id":76561198063631056,"connected_time":448000000000,"state":"active","ping":41},{"user_id":39,"name":"Dr Ludwig","steam_id":76561198397985739,"connected_time":1340000000000,"state":"active","ping":49},{"user_id":40,"name":"Alender","steam_id":76561198061122036,"connected_time":1332000000000,"state":"active","ping":51},{"user_id":58,"name":"BridishBirb","steam_id":76561198109593324,"connected_time":486000000000,"state":"active","ping":56},{"user_id":57,"name":"StabbyKnife","steam_id":76561198094010004,"connected_time":734000000000,"state":"active","ping":92},{"user_id":45,"name":"happyrain","steam_id":76561198216693185,"connected_time":1230000000000,"state":"active","ping":69},{"user_id":62,"name":"Torben","steam_id":76561198377574408,"connected_time":438000000000,"state":"active","ping":58},{"user_id":48,"name":"Tidal","steam_id":76561197995333094,"connected_time":1221000000000,"state":"active","ping":35}]},{"server_id":321,"name":"Uncletopia | London | 4 | All Maps","name_short":"lon-4","host":"lon-1.uk.uncletopia.com","port":27045,"enabled":true,"region":"eu","cc":"gb","latitude":51.509865,"longitude":-0.118092,"reserved":0,"last_update":"0001-01-01T00:00:00Z","name_a2s":"Uncletopia | London | 4 | All Maps","protocol":17,"map":"pl_swiftwater_final1","folder":"tf","game":"Team Fortress","app_id":440,"player_count":24,"max_players":24,"Bots":0,"server_type":"Dedicated","server_os":"Linux","password":true,"vac":true,"version":"7695204","steam_id":85568392924510193,"keywords":["nocrits","nodmgspread","payload","uncletopia"],"game_id":440,"stv_port":27046,"stv_name":"Uncletopia | London | 4 | All Maps | STV","players":[{"user_id":179,"name":"Miedzan","steam_id":76561198405250516,"connected_time":1967000000000,"state":"active","ping":75},{"user_id":164,"name":"Pip","steam_id":76561198049587565,"connected_time":2783000000000,"state":"active","ping":48},{"user_id":160,"name":"Loop_Cat","steam_id":76561199045902145,"connected_time":3342000000000,"state":"active","ping":119},{"user_id":192,"name":"ecasbaby","steam_id":76561199105424910,"connected_time":860000000000,"state":"active","ping":58},{"user_id":194,"name":"Posho","steam_id":76561198062396436,"connected_time":832000000000,"state":"active","ping":38},{"user_id":163,"name":"rpgloaf","steam_id":76561198068648568,"connected_time":2831000000000,"state":"active","ping":61},{"user_id":187,"name":"Dr. Heinz Doofenshmirtz","steam_id":76561198154962908,"connected_time":1236000000000,"state":"active","ping":48},{"user_id":202,"name":"Marzipan","steam_id":76561199122194201,"connected_time":708000000000,"state":"active","ping":51},{"user_id":122,"name":"0_Dan","steam_id":76561199006567387,"connected_time":6832000000000,"state":"active","ping":46},{"user_id":169,"name":"The Guy","steam_id":76561199066895875,"connected_time":2430000000000,"state":"active","ping":74},{"user_id":139,"name":"Poor Fucking Infantry","steam_id":76561198055978522,"connected_time":4994000000000,"state":"active","ping":47},{"user_id":205,"name":"you (DK)","steam_id":76561198061472971,"connected_time":493000000000,"state":"active","ping":60},{"user_id":195,"name":"CandyFloss","steam_id":76561199083644331,"connected_time":810000000000,"state":"active","ping":81},{"user_id":177,"name":"Oak","steam_id":76561198067315672,"connected_time":2150000000000,"state":"active","ping":47},{"user_id":196,"name":"üå≤Josefiüå≤","steam_id":76561198235403756,"connected_time":788000000000,"state":"active","ping":57},{"user_id":183,"name":"fayaman","steam_id":76561198111807532,"connected_time":1596000000000,"state":"active","ping":56},{"user_id":203,"name":"Gothouk","steam_id":76561198084629668,"connected_time":670000000000,"state":"active","ping":168},{"user_id":207,"name":"Pug3344","steam_id":76561199235132410,"connected_time":261000000000,"state":"active","ping":59},{"user_id":198,"name":"Nin","steam_id":76561198227246584,"connected_time":750000000000,"state":"active","ping":74},{"user_id":206,"name":"z@p0","steam_id":76561197994724159,"connected_time":458000000000,"state":"active","ping":94},{"user_id":145,"name":"tomix7","steam_id":76561198365122597,"connected_time":4114000000000,"state":"active","ping":66},{"user_id":189,"name":"Bones","steam_id":76561198065081225,"connected_time":1220000000000,"state":"active","ping":44},{"user_id":204,"name":"Smuggs","steam_id":76561197999456003,"connected_time":650000000000,"state":"active","ping":40},{"user_id":162,"name":"Temp0_ ‚ô•","steam_id":76561198162068639,"connected_time":3057000000000,"state":"active","ping":74}]},{"server_id":21,"name":"Uncletopia | London | 5 | All Maps","name_short":"lon-5","host":"lon-1.uk.uncletopia.com","port":27055,"enabled":true,"region":"eu","cc":"gb","latitude":51.509865,"longitude":-0.118092,"reserved":0,"last_update":"0001-01-01T00:00:00Z","name_a2s":"Uncletopia | London | 5 | All Maps","protocol":17,"map":"koth_cascade","folder":"tf","game":"Team Fortress","app_id":440,"player_count":0,"max_players":24,"Bots":0,"server_type":"Dedicated","server_os":"Linux","password":true,"vac":true,"version":"7695204","steam_id":85568392924742829,"keywords":["cp","nocrits","nodmgspread","uncletopia"],"game_id":440,"stv_port":0,"stv_name":"","players":null},{"server_id":22,"name":"Uncletopia | London | 6 | All Maps","name_short":"lon-6","host":"lon-1.uk.uncletopia.com","port":27065,"enabled":true,"region":"eu","cc":"gb","latitude":51.509865,"longitude":-0.118092,"reserved":0,"last_update":"0001-01-01T00:00:00Z","name_a2s":"Uncletopia | London | 6 | All Maps","protocol":17,"map":"pl_barnblitz","folder":"tf","game":"Team Fortress","app_id":440,"player_count":0,"max_players":24,"Bots":0,"server_type":"Dedicated","server_os":"Linux","password":true,"vac":true,"version":"7695204","steam_id":85568392924742830,"keywords":["nocrits","nodmgspread","payload","uncletopia"],"game_id":440,"stv_port":27066,"stv_name":"Uncletopia | London | 6 | All Maps | STV","players":null},{"server_id":40,"name":"Uncletopia | London | 7 | No Payload","name_short":"lon-7","host":"lon-1.uk.uncletopia.com","port":27075,"enabled":true,"region":"eu","cc":"gb","latitude":51.509865,"longitude":-0.118092,"reserved":0,"last_update":"0001-01-01T00:00:00Z","name_a2s":"Uncletopia | London | 7 | No Payload","protocol":17,"map":"plr_hightower","folder":"tf","game":"Team Fortress","app_id":440,"player_count":24,"max_players":24,"Bots":0,"server_type":"Dedicated","server_os":"Linux","password":true,"vac":true,"version":"7695204","steam_id":85568392924964314,"keywords":["nocrits","nodmgspread","payload","uncletopia"],"game_id":440,"stv_port":27076,"stv_name":"Uncletopia | London | 7 | No Payload | STV","players":[{"user_id":86,"name":"–ò–Ω—Å–ø–µ–∫—Ç–æ—Ä –ê—Ç–∞—Å","steam_id":76561199175688390,"connected_time":2381000000000,"state":"active","ping":83},{"user_id":90,"name":"Jon","steam_id":76561198148858397,"connected_time":2221000000000,"state":"active","ping":58},{"user_id":115,"name":"hammer","steam_id":76561199251582775,"connected_time":883000000000,"state":"active","ping":42},{"user_id":59,"name":"El_Kommadante","steam_id":76561198079551685,"connected_time":3567000000000,"state":"active","ping":47},{"user_id":131,"name":"cof","steam_id":76561199128417805,"connected_time":91000000000,"state":"active","ping":50},{"user_id":130,"name":"supermariogrows","steam_id":76561198200238915,"connected_time":136000000000,"state":"active","ping":45},{"user_id":62,"name":"pryate","steam_id":76561198135960359,"connected_time":3479000000000,"state":"active","ping":43},{"user_id":132,"name":"xeno_Y","steam_id":76561199009157261,"connected_time":73000000000,"state":"active","ping":158},{"user_id":116,"name":"BlueAlex11","steam_id":76561199176131372,"connected_time":881000000000,"state":"active","ping":425},{"user_id":22,"name":"Milk","steam_id":76561198219146857,"connected_time":4947000000000,"state":"active","ping":80},{"user_id":104,"name":"Chaos","steam_id":76561199393904075,"connected_time":1530000000000,"state":"active","ping":49},{"user_id":133,"name":"greg","steam_id":76561198039547625,"connected_time":44000000000,"state":"spawning","ping":68},{"user_id":124,"name":"most sane mentalist","steam_id":76561198310095220,"connected_time":420000000000,"state":"active","ping":33},{"user_id":128,"name":"Lil Woody","steam_id":76561198135594072,"connected_time":294000000000,"state":"active","ping":54},{"user_id":125,"name":"–°—ã—Ä–Ω–∞—è —Å —Å—ã—Ä–Ω–∏–∫–æ\ufffd","steam_id":76561198805094046,"connected_time":386000000000,"state":"active","ping":82},{"user_id":134,"name":"Sebtacular","steam_id":76561198334284616,"connected_time":36000000000,"state":"active","ping":49},{"user_id":109,"name":"Z","steam_id":76561198086661151,"connected_time":1365000000000,"state":"active","ping":54},{"user_id":129,"name":"jge","steam_id":76561198123186387,"connected_time":277000000000,"state":"active","ping":60},{"user_id":126,"name":"Soviet Sickle","steam_id":76561198151734237,"connected_time":363000000000,"state":"active","ping":62},{"user_id":121,"name":"Aspartus","steam_id":76561198101385763,"connected_time":694000000000,"state":"active","ping":41},{"user_id":106,"name":"Mechanf","steam_id":76561199160834389,"connected_time":1447000000000,"state":"active","ping":47},{"user_id":122,"name":"nicco","steam_id":76561198046217866,"connected_time":677000000000,"state":"active","ping":56},{"user_id":58,"name":"Sham!","steam_id":76561198050434275,"connected_time":3594000000000,"state":"active","ping":56},{"user_id":52,"name":"Marukuso","steam_id":76561198154229845,"connected_time":3657000000000,"state":"active","ping":63}]},{"server_id":41,"name":"Uncletopia | London | 8 | Community","name_short":"lon-8","host":"lon-1.uk.uncletopia.com","port":27085,"enabled":true,"region":"eu","cc":"gb","latitude":51.509865,"longitude":-0.118092,"reserved":0,"last_update":"0001-01-01T00:00:00Z","name_a2s":"Uncletopia | London | 8 | Community","protocol":17,"map":"workshop/rd_asteroid_redux_rc9.ugc2154902912","folder":"tf","game":"Team Fortress","app_id":440,"player_count":0,"max_players":24,"Bots":0,"server_type":"Dedicated","server_os":"Linux","password":true,"vac":true,"version":"7695204","steam_id":85568392924964315,"keywords":["beta","nocrits","nodmgspread","rd","uncletopia"],"game_id":440,"stv_port":27086,"stv_name":"Uncletopia | London | 8 | Community | STV","players":null},{"server_id":300,"name":"Uncletopia | Montr√©al | 1 | All Maps","name_short":"mtl-1","host":"mtl-1.ca.uncletopia.com","port":27015,"enabled":true,"region":"us-east","cc":"ca","latitude":45.50889,"longitude":-73.56167,"reserved":0,"last_update":"0001-01-01T00:00:00Z","name_a2s":"Uncletopia | Montr√©al | 1 | All Maps","protocol":17,"map":"cp_dustbowl","folder":"tf","game":"Team Fortress","app_id":440,"player_count":0,"max_players":24,"Bots":0,"server_type":"Dedicated","server_os":"Linux","password":true,"vac":true,"version":"7695204","steam_id":85568392924500087,"keywords":["cp","nocrits","nodmgspread","uncletopia"],"game_id":440,"stv_port":0,"stv_name":"","players":null},{"server_id":301,"name":"Uncletopia | Montr√©al | 2 | All Maps","name_short":"mtl-2","host":"mtl-1.ca.uncletopia.com","port":27025,"enabled":true,"region":"us-east","cc":"ca","latitude":45.50889,"longitude":-73.56167,"reserved":0,"last_update":"0001-01-01T00:00:00Z","name_a2s":"Uncletopia | Montr√©al | 2 | All Maps","protocol":17,"map":"pl_snowycoast","folder":"tf","game":"Team Fortress","app_id":440,"player_count":0,"max_players":24,"Bots":0,"server_type":"Dedicated","server_os":"Linux","password":true,"vac":true,"version":"7695204","steam_id":85568392924500088,"keywords":["nocrits","nodmgspread","payload","uncletopia"],"game_id":440,"stv_port":0,"stv_name":"","players":null},{"server_id":302,"name":"Uncletopia | Montr√©al | 3 | All Maps","name_short":"mtl-3","host":"mtl-1.ca.uncletopia.com","port":27035,"enabled":true,"region":"us-east","cc":"ca","latitude":45.50889,"longitude":-73.56167,"reserved":0,"last_update":"0001-01-01T00:00:00Z","name_a2s":"Uncletopia | Montr√©al | 3 | All Maps","protocol":17,"map":"koth_viaduct","folder":"tf","game":"Team Fortress","app_id":440,"player_count":0,"max_players":24,"Bots":0,"server_type":"Dedicated","server_os":"Linux","password":true,"vac":true,"version":"7695204","steam_id":85568392924500089,"keywords":["cp","nocrits","nodmgspread","uncletopia"],"game_id":440,"stv_port":0,"stv_name":"","players":null},{"server_id":303,"name":"Uncletopia | Montr√©al | 4 | No Payload","name_short":"mtl-4","host":"mtl-1.ca.uncletopia.com","port":27045,"enabled":true,"region":"us-east","cc":"ca","latitude":45.50889,"longitude":-73.56167,"reserved":0,"last_update":"0001-01-01T00:00:00Z","name_a2s":"Uncletopia | Montr√©al | 4 | No Payload","protocol":17,"map":"cp_dustbowl","folder":"tf","game":"Team Fortress","app_id":440,"player_count":0,"max_players":24,"Bots":0,"server_type":"Dedicated","server_os":"Linux","password":true,"vac":true,"version":"7695204","steam_id":85568392924500090,"keywords":["cp","nocrits","nodmgspread","uncletopia"],"game_id":440,"stv_port":0,"stv_name":"","players":null},{"server_id":13,"name":"Uncletopia | New York City | 1 | All Maps","name_short":"nyc-1","host":"nyc-1.us.uncletopia.com","port":27015,"enabled":true,"region":"us-east","cc":"us","latitude":40.73061,"longitude":-73.93524,"reserved":0,"last_update":"0001-01-01T00:00:00Z","name_a2s":"Uncletopia | New York City | 1 | All Maps","protocol":17,"map":"koth_viaduct","folder":"tf","game":"Team Fortress","app_id":440,"player_count":0,"max_players":24,"Bots":0,"server_type":"Dedicated","server_os":"Linux","password":true,"vac":true,"version":"7695204","steam_id":85568392924469993,"keywords":["cp","nocrits","nodmgspread","uncletopia"],"game_id":440,"stv_port":27016,"stv_name":"Uncletopia | New York City | 1 | All Maps | STV","players":null},{"server_id":14,"name":"Uncletopia | New York City | 2 | All Maps","name_short":"nyc-2","host":"nyc-1.us.uncletopia.com","port":27025,"enabled":true,"region":"us-east","cc":"us","latitude":40.73061,"longitude":-73.93524,"reserved":0,"last_update":"0001-01-01T00:00:00Z","name_a2s":"Uncletopia | New York City | 2 | All Maps","protocol":17,"map":"pl_borneo","folder":"tf","game":"Team Fortress","app_id":440,"player_count":0,"max_players":24,"Bots":0,"server_type":"Dedicated","server_os":"Linux","password":true,"vac":true,"version":"7695204","steam_id":85568392924469994,"keywords":["nocrits","nodmgspread","payload","uncletopia"],"game_id":440,"stv_port":0,"stv_name":"","players":null},{"server_id":15,"name":"Uncletopia | New York City | 3 | All Maps","name_short":"nyc-3","host":"nyc-1.us.uncletopia.com","port":27035,"enabled":true,"region":"us-east","cc":"us","latitude":40.73061,"longitude":-73.93524,"reserved":0,"last_update":"0001-01-01T00:00:00Z","name_a2s":"Uncletopia | New York City | 3 | All Maps","protocol":17,"map":"pl_snowycoast","folder":"tf","game":"Team Fortress","app_id":440,"player_count":0,"max_players":24,"Bots":0,"server_type":"Dedicated","server_os":"Linux","password":true,"vac":true,"version":"7695204","steam_id":85568392924742820,"keywords":["nocrits","nodmgspread","payload","uncletopia"],"game_id":440,"stv_port":0,"stv_name":"","players":null},{"server_id":16,"name":"Uncletopia | New York City | 4 | Community","name_short":"nyc-4","host":"nyc-1.us.uncletopia.com","port":27045,"enabled":true,"region":"us-east","cc":"us","latitude":40.73061,"longitude":-73.93524,"reserved":0,"last_update":"0001-01-01T00:00:00Z","name_a2s":"Uncletopia | New York City | 4 | Community","protocol":17,"map":"pl_barnblitz","folder":"tf","game":"Team Fortress","app_id":440,"player_count":0,"max_players":24,"Bots":0,"server_type":"Dedicated","server_os":"Linux","password":true,"vac":true,"version":"7695204","steam_id":85568392924742821,"keywords":["nocrits","nodmgspread","payload","uncletopia"],"game_id":440,"stv_port":0,"stv_name":"","players":null},{"server_id":142,"name":"Uncletopia | S√£o Paulo | 1 | All Maps","name_short":"sao-1","host":"sao-1.br.uncletopia.com","port":27015,"enabled":true,"region":"sa","cc":"br","latitude":-23.533773,"longitude":-46.62529,"reserved":0,"last_update":"0001-01-01T00:00:00Z","name_a2s":"Uncletopia | S√£o Paulo | 1 | All Maps","protocol":17,"map":"koth_cascade","folder":"tf","game":"Team Fortress","app_id":440,"player_count":1,"max_players":24,"Bots":0,"server_type":"Dedicated","server_os":"Linux","password":true,"vac":true,"version":"7695204","steam_id":85568392924469996,"keywords":["cp","nocrits","nodmgspread","uncletopia"],"game_id":440,"stv_port":0,"stv_name":"","players":[{"user_id":2,"name":"Papyrus Gamer","steam_id":76561199029727506,"connected_time":652000000000,"state":"active","ping":90}]},{"server_id":143,"name":"Uncletopia | S√£o Paulo | 2 | All Maps","name_short":"sao-2","host":"sao-2.br.uncletopia.com","port":27015,"enabled":true,"region":"sa","cc":"br","latitude":-23.533773,"longitude":-46.62529,"reserved":0,"last_update":"0001-01-01T00:00:00Z","name_a2s":"Uncletopia | S√£o Paulo | 2 | All Maps","protocol":17,"map":"pl_pier","folder":"tf","game":"Team Fortress","app_id":440,"player_count":0,"max_players":24,"Bots":0,"server_type":"Dedicated","server_os":"Linux","password":true,"vac":true,"version":"7695204","steam_id":85568392924485349,"keywords":["nocrits","nodmgspread","payload","uncletopia"],"game_id":440,"stv_port":27016,"stv_name":"Uncletopia | S√£o Paulo | 2 | All Maps | STV","players":null},{"server_id":7,"name":"Uncletopia | Seattle | 1 | All Maps","name_short":"sea-1","host":"sea-1.us.uncletopia.com","port":27015,"enabled":true,"region":"us-west","cc":"us","latitude":47.608013,"longitude":-122.33517,"reserved":0,"last_update":"0001-01-01T00:00:00Z","name_a2s":"Uncletopia | Seattle | 1 | All Maps","protocol":17,"map":"pl_snowycoast","folder":"tf","game":"Team Fortress","app_id":440,"player_count":0,"max_players":24,"Bots":0,"server_type":"Dedicated","server_os":"Linux","password":true,"vac":true,"version":"7695204","steam_id":85568392924469997,"keywords":["nocrits","nodmgspread","payload","uncletopia"],"game_id":440,"stv_port":0,"stv_name":"","players":null},{"server_id":119,"name":"Uncletopia | Seattle | 2 | All Maps","name_short":"sea-2","host":"sea-1.us.uncletopia.com","port":27025,"enabled":true,"region":"us-west","cc":"us","latitude":47.608013,"longitude":-122.33517,"reserved":0,"last_update":"0001-01-01T00:00:00Z","name_a2s":"Uncletopia | Seattle | 2 | All Maps","protocol":17,"map":"koth_lakeside_final","folder":"tf","game":"Team Fortress","app_id":440,"player_count":16,"max_players":24,"Bots":0,"server_type":"Dedicated","server_os":"Linux","password":true,"vac":true,"version":"7695204","steam_id":85568392924469998,"keywords":["cp","nocrits","nodmgspread","uncletopia"],"game_id":440,"stv_port":0,"stv_name":"","players":[{"user_id":2,"name":"THE NUT","steam_id":76561198067813626,"connected_time":756000000000,"state":"active","ping":45},{"user_id":3,"name":"J O S H¬≥¬≤","steam_id":76561198122603779,"connected_time":754000000000,"state":"active","ping":70},{"user_id":4,"name":"demolondon the thrice","steam_id":76561198936116083,"connected_time":750000000000,"state":"active","ping":60},{"user_id":5,"name":"Grill Skills","steam_id":76561198053575147,"connected_time":749000000000,"state":"active","ping":58},{"user_id":6,"name":"‡∏∏","steam_id":76561198195832121,"connected_time":745000000000,"state":"active","ping":75},{"user_id":14,"name":"cat","steam_id":76561198302651200,"connected_time":660000000000,"state":"active","ping":73},{"user_id":8,"name":"weedcatinthasky","steam_id":76561198421913648,"connected_time":743000000000,"state":"active","ping":40},{"user_id":9,"name":"PROFILE NAME","steam_id":76561199438851854,"connected_time":735000000000,"state":"active","ping":51},{"user_id":10,"name":"novacheri1","steam_id":76561198345120143,"connected_time":735000000000,"state":"active","ping":105},{"user_id":11,"name":"Soap Man","steam_id":76561198000490235,"connected_time":725000000000,"state":"active","ping":62},{"user_id":12,"name":"she's a killer","steam_id":76561198325306660,"connected_time":722000000000,"state":"active","ping":53},{"user_id":13,"name":"rat gets the cheese","steam_id":76561198031234032,"connected_time":720000000000,"state":"active","ping":90},{"user_id":15,"name":"Foreign","steam_id":76561198206848004,"connected_time":356000000000,"state":"active","ping":59},{"user_id":16,"name":"Cloud","steam_id":76561198272454184,"connected_time":348000000000,"state":"active","ping":167},{"user_id":17,"name":"That Dude","steam_id":76561198980486227,"connected_time":338000000000,"state":"active","ping":127},{"user_id":21,"name":"mountain goat","steam_id":76561198326628884,"connected_time":13000000000,"state":"spawning","ping":119}]},{"server_id":17,"name":"Uncletopia | San Francisco | 1 | All Maps","name_short":"sfo-1","host":"sfo-1.us.uncletopia.com","port":27015,"enabled":true,"region":"us-west","cc":"us","latitude":37.77397,"longitude":-122.4313,"reserved":0,"last_update":"0001-01-01T00:00:00Z","name_a2s":"Uncletopia | San Francisco | 1 | All Maps","protocol":17,"map":"cp_sunshine","folder":"tf","game":"Team Fortress","app_id":440,"player_count":0,"max_players":24,"Bots":0,"server_type":"Dedicated","server_os":"Linux","password":true,"vac":true,"version":"7695204","steam_id":85568392924469999,"keywords":["cp","nocrits","nodmgspread","uncletopia"],"game_id":440,"stv_port":0,"stv_name":"","players":null},{"server_id":18,"name":"Uncletopia | San Francisco | 2 | All Maps","name_short":"sfo-2","host":"sfo-1.us.uncletopia.com","port":27025,"enabled":true,"region":"us-west","cc":"us","latitude":37.77397,"longitude":-122.4313,"reserved":0,"last_update":"0001-01-01T00:00:00Z","name_a2s":"Uncletopia | San Francisco | 2 | All Maps","protocol":17,"map":"pl_badwater","folder":"tf","game":"Team Fortress","app_id":440,"player_count":0,"max_players":24,"Bots":0,"server_type":"Dedicated","server_os":"Linux","password":true,"vac":true,"version":"7695204","steam_id":85568392924470000,"keywords":["nocrits","nodmgspread","payload","uncletopia"],"game_id":440,"stv_port":0,"stv_name":"","players":null},{"server_id":19,"name":"Uncletopia | San Francisco | 3 | No Payload","name_short":"sfo-3","host":"sfo-1.us.uncletopia.com","port":27035,"enabled":true,"region":"us-west","cc":"us","latitude":37.77397,"longitude":-122.4313,"reserved":0,"last_update":"0001-01-01T00:00:00Z","name_a2s":"Uncletopia | San Francisco | 3 | No Payload","protocol":17,"map":"cp_snakewater_final1","folder":"tf","game":"Team Fortress","app_id":440,"player_count":0,"max_players":24,"Bots":0,"server_type":"Dedicated","server_os":"Linux","password":true,"vac":true,"version":"7695204","steam_id":85568392924742824,"keywords":["cp","nocrits","nodmgspread","uncletopia"],"game_id":440,"stv_port":0,"stv_name":"","players":null},{"server_id":20,"name":"Uncletopia | San Francisco | 4 | Community","name_short":"sfo-4","host":"sfo-1.us.uncletopia.com","port":27045,"enabled":true,"region":"us-west","cc":"us","latitude":37.77397,"longitude":-122.4313,"reserved":0,"last_update":"0001-01-01T00:00:00Z","name_a2s":"Uncletopia | San Francisco | 4 | Community","protocol":17,"map":"koth_highpass","folder":"tf","game":"Team Fortress","app_id":440,"player_count":0,"max_players":24,"Bots":0,"server_type":"Dedicated","server_os":"Linux","password":true,"vac":true,"version":"7695204","steam_id":85568392924742826,"keywords":["cp","nocrits","nodmgspread","uncletopia"],"game_id":440,"stv_port":0,"stv_name":"","players":null},{"server_id":141,"name":"Uncletopia | Sydney | 1 | All Maps","name_short":"syd-1","host":"syd-1.au.uncletopia.com","port":27015,"enabled":true,"region":"au","cc":"au","latitude":-33.865143,"longitude":151.2099,"reserved":0,"last_update":"0001-01-01T00:00:00Z","name_a2s":"Uncletopia | Sydney | 1 | All Maps","protocol":17,"map":"pl_upward","folder":"tf","game":"Team Fortress","app_id":440,"player_count":0,"max_players":24,"Bots":0,"server_type":"Dedicated","server_os":"Linux","password":true,"vac":true,"version":"7695204","steam_id":85568392924470001,"keywords":["nocrits","nodmgspread","payload","uncletopia"],"game_id":440,"stv_port":27016,"stv_name":"Uncletopia | Sydney | 1 | All Maps | STV","players":null},{"server_id":123,"name":"Uncletopia | Sydney | 2 | All Maps","name_short":"syd-2","host":"syd-1.au.uncletopia.com","port":27025,"enabled":true,"region":"au","cc":"au","latitude":-33.865143,"longitude":151.2099,"reserved":0,"last_update":"0001-01-01T00:00:00Z","name_a2s":"Uncletopia | Sydney | 2 | All Maps","protocol":17,"map":"pl_badwater","folder":"tf","game":"Team Fortress","app_id":440,"player_count":23,"max_players":24,"Bots":0,"server_type":"Dedicated","server_os":"Linux","password":true,"vac":true,"version":"7695204","steam_id":85568392924470002,"keywords":["nocrits","nodmgspread","payload","uncletopia"],"game_id":440,"stv_port":27026,"stv_name":"Uncletopia | Sydney | 2 | All Maps | STV","players":[{"user_id":694,"name":"hawk","steam_id":76561198135164277,"connected_time":3644000000000,"state":"active","ping":47},{"user_id":716,"name":"Captain Canadia","steam_id":76561198167967735,"connected_time":2101000000000,"state":"active","ping":51},{"user_id":737,"name":"helton1 #RemoveCrossbow","steam_id":76561198841855657,"connected_time":90000000000,"state":"active","ping":49},{"user_id":706,"name":"sir sex","steam_id":76561199057400955,"connected_time":3223000000000,"state":"active","ping":75},{"user_id":713,"name":"UncleBuck","steam_id":76561198160722397,"connected_time":2537000000000,"state":"active","ping":64},{"user_id":729,"name":"Sover blw.tf","steam_id":76561198136347837,"connected_time":497000000000,"state":"active","ping":138},{"user_id":731,"name":"Selling Anti-Matter for $543","steam_id":76561198070708382,"connected_time":301000000000,"state":"active","ping":46},{"user_id":725,"name":"doritopig","steam_id":76561198169930194,"connected_time":697000000000,"state":"active","ping":59},{"user_id":714,"name":"xfol","steam_id":76561197973048879,"connected_time":2354000000000,"state":"active","ping":55},{"user_id":641,"name":"Rarity the Fabulous","steam_id":76561198077653287,"connected_time":7465000000000,"state":"active","ping":30},{"user_id":733,"name":"Colonel MF Stinkmeaner","steam_id":76561198059744886,"connected_time":207000000000,"state":"active","ping":78},{"user_id":727,"name":"xJustHavocx","steam_id":76561198253056783,"connected_time":649000000000,"state":"active","ping":123},{"user_id":718,"name":"ToadFungus","steam_id":76561199219667039,"connected_time":1922000000000,"state":"active","ping":108},{"user_id":675,"name":"banna man","steam_id":76561198425529484,"connected_time":4997000000000,"state":"active","ping":62},{"user_id":645,"name":"hobo","steam_id":76561199046481213,"connected_time":7401000000000,"state":"active","ping":72},{"user_id":734,"name":"baked with a bucket hat frankli","steam_id":76561198006535333,"connected_time":202000000000,"state":"active","ping":83},{"user_id":721,"name":"ToastedShadows","steam_id":76561199096375285,"connected_time":1289000000000,"state":"active","ping":41},{"user_id":698,"name":"Charm","steam_id":76561198028891054,"connected_time":3545000000000,"state":"active","ping":61},{"user_id":719,"name":"Homebrand Chronic","steam_id":76561198941549137,"connected_time":1629000000000,"state":"active","ping":69},{"user_id":720,"name":"beanslinger","steam_id":76561198063552783,"connected_time":1414000000000,"state":"active","ping":59},{"user_id":736,"name":"DEVILS","steam_id":76561198203803181,"connected_time":125000000000,"state":"active","ping":38},{"user_id":696,"name":"BSL_543","steam_id":76561198216094064,"connected_time":3590000000000,"state":"active","ping":62},{"user_id":711,"name":"Free Happiness","steam_id":76561198308958137,"connected_time":2918000000000,"state":"active","ping":55}]},{"server_id":395,"name":"Uncletopia | Sydney | 3 | All Maps","name_short":"syd-3","host":"syd-1.au.uncletopia.com","port":27035,"enabled":true,"region":"au","cc":"au","latitude":-33.865143,"longitude":151.2099,"reserved":0,"last_update":"0001-01-01T00:00:00Z","name_a2s":"Uncletopia | Sydney | 3 | All Maps","protocol":17,"map":"koth_lakeside_final","folder":"tf","game":"Team Fortress","app_id":440,"player_count":0,"max_players":24,"Bots":0,"server_type":"Dedicated","server_os":"Linux","password":true,"vac":true,"version":"7695204","steam_id":85568392925194467,"keywords":["cp","nocrits","nodmgspread","uncletopia"],"game_id":440,"stv_port":27036,"stv_name":"Uncletopia | Sydney | 3 | All Maps | STV","players":null},{"server_id":396,"name":"Uncletopia | Sydney | 4 | All Maps","name_short":"syd-4","host":"syd-1.au.uncletopia.com","port":27045,"enabled":true,"region":"au","cc":"au","latitude":-33.865143,"longitude":151.2099,"reserved":0,"last_update":"0001-01-01T00:00:00Z","name_a2s":"Uncletopia | Sydney | 4 | All Maps","protocol":17,"map":"cp_altitude","folder":"tf","game":"Team Fortress","app_id":440,"player_count":2,"max_players":24,"Bots":0,"server_type":"Dedicated","server_os":"Linux","password":true,"vac":true,"version":"7695204","steam_id":85568392925397958,"keywords":["cp","nocrits","nodmgspread","uncletopia"],"game_id":440,"stv_port":27046,"stv_name":"Uncletopia | Sydney | 4 | All Maps | STV","players":[{"user_id":54,"name":"REVOLVING RAT","steam_id":76561198838935077,"connected_time":664000000000,"state":"active","ping":68},{"user_id":55,"name":"bird","steam_id":76561199387854647,"connected_time":660000000000,"state":"active","ping":72}]},{"server_id":58,"name":"Uncletopia | Sydney | 5 | No Payload","name_short":"syd-5","host":"syd-1.au.uncletopia.com","port":27055,"enabled":true,"region":"au","cc":"au","latitude":-33.865143,"longitude":151.2099,"reserved":0,"last_update":"0001-01-01T00:00:00Z","name_a2s":"Uncletopia | Sydney | 5 | No Payload","protocol":17,"map":"plr_nightfall_final","folder":"tf","game":"Team Fortress","app_id":440,"player_count":0,"max_players":24,"Bots":0,"server_type":"Dedicated","server_os":"Linux","password":true,"vac":true,"version":"7695204","steam_id":85568392925397959,"keywords":["nocrits","nodmgspread","payload","uncletopia"],"game_id":440,"stv_port":27056,"stv_name":"Uncletopia | Sydney | 5 | No Payload | STV","players":null},{"server_id":59,"name":"Uncletopia | Sydney | 6 | Community","name_short":"syd-6","host":"syd-1.au.uncletopia.com","port":27065,"enabled":true,"region":"au","cc":"au","latitude":-33.865143,"longitude":151.2099,"reserved":0,"last_update":"0001-01-01T00:00:00Z","name_a2s":"Uncletopia | Sydney | 6 | Community","protocol":17,"map":"workshop/koth_product_final.ugc454272353","folder":"tf","game":"Team Fortress","app_id":440,"player_count":0,"max_players":24,"Bots":0,"server_type":"Dedicated","server_os":"Linux","password":true,"vac":true,"version":"7695204","steam_id":85568392925397960,"keywords":["cp","nocrits","nodmgspread","uncletopia"],"game_id":440,"stv_port":27066,"stv_name":"Uncletopia | Sydney | 6 | Community | STV","players":null},{"server_id":49,"name":"Uncletopia | Warsaw | 1 | All Maps","name_short":"waw-1","host":"waw-1.pl.uncletopia.com","port":27015,"enabled":true,"region":"eu","cc":"pl","latitude":52.2297,"longitude":21.017532,"reserved":0,"last_update":"0001-01-01T00:00:00Z","name_a2s":"Uncletopia | Warsaw | 1 | All Maps","protocol":17,"map":"cp_sunshine","folder":"tf","game":"Team Fortress","app_id":440,"player_count":0,"max_players":24,"Bots":0,"server_type":"Dedicated","server_os":"Linux","password":true,"vac":true,"version":"7695204","steam_id":85568392925397850,"keywords":["cp","nocrits","nodmgspread","uncletopia"],"game_id":440,"stv_port":27016,"stv_name":"Uncletopia | Warsaw | 1 | All Maps | STV","players":null},{"server_id":50,"name":"Uncletopia | Warsaw | 2 | All Maps","name_short":"waw-2","host":"waw-1.pl.uncletopia.com","port":27025,"enabled":true,"region":"eu","cc":"pl","latitude":52.2297,"longitude":21.017532,"reserved":0,"last_update":"0001-01-01T00:00:00Z","name_a2s":"Uncletopia | Warsaw | 2 | All Maps","protocol":17,"map":"pl_swiftwater_final1","folder":"tf","game":"Team Fortress","app_id":440,"player_count":20,"max_players":24,"Bots":0,"server_type":"Dedicated","server_os":"Linux","password":true,"vac":true,"version":"7695204","steam_id":85568392925397851,"keywords":["nocrits","nodmgspread","payload","uncletopia"],"game_id":440,"stv_port":27026,"stv_name":"Uncletopia | Warsaw | 2 | All Maps | STV","players":[{"user_id":368,"name":"nullhealthpoints","steam_id":76561198113335305,"connected_time":201000000000,"state":"active","ping":75},{"user_id":371,"name":"heavy sentry","steam_id":76561199133080265,"connected_time":134000000000,"state":"active","ping":125},{"user_id":356,"name":"Nightly","steam_id":76561199380734528,"connected_time":652000000000,"state":"active","ping":177},{"user_id":345,"name":"WESTMOB | EasyEryk","steam_id":76561198139164781,"connected_time":1168000000000,"state":"active","ping":65},{"user_id":376,"name":"Breeze","steam_id":76561198892979594,"connected_time":38000000000,"state":"active","ping":57},{"user_id":355,"name":"Emil","steam_id":76561198033205384,"connected_time":678000000000,"state":"active","ping":83},{"user_id":354,"name":"troingle","steam_id":76561198979365905,"connected_time":697000000000,"state":"active","ping":104},{"user_id":358,"name":"KEVLO5","steam_id":76561199091610305,"connected_time":543000000000,"state":"active","ping":64},{"user_id":364,"name":"Data-0","steam_id":76561198440962067,"connected_time":437000000000,"state":"active","ping":75},{"user_id":359,"name":"ZazyLou_","steam_id":76561198411134617,"connected_time":524000000000,"state":"active","ping":44},{"user_id":346,"name":"hallfelt","steam_id":76561199008716852,"connected_time":1157000000000,"state":"active","ping":84},{"user_id":360,"name":"snoowbrigade","steam_id":76561197989507394,"connected_time":519000000000,"state":"active","ping":84},{"user_id":325,"name":"SlavaMyas","steam_id":76561199385678912,"connected_time":2328000000000,"state":"active","ping":114},{"user_id":374,"name":"altertaken","steam_id":76561199016050401,"connected_time":81000000000,"state":"active","ping":193},{"user_id":362,"name":"keefLeave","steam_id":76561198278176420,"connected_time":459000000000,"state":"active","ping":76},{"user_id":373,"name":"I don't enjoy this game","steam_id":76561198347336086,"connected_time":88000000000,"state":"active","ping":76},{"user_id":307,"name":"Beggar's Bazooka default taunt","steam_id":76561198089727765,"connected_time":3867000000000,"state":"active","ping":71},{"user_id":366,"name":"Bell","steam_id":76561199413517335,"connected_time":349000000000,"state":"active","ping":148},{"user_id":375,"name":"Belgorodec","steam_id":76561199383879505,"connected_time":47000000000,"state":"active","ping":132},{"user_id":377,"name":"faultymouseguy","steam_id":76561199258606361,"connected_time":30000000000,"state":"active","ping":282}]},{"server_id":51,"name":"Uncletopia | Warsaw | 3 | All Maps","name_short":"waw-3","host":"waw-1.pl.uncletopia.com","port":27035,"enabled":true,"region":"eu","cc":"pl","latitude":52.2297,"longitude":21.017532,"reserved":0,"last_update":"0001-01-01T00:00:00Z","name_a2s":"Uncletopia | Warsaw | 3 | All Maps","protocol":17,"map":"pl_barnblitz","folder":"tf","game":"Team Fortress","app_id":440,"player_count":0,"max_players":24,"Bots":0,"server_type":"Dedicated","server_os":"Linux","password":true,"vac":true,"version":"7695204","steam_id":85568392925397852,"keywords":["nocrits","nodmgspread","payload","uncletopia"],"game_id":440,"stv_port":0,"stv_name":"","players":null},{"server_id":52,"name":"Uncletopia | Warsaw | 4 | All Maps","name_short":"waw-4","host":"waw-1.pl.uncletopia.com","port":27045,"enabled":true,"region":"eu","cc":"pl","latitude":52.2297,"longitude":21.017532,"reserved":0,"last_update":"0001-01-01T00:00:00Z","name_a2s":"Uncletopia | Warsaw | 4 | All Maps","protocol":17,"map":"pl_frontier_final","folder":"tf","game":"Team Fortress","app_id":440,"player_count":0,"max_players":24,"Bots":0,"server_type":"Dedicated","server_os":"Linux","password":true,"vac":true,"version":"7695204","steam_id":85568392925397853,"keywords":["nocrits","nodmgspread","payload","uncletopia"],"game_id":440,"stv_port":27046,"stv_name":"Uncletopia | Warsaw | 4 | All Maps | STV","players":null},{"server_id":53,"name":"Uncletopia | Warsaw | 5 | No Payload","name_short":"waw-5","host":"waw-1.pl.uncletopia.com","port":27055,"enabled":true,"region":"eu","cc":"pl","latitude":52.2297,"longitude":21.017532,"reserved":0,"last_update":"0001-01-01T00:00:00Z","name_a2s":"Uncletopia | Warsaw | 5 | No Payload","protocol":17,"map":"plr_bananabay","folder":"tf","game":"Team Fortress","app_id":440,"player_count":3,"max_players":24,"Bots":0,"server_type":"Dedicated","server_os":"Linux","password":true,"vac":true,"version":"7695204","steam_id":85568392925397854,"keywords":["nocrits","nodmgspread","payload","uncletopia"],"game_id":440,"stv_port":27056,"stv_name":"Uncletopia | Warsaw | 5 | No Payload | STV","players":[{"user_id":65,"name":"titicost2200","steam_id":76561198826858059,"connected_time":1857000000000,"state":"active","ping":109},{"user_id":66,"name":"Jotap√™","steam_id":76561198325543532,"connected_time":1834000000000,"state":"active","ping":114},{"user_id":67,"name":"xXEngnirGamingXx","steam_id":76561199439312454,"connected_time":86000000000,"state":"active","ping":80}]},{"server_id":54,"name":"Uncletopia | Warsaw | 6 | Community","name_short":"waw-6","host":"waw-1.pl.uncletopia.com","port":27065,"enabled":true,"region":"eu","cc":"pl","latitude":52.2297,"longitude":21.017532,"reserved":0,"last_update":"0001-01-01T00:00:00Z","name_a2s":"Uncletopia | Warsaw | 6 | Community","protocol":17,"map":"pl_barnblitz","folder":"tf","game":"Team Fortress","app_id":440,"player_count":0,"max_players":24,"Bots":0,"server_type":"Dedicated","server_os":"Linux","password":true,"vac":true,"version":"7695204","steam_id":85568392925397856,"keywords":["nocrits","nodmgspread","payload","uncletopia"],"game_id":440,"stv_port":0,"stv_name":"","players":null}]}