{"status":true,"message":"","result":[{"server_id":9,"name":"Uncletopia | Atlanta | 1 | All Maps","name_short":"atl-1","host":"atl-1.us.uncletopia.com","port":27015,"enabled":true,"region":"us-east","cc":"us","latitude":33.753746,"longitude":-84.38633,"reserved":0,"last_update":"0001-01-01T00:00:00Z","name_a2s":"Uncletopia | Atlanta | 1 | All Maps","protocol":17,"map":"pl_pier","folder":"tf","game":"Team Fortress","app_id":440,"player_count":23,"max_players":24,"Bots":0,"server_type":"Dedicated","server_os":"Linux","password":true,"vac":true,"version":"7882260","steam_id":85568392924469982,"keywords":["nocrits","nodmgspread","payload","uncletopia"],"game_id":440,"stv_port":27016,"stv_name":"Uncletopia | Atlanta | 1 | All Maps | STV","players":[{"user_id":747,"name":"the tf2 player of all time","steam_id":76561198881665250,"connected_time":403000000000,"state":"active","ping":101},{"user_id":653,"name":"THE NUMB SKULL","steam_id":76561198355818542,"connected_time":9350000000000,"state":"active","ping":38},{"user_id":733,"name":"Oixo","steam_id":76561198076035468,"connected_time":1568000000000,"state":"active","ping":77},{"user_id":751,"name":"nekoknight tf2","steam_id":76561198400058665,"connected_time":186000000000,"state":"active","ping":70},{"user_id":743,"name":"CherriKat (she/her)","steam_id":76561198821297512,"connected_time":761000000000,"state":"active","ping":105},{"user_id":735,"name":"Naaman","steam_id":76561198050718803,"connected_time":1485000000000,"state":"active","ping":115},{"user_id":728,"name":"OpenDown","steam_id":76561198064132688,"connected_time":1834000000000,"state":"active","ping":81},{"user_id":744,"name":"jazaniac","steam_id":76561198059955588,"connected_time":747000000000,"state":"active","ping":85},{"user_id":736,"name":"Lotus Cookie","steam_id":76561199482553414,"connected_time":1479000000000,"state":"active","ping":114},{"user_id":752,"name":"dinky little beanie baby","steam_id":76561197999318398,"connected_time":89000000000,"state":"active","ping":113},{"user_id":723,"name":"Bateman 64","steam_id":76561198093689792,"connected_time":2276000000000,"state":"active","ping":103},{"user_id":688,"name":"tony hawk","steam_id":76561198172050802,"connected_time":5628000000000,"state":"active","ping":126},{"user_id":753,"name":"trans rights","steam_id":76561198044183038,"connected_time":8000000000,"state":"spawning","ping":49},{"user_id":725,"name":"vi","steam_id":76561198388123421,"connected_time":2102000000000,"state":"active","ping":111},{"user_id":711,"name":"Galactamarx","steam_id":76561198028065755,"connected_time":3216000000000,"state":"active","ping":96},{"user_id":694,"name":"[P-REC] Bookmark.","steam_id":76561198095930645,"connected_time":4687000000000,"state":"active","ping":100},{"user_id":750,"name":"Decadence","steam_id":76561198089630547,"connected_time":245000000000,"state":"active","ping":68},{"user_id":737,"name":"tj3002rocks","steam_id":76561199017921546,"connected_time":1442000000000,"state":"active","ping":73},{"user_id":741,"name":"[Deep] ExorKing","steam_id":76561198089731303,"connected_time":1112000000000,"state":"active","ping":73},{"user_id":683,"name":"meownt evewest :3","steam_id":76561198017686306,"connected_time":6288000000000,"state":"active","ping":154},{"user_id":739,"name":"LeTonzy","steam_id":76561198005806699,"connected_time":1193000000000,"state":"active","ping":116},{"user_id":746,"name":"KendraTheHylian","steam_id":76561198395784051,"connected_time":520000000000,"state":"active","ping":70},{"user_id":700,"name":":3","steam_id":76561198126358045,"connected_time":3997000000000,"state":"active","ping":73}]},{"server_id":104,"name":"Uncletopia | Atlanta | 2 | All Maps","name_short":"atl-2","host":"atl-1.us.uncletopia.com","port":27025,"enabled":true,"region":"us-east","cc":"us","latitude":33.753746,"longitude":-84.38633,"reserved":0,"last_update":"0001-01-01T00:00:00Z","name_a2s":"Uncletopia | Atlanta | 2 | All Maps","protocol":17,"map":"koth_lakeside_final","folder":"tf","game":"Team Fortress","app_id":440,"player_count":0,"max_players":24,"Bots":0,"server_type":"Dedicated","server_os":"Linux","password":true,"vac":true,"version":"7882260","steam_id":85568392924469983,"keywords":["cp","nocrits","nodmgspread","uncletopia"],"game_id":440,"stv_port":27026,"stv_name":"Uncletopia | Atlanta | 2 | All Maps | STV","players":null},{"server_id":400,"name":"Uncletopia | Atlanta | 3 | Community","name_short":"atl-3","host":"atl-1.us.uncletopia.com","port":27035,"enabled":true,"region":"us-east","cc":"us","latitude":33.753746,"longitude":-84.38633,"reserved":0,"last_update":"0001-01-01T00:00:00Z","name_a2s":"Uncletopia | Atlanta | 3 | Community","protocol":17,"map":"workshop/koth_product_final.ugc454272353","folder":"tf","game":"Team Fortress","app_id":440,"player_count":0,"max_players":24,"Bots":0,"server_type":"Dedicated","server_os":"Linux","password":true,"vac":true,"version":"7882260","steam_id":85568392924515187,"keywords":["cp","nocrits","nodmgspread","uncletopia"],"game_id":440,"stv_port":27036,"stv_name":"Uncletopia | Atlanta | 3 | Community | STV","players":null},{"server_id":401,"name":"Uncletopia | Atlanta | 4 | No Payload","name_short":"atl-4","host":"atl-1.us.uncletopia.com","port":27045,"enabled":true,"region":"us-east","cc":"us","latitude":33.753746,"longitude":-84.38633,"reserved":0,"last_update":"0001-01-01T00:00:00Z","name_a2s":"","protocol":0,"map":"","folder":"","game":"","app_id":0,"player_count":0,"max_players":0,"Bots":0,"server_type":"","server_os":"","password":false,"vac":false,"version":"","steam_id":0,"keywords":null,"game_id":0,"stv_port":0,"stv_name":"","players":null},{"server_id":2,"name":"Uncletopia | Chicago | 1 | All Maps","name_short":"chi-1","host":"chi-1.us.uncletopia.com","port":27015,"enabled":true,"region":"us-central","cc":"us","latitude":41.881832,"longitude":-87.62318,"reserved":0,"last_update":"0001-01-01T00:00:00Z","name_a2s":"Uncletopia | Chicago | 1 | All Maps","protocol":17,"map":"pl_snowycoast","folder":"tf","game":"Team Fortress","app_id":440,"player_count":0,"max_players":24,"Bots":0,"server_type":"Dedicated","server_os":"Linux","password":true,"vac":true,"version":"7882260","steam_id":85568392924469984,"keywords":["nocrits","nodmgspread","payload","uncletopia"],"game_id":440,"stv_port":27016,"stv_name":"Uncletopia | Chicago | 1 | All Maps | STV","players":null},{"server_id":106,"name":"Uncletopia | Chicago | 2 | All Maps","name_short":"chi-2","host":"chi-1.us.uncletopia.com","port":27025,"enabled":true,"region":"us-central","cc":"us","latitude":41.881832,"longitude":-87.62318,"reserved":0,"last_update":"0001-01-01T00:00:00Z","name_a2s":"Uncletopia | Chicago | 2 | All Maps","protocol":17,"map":"cp_gorge","folder":"tf","game":"Team Fortress","app_id":440,"player_count":15,"max_players":24,"Bots":0,"server_type":"Dedicated","server_os":"Linux","password":true,"vac":true,"version":"7882260","steam_id":85568392924469985,"keywords":["cp","nocrits","nodmgspread","uncletopia"],"game_id":440,"stv_port":27026,"stv_name":"Uncletopia | Chicago | 2 | All Maps | STV","players":[{"user_id":1066,"name":"JollyVG","steam_id":76561198044919633,"connected_time":221000000000,"state":"active","ping":56},{"user_id":1064,"name":"Gasly The Red","steam_id":76561198397898297,"connected_time":280000000000,"state":"active","ping":105},{"user_id":1030,"name":"Stoofy","steam_id":76561198280750328,"connected_time":3148000000000,"state":"active","ping":86},{"user_id":1053,"name":"Gay Cake","steam_id":76561198004388831,"connected_time":1718000000000,"state":"active","ping":58},{"user_id":1060,"name":"Benwyatt88","steam_id":76561198823755174,"connected_time":754000000000,"state":"active","ping":95},{"user_id":1057,"name":"sweaterfan","steam_id":76561199389567214,"connected_time":1222000000000,"state":"active","ping":64},{"user_id":1062,"name":"vanilla linguine","steam_id":76561198155661890,"connected_time":699000000000,"state":"active","ping":75},{"user_id":1027,"name":"Rad","steam_id":76561198413125750,"connected_time":3463000000000,"state":"active","ping":62},{"user_id":921,"name":"Lud","steam_id":76561198359217809,"connected_time":11744000000000,"state":"active","ping":184},{"user_id":1028,"name":"Soto101","steam_id":76561198141538280,"connected_time":3366000000000,"state":"active","ping":58},{"user_id":1034,"name":"captain Damien","steam_id":76561198813245551,"connected_time":3009000000000,"state":"active","ping":85},{"user_id":1058,"name":"Major","steam_id":76561198333358491,"connected_time":1198000000000,"state":"active","ping":103},{"user_id":1059,"name":"EnergyBolt30","steam_id":76561198925178957,"connected_time":852000000000,"state":"active","ping":85},{"user_id":1043,"name":"1-800-GHOST-DANCE","steam_id":76561198835430429,"connected_time":2496000000000,"state":"active","ping":83},{"user_id":1037,"name":"roo the observer","steam_id":76561198120684348,"connected_time":2912000000000,"state":"active","ping":48}]},{"server_id":402,"name":"Uncletopia | Chicago | 3 | All Maps","name_short":"chi-3","host":"chi-1.us.uncletopia.com","port":27035,"enabled":true,"region":"us-central","cc":"us","latitude":41.881832,"longitude":-87.62318,"reserved":0,"last_update":"0001-01-01T00:00:00Z","name_a2s":"Uncletopia | Chicago | 3 | All Maps","protocol":17,"map":"koth_viaduct","folder":"tf","game":"Team Fortress","app_id":440,"player_count":0,"max_players":24,"Bots":0,"server_type":"Dedicated","server_os":"Linux","password":true,"vac":true,"version":"7882260","steam_id":85568392924515191,"keywords":["cp","nocrits","nodmgspread","uncletopia"],"game_id":440,"stv_port":27036,"stv_name":"Uncletopia | Chicago | 3 | All Maps | STV","players":null},{"server_id":403,"name":"Uncletopia | Chicago | 4 | All Maps","name_short":"chi-4","host":"chi-1.us.uncletopia.com","port":27045,"enabled":true,"region":"us-central","cc":"us","latitude":41.881832,"longitude":-87.62318,"reserved":0,"last_update":"0001-01-01T00:00:00Z","name_a2s":"Uncletopia | Chicago | 4 | All Maps","protocol":17,"map":"cp_sunshine","folder":"tf","game":"Team Fortress","app_id":440,"player_count":0,"max_players":24,"Bots":0,"server_type":"Dedicated","server_os":"Linux","password":true,"vac":true,"version":"7882260","steam_id":85568392924515193,"keywords":["cp","nocrits","nodmgspread","uncletopia"],"game_id":440,"stv_port":27046,"stv_name":"Uncletopia | Chicago | 4 | All Maps | STV","players":null},{"server_id":36,"name":"Uncletopia | Chicago | 5 | All Maps","name_short":"chi-5","host":"chi-2.us.uncletopia.com","port":27015,"enabled":true,"region":"us-central","cc":"us","latitude":41.881832,"longitude":-87.62318,"reserved":0,"last_update":"0001-01-01T00:00:00Z","name_a2s":"Uncletopia | Chicago | 5 | All Maps","protocol":17,"map":"pl_barnblitz","folder":"tf","game":"Team Fortress","app_id":440,"player_count":0,"max_players":24,"Bots":0,"server_type":"Dedicated","server_os":"Linux","password":true,"vac":true,"version":"7882260","steam_id":85568392924866362,"keywords":["nocrits","nodmgspread","payload","uncletopia"],"game_id":440,"stv_port":27016,"stv_name":"Uncletopia | Chicago | 5 | All Maps | STV","players":null},{"server_id":37,"name":"Uncletopia | Chicago | 6 | All Maps","name_short":"chi-6","host":"chi-2.us.uncletopia.com","port":27025,"enabled":true,"region":"us-central","cc":"us","latitude":41.881832,"longitude":-87.62318,"reserved":0,"last_update":"0001-01-01T00:00:00Z","name_a2s":"Uncletopia | Chicago | 6 | All Maps","protocol":17,"map":"koth_lakeside_final","folder":"tf","game":"Team Fortress","app_id":440,"player_count":0,"max_players":24,"Bots":0,"server_type":"Dedicated","server_os":"Linux","password":true,"vac":true,"version":"7882260","steam_id":85568392924866363,"keywords":["cp","nocrits","nodmgspread","uncletopia"],"game_id":440,"stv_port":27026,"stv_name":"Uncletopia | Chicago | 6 | All Maps | STV","players":null},{"server_id":38,"name":"Uncletopia | Chicago | 7 | Stopwatch Beta","name_short":"chi-7","host":"chi-2.us.uncletopia.com","port":27035,"enabled":true,"region":"us-central","cc":"us","latitude":41.881832,"longitude":-87.62318,"reserved":0,"last_update":"0001-01-01T00:00:00Z","name_a2s":"Uncletopia | Chicago | 7 | Stopwatch Beta","protocol":17,"map":"workshop/koth_bagel_rc6.ugc2514036946","folder":"tf","game":"Team Fortress","app_id":440,"player_count":0,"max_players":24,"Bots":0,"server_type":"Dedicated","server_os":"Linux","password":true,"vac":true,"version":"7882260","steam_id":85568392924866364,"keywords":["cp","nocrits","nodmgspread","uncletopia"],"game_id":440,"stv_port":27036,"stv_name":"Uncletopia | Chicago | 7 | Stopwatch Beta | STV","players":null},{"server_id":39,"name":"Uncletopia | Chicago | 8 | Community","name_short":"chi-8","host":"chi-2.us.uncletopia.com","port":27045,"enabled":true,"region":"us-central","cc":"us","latitude":41.881832,"longitude":-87.62318,"reserved":0,"last_update":"0001-01-01T00:00:00Z","name_a2s":"Uncletopia | Chicago | 8 | Community","protocol":17,"map":"workshop/pl_corrode_rc2.ugc546577989","folder":"tf","game":"Team Fortress","app_id":440,"player_count":0,"max_players":24,"Bots":0,"server_type":"Dedicated","server_os":"Linux","password":true,"vac":true,"version":"7882260","steam_id":85568392924866365,"keywords":["nocrits","nodmgspread","payload","uncletopia"],"game_id":440,"stv_port":27046,"stv_name":"Uncletopia | Chicago | 8 | Community | STV","players":null},{"server_id":8,"name":"Uncletopia | Dallas | 1 | All Maps","name_short":"dal-1","host":"dal-1.us.uncletopia.com","port":27015,"enabled":true,"region":"us-central","cc":"us","latitude":32.779167,"longitude":-96.80889,"reserved":0,"last_update":"0001-01-01T00:00:00Z","name_a2s":"Uncletopia | Dallas | 1 | All Maps","protocol":17,"map":"pl_upward","folder":"tf","game":"Team Fortress","app_id":440,"player_count":24,"max_players":24,"Bots":0,"server_type":"Dedicated","server_os":"Linux","password":true,"vac":true,"version":"7882260","steam_id":85568392924469986,"keywords":["nocrits","nodmgspread","payload","uncletopia"],"game_id":440,"stv_port":27016,"stv_name":"Uncletopia | Dallas | 1 | All Maps | STV","players":[{"user_id":901,"name":"synth","steam_id":76561198104881258,"connected_time":265000000000,"state":"active","ping":143},{"user_id":875,"name":"spreeeeeeeeeeeeeeeeeeeeeeeeeeee","steam_id":76561198319063082,"connected_time":2586000000000,"state":"active","ping":77},{"user_id":874,"name":"boy from the rafters","steam_id":76561198042926224,"connected_time":2764000000000,"state":"active","ping":77},{"user_id":873,"name":"ClutchSR","steam_id":76561199018366378,"connected_time":2782000000000,"state":"active","ping":86},{"user_id":862,"name":"lentil","steam_id":76561198079359870,"connected_time":4234000000000,"state":"active","ping":96},{"user_id":882,"name":"Nero25","steam_id":76561198027720631,"connected_time":1910000000000,"state":"active","ping":108},{"user_id":897,"name":"lker","steam_id":76561197976975075,"connected_time":476000000000,"state":"active","ping":59},{"user_id":885,"name":"the beach that makes you old","steam_id":76561198008332777,"connected_time":1740000000000,"state":"active","ping":106},{"user_id":890,"name":"Kazmirl [Youtube]","steam_id":76561198116008410,"connected_time":915000000000,"state":"active","ping":135},{"user_id":891,"name":"yikes","steam_id":76561198057079066,"connected_time":839000000000,"state":"active","ping":67},{"user_id":903,"name":"Cagnus Marlsen","steam_id":76561198063341193,"connected_time":184000000000,"state":"active","ping":45},{"user_id":902,"name":"Spirit","steam_id":76561198026245914,"connected_time":252000000000,"state":"active","ping":59},{"user_id":867,"name":"24dustin1","steam_id":76561198059506390,"connected_time":3940000000000,"state":"active","ping":74},{"user_id":877,"name":"kat","steam_id":76561198121070295,"connected_time":2458000000000,"state":"active","ping":94},{"user_id":893,"name":"Rusted Cake","steam_id":76561198209755931,"connected_time":791000000000,"state":"active","ping":88},{"user_id":894,"name":"Musica Universalis","steam_id":76561198184794174,"connected_time":785000000000,"state":"active","ping":99},{"user_id":900,"name":"Thndr_","steam_id":76561198113242036,"connected_time":286000000000,"state":"active","ping":103},{"user_id":895,"name":"Trash Rummager","steam_id":76561198085388962,"connected_time":736000000000,"state":"active","ping":74},{"user_id":899,"name":"milo","steam_id":76561199061380038,"connected_time":293000000000,"state":"active","ping":62},{"user_id":868,"name":"MasterGoop","steam_id":76561198285594777,"connected_time":3775000000000,"state":"active","ping":69},{"user_id":884,"name":"AAGooseman","steam_id":76561198378941369,"connected_time":1791000000000,"state":"active","ping":79},{"user_id":904,"name":"Bananadu","steam_id":76561198078062042,"connected_time":1000000000,"state":"spawning","ping":67},{"user_id":879,"name":"Lo-Pan","steam_id":76561198085670133,"connected_time":2445000000000,"state":"active","ping":56},{"user_id":880,"name":"Orca?","steam_id":76561198164341099,"connected_time":2396000000000,"state":"active","ping":79}]},{"server_id":108,"name":"Uncletopia | Dallas | 2 | All Maps","name_short":"dal-2","host":"dal-1.us.uncletopia.com","port":27025,"enabled":true,"region":"us-central","cc":"us","latitude":32.779167,"longitude":-96.80889,"reserved":0,"last_update":"0001-01-01T00:00:00Z","name_a2s":"Uncletopia | Dallas | 2 | All Maps","protocol":17,"map":"pl_swiftwater_final1","folder":"tf","game":"Team Fortress","app_id":440,"player_count":0,"max_players":24,"Bots":0,"server_type":"Dedicated","server_os":"Linux","password":true,"vac":true,"version":"7882260","steam_id":85568392924469988,"keywords":["nocrits","nodmgspread","payload","uncletopia"],"game_id":440,"stv_port":27026,"stv_name":"Uncletopia | Dallas | 2 | All Maps | STV","players":null},{"server_id":5,"name":"Uncletopia | Frankfurt | 1 | All Maps","name_short":"frk-1","host":"frk-1.de.uncletopia.com","port":27015,"enabled":true,"region":"eu","cc":"de","latitude":50.110924,"longitude":8.682127,"reserved":0,"last_update":"0001-01-01T00:00:00Z","name_a2s":"Uncletopia | Frankfurt | 1 | All Maps","protocol":17,"map":"cp_snakewater_final1","folder":"tf","game":"Team Fortress","app_id":440,"player_count":0,"max_players":24,"Bots":0,"server_type":"Dedicated","server_os":"Linux","password":true,"vac":true,"version":"7882260","steam_id":85568392924469989,"keywords":["cp","nocrits","nodmgspread","uncletopia"],"game_id":440,"stv_port":27016,"stv_name":"Uncletopia | Frankfurt | 1 | All Maps | STV","players":null},{"server_id":110,"name":"Uncletopia | Frankfurt | 2 | All Maps","name_short":"frk-2","host":"frk-1.de.uncletopia.com","port":27025,"enabled":true,"region":"eu","cc":"de","latitude":50.110924,"longitude":8.682127,"reserved":0,"last_update":"0001-01-01T00:00:00Z","name_a2s":"Uncletopia | Frankfurt | 2 | All Maps","protocol":17,"map":"pl_barnblitz","folder":"tf","game":"Team Fortress","app_id":440,"player_count":24,"max_players":24,"Bots":0,"server_type":"Dedicated","server_os":"Linux","password":true,"vac":true,"version":"7882260","steam_id":85568392924469990,"keywords":["nocrits","nodmgspread","payload","uncletopia"],"game_id":440,"stv_port":27026,"stv_name":"Uncletopia | Frankfurt | 2 | All Maps | STV","players":[{"user_id":3,"name":"Banana Hoovy 2 9 0","steam_id":76561199167881489,"connected_time":3442000000000,"state":"active","ping":88},{"user_id":47,"name":"cosmetical","steam_id":76561198444036574,"connected_time":427000000000,"state":"active","ping":65},{"user_id":37,"name":"leminsc8","steam_id":76561198825084995,"connected_time":1176000000000,"state":"active","ping":33},{"user_id":6,"name":"Vitamin Weee","steam_id":76561199183937747,"connected_time":3157000000000,"state":"active","ping":79},{"user_id":7,"name":"Mr. Shadow | Folfie","steam_id":76561198037028507,"connected_time":3149000000000,"state":"active","ping":55},{"user_id":42,"name":"goktwoxd","steam_id":76561198065114415,"connected_time":772000000000,"state":"active","ping":66},{"user_id":9,"name":"Mr Stonkles","steam_id":76561198397163021,"connected_time":3024000000000,"state":"active","ping":125},{"user_id":10,"name":"fried","steam_id":76561198307522022,"connected_time":2860000000000,"state":"active","ping":56},{"user_id":29,"name":"DragonFruit","steam_id":76561198099526623,"connected_time":1645000000000,"state":"active","ping":71},{"user_id":17,"name":"PashaVerti","steam_id":76561199013963024,"connected_time":1994000000000,"state":"active","ping":83},{"user_id":13,"name":"Yuzu","steam_id":76561198121694613,"connected_time":2635000000000,"state":"active","ping":58},{"user_id":18,"name":"Perci","steam_id":76561198097789669,"connected_time":1960000000000,"state":"active","ping":59},{"user_id":19,"name":"Your local Idoit","steam_id":76561198449229817,"connected_time":1946000000000,"state":"active","ping":83},{"user_id":43,"name":"on1on (fried)","steam_id":76561197995304137,"connected_time":755000000000,"state":"active","ping":64},{"user_id":48,"name":".::[SerafeTTiN]::.","steam_id":76561198009471724,"connected_time":386000000000,"state":"active","ping":85},{"user_id":24,"name":"ShiftingMind","steam_id":76561198448975127,"connected_time":1863000000000,"state":"active","ping":56},{"user_id":32,"name":"mt","steam_id":76561197961319303,"connected_time":1417000000000,"state":"active","ping":51},{"user_id":26,"name":"Sir Cauterize","steam_id":76561198047079422,"connected_time":1845000000000,"state":"active","ping":62},{"user_id":41,"name":"ijustsmokeandcry","steam_id":76561198044189114,"connected_time":1000000000000,"state":"active","ping":60},{"user_id":28,"name":"nappo","steam_id":76561198060105180,"connected_time":1792000000000,"state":"active","ping":74},{"user_id":34,"name":"HELLOOOOOO","steam_id":76561198986060392,"connected_time":1249000000000,"state":"active","ping":73},{"user_id":35,"name":"Falco","steam_id":76561199061187430,"connected_time":1243000000000,"state":"active","ping":49},{"user_id":36,"name":"zucc's zuccini","steam_id":76561198002451113,"connected_time":1229000000000,"state":"active","ping":105},{"user_id":44,"name":"lofimonkeyjazz","steam_id":76561198117059662,"connected_time":744000000000,"state":"active","ping":85}]},{"server_id":308,"name":"Uncletopia | Frankfurt | 3 | All Maps","name_short":"frk-3","host":"frk-1.de.uncletopia.com","port":27035,"enabled":true,"region":"eu","cc":"de","latitude":50.110924,"longitude":8.682127,"reserved":0,"last_update":"0001-01-01T00:00:00Z","name_a2s":"Uncletopia | Frankfurt | 3 | All Maps","protocol":17,"map":"pl_snowycoast","folder":"tf","game":"Team Fortress","app_id":440,"player_count":0,"max_players":24,"Bots":0,"server_type":"Dedicated","server_os":"Linux","password":true,"vac":true,"version":"7882260","steam_id":85568392924504274,"keywords":["nocrits","nodmgspread","payload","uncletopia"],"game_id":440,"stv_port":27036,"stv_name":"Uncletopia | Frankfurt | 3 | All Maps | STV","players":null},{"server_id":309,"name":"Uncletopia | Frankfurt | 4 | All Maps","name_short":"frk-4","host":"frk-1.de.uncletopia.com","port":27045,"enabled":true,"region":"eu","cc":"de","latitude":50.110924,"longitude":8.682127,"reserved":0,"last_update":"0001-01-01T00:00:00Z","name_a2s":"Uncletopia | Frankfurt | 4 | All Maps","protocol":17,"map":"koth_viaduct","folder":"tf","game":"Team Fortress","app_id":440,"player_count":0,"max_players":24,"Bots":0,"server_type":"Dedicated","server_os":"Linux","password":true,"vac":true,"version":"7882260","steam_id":85568392924504275,"keywords":["cp","nocrits","nodmgspread","uncletopia"],"game_id":440,"stv_port":27046,"stv_name":"Uncletopia | Frankfurt | 4 | All Maps | STV","players":null},{"server_id":310,"name":"Uncletopia | Frankfurt | 5 | All Maps","name_short":"frk-5","host":"frk-1.de.uncletopia.com","port":27055,"enabled":true,"region":"eu","cc":"de","latitude":50.110924,"longitude":8.682127,"reserved":0,"last_update":"0001-01-01T00:00:00Z","name_a2s":"Uncletopia | Frankfurt | 5 | All Maps","protocol":17,"map":"pl_frontier_final","folder":"tf","game":"Team Fortress","app_id":440,"player_count":0,"max_players":24,"Bots":0,"server_type":"Dedicated","server_os":"Linux","password":true,"vac":true,"version":"7882260","steam_id":85568392924504277,"keywords":["nocrits","nodmgspread","payload","uncletopia"],"game_id":440,"stv_port":27056,"stv_name":"Uncletopia | Frankfurt | 5 | All Maps | STV","players":null},{"server_id":311,"name":"Uncletopia | Frankfurt | 6 | All Maps","name_short":"frk-6","host":"frk-1.de.uncletopia.com","port":27065,"enabled":true,"region":"eu","cc":"de","latitude":50.110924,"longitude":8.682127,"reserved":0,"last_update":"0001-01-01T00:00:00Z","name_a2s":"Uncletopia | Frankfurt | 6 | All Maps","protocol":17,"map":"pl_upward","folder":"tf","game":"Team Fortress","app_id":440,"player_count":0,"max_players":24,"Bots":0,"server_type":"Dedicated","server_os":"Linux","password":true,"vac":true,"version":"7882260","steam_id":85568392924504278,"keywords":["nocrits","nodmgspread","payload","uncletopia"],"game_id":440,"stv_port":27066,"stv_name":"Uncletopia | Frankfurt | 6 | All Maps | STV","players":null},{"server_id":23,"name":"Uncletopia | Frankfurt | 7 | Stopwatch Beta","name_short":"frk-7","host":"frk-1.de.uncletopia.com","port":27075,"enabled":true,"region":"eu","cc":"de","latitude":50.110924,"longitude":8.682127,"reserved":0,"last_update":"0001-01-01T00:00:00Z","name_a2s":"Uncletopia | Frankfurt | 7 | Stopwatch Beta","protocol":17,"map":"cp_dustbowl","folder":"tf","game":"Team Fortress","app_id":440,"player_count":0,"max_players":24,"Bots":0,"server_type":"Dedicated","server_os":"Linux","password":true,"vac":true,"version":"7882260","steam_id":85568392924742827,"keywords":["cp","nocrits","nodmgspread","uncletopia"],"game_id":440,"stv_port":27076,"stv_name":"Uncletopia | Frankfurt | 7 | Stopwatch Beta | STV","players":null},{"server_id":24,"name":"Uncletopia | Frankfurt | 8 | Community","name_short":"frk-8","host":"frk-1.de.uncletopia.com","port":27085,"enabled":true,"region":"eu","cc":"de","latitude":50.110924,"longitude":8.682127,"reserved":0,"last_update":"0001-01-01T00:00:00Z","name_a2s":"Uncletopia | Frankfurt | 8 | Community","protocol":17,"map":"koth_cascade","folder":"tf","game":"Team Fortress","app_id":440,"player_count":0,"max_players":24,"Bots":0,"server_type":"Dedicated","server_os":"Linux","password":true,"vac":true,"version":"7882260","steam_id":85568392924742828,"keywords":["cp","nocrits","nodmgspread","uncletopia"],"game_id":440,"stv_port":27086,"stv_name":"Uncletopia | Frankfurt | 8 | Community | STV","players":null},{"server_id":202,"name":"Uncletopia | Hong Kong | 1 | All Maps","name_short":"hgk-1","host":"hgk-1.hk.uncletopia.com","port":27015,"enabled":true,"region":"asia","cc":"hk","latitude":22.302711,"longitude":114.177216,"reserved":0,"last_update":"0001-01-01T00:00:00Z","name_a2s":"Uncletopia | Hong Kong | 1 | All Maps","protocol":17,"map":"pl_frontier_final","folder":"tf","game":"Team Fortress","app_id":440,"player_count":24,"max_players":24,"Bots":0,"server_type":"Dedicated","server_os":"Linux","password":true,"vac":true,"version":"7882260","steam_id":85568392924494504,"keywords":["nocrits","nodmgspread","payload","uncletopia"],"game_id":440,"stv_port":27016,"stv_name":"Uncletopia | Hong Kong | 1 | All Maps | STV","players":[{"user_id":143,"name":"Haha u gay mah friend","steam_id":76561198136685157,"connected_time":2451000000000,"state":"active","ping":55},{"user_id":147,"name":"heWs","steam_id":76561198314052557,"connected_time":1889000000000,"state":"active","ping":115},{"user_id":165,"name":"joe","steam_id":76561198378829574,"connected_time":283000000000,"state":"active","ping":87},{"user_id":107,"name":"Butterfly Balls","steam_id":76561199151801550,"connected_time":6402000000000,"state":"active","ping":111},{"user_id":151,"name":"PINOY PRIDE PUTANGINA!","steam_id":76561198412329672,"connected_time":1624000000000,"state":"active","ping":90},{"user_id":119,"name":"Viola","steam_id":76561198077834576,"connected_time":4257000000000,"state":"active","ping":104},{"user_id":141,"name":"proballyagamer *********_com","steam_id":76561199098238135,"connected_time":2755000000000,"state":"active","ping":160},{"user_id":164,"name":"Momoxhien","steam_id":76561198414997429,"connected_time":327000000000,"state":"active","ping":62},{"user_id":156,"name":"itsDoodlez","steam_id":76561198131684887,"connected_time":659000000000,"state":"active","ping":86},{"user_id":153,"name":"tiden2000","steam_id":76561198092969425,"connected_time":1075000000000,"state":"active","ping":105},{"user_id":163,"name":"E","steam_id":76561199173781370,"connected_time":383000000000,"state":"active","ping":97},{"user_id":152,"name":"7853","steam_id":76561199390507975,"connected_time":1100000000000,"state":"active","ping":52},{"user_id":139,"name":"Bale","steam_id":76561198000677600,"connected_time":3283000000000,"state":"active","ping":93},{"user_id":134,"name":"Wx","steam_id":76561199217780897,"connected_time":3620000000000,"state":"active","ping":119},{"user_id":146,"name":"h","steam_id":76561199093572590,"connected_time":1896000000000,"state":"active","ping":61},{"user_id":121,"name":"Canon_Fodder","steam_id":76561199132789484,"connected_time":4241000000000,"state":"active","ping":140},{"user_id":127,"name":"ksvk","steam_id":76561198152588681,"connected_time":4148000000000,"state":"active","ping":87},{"user_id":157,"name":"+","steam_id":76561198121311286,"connected_time":618000000000,"state":"active","ping":125},{"user_id":43,"name":"urotsuki with da doobie","steam_id":76561198074339034,"connected_time":11470000000000,"state":"active","ping":74},{"user_id":155,"name":"RP birdzz","steam_id":76561198318077734,"connected_time":1058000000000,"state":"active","ping":62},{"user_id":158,"name":"moth","steam_id":76561198216779259,"connected_time":484000000000,"state":"active","ping":74},{"user_id":142,"name":"i am a F2P and my aim is shit","steam_id":76561199475974790,"connected_time":2551000000000,"state":"active","ping":84},{"user_id":106,"name":"Floyd","steam_id":76561198107932860,"connected_time":6538000000000,"state":"active","ping":103},{"user_id":162,"name":"Mystery cheese üßÄ","steam_id":76561198304002409,"connected_time":469000000000,"state":"active","ping":86}]},{"server_id":1,"name":"Uncletopia | Los Angeles | 1 | All Maps","name_short":"lax-1","host":"lax-1.us.uncletopia.com","port":27015,"enabled":true,"region":"us-west","cc":"us","latitude":33.94279,"longitude":-118.41004,"reserved":0,"last_update":"0001-01-01T00:00:00Z","name_a2s":"Uncletopia | Los Angeles | 1 | All Maps","protocol":17,"map":"cp_dustbowl","folder":"tf","game":"Team Fortress","app_id":440,"player_count":17,"max_players":24,"Bots":0,"server_type":"Dedicated","server_os":"Linux","password":true,"vac":true,"version":"7882260","steam_id":85568392924469991,"keywords":["cp","nocrits","nodmgspread","uncletopia"],"game_id":440,"stv_port":27016,"stv_name":"Uncletopia | Los Angeles | 1 | All Maps | STV","players":[{"user_id":1035,"name":"lester the molester","steam_id":76561199305518744,"connected_time":82000000000,"state":"active","ping":186},{"user_id":1019,"name":"Majin","steam_id":76561198198244701,"connected_time":1045000000000,"state":"active","ping":60},{"user_id":1016,"name":"noble","steam_id":76561199082016496,"connected_time":1100000000000,"state":"active","ping":47},{"user_id":1034,"name":"STENDO_CLIP","steam_id":76561198059570167,"connected_time":462000000000,"state":"active","ping":168},{"user_id":1013,"name":"notatrip(mommymoding)","steam_id":76561198046109327,"connected_time":1254000000000,"state":"active","ping":110},{"user_id":998,"name":"Knavish","steam_id":76561198073434372,"connected_time":2131000000000,"state":"active","ping":48},{"user_id":986,"name":"Moffein","steam_id":76561198016739296,"connected_time":3103000000000,"state":"active","ping":45},{"user_id":1014,"name":"C_V76Y (maidenless)","steam_id":76561198062704504,"connected_time":1214000000000,"state":"active","ping":59},{"user_id":1026,"name":"Jones","steam_id":76561198046037216,"connected_time":818000000000,"state":"active","ping":98},{"user_id":1032,"name":"Glazed","steam_id":76561198043020404,"connected_time":602000000000,"state":"active","ping":88},{"user_id":1017,"name":"ferak","steam_id":76561197966688041,"connected_time":1092000000000,"state":"active","ping":81},{"user_id":982,"name":"ghor","steam_id":76561197994547132,"connected_time":3289000000000,"state":"active","ping":66},{"user_id":1021,"name":"Where The F**K I Am?","steam_id":76561197986530028,"connected_time":978000000000,"state":"active","ping":87},{"user_id":1030,"name":"kris","steam_id":76561198143187033,"connected_time":654000000000,"state":"active","ping":56},{"user_id":1023,"name":"Mak","steam_id":76561198089197922,"connected_time":919000000000,"state":"active","ping":90},{"user_id":1024,"name":"shakoiwa","steam_id":76561199059441773,"connected_time":911000000000,"state":"active","ping":46},{"user_id":951,"name":"Gavial the Invincible","steam_id":76561198348354629,"connected_time":6624000000000,"state":"active","ping":43}]},{"server_id":112,"name":"Uncletopia | Los Angeles | 2 | All Maps","name_short":"lax-2","host":"lax-1.us.uncletopia.com","port":27025,"enabled":true,"region":"us-west","cc":"us","latitude":33.94279,"longitude":-118.41004,"reserved":0,"last_update":"0001-01-01T00:00:00Z","name_a2s":"Uncletopia | Los Angeles | 2 | All Maps","protocol":17,"map":"cp_process_final","folder":"tf","game":"Team Fortress","app_id":440,"player_count":0,"max_players":24,"Bots":0,"server_type":"Dedicated","server_os":"Linux","password":true,"vac":true,"version":"7882260","steam_id":85568392924469992,"keywords":["cp","nocrits","nodmgspread","uncletopia"],"game_id":440,"stv_port":27026,"stv_name":"Uncletopia | Los Angeles | 2 | All Maps | STV","players":null},{"server_id":324,"name":"Uncletopia | Los Angeles | 3 | All Maps","name_short":"lax-3","host":"lax-1.us.uncletopia.com","port":27035,"enabled":true,"region":"us-west","cc":"us","latitude":33.94279,"longitude":-118.41004,"reserved":0,"last_update":"0001-01-01T00:00:00Z","name_a2s":"Uncletopia | Los Angeles | 3 | All Maps","protocol":17,"map":"pl_snowycoast","folder":"tf","game":"Team Fortress","app_id":440,"player_count":0,"max_players":24,"Bots":0,"server_type":"Dedicated","server_os":"Linux","password":true,"vac":true,"version":"7882260","steam_id":85568392924510198,"keywords":["nocrits","nodmgspread","payload","uncletopia"],"game_id":440,"stv_port":27036,"stv_name":"Uncletopia | Los Angeles | 3 | All Maps | STV","players":null},{"server_id":25,"name":"Uncletopia | Los Angeles | 4 | Stopwatch Beta","name_short":"lax-4","host":"lax-1.us.uncletopia.com","port":27045,"enabled":true,"region":"us-west","cc":"us","latitude":33.94279,"longitude":-118.41004,"reserved":0,"last_update":"0001-01-01T00:00:00Z","name_a2s":"Uncletopia | Los Angeles | 4 | Stopwatch Beta","protocol":17,"map":"workshop/koth_clearcut_b15.ugc2107050255","folder":"tf","game":"Team Fortress","app_id":440,"player_count":0,"max_players":24,"Bots":0,"server_type":"Dedicated","server_os":"Linux","password":true,"vac":true,"version":"7882260","steam_id":85568392924510199,"keywords":["cp","nocrits","nodmgspread","uncletopia"],"game_id":440,"stv_port":27046,"stv_name":"Uncletopia | Los Angeles | 4 | Stopwatch Beta | STV","players":null},{"server_id":11,"name":"Uncletopia | London | 1 | All Maps","name_short":"lon-1","host":"lon-1.uk.uncletopia.com","port":27015,"enabled":true,"region":"eu","cc":"gb","latitude":51.509865,"longitude":-0.118092,"reserved":0,"last_update":"0001-01-01T00:00:00Z","name_a2s":"Uncletopia | London | 1 | All Maps","protocol":17,"map":"koth_highpass","folder":"tf","game":"Team Fortress","app_id":440,"player_count":0,"max_players":24,"Bots":0,"server_type":"Dedicated","server_os":"Linux","password":true,"vac":true,"version":"7882260","steam_id":85568392924367362,"keywords":["cp","nocrits","nodmgspread","uncletopia"],"game_id":440,"stv_port":27016,"stv_name":"Uncletopia | London | 1 | All Maps | STV","players":null},{"server_id":114,"name":"Uncletopia | London | 2 | All Maps","name_short":"lon-2","host":"lon-1.uk.uncletopia.com","port":27025,"enabled":true,"region":"eu","cc":"gb","latitude":51.509865,"longitude":-0.118092,"reserved":0,"last_update":"0001-01-01T00:00:00Z","name_a2s":"Uncletopia | London | 2 | All Maps","protocol":17,"map":"pl_swiftwater_final1","folder":"tf","game":"Team Fortress","app_id":440,"player_count":0,"max_players":24,"Bots":0,"server_type":"Dedicated","server_os":"Linux","password":true,"vac":true,"version":"7882260","steam_id":85568392924470941,"keywords":["nocrits","nodmgspread","payload","uncletopia"],"game_id":440,"stv_port":27026,"stv_name":"Uncletopia | London | 2 | All Maps | STV","players":null},{"server_id":320,"name":"Uncletopia | London | 3 | All Maps","name_short":"lon-3","host":"lon-1.uk.uncletopia.com","port":27035,"enabled":true,"region":"eu","cc":"gb","latitude":51.509865,"longitude":-0.118092,"reserved":0,"last_update":"0001-01-01T00:00:00Z","name_a2s":"Uncletopia | London | 3 | All Maps","protocol":17,"map":"cp_process_final","folder":"tf","game":"Team Fortress","app_id":440,"player_count":24,"max_players":24,"Bots":0,"server_type":"Dedicated","server_os":"Linux","password":true,"vac":true,"version":"7882260","steam_id":85568392924510192,"keywords":["cp","nocrits","nodmgspread","uncletopia"],"game_id":440,"stv_port":27036,"stv_name":"Uncletopia | London | 3 | All Maps | STV","players":[{"user_id":122,"name":"Penguinmark","steam_id":76561199057089501,"connected_time":2384000000000,"state":"active","ping":122},{"user_id":151,"name":"david","steam_id":76561198843793834,"connected_time":477000000000,"state":"active","ping":77},{"user_id":74,"name":"Madokanon","steam_id":76561199392794183,"connected_time":6488000000000,"state":"active","ping":105},{"user_id":152,"name":"Limbless Andr√©","steam_id":76561198077283223,"connected_time":424000000000,"state":"active","ping":80},{"user_id":161,"name":"Lord of Beans","steam_id":76561198283379801,"connected_time":45000000000,"state":"active","ping":118},{"user_id":157,"name":"Vinnyboiler","steam_id":76561198048722825,"connected_time":285000000000,"state":"active","ping":33},{"user_id":37,"name":"It's time","steam_id":76561198061197114,"connected_time":9765000000000,"state":"active","ping":77},{"user_id":158,"name":"goofster","steam_id":76561199052275857,"connected_time":258000000000,"state":"active","ping":111},{"user_id":136,"name":"I LOVE DUBSETP","steam_id":76561199181848818,"connected_time":1047000000000,"state":"active","ping":117},{"user_id":117,"name":"Holy f stewie, I am shitting.","steam_id":76561198147173457,"connected_time":2878000000000,"state":"active","ping":75},{"user_id":145,"name":"vadim_kotler","steam_id":76561199016634369,"connected_time":647000000000,"state":"active","ping":115},{"user_id":159,"name":"Neimon","steam_id":76561198343485710,"connected_time":244000000000,"state":"active","ping":123},{"user_id":154,"name":"RiX","steam_id":76561197969053733,"connected_time":350000000000,"state":"active","ping":55},{"user_id":16,"name":"Enigmus","steam_id":76561197994063627,"connected_time":11677000000000,"state":"active","ping":90},{"user_id":111,"name":"Kahvi","steam_id":76561198723244199,"connected_time":3535000000000,"state":"active","ping":75},{"user_id":148,"name":"Princess Fuzz","steam_id":76561198025783000,"connected_time":606000000000,"state":"active","ping":43},{"user_id":160,"name":"lanzer","steam_id":76561198049983016,"connected_time":242000000000,"state":"active","ping":92},{"user_id":134,"name":"bigmazi","steam_id":76561198133276643,"connected_time":1269000000000,"state":"active","ping":94},{"user_id":147,"name":"kharnthebetrayer2002","steam_id":76561199482416509,"connected_time":609000000000,"state":"active","ping":50},{"user_id":153,"name":"Luxotrics","steam_id":76561198053455161,"connected_time":423000000000,"state":"active","ping":95},{"user_id":150,"name":"WALTER WHITE","steam_id":76561199147666336,"connected_time":559000000000,"state":"active","ping":71},{"user_id":110,"name":"Spinyapickle","steam_id":76561198086653667,"connected_time":3571000000000,"state":"active","ping":55},{"user_id":105,"name":"Fat Pigeon","steam_id":76561198817940142,"connected_time":3701000000000,"state":"active","ping":46},{"user_id":155,"name":"Kinnetic","steam_id":76561198161313074,"connected_time":332000000000,"state":"active","ping":122}]},{"server_id":321,"name":"Uncletopia | London | 4 | All Maps","name_short":"lon-4","host":"lon-1.uk.uncletopia.com","port":27045,"enabled":true,"region":"eu","cc":"gb","latitude":51.509865,"longitude":-0.118092,"reserved":0,"last_update":"0001-01-01T00:00:00Z","name_a2s":"Uncletopia | London | 4 | All Maps","protocol":17,"map":"cp_altitude","folder":"tf","game":"Team Fortress","app_id":440,"player_count":0,"max_players":24,"Bots":0,"server_type":"Dedicated","server_os":"Linux","password":true,"vac":true,"version":"7882260","steam_id":85568392924510193,"keywords":["cp","nocrits","nodmgspread","uncletopia"],"game_id":440,"stv_port":27046,"stv_name":"Uncletopia | London | 4 | All Maps | STV","players":null},{"server_id":21,"name":"Uncletopia | London | 5 | All Maps","name_short":"lon-5","host":"lon-1.uk.uncletopia.com","port":27055,"enabled":true,"region":"eu","cc":"gb","latitude":51.509865,"longitude":-0.118092,"reserved":0,"last_update":"0001-01-01T00:00:00Z","name_a2s":"Uncletopia | London | 5 | All Maps","protocol":17,"map":"pl_frontier_final","folder":"tf","game":"Team Fortress","app_id":440,"player_count":0,"max_players":24,"Bots":0,"server_type":"Dedicated","server_os":"Linux","password":true,"vac":true,"version":"7882260","steam_id":85568392924742829,"keywords":["nocrits","nodmgspread","payload","uncletopia"],"game_id":440,"stv_port":27056,"stv_name":"Uncletopia | London | 5 | All Maps | STV","players":null},{"server_id":22,"name":"Uncletopia | London | 6 | All Maps","name_short":"lon-6","host":"lon-1.uk.uncletopia.com","port":27065,"enabled":true,"region":"eu","cc":"gb","latitude":51.509865,"longitude":-0.118092,"reserved":0,"last_update":"0001-01-01T00:00:00Z","name_a2s":"Uncletopia | London | 6 | All Maps","protocol":17,"map":"cp_altitude","folder":"tf","game":"Team Fortress","app_id":440,"player_count":0,"max_players":24,"Bots":0,"server_type":"Dedicated","server_os":"Linux","password":true,"vac":true,"version":"7882260","steam_id":85568392924742830,"keywords":["cp","nocrits","nodmgspread","uncletopia"],"game_id":440,"stv_port":27066,"stv_name":"Uncletopia | London | 6 | All Maps | STV","players":null},{"server_id":40,"name":"Uncletopia | London | 7 | No Payload","name_short":"lon-7","host":"lon-1.uk.uncletopia.com","port":27075,"enabled":true,"region":"eu","cc":"gb","latitude":51.509865,"longitude":-0.118092,"reserved":0,"last_update":"0001-01-01T00:00:00Z","name_a2s":"Uncletopia | London | 7 | No Payload","protocol":17,"map":"pl_pier","folder":"tf","game":"Team Fortress","app_id":440,"player_count":0,"max_players":24,"Bots":0,"server_type":"Dedicated","server_os":"Linux","password":true,"vac":true,"version":"7882260","steam_id":85568392924964314,"keywords":["nocrits","nodmgspread","payload","uncletopia"],"game_id":440,"stv_port":27076,"stv_name":"Uncletopia | London | 7 | No Payload | STV","players":null},{"server_id":41,"name":"Uncletopia | London | 8 | Community","name_short":"lon-8","host":"lon-1.uk.uncletopia.com","port":27085,"enabled":true,"region":"eu","cc":"gb","latitude":51.509865,"longitude":-0.118092,"reserved":0,"last_update":"0001-01-01T00:00:00Z","name_a2s":"Uncletopia | London | 8 | Community","protocol":17,"map":"pl_swiftwater_final1","folder":"tf","game":"Team Fortress","app_id":440,"player_count":0,"max_players":24,"Bots":0,"server_type":"Dedicated","server_os":"Linux","password":true,"vac":true,"version":"7882260","steam_id":85568392924964315,"keywords":["nocrits","nodmgspread","payload","uncletopia"],"game_id":440,"stv_port":27086,"stv_name":"Uncletopia | London | 8 | Community | STV","players":null},{"server_id":300,"name":"Uncletopia | Montr√©al | 1 | All Maps","name_short":"mtl-1","host":"mtl-1.ca.uncletopia.com","port":27015,"enabled":true,"region":"us-east","cc":"ca","latitude":45.50889,"longitude":-73.56167,"reserved":0,"last_update":"0001-01-01T00:00:00Z","name_a2s":"Uncletopia | Montr√©al | 1 | All Maps","protocol":17,"map":"cp_mountainlab","folder":"tf","game":"Team Fortress","app_id":440,"player_count":0,"max_players":24,"Bots":0,"server_type":"Dedicated","server_os":"Linux","password":true,"vac":true,"version":"7882260","steam_id":85568392924500087,"keywords":["cp","nocrits","nodmgspread","uncletopia"],"game_id":440,"stv_port":27016,"stv_name":"Uncletopia | Montr√©al | 1 | All Maps | STV","players":null},{"server_id":301,"name":"Uncletopia | Montr√©al | 2 | All Maps","name_short":"mtl-2","host":"mtl-1.ca.uncletopia.com","port":27025,"enabled":true,"region":"us-east","cc":"ca","latitude":45.50889,"longitude":-73.56167,"reserved":0,"last_update":"0001-01-01T00:00:00Z","name_a2s":"Uncletopia | Montr√©al | 2 | All Maps","protocol":17,"map":"koth_highpass","folder":"tf","game":"Team Fortress","app_id":440,"player_count":0,"max_players":24,"Bots":0,"server_type":"Dedicated","server_os":"Linux","password":true,"vac":true,"version":"7882260","steam_id":85568392924500088,"keywords":["cp","nocrits","nodmgspread","uncletopia"],"game_id":440,"stv_port":27026,"stv_name":"Uncletopia | Montr√©al | 2 | All Maps | STV","players":null},{"server_id":302,"name":"Uncletopia | Montr√©al | 3 | All Maps","name_short":"mtl-3","host":"mtl-1.ca.uncletopia.com","port":27035,"enabled":true,"region":"us-east","cc":"ca","latitude":45.50889,"longitude":-73.56167,"reserved":0,"last_update":"0001-01-01T00:00:00Z","name_a2s":"Uncletopia | Montr√©al | 3 | All Maps","protocol":17,"map":"pl_swiftwater_final1","folder":"tf","game":"Team Fortress","app_id":440,"player_count":0,"max_players":24,"Bots":0,"server_type":"Dedicated","server_os":"Linux","password":true,"vac":true,"version":"7882260","steam_id":85568392924500089,"keywords":["nocrits","nodmgspread","payload","uncletopia"],"game_id":440,"stv_port":27036,"stv_name":"Uncletopia | Montr√©al | 3 | All Maps | STV","players":null},{"server_id":303,"name":"Uncletopia | Montr√©al | 4 | No Payload","name_short":"mtl-4","host":"mtl-1.ca.uncletopia.com","port":27045,"enabled":true,"region":"us-east","cc":"ca","latitude":45.50889,"longitude":-73.56167,"reserved":0,"last_update":"0001-01-01T00:00:00Z","name_a2s":"Uncletopia | Montr√©al | 4 | No Payload","protocol":17,"map":"plr_nightfall_final","folder":"tf","game":"Team Fortress","app_id":440,"player_count":0,"max_players":24,"Bots":0,"server_type":"Dedicated","server_os":"Linux","password":true,"vac":true,"version":"7882260","steam_id":85568392924500090,"keywords":["nocrits","nodmgspread","payload","uncletopia"],"game_id":440,"stv_port":27046,"stv_name":"Uncletopia | Montr√©al | 4 | No Payload | STV","players":null},{"server_id":13,"name":"Uncletopia | New York City | 1 | All Maps","name_short":"nyc-1","host":"nyc-1.us.uncletopia.com","port":27015,"enabled":true,"region":"us-east","cc":"us","latitude":40.73061,"longitude":-73.93524,"reserved":0,"last_update":"0001-01-01T00:00:00Z","name_a2s":"Uncletopia | New York City | 1 | All Maps","protocol":17,"map":"pl_snowycoast","folder":"tf","game":"Team Fortress","app_id":440,"player_count":17,"max_players":24,"Bots":0,"server_type":"Dedicated","server_os":"Linux","password":true,"vac":true,"version":"7882260","steam_id":85568392924469993,"keywords":["nocrits","nodmgspread","payload","uncletopia"],"game_id":440,"stv_port":27016,"stv_name":"Uncletopia | New York City | 1 | All Maps | STV","players":[{"user_id":725,"name":"Dr. Cactus","steam_id":76561198034861398,"connected_time":634000000000,"state":"active","ping":55},{"user_id":715,"name":"Teenkling","steam_id":76561198842565303,"connected_time":2262000000000,"state":"active","ping":159},{"user_id":726,"name":"HappyHeavy","steam_id":76561198092425666,"connected_time":592000000000,"state":"active","ping":47},{"user_id":717,"name":"Catass","steam_id":76561198255802361,"connected_time":2132000000000,"state":"active","ping":62},{"user_id":592,"name":"Agent Nibbles","steam_id":76561198465061146,"connected_time":13408000000000,"state":"active","ping":74},{"user_id":729,"name":"A Rubber Duck","steam_id":76561198278965023,"connected_time":513000000000,"state":"active","ping":115},{"user_id":731,"name":"soupy","steam_id":76561197974283797,"connected_time":225000000000,"state":"active","ping":68},{"user_id":702,"name":"Atlas","steam_id":76561198127975050,"connected_time":3948000000000,"state":"active","ping":75},{"user_id":728,"name":"Deantallica","steam_id":76561198287223999,"connected_time":554000000000,"state":"active","ping":86},{"user_id":730,"name":"Kamin","steam_id":76561198255299559,"connected_time":513000000000,"state":"active","ping":114},{"user_id":732,"name":"girl smell","steam_id":76561198118962168,"connected_time":114000000000,"state":"active","ping":101},{"user_id":672,"name":"HeavenHearst","steam_id":76561198066083947,"connected_time":5820000000000,"state":"active","ping":45},{"user_id":718,"name":"PrinceGeser","steam_id":76561197973759697,"connected_time":2069000000000,"state":"active","ping":67},{"user_id":694,"name":"xd Clover","steam_id":76561198038905361,"connected_time":4784000000000,"state":"active","ping":50},{"user_id":711,"name":"The Great Eagle Scourge of 1822","steam_id":76561198325086209,"connected_time":2840000000000,"state":"active","ping":116},{"user_id":722,"name":"Dandy","steam_id":76561198058253298,"connected_time":1735000000000,"state":"active","ping":105}]},{"server_id":14,"name":"Uncletopia | New York City | 2 | All Maps","name_short":"nyc-2","host":"nyc-1.us.uncletopia.com","port":27025,"enabled":true,"region":"us-east","cc":"us","latitude":40.73061,"longitude":-73.93524,"reserved":0,"last_update":"0001-01-01T00:00:00Z","name_a2s":"Uncletopia | New York City | 2 | All Maps","protocol":17,"map":"pl_borneo","folder":"tf","game":"Team Fortress","app_id":440,"player_count":0,"max_players":24,"Bots":0,"server_type":"Dedicated","server_os":"Linux","password":true,"vac":true,"version":"7882260","steam_id":85568392924469994,"keywords":["nocrits","nodmgspread","payload","uncletopia"],"game_id":440,"stv_port":27026,"stv_name":"Uncletopia | New York City | 2 | All Maps | STV","players":null},{"server_id":15,"name":"Uncletopia | New York City | 3 | Stopwatch Beta","name_short":"nyc-3","host":"nyc-1.us.uncletopia.com","port":27035,"enabled":true,"region":"us-east","cc":"us","latitude":40.73061,"longitude":-73.93524,"reserved":0,"last_update":"0001-01-01T00:00:00Z","name_a2s":"Uncletopia | New York City | 3 | Stopwatch Beta","protocol":17,"map":"pl_borneo","folder":"tf","game":"Team Fortress","app_id":440,"player_count":0,"max_players":24,"Bots":0,"server_type":"Dedicated","server_os":"Linux","password":true,"vac":true,"version":"7882260","steam_id":85568392924742820,"keywords":["nocrits","nodmgspread","payload","uncletopia"],"game_id":440,"stv_port":27036,"stv_name":"Uncletopia | New York City | 3 | Stopwatch Beta | STV","players":null},{"server_id":16,"name":"Uncletopia | New York City | 4 | Community","name_short":"nyc-4","host":"nyc-1.us.uncletopia.com","port":27045,"enabled":true,"region":"us-east","cc":"us","latitude":40.73061,"longitude":-73.93524,"reserved":0,"last_update":"0001-01-01T00:00:00Z","name_a2s":"Uncletopia | New York City | 4 | Community","protocol":17,"map":"workshop/pl_cactuscanyon_redux_final2.ugc2579644293","folder":"tf","game":"Team Fortress","app_id":440,"player_count":0,"max_players":24,"Bots":0,"server_type":"Dedicated","server_os":"Linux","password":true,"vac":true,"version":"7882260","steam_id":85568392924742821,"keywords":["nocrits","nodmgspread","payload","uncletopia"],"game_id":440,"stv_port":27046,"stv_name":"Uncletopia | New York City | 4 | Community | STV","players":null},{"server_id":142,"name":"Uncletopia | S√£o Paulo | 1 | All Maps","name_short":"sao-1","host":"sao-1.br.uncletopia.com","port":27015,"enabled":true,"region":"sa","cc":"br","latitude":-23.533773,"longitude":-46.62529,"reserved":0,"last_update":"0001-01-01T00:00:00Z","name_a2s":"Uncletopia | S√£o Paulo | 1 | All Maps","protocol":17,"map":"cp_process_final","folder":"tf","game":"Team Fortress","app_id":440,"player_count":0,"max_players":24,"Bots":0,"server_type":"Dedicated","server_os":"Linux","password":true,"vac":true,"version":"7882260","steam_id":85568392924469996,"keywords":["cp","nocrits","nodmgspread","uncletopia"],"game_id":440,"stv_port":27016,"stv_name":"Uncletopia | S√£o Paulo | 1 | All Maps | STV","players":null},{"server_id":143,"name":"Uncletopia | S√£o Paulo | 2 | All Maps","name_short":"sao-2","host":"sao-2.br.uncletopia.com","port":27015,"enabled":true,"region":"sa","cc":"br","latitude":-23.533773,"longitude":-46.62529,"reserved":0,"last_update":"0001-01-01T00:00:00Z","name_a2s":"Uncletopia | S√£o Paulo | 2 | All Maps","protocol":17,"map":"pl_pier","folder":"tf","game":"Team Fortress","app_id":440,"player_count":0,"max_players":24,"Bots":0,"server_type":"Dedicated","server_os":"Linux","password":true,"vac":true,"version":"7882260","steam_id":85568392924485349,"keywords":["nocrits","nodmgspread","payload","uncletopia"],"game_id":440,"stv_port":27016,"stv_name":"Uncletopia | S√£o Paulo | 2 | All Maps | STV","players":null},{"server_id":7,"name":"Uncletopia | Seattle | 1 | All Maps","name_short":"sea-1","host":"sea-1.us.uncletopia.com","port":27015,"enabled":true,"region":"us-west","cc":"us","latitude":47.608013,"longitude":-122.33517,"reserved":0,"last_update":"0001-01-01T00:00:00Z","name_a2s":"Uncletopia | Seattle | 1 | All Maps","protocol":17,"map":"pl_borneo","folder":"tf","game":"Team Fortress","app_id":440,"player_count":24,"max_players":24,"Bots":0,"server_type":"Dedicated","server_os":"Linux","password":true,"vac":true,"version":"7882260","steam_id":85568392924469997,"keywords":["nocrits","nodmgspread","payload","uncletopia"],"game_id":440,"stv_port":27016,"stv_name":"Uncletopia | Seattle | 1 | All Maps | STV","players":[{"user_id":665,"name":"oil","steam_id":76561198099980149,"connected_time":316000000000,"state":"active","ping":76},{"user_id":657,"name":"gnoblin","steam_id":76561198314221897,"connected_time":1857000000000,"state":"active","ping":45},{"user_id":667,"name":"advent","steam_id":76561198136475311,"connected_time":260000000000,"state":"active","ping":119},{"user_id":616,"name":"profile name","steam_id":76561198032625036,"connected_time":8137000000000,"state":"active","ping":60},{"user_id":663,"name":"p9 thunderous prophet","steam_id":76561198131166135,"connected_time":424000000000,"state":"active","ping":44},{"user_id":664,"name":"alcohol alchemist","steam_id":76561198134309750,"connected_time":325000000000,"state":"active","ping":141},{"user_id":670,"name":"ShpookaDooka","steam_id":76561198126837126,"connected_time":50000000000,"state":"active","ping":74},{"user_id":668,"name":"rat gets the cheese","steam_id":76561198031234032,"connected_time":200000000000,"state":"active","ping":95},{"user_id":656,"name":"rorywashere /·ê† - Àï -„Éû ‚≥ä","steam_id":76561198065825165,"connected_time":1868000000000,"state":"active","ping":96},{"user_id":647,"name":"communism's weakest engineer","steam_id":76561198011331991,"connected_time":3604000000000,"state":"active","ping":50},{"user_id":658,"name":"Cam","steam_id":76561198285054047,"connected_time":1856000000000,"state":"active","ping":84},{"user_id":636,"name":"DanceBunny","steam_id":76561198243610560,"connected_time":5369000000000,"state":"active","ping":70},{"user_id":602,"name":"NEBULA","steam_id":76561198086878595,"connected_time":9240000000000,"state":"active","ping":68},{"user_id":620,"name":"Lord Hater","steam_id":76561199158148782,"connected_time":7916000000000,"state":"active","ping":53},{"user_id":610,"name":"Headmouth","steam_id":76561198019789855,"connected_time":8368000000000,"state":"active","ping":166},{"user_id":619,"name":"forest (girldick)","steam_id":76561198157960257,"connected_time":7992000000000,"state":"active","ping":40},{"user_id":662,"name":"The Dick Drainer","steam_id":76561198887041407,"connected_time":1178000000000,"state":"active","ping":90},{"user_id":655,"name":"00","steam_id":76561198041700636,"connected_time":2128000000000,"state":"active","ping":62},{"user_id":648,"name":"toes","steam_id":76561198221151676,"connected_time":3573000000000,"state":"active","ping":60},{"user_id":669,"name":"BIG HOG","steam_id":76561198079923652,"connected_time":76000000000,"state":"active","ping":105},{"user_id":641,"name":"A Meatball Obsessed Demoman","steam_id":76561198253325844,"connected_time":4868000000000,"state":"active","ping":51},{"user_id":653,"name":"Florist","steam_id":76561198009121060,"connected_time":2619000000000,"state":"active","ping":45},{"user_id":586,"name":"p9 jorts","steam_id":76561199041179985,"connected_time":10844000000000,"state":"active","ping":65},{"user_id":659,"name":"Shields","steam_id":76561198043216746,"connected_time":1856000000000,"state":"active","ping":61}]},{"server_id":119,"name":"Uncletopia | Seattle | 2 | All Maps","name_short":"sea-2","host":"sea-1.us.uncletopia.com","port":27025,"enabled":true,"region":"us-west","cc":"us","latitude":47.608013,"longitude":-122.33517,"reserved":0,"last_update":"0001-01-01T00:00:00Z","name_a2s":"Uncletopia | Seattle | 2 | All Maps","protocol":17,"map":"cp_mountainlab","folder":"tf","game":"Team Fortress","app_id":440,"player_count":0,"max_players":24,"Bots":0,"server_type":"Dedicated","server_os":"Linux","password":true,"vac":true,"version":"7882260","steam_id":85568392924469998,"keywords":["cp","nocrits","nodmgspread","uncletopia"],"game_id":440,"stv_port":27026,"stv_name":"Uncletopia | Seattle | 2 | All Maps | STV","players":null},{"server_id":406,"name":"Uncletopia | Seattle | 3 | Stopwatch Beta","name_short":"sea-3","host":"sea-1.us.uncletopia.com","port":27035,"enabled":true,"region":"us-west","cc":"us","latitude":47.608013,"longitude":-122.33517,"reserved":0,"last_update":"0001-01-01T00:00:00Z","name_a2s":"Uncletopia | Seattle | 3 | Stopwatch Beta","protocol":17,"map":"cp_sunshine","folder":"tf","game":"Team Fortress","app_id":440,"player_count":23,"max_players":24,"Bots":0,"server_type":"Dedicated","server_os":"Linux","password":true,"vac":true,"version":"7882260","steam_id":85568392924515217,"keywords":["cp","nocrits","nodmgspread","uncletopia"],"game_id":440,"stv_port":27036,"stv_name":"Uncletopia | Seattle | 3 | Stopwatch Beta | STV","players":[{"user_id":524,"name":"Rommel2007","steam_id":76561198041744631,"connected_time":2393000000000,"state":"active","ping":79},{"user_id":568,"name":"PMT_Red","steam_id":76561198958863929,"connected_time":410000000000,"state":"active","ping":60},{"user_id":496,"name":"Driving Cat Orange (can drive)","steam_id":76561199067771554,"connected_time":4138000000000,"state":"active","ping":125},{"user_id":560,"name":"nell","steam_id":76561198136225723,"connected_time":832000000000,"state":"active","ping":100},{"user_id":526,"name":"rock gaming","steam_id":76561199402868311,"connected_time":2365000000000,"state":"active","ping":88},{"user_id":527,"name":"2006 toyota corolla","steam_id":76561198143132686,"connected_time":2364000000000,"state":"active","ping":71},{"user_id":569,"name":"ZenZeroX","steam_id":76561198025541494,"connected_time":328000000000,"state":"active","ping":118},{"user_id":436,"name":"ben","steam_id":76561198355118155,"connected_time":7575000000000,"state":"active","ping":61},{"user_id":494,"name":"Hatfam","steam_id":76561199192629036,"connected_time":4288000000000,"state":"active","ping":71},{"user_id":567,"name":"Kintsugi","steam_id":76561198301867054,"connected_time":444000000000,"state":"active","ping":72},{"user_id":544,"name":"Purchase your tracks today","steam_id":76561198084422657,"connected_time":1471000000000,"state":"active","ping":67},{"user_id":514,"name":"a 1930","steam_id":76561198320639814,"connected_time":2653000000000,"state":"active","ping":70},{"user_id":515,"name":"Derpy Hooves???","steam_id":76561198101505695,"connected_time":2644000000000,"state":"active","ping":75},{"user_id":564,"name":"Saggle","steam_id":76561198056075147,"connected_time":557000000000,"state":"active","ping":189},{"user_id":570,"name":"pigswill","steam_id":76561197999081865,"connected_time":286000000000,"state":"active","ping":121},{"user_id":549,"name":"Jagermeister","steam_id":76561198103515747,"connected_time":1345000000000,"state":"active","ping":62},{"user_id":537,"name":"Uncle Feathers McGraw","steam_id":76561198046442707,"connected_time":1957000000000,"state":"active","ping":50},{"user_id":571,"name":"123","steam_id":76561198106308056,"connected_time":210000000000,"state":"active","ping":75},{"user_id":572,"name":"‚ö£ Nebula ‚ö£","steam_id":76561199043463646,"connected_time":153000000000,"state":"active","ping":112},{"user_id":552,"name":"poole party","steam_id":76561198099234665,"connected_time":1266000000000,"state":"active","ping":61},{"user_id":573,"name":"Big Tony","steam_id":76561198086790000,"connected_time":81000000000,"state":"active","ping":436},{"user_id":574,"name":"Curtis Kobainis","steam_id":76561197999260465,"connected_time":64000000000,"state":"active","ping":80},{"user_id":558,"name":"Corzap","steam_id":76561198086030373,"connected_time":1058000000000,"state":"active","ping":54}]},{"server_id":17,"name":"Uncletopia | San Francisco | 1 | All Maps","name_short":"sfo-1","host":"sfo-1.us.uncletopia.com","port":27015,"enabled":true,"region":"us-west","cc":"us","latitude":37.77397,"longitude":-122.4313,"reserved":0,"last_update":"0001-01-01T00:00:00Z","name_a2s":"Uncletopia | San Francisco | 1 | All Maps","protocol":17,"map":"cp_process_final","folder":"tf","game":"Team Fortress","app_id":440,"player_count":0,"max_players":24,"Bots":0,"server_type":"Dedicated","server_os":"Linux","password":true,"vac":true,"version":"7757534","steam_id":85568392924469999,"keywords":["cp","nocrits","nodmgspread","uncletopia"],"game_id":440,"stv_port":27016,"stv_name":"Uncletopia | San Francisco | 1 | All Maps | STV","players":null},{"server_id":18,"name":"Uncletopia | San Francisco | 2 | All Maps","name_short":"sfo-2","host":"sfo-1.us.uncletopia.com","port":27025,"enabled":true,"region":"us-west","cc":"us","latitude":37.77397,"longitude":-122.4313,"reserved":0,"last_update":"0001-01-01T00:00:00Z","name_a2s":"Uncletopia | San Francisco | 2 | All Maps","protocol":17,"map":"koth_highpass","folder":"tf","game":"Team Fortress","app_id":440,"player_count":0,"max_players":24,"Bots":0,"server_type":"Dedicated","server_os":"Linux","password":true,"vac":true,"version":"7757534","steam_id":85568392924470000,"keywords":["cp","nocrits","nodmgspread","uncletopia"],"game_id":440,"stv_port":27026,"stv_name":"Uncletopia | San Francisco | 2 | All Maps | STV","players":null},{"server_id":19,"name":"Uncletopia | San Francisco | 3 | Stopwatch Beta","name_short":"sfo-3","host":"sfo-1.us.uncletopia.com","port":27035,"enabled":true,"region":"us-west","cc":"us","latitude":37.77397,"longitude":-122.4313,"reserved":0,"last_update":"0001-01-01T00:00:00Z","name_a2s":"Uncletopia | San Francisco | 3 | Stopwatch Beta","protocol":17,"map":"koth_lakeside_final","folder":"tf","game":"Team Fortress","app_id":440,"player_count":0,"max_players":24,"Bots":0,"server_type":"Dedicated","server_os":"Linux","password":true,"vac":true,"version":"7757534","steam_id":85568392924742824,"keywords":["cp","nocrits","nodmgspread","uncletopia"],"game_id":440,"stv_port":27036,"stv_name":"Uncletopia | San Francisco | 3 | Stopwatch Beta | STV","players":null},{"server_id":20,"name":"Uncletopia | San Francisco | 4 | Community","name_short":"sfo-4","host":"sfo-1.us.uncletopia.com","port":27045,"enabled":true,"region":"us-west","cc":"us","latitude":37.77397,"longitude":-122.4313,"reserved":0,"last_update":"0001-01-01T00:00:00Z","name_a2s":"Uncletopia | San Francisco | 4 | Community","protocol":17,"map":"cp_altitude","folder":"tf","game":"Team Fortress","app_id":440,"player_count":0,"max_players":24,"Bots":0,"server_type":"Dedicated","server_os":"Linux","password":true,"vac":true,"version":"7757534","steam_id":85568392924742826,"keywords":["cp","nocrits","nodmgspread","uncletopia"],"game_id":440,"stv_port":27046,"stv_name":"Uncletopia | San Francisco | 4 | Community | STV","players":null},{"server_id":141,"name":"Uncletopia | Sydney | 1 | All Maps","name_short":"syd-1","host":"syd-1.au.uncletopia.com","port":27015,"enabled":true,"region":"au","cc":"au","latitude":-33.865143,"longitude":151.2099,"reserved":0,"last_update":"0001-01-01T00:00:00Z","name_a2s":"Uncletopia | Sydney | 1 | All Maps","protocol":17,"map":"koth_viaduct","folder":"tf","game":"Team Fortress","app_id":440,"player_count":24,"max_players":24,"Bots":0,"server_type":"Dedicated","server_os":"Linux","password":true,"vac":true,"version":"7882260","steam_id":85568392924470001,"keywords":["cp","nocrits","nodmgspread","uncletopia"],"game_id":440,"stv_port":27016,"stv_name":"Uncletopia | Sydney | 1 | All Maps | STV","players":[{"user_id":329,"name":"whiteshaq","steam_id":76561198131988811,"connected_time":178000000000,"state":"active","ping":45},{"user_id":290,"name":"[FTW] RonnieD'","steam_id":76561197993957267,"connected_time":3677000000000,"state":"active","ping":56},{"user_id":278,"name":"FrOStY","steam_id":76561198088155805,"connected_time":4813000000000,"state":"active","ping":84},{"user_id":318,"name":"Pompadouraus","steam_id":76561198327530525,"connected_time":583000000000,"state":"active","ping":75},{"user_id":297,"name":"haydos","steam_id":76561198078310429,"connected_time":2685000000000,"state":"active","ping":38},{"user_id":320,"name":"LaFleur","steam_id":76561198869499113,"connected_time":563000000000,"state":"active","ping":55},{"user_id":321,"name":"FreeBeers","steam_id":76561198095448607,"connected_time":561000000000,"state":"active","ping":80},{"user_id":289,"name":"pongschlap","steam_id":76561198346216658,"connected_time":3782000000000,"state":"active","ping":59},{"user_id":327,"name":"miyamoto is daddy","steam_id":76561199483818230,"connected_time":261000000000,"state":"active","ping":67},{"user_id":269,"name":"soupy","steam_id":76561198073734936,"connected_time":5188000000000,"state":"active","ping":87},{"user_id":151,"name":"Jodelk√∂nig Franzl Lang","steam_id":76561198007667830,"connected_time":16305000000000,"state":"active","ping":53},{"user_id":306,"name":"Fyre Rose","steam_id":76561198000527551,"connected_time":1595000000000,"state":"active","ping":76},{"user_id":219,"name":"perturb (feed/seed)","steam_id":76561198085124297,"connected_time":11117000000000,"state":"active","ping":61},{"user_id":270,"name":"Sentry Gun (EpicGuy4227)","steam_id":76561198094132328,"connected_time":5170000000000,"state":"active","ping":51},{"user_id":322,"name":"stevenw","steam_id":76561198133041525,"connected_time":504000000000,"state":"active","ping":89},{"user_id":317,"name":"BruceWillis235","steam_id":76561198884324029,"connected_time":623000000000,"state":"active","ping":147},{"user_id":328,"name":"biff","steam_id":76561198069603865,"connected_time":222000000000,"state":"active","ping":79},{"user_id":294,"name":"Arro","steam_id":76561198084990929,"connected_time":2774000000000,"state":"active","ping":102},{"user_id":326,"name":"Sinister80s","steam_id":76561198343540472,"connected_time":363000000000,"state":"active","ping":71},{"user_id":281,"name":"ParadoxG","steam_id":76561198100746653,"connected_time":4438000000000,"state":"active","ping":59},{"user_id":303,"name":"Bigrichard","steam_id":76561198032092945,"connected_time":2558000000000,"state":"active","ping":85},{"user_id":325,"name":"koyaa","steam_id":76561198047484772,"connected_time":406000000000,"state":"active","ping":79},{"user_id":275,"name":"Rashid Of The Dank Memes","steam_id":76561198281398078,"connected_time":5009000000000,"state":"active","ping":65},{"user_id":286,"name":"GattlingGoose","steam_id":76561199021498300,"connected_time":4076000000000,"state":"active","ping":84}]},{"server_id":123,"name":"Uncletopia | Sydney | 2 | All Maps","name_short":"syd-2","host":"syd-1.au.uncletopia.com","port":27025,"enabled":true,"region":"au","cc":"au","latitude":-33.865143,"longitude":151.2099,"reserved":0,"last_update":"0001-01-01T00:00:00Z","name_a2s":"Uncletopia | Sydney | 2 | All Maps","protocol":17,"map":"cp_dustbowl","folder":"tf","game":"Team Fortress","app_id":440,"player_count":24,"max_players":24,"Bots":0,"server_type":"Dedicated","server_os":"Linux","password":true,"vac":true,"version":"7882260","steam_id":85568392924470002,"keywords":["cp","nocrits","nodmgspread","uncletopia"],"game_id":440,"stv_port":27026,"stv_name":"Uncletopia | Sydney | 2 | All Maps | STV","players":[{"user_id":135,"name":"Mr Luxury Yacht","steam_id":76561198047586836,"connected_time":1539000000000,"state":"active","ping":107},{"user_id":146,"name":"OverTasked „ÉÉ","steam_id":76561198829465540,"connected_time":256000000000,"state":"active","ping":68},{"user_id":144,"name":"sweet","steam_id":76561198075311236,"connected_time":470000000000,"state":"active","ping":54},{"user_id":68,"name":"the weed alien","steam_id":76561199205171109,"connected_time":5441000000000,"state":"active","ping":68},{"user_id":137,"name":"itsnothenry","steam_id":76561197966455767,"connected_time":1477000000000,"state":"active","ping":56},{"user_id":99,"name":"Cozza","steam_id":76561198090069548,"connected_time":3532000000000,"state":"active","ping":65},{"user_id":92,"name":"WussPoppinJimbo","steam_id":76561199111828033,"connected_time":3810000000000,"state":"active","ping":135},{"user_id":149,"name":"Remembrance","steam_id":76561198053510073,"connected_time":178000000000,"state":"active","ping":88},{"user_id":116,"name":"sf/k","steam_id":76561198047758776,"connected_time":2611000000000,"state":"active","ping":44},{"user_id":93,"name":"Candy_Cane19","steam_id":76561198978478925,"connected_time":3785000000000,"state":"active","ping":68},{"user_id":138,"name":"Second Lieutenant Pisser","steam_id":76561198866538028,"connected_time":1293000000000,"state":"active","ping":80},{"user_id":148,"name":"Shrapnel","steam_id":76561198081643650,"connected_time":227000000000,"state":"active","ping":74},{"user_id":128,"name":"Shiki Eiki Yamaxanadu","steam_id":76561198095744048,"connected_time":1965000000000,"state":"active","ping":99},{"user_id":130,"name":"chewy marmot","steam_id":76561198005340350,"connected_time":1898000000000,"state":"active","ping":73},{"user_id":136,"name":"Apteryx","steam_id":76561197976460834,"connected_time":1489000000000,"state":"active","ping":66},{"user_id":140,"name":"smite","steam_id":76561198845304189,"connected_time":1036000000000,"state":"active","ping":79},{"user_id":147,"name":"Kiwoo","steam_id":76561198097429186,"connected_time":239000000000,"state":"active","ping":98},{"user_id":126,"name":"marink","steam_id":76561198446126519,"connected_time":1994000000000,"state":"active","ping":52},{"user_id":120,"name":"nojnosbod11","steam_id":76561199176012151,"connected_time":2107000000000,"state":"active","ping":60},{"user_id":139,"name":"Corrupt","steam_id":76561198008567328,"connected_time":1280000000000,"state":"active","ping":60},{"user_id":127,"name":"cas ganister","steam_id":76561198879023728,"connected_time":1993000000000,"state":"active","ping":55},{"user_id":129,"name":"ivoangelozocca","steam_id":76561199419790359,"connected_time":1959000000000,"state":"active","ping":163},{"user_id":145,"name":"lavanderpumpernickle","steam_id":76561199093611800,"connected_time":386000000000,"state":"active","ping":75},{"user_id":105,"name":"ILoveMyBees","steam_id":76561199074505018,"connected_time":3416000000000,"state":"active","ping":77}]},{"server_id":395,"name":"Uncletopia | Sydney | 3 | All Maps","name_short":"syd-3","host":"syd-1.au.uncletopia.com","port":27035,"enabled":true,"region":"au","cc":"au","latitude":-33.865143,"longitude":151.2099,"reserved":0,"last_update":"0001-01-01T00:00:00Z","name_a2s":"Uncletopia | Sydney | 3 | All Maps","protocol":17,"map":"pl_pier","folder":"tf","game":"Team Fortress","app_id":440,"player_count":0,"max_players":24,"Bots":0,"server_type":"Dedicated","server_os":"Linux","password":true,"vac":true,"version":"7882260","steam_id":85568392925194467,"keywords":["nocrits","nodmgspread","payload","uncletopia"],"game_id":440,"stv_port":27036,"stv_name":"Uncletopia | Sydney | 3 | All Maps | STV","players":null},{"server_id":396,"name":"Uncletopia | Sydney | 4 | All Maps","name_short":"syd-4","host":"syd-1.au.uncletopia.com","port":27045,"enabled":true,"region":"au","cc":"au","latitude":-33.865143,"longitude":151.2099,"reserved":0,"last_update":"0001-01-01T00:00:00Z","name_a2s":"Uncletopia | Sydney | 4 | All Maps","protocol":17,"map":"pl_frontier_final","folder":"tf","game":"Team Fortress","app_id":440,"player_count":0,"max_players":24,"Bots":0,"server_type":"Dedicated","server_os":"Linux","password":true,"vac":true,"version":"7882260","steam_id":85568392925397958,"keywords":["nocrits","nodmgspread","payload","uncletopia"],"game_id":440,"stv_port":27046,"stv_name":"Uncletopia | Sydney | 4 | All Maps | STV","players":null},{"server_id":58,"name":"Uncletopia | Sydney | 5 | Stopwatch Beta","name_short":"syd-5","host":"syd-1.au.uncletopia.com","port":27055,"enabled":true,"region":"au","cc":"au","latitude":-33.865143,"longitude":151.2099,"reserved":0,"last_update":"0001-01-01T00:00:00Z","name_a2s":"Uncletopia | Sydney | 5 | Stopwatch Beta","protocol":17,"map":"pl_swiftwater_final1","folder":"tf","game":"Team Fortress","app_id":440,"player_count":0,"max_players":24,"Bots":0,"server_type":"Dedicated","server_os":"Linux","password":true,"vac":true,"version":"7882260","steam_id":85568392925397959,"keywords":["nocrits","nodmgspread","payload","uncletopia"],"game_id":440,"stv_port":27056,"stv_name":"Uncletopia | Sydney | 5 | Stopwatch Beta | STV","players":null},{"server_id":59,"name":"Uncletopia | Sydney | 6 | Community","name_short":"syd-6","host":"syd-1.au.uncletopia.com","port":27065,"enabled":true,"region":"au","cc":"au","latitude":-33.865143,"longitude":151.2099,"reserved":0,"last_update":"0001-01-01T00:00:00Z","name_a2s":"Uncletopia | Sydney | 6 | Community","protocol":17,"map":"pl_snowycoast","folder":"tf","game":"Team Fortress","app_id":440,"player_count":0,"max_players":24,"Bots":0,"server_type":"Dedicated","server_os":"Linux","password":true,"vac":true,"version":"7882260","steam_id":85568392925397960,"keywords":["nocrits","nodmgspread","payload","uncletopia"],"game_id":440,"stv_port":27066,"stv_name":"Uncletopia | Sydney | 6 | Community | STV","players":null},{"server_id":49,"name":"Uncletopia | Warsaw | 1 | All Maps","name_short":"waw-1","host":"waw-1.pl.uncletopia.com","port":27015,"enabled":true,"region":"eu","cc":"pl","latitude":52.2297,"longitude":21.017532,"reserved":0,"last_update":"0001-01-01T00:00:00Z","name_a2s":"","protocol":0,"map":"","folder":"","game":"","app_id":0,"player_count":0,"max_players":0,"Bots":0,"server_type":"","server_os":"","password":false,"vac":false,"version":"","steam_id":0,"keywords":null,"game_id":0,"stv_port":0,"stv_name":"","players":null},{"server_id":50,"name":"Uncletopia | Warsaw | 2 | All Maps","name_short":"waw-2","host":"waw-1.pl.uncletopia.com","port":27025,"enabled":true,"region":"eu","cc":"pl","latitude":52.2297,"longitude":21.017532,"reserved":0,"last_update":"0001-01-01T00:00:00Z","name_a2s":"Uncletopia | Warsaw | 2 | All Maps","protocol":17,"map":"pl_swiftwater_final1","folder":"tf","game":"Team Fortress","app_id":440,"player_count":0,"max_players":24,"Bots":0,"server_type":"Dedicated","server_os":"Linux","password":true,"vac":true,"version":"7882260","steam_id":85568392925397851,"keywords":["nocrits","nodmgspread","payload","uncletopia"],"game_id":440,"stv_port":27026,"stv_name":"Uncletopia | Warsaw | 2 | All Maps | STV","players":null},{"server_id":51,"name":"Uncletopia | Warsaw | 3 | All Maps","name_short":"waw-3","host":"waw-1.pl.uncletopia.com","port":27035,"enabled":true,"region":"eu","cc":"pl","latitude":52.2297,"longitude":21.017532,"reserved":0,"last_update":"0001-01-01T00:00:00Z","name_a2s":"Uncletopia | Warsaw | 3 | All Maps","protocol":17,"map":"koth_viaduct","folder":"tf","game":"Team Fortress","app_id":440,"player_count":0,"max_players":24,"Bots":0,"server_type":"Dedicated","server_os":"Linux","password":true,"vac":true,"version":"7882260","steam_id":85568392925397852,"keywords":["cp","nocrits","nodmgspread","uncletopia"],"game_id":440,"stv_port":27036,"stv_name":"Uncletopia | Warsaw | 3 | All Maps | STV","players":null},{"server_id":52,"name":"Uncletopia | Warsaw | 4 | All Maps","name_short":"waw-4","host":"waw-1.pl.uncletopia.com","port":27045,"enabled":true,"region":"eu","cc":"pl","latitude":52.2297,"longitude":21.017532,"reserved":0,"last_update":"0001-01-01T00:00:00Z","name_a2s":"Uncletopia | Warsaw | 4 | All Maps","protocol":17,"map":"koth_highpass","folder":"tf","game":"Team Fortress","app_id":440,"player_count":0,"max_players":24,"Bots":0,"server_type":"Dedicated","server_os":"Linux","password":true,"vac":true,"version":"7882260","steam_id":85568392925397853,"keywords":["cp","nocrits","nodmgspread","uncletopia"],"game_id":440,"stv_port":27046,"stv_name":"Uncletopia | Warsaw | 4 | All Maps | STV","players":null},{"server_id":53,"name":"Uncletopia | Warsaw | 5 | Stopwatch Beta","name_short":"waw-5","host":"waw-1.pl.uncletopia.com","port":27055,"enabled":true,"region":"eu","cc":"pl","latitude":52.2297,"longitude":21.017532,"reserved":0,"last_update":"0001-01-01T00:00:00Z","name_a2s":"Uncletopia | Warsaw | 5 | Stopwatch Beta","protocol":17,"map":"cp_mountainlab","folder":"tf","game":"Team Fortress","app_id":440,"player_count":0,"max_players":24,"Bots":0,"server_type":"Dedicated","server_os":"Linux","password":true,"vac":true,"version":"7882260","steam_id":85568392925397854,"keywords":["cp","nocrits","nodmgspread","uncletopia"],"game_id":440,"stv_port":27056,"stv_name":"Uncletopia | Warsaw | 5 | Stopwatch Beta | STV","players":null},{"server_id":54,"name":"Uncletopia | Warsaw | 6 | Community","name_short":"waw-6","host":"waw-1.pl.uncletopia.com","port":27065,"enabled":true,"region":"eu","cc":"pl","latitude":52.2297,"longitude":21.017532,"reserved":0,"last_update":"0001-01-01T00:00:00Z","name_a2s":"Uncletopia | Warsaw | 6 | Community","protocol":17,"map":"koth_viaduct","folder":"tf","game":"Team Fortress","app_id":440,"player_count":0,"max_players":24,"Bots":0,"server_type":"Dedicated","server_os":"Linux","password":true,"vac":true,"version":"7882260","steam_id":85568392925397856,"keywords":["cp","nocrits","nodmgspread","uncletopia"],"game_id":440,"stv_port":27066,"stv_name":"Uncletopia | Warsaw | 6 | Community | STV","players":null}]}