{"status":true,"message":"","result":[{"server_id":9,"name":"Uncletopia | Atlanta | 1 | All Maps","name_short":"atl-1","host":"atl-1.us.uncletopia.com","port":27015,"enabled":true,"region":"us-east","cc":"us","latitude":33.753746,"longitude":-84.38633,"reserved":0,"last_update":"0001-01-01T00:00:00Z","name_a2s":"Uncletopia | Atlanta | 1 | All Maps","protocol":17,"map":"koth_harvest_final","folder":"tf","game":"Team Fortress","app_id":440,"player_count":24,"max_players":24,"Bots":0,"server_type":"Dedicated","server_os":"Linux","password":true,"vac":true,"version":"7708610","steam_id":85568392924469982,"keywords":["cp","nocrits","nodmgspread","uncletopia"],"game_id":440,"stv_port":27016,"stv_name":"Uncletopia | Atlanta | 1 | All Maps | STV","players":[{"user_id":220,"name":"jerma enthusiast","steam_id":76561198359466264,"connected_time":954000000000,"state":"active","ping":85},{"user_id":226,"name":"sgranados089","steam_id":76561199057545331,"connected_time":586000000000,"state":"active","ping":100},{"user_id":240,"name":"JYNACCI","steam_id":76561198100942212,"connected_time":44000000000,"state":"active","ping":61},{"user_id":228,"name":"NotSoMewwo","steam_id":76561198130067099,"connected_time":581000000000,"state":"active","ping":74},{"user_id":223,"name":"Mr. Bucket","steam_id":76561198064244796,"connected_time":808000000000,"state":"active","ping":60},{"user_id":224,"name":"About That Gift I Owed Ya","steam_id":76561198071506287,"connected_time":621000000000,"state":"active","ping":106},{"user_id":229,"name":"BlockBurst","steam_id":76561199220851075,"connected_time":579000000000,"state":"active","ping":76},{"user_id":221,"name":"kametro4","steam_id":76561198835430429,"connected_time":944000000000,"state":"active","ping":104},{"user_id":239,"name":"Spoonastic","steam_id":76561198343838009,"connected_time":166000000000,"state":"active","ping":107},{"user_id":201,"name":"Miramar","steam_id":76561198022057653,"connected_time":2554000000000,"state":"active","ping":77},{"user_id":208,"name":"HS4_Roy","steam_id":76561198119525485,"connected_time":1843000000000,"state":"active","ping":59},{"user_id":146,"name":"TTV AhoyK","steam_id":76561198274742715,"connected_time":6529000000000,"state":"active","ping":56},{"user_id":212,"name":"Haunting","steam_id":76561198088529360,"connected_time":1795000000000,"state":"active","ping":87},{"user_id":237,"name":"Cresant Ape","steam_id":76561198127425559,"connected_time":211000000000,"state":"active","ping":59},{"user_id":165,"name":"BOT Bot","steam_id":76561197995225620,"connected_time":4622000000000,"state":"active","ping":64},{"user_id":231,"name":"Decimus","steam_id":76561198341781527,"connected_time":546000000000,"state":"active","ping":80},{"user_id":236,"name":"-Enter Name Here-","steam_id":76561198040358938,"connected_time":223000000000,"state":"active","ping":61},{"user_id":232,"name":"Don Piccolo","steam_id":76561198118539302,"connected_time":525000000000,"state":"active","ping":71},{"user_id":238,"name":"Luucyf3r","steam_id":76561198141820085,"connected_time":190000000000,"state":"active","ping":60},{"user_id":209,"name":"indi","steam_id":76561198045917538,"connected_time":1838000000000,"state":"active","ping":61},{"user_id":133,"name":"gordon freeman christmas","steam_id":76561198367735460,"connected_time":8901000000000,"state":"active","ping":70},{"user_id":241,"name":"BERBBLES","steam_id":76561198815107994,"connected_time":23000000000,"state":"active","ping":73},{"user_id":222,"name":"strategic dier","steam_id":76561197999257178,"connected_time":944000000000,"state":"active","ping":90}]},{"server_id":400,"name":"Uncletopia | Atlanta | 3 | All Maps","name_short":"atl-3","host":"atl-1.us.uncletopia.com","port":27035,"enabled":true,"region":"us-east","cc":"us","latitude":33.753746,"longitude":-84.38633,"reserved":0,"last_update":"0001-01-01T00:00:00Z","name_a2s":"Uncletopia | Atlanta | 3 | All Maps","protocol":17,"map":"pl_badwater","folder":"tf","game":"Team Fortress","app_id":440,"player_count":1,"max_players":24,"Bots":0,"server_type":"Dedicated","server_os":"Linux","password":true,"vac":true,"version":"7708610","steam_id":85568392924515187,"keywords":["nocrits","nodmgspread","payload","uncletopia"],"game_id":440,"stv_port":27036,"stv_name":"Uncletopia | Atlanta | 3 | All Maps | STV","players":[{"user_id":5,"name":"M.L.JEW","steam_id":76561198997375055,"connected_time":98000000000,"state":"active","ping":71}]},{"server_id":401,"name":"Uncletopia | Atlanta | 4 | No Payload","name_short":"atl-4","host":"atl-1.us.uncletopia.com","port":27045,"enabled":true,"region":"us-east","cc":"us","latitude":33.753746,"longitude":-84.38633,"reserved":0,"last_update":"0001-01-01T00:00:00Z","name_a2s":"Uncletopia | Atlanta | 4 | No Payload","protocol":17,"map":"pl_snowycoast","folder":"tf","game":"Team Fortress","app_id":440,"player_count":0,"max_players":24,"Bots":0,"server_type":"Dedicated","server_os":"Linux","password":true,"vac":true,"version":"7708610","steam_id":85568392924515188,"keywords":["nocrits","nodmgspread","payload","uncletopia"],"game_id":440,"stv_port":27046,"stv_name":"Uncletopia | Atlanta | 4 | No Payload | STV","players":null},{"server_id":2,"name":"Uncletopia | Chicago | 1 | All Maps","name_short":"chi-1","host":"chi-1.us.uncletopia.com","port":27015,"enabled":true,"region":"us-central","cc":"us","latitude":41.881832,"longitude":-87.62318,"reserved":0,"last_update":"0001-01-01T00:00:00Z","name_a2s":"Uncletopia | Chicago | 1 | All Maps","protocol":17,"map":"pl_borneo","folder":"tf","game":"Team Fortress","app_id":440,"player_count":24,"max_players":24,"Bots":0,"server_type":"Dedicated","server_os":"Linux","password":true,"vac":true,"version":"7708610","steam_id":85568392924469984,"keywords":["nocrits","nodmgspread","payload","uncletopia"],"game_id":440,"stv_port":27016,"stv_name":"Uncletopia | Chicago | 1 | All Maps | STV","players":[{"user_id":159,"name":"Thatoneguybunchanumbers","steam_id":76561198028039160,"connected_time":779000000000,"state":"active","ping":75},{"user_id":136,"name":"300 Ping Gaming [WLP]","steam_id":76561199042160997,"connected_time":2899000000000,"state":"active","ping":128},{"user_id":86,"name":"Rornir","steam_id":76561198081829615,"connected_time":5974000000000,"state":"active","ping":31},{"user_id":107,"name":"Patrick2010","steam_id":76561198857179305,"connected_time":4010000000000,"state":"active","ping":143},{"user_id":169,"name":"Kyaaaaa!!!","steam_id":76561198066384337,"connected_time":184000000000,"state":"active","ping":51},{"user_id":158,"name":"dr peppah chug!","steam_id":76561198068835693,"connected_time":911000000000,"state":"active","ping":84},{"user_id":163,"name":"Hylic","steam_id":76561199051314589,"connected_time":389000000000,"state":"active","ping":63},{"user_id":172,"name":"Dragus","steam_id":76561198032967285,"connected_time":161000000000,"state":"active","ping":45},{"user_id":154,"name":"Quansen","steam_id":76561198151594550,"connected_time":1333000000000,"state":"active","ping":46},{"user_id":12,"name":"¬°ayudame!","steam_id":76561198071421094,"connected_time":11024000000000,"state":"active","ping":100},{"user_id":173,"name":"RatedM4Matt","steam_id":76561198086141042,"connected_time":158000000000,"state":"active","ping":78},{"user_id":166,"name":"Dude Named Bob","steam_id":76561198310448093,"connected_time":196000000000,"state":"active","ping":45},{"user_id":152,"name":"Draconic Ballad","steam_id":76561198027191515,"connected_time":1651000000000,"state":"active","ping":45},{"user_id":111,"name":"Potato-Protein-Pancake","steam_id":76561198027198306,"connected_time":3845000000000,"state":"active","ping":58},{"user_id":167,"name":"Aster","steam_id":76561198037920420,"connected_time":189000000000,"state":"active","ping":123},{"user_id":131,"name":"McNamJam","steam_id":76561198028128686,"connected_time":2978000000000,"state":"active","ping":102},{"user_id":132,"name":"Bluebird","steam_id":76561199143106401,"connected_time":2961000000000,"state":"active","ping":63},{"user_id":160,"name":"stop","steam_id":76561198268686419,"connected_time":414000000000,"state":"active","ping":49},{"user_id":171,"name":"Female Gamer","steam_id":76561199366482682,"connected_time":183000000000,"state":"active","ping":91},{"user_id":157,"name":"asbestos","steam_id":76561198079178866,"connected_time":1127000000000,"state":"active","ping":71},{"user_id":175,"name":"Stran","steam_id":76561198143389308,"connected_time":138000000000,"state":"connecting","ping":0},{"user_id":156,"name":"6t26j","steam_id":76561198278282836,"connected_time":1216000000000,"state":"active","ping":55},{"user_id":176,"name":"“Ω’≤—µ’æ","steam_id":76561198099470277,"connected_time":124000000000,"state":"active","ping":78},{"user_id":178,"name":"venomew2","steam_id":76561198327081077,"connected_time":78000000000,"state":"active","ping":76}]},{"server_id":106,"name":"Uncletopia | Chicago | 2 | All Maps","name_short":"chi-2","host":"chi-1.us.uncletopia.com","port":27025,"enabled":true,"region":"us-central","cc":"us","latitude":41.881832,"longitude":-87.62318,"reserved":0,"last_update":"0001-01-01T00:00:00Z","name_a2s":"Uncletopia | Chicago | 2 | All Maps","protocol":17,"map":"pl_badwater","folder":"tf","game":"Team Fortress","app_id":440,"player_count":0,"max_players":24,"Bots":0,"server_type":"Dedicated","server_os":"Linux","password":true,"vac":true,"version":"7708610","steam_id":85568392924469985,"keywords":["nocrits","nodmgspread","payload","uncletopia"],"game_id":440,"stv_port":27026,"stv_name":"Uncletopia | Chicago | 2 | All Maps | STV","players":null},{"server_id":402,"name":"Uncletopia | Chicago | 3 | All Maps","name_short":"chi-3","host":"chi-1.us.uncletopia.com","port":27035,"enabled":true,"region":"us-central","cc":"us","latitude":41.881832,"longitude":-87.62318,"reserved":0,"last_update":"0001-01-01T00:00:00Z","name_a2s":"Uncletopia | Chicago | 3 | All Maps","protocol":17,"map":"pl_barnblitz","folder":"tf","game":"Team Fortress","app_id":440,"player_count":0,"max_players":24,"Bots":0,"server_type":"Dedicated","server_os":"Linux","password":true,"vac":true,"version":"7708610","steam_id":85568392924515191,"keywords":["nocrits","nodmgspread","payload","uncletopia"],"game_id":440,"stv_port":27036,"stv_name":"Uncletopia | Chicago | 3 | All Maps | STV","players":null},{"server_id":403,"name":"Uncletopia | Chicago | 4 | All Maps","name_short":"chi-4","host":"chi-1.us.uncletopia.com","port":27045,"enabled":true,"region":"us-central","cc":"us","latitude":41.881832,"longitude":-87.62318,"reserved":0,"last_update":"0001-01-01T00:00:00Z","name_a2s":"Uncletopia | Chicago | 4 | All Maps","protocol":17,"map":"pl_frontier_final","folder":"tf","game":"Team Fortress","app_id":440,"player_count":0,"max_players":24,"Bots":0,"server_type":"Dedicated","server_os":"Linux","password":true,"vac":true,"version":"7708610","steam_id":85568392924515193,"keywords":["nocrits","nodmgspread","payload","uncletopia"],"game_id":440,"stv_port":27046,"stv_name":"Uncletopia | Chicago | 4 | All Maps | STV","players":null},{"server_id":36,"name":"Uncletopia | Chicago | 5 | All Maps","name_short":"chi-5","host":"chi-2.us.uncletopia.com","port":27015,"enabled":true,"region":"us-central","cc":"us","latitude":41.881832,"longitude":-87.62318,"reserved":0,"last_update":"0001-01-01T00:00:00Z","name_a2s":"Uncletopia | Chicago | 5 | All Maps","protocol":17,"map":"koth_lakeside_final","folder":"tf","game":"Team Fortress","app_id":440,"player_count":0,"max_players":24,"Bots":0,"server_type":"Dedicated","server_os":"Linux","password":true,"vac":true,"version":"7708610","steam_id":85568392924866362,"keywords":["cp","nocrits","nodmgspread","uncletopia"],"game_id":440,"stv_port":27016,"stv_name":"Uncletopia | Chicago | 5 | All Maps | STV","players":null},{"server_id":37,"name":"Uncletopia | Chicago | 6 | All Maps","name_short":"chi-6","host":"chi-2.us.uncletopia.com","port":27025,"enabled":true,"region":"us-central","cc":"us","latitude":41.881832,"longitude":-87.62318,"reserved":0,"last_update":"0001-01-01T00:00:00Z","name_a2s":"Uncletopia | Chicago | 6 | All Maps","protocol":17,"map":"pl_swiftwater_final1","folder":"tf","game":"Team Fortress","app_id":440,"player_count":0,"max_players":24,"Bots":0,"server_type":"Dedicated","server_os":"Linux","password":true,"vac":true,"version":"7708610","steam_id":85568392924866363,"keywords":["nocrits","nodmgspread","payload","uncletopia"],"game_id":440,"stv_port":27026,"stv_name":"Uncletopia | Chicago | 6 | All Maps | STV","players":null},{"server_id":38,"name":"Uncletopia | Chicago | 7 | No Payload","name_short":"chi-7","host":"chi-2.us.uncletopia.com","port":27035,"enabled":true,"region":"us-central","cc":"us","latitude":41.881832,"longitude":-87.62318,"reserved":0,"last_update":"0001-01-01T00:00:00Z","name_a2s":"Uncletopia | Chicago | 7 | No Payload","protocol":17,"map":"koth_badlands","folder":"tf","game":"Team Fortress","app_id":440,"player_count":0,"max_players":24,"Bots":0,"server_type":"Dedicated","server_os":"Linux","password":true,"vac":true,"version":"7708610","steam_id":85568392924866364,"keywords":["cp","nocrits","nodmgspread","uncletopia"],"game_id":440,"stv_port":27036,"stv_name":"Uncletopia | Chicago | 7 | No Payload | STV","players":null},{"server_id":39,"name":"Uncletopia | Chicago | 8 | Community","name_short":"chi-8","host":"chi-2.us.uncletopia.com","port":27045,"enabled":true,"region":"us-central","cc":"us","latitude":41.881832,"longitude":-87.62318,"reserved":0,"last_update":"0001-01-01T00:00:00Z","name_a2s":"Uncletopia | Chicago | 8 | Community","protocol":17,"map":"cp_dustbowl","folder":"tf","game":"Team Fortress","app_id":440,"player_count":0,"max_players":24,"Bots":0,"server_type":"Dedicated","server_os":"Linux","password":true,"vac":true,"version":"7708610","steam_id":85568392924866365,"keywords":["cp","nocrits","nodmgspread","uncletopia"],"game_id":440,"stv_port":27046,"stv_name":"Uncletopia | Chicago | 8 | Community | STV","players":null},{"server_id":8,"name":"Uncletopia | Dallas | 1 | All Maps","name_short":"dal-1","host":"dal-1.us.uncletopia.com","port":27015,"enabled":true,"region":"us-central","cc":"us","latitude":32.779167,"longitude":-96.80889,"reserved":0,"last_update":"0001-01-01T00:00:00Z","name_a2s":"Uncletopia | Dallas | 1 | All Maps","protocol":17,"map":"koth_lakeside_final","folder":"tf","game":"Team Fortress","app_id":440,"player_count":2,"max_players":24,"Bots":0,"server_type":"Dedicated","server_os":"Linux","password":true,"vac":true,"version":"7708610","steam_id":85568392924469986,"keywords":["cp","nocrits","nodmgspread","uncletopia"],"game_id":440,"stv_port":27016,"stv_name":"Uncletopia | Dallas | 1 | All Maps | STV","players":[{"user_id":8,"name":"divaco_21","steam_id":76561199130749075,"connected_time":85000000000,"state":"active","ping":119},{"user_id":9,"name":"IVARAL012510","steam_id":76561199130236633,"connected_time":38000000000,"state":"active","ping":706}]},{"server_id":108,"name":"Uncletopia | Dallas | 2 | All Maps","name_short":"dal-2","host":"dal-1.us.uncletopia.com","port":27025,"enabled":true,"region":"us-central","cc":"us","latitude":32.779167,"longitude":-96.80889,"reserved":0,"last_update":"0001-01-01T00:00:00Z","name_a2s":"Uncletopia | Dallas | 2 | All Maps","protocol":17,"map":"koth_highpass","folder":"tf","game":"Team Fortress","app_id":440,"player_count":0,"max_players":24,"Bots":0,"server_type":"Dedicated","server_os":"Linux","password":true,"vac":true,"version":"7708610","steam_id":85568392924469988,"keywords":["cp","nocrits","nodmgspread","uncletopia"],"game_id":440,"stv_port":27026,"stv_name":"Uncletopia | Dallas | 2 | All Maps | STV","players":null},{"server_id":5,"name":"Uncletopia | Frankfurt | 1 | All Maps","name_short":"frk-1","host":"frk-1.de.uncletopia.com","port":27015,"enabled":true,"region":"eu","cc":"de","latitude":50.110924,"longitude":8.682127,"reserved":0,"last_update":"0001-01-01T00:00:00Z","name_a2s":"Uncletopia | Frankfurt | 1 | All Maps","protocol":17,"map":"pl_coal_event","folder":"tf","game":"Team Fortress","app_id":440,"player_count":20,"max_players":24,"Bots":0,"server_type":"Dedicated","server_os":"Linux","password":true,"vac":true,"version":"7708610","steam_id":85568392924469989,"keywords":["nocrits","nodmgspread","payload","uncletopia"],"game_id":440,"stv_port":27016,"stv_name":"Uncletopia | Frankfurt | 1 | All Maps | STV","players":[{"user_id":663,"name":"Wolframen","steam_id":76561198074103958,"connected_time":54000000000,"state":"active","ping":62},{"user_id":655,"name":"luma","steam_id":76561198081649669,"connected_time":611000000000,"state":"active","ping":60},{"user_id":650,"name":"Scob","steam_id":76561199130861607,"connected_time":868000000000,"state":"active","ping":67},{"user_id":654,"name":"Soulman25 (FIN)","steam_id":76561198103611974,"connected_time":612000000000,"state":"active","ping":104},{"user_id":640,"name":"VIN WEASEL","steam_id":76561198014387066,"connected_time":2149000000000,"state":"active","ping":43},{"user_id":596,"name":"The Wolf Leader","steam_id":76561198038007462,"connected_time":4229000000000,"state":"active","ping":61},{"user_id":661,"name":"üúè Drepp","steam_id":76561197998867164,"connected_time":296000000000,"state":"active","ping":61},{"user_id":613,"name":"Scary Perry","steam_id":76561198237464516,"connected_time":3240000000000,"state":"active","ping":51},{"user_id":637,"name":"DeNilson","steam_id":76561197972535376,"connected_time":2201000000000,"state":"active","ping":72},{"user_id":611,"name":"Tonne","steam_id":76561197970856766,"connected_time":3305000000000,"state":"active","ping":53},{"user_id":659,"name":"–∞–º—Ñ–∏–ª–æ—Ö–∏—ò","steam_id":76561198091581881,"connected_time":346000000000,"state":"active","ping":75},{"user_id":638,"name":"Poor Fucking Infantry","steam_id":76561198055978522,"connected_time":2191000000000,"state":"active","ping":64},{"user_id":641,"name":"Craydria","steam_id":76561199124087471,"connected_time":1755000000000,"state":"active","ping":61},{"user_id":664,"name":"Pronton","steam_id":76561198082502910,"connected_time":34000000000,"state":"active","ping":56},{"user_id":653,"name":"Madoga0 EU","steam_id":76561198102371701,"connected_time":680000000000,"state":"active","ping":105},{"user_id":662,"name":"Salih","steam_id":76561198287934839,"connected_time":286000000000,"state":"active","ping":56},{"user_id":657,"name":"I AM BATMAN","steam_id":76561199212273303,"connected_time":544000000000,"state":"active","ping":80},{"user_id":658,"name":"Gety0","steam_id":76561198044387185,"connected_time":508000000000,"state":"active","ping":78},{"user_id":647,"name":"Dave The Sloth","steam_id":76561199135831355,"connected_time":1143000000000,"state":"active","ping":69},{"user_id":660,"name":"Heavy like a Brinks truck","steam_id":76561198197304886,"connected_time":338000000000,"state":"active","ping":110}]},{"server_id":110,"name":"Uncletopia | Frankfurt | 2 | All Maps","name_short":"frk-2","host":"frk-1.de.uncletopia.com","port":27025,"enabled":true,"region":"eu","cc":"de","latitude":50.110924,"longitude":8.682127,"reserved":0,"last_update":"0001-01-01T00:00:00Z","name_a2s":"Uncletopia | Frankfurt | 2 | All Maps","protocol":17,"map":"pl_badwater","folder":"tf","game":"Team Fortress","app_id":440,"player_count":23,"max_players":24,"Bots":0,"server_type":"Dedicated","server_os":"Linux","password":true,"vac":true,"version":"7708610","steam_id":85568392924469990,"keywords":["nocrits","nodmgspread","payload","uncletopia"],"game_id":440,"stv_port":27026,"stv_name":"Uncletopia | Frankfurt | 2 | All Maps | STV","players":[{"user_id":421,"name":"pavel","steam_id":76561199102354641,"connected_time":1012000000000,"state":"active","ping":61},{"user_id":420,"name":"Nyanzey","steam_id":76561198872362188,"connected_time":1038000000000,"state":"active","ping":44},{"user_id":430,"name":"Not that pro","steam_id":76561198299539583,"connected_time":257000000000,"state":"active","ping":82},{"user_id":428,"name":"Rudoss","steam_id":76561198018415787,"connected_time":279000000000,"state":"active","ping":60},{"user_id":431,"name":"tzino","steam_id":76561199076883472,"connected_time":212000000000,"state":"active","ping":75},{"user_id":427,"name":"ck","steam_id":76561197984084920,"connected_time":481000000000,"state":"active","ping":67},{"user_id":432,"name":"R3inis","steam_id":76561199030393569,"connected_time":169000000000,"state":"active","ping":87},{"user_id":363,"name":"gatherer","steam_id":76561198378235611,"connected_time":4867000000000,"state":"active","ping":64},{"user_id":429,"name":"Dominus.","steam_id":76561199065917088,"connected_time":278000000000,"state":"active","ping":73},{"user_id":387,"name":"HOI","steam_id":76561198061182117,"connected_time":3411000000000,"state":"active","ping":64},{"user_id":410,"name":"Slipskip","steam_id":76561198018493540,"connected_time":1921000000000,"state":"active","ping":71},{"user_id":433,"name":"Bepperman","steam_id":76561198397517828,"connected_time":144000000000,"state":"active","ping":71},{"user_id":424,"name":"Cazulas","steam_id":76561198027460283,"connected_time":846000000000,"state":"active","ping":70},{"user_id":407,"name":"Gormbrain","steam_id":76561198020079511,"connected_time":2058000000000,"state":"active","ping":51},{"user_id":422,"name":"i5","steam_id":76561198212702751,"connected_time":973000000000,"state":"active","ping":93},{"user_id":408,"name":"PanPatrik","steam_id":76561198293331527,"connected_time":2052000000000,"state":"active","ping":53},{"user_id":391,"name":"GodOfGobboz","steam_id":76561198154677956,"connected_time":3163000000000,"state":"active","ping":67},{"user_id":434,"name":"Kaero","steam_id":76561197998641279,"connected_time":140000000000,"state":"active","ping":59},{"user_id":435,"name":"Timo010","steam_id":76561198832395256,"connected_time":124000000000,"state":"active","ping":73},{"user_id":439,"name":"swallowed 10 pennies please hel","steam_id":76561198055816412,"connected_time":77000000000,"state":"active","ping":67},{"user_id":398,"name":"Caliban","steam_id":76561197999696839,"connected_time":2555000000000,"state":"active","ping":93},{"user_id":414,"name":":)","steam_id":76561198103988618,"connected_time":1628000000000,"state":"active","ping":75},{"user_id":438,"name":"Dispenser (Tinpig) #saveTF2","steam_id":76561199247554091,"connected_time":92000000000,"state":"active","ping":64}]},{"server_id":308,"name":"Uncletopia | Frankfurt | 3 | All Maps","name_short":"frk-3","host":"frk-1.de.uncletopia.com","port":27035,"enabled":true,"region":"eu","cc":"de","latitude":50.110924,"longitude":8.682127,"reserved":0,"last_update":"0001-01-01T00:00:00Z","name_a2s":"Uncletopia | Frankfurt | 3 | All Maps","protocol":17,"map":"pl_badwater","folder":"tf","game":"Team Fortress","app_id":440,"player_count":24,"max_players":24,"Bots":0,"server_type":"Dedicated","server_os":"Linux","password":true,"vac":true,"version":"7708610","steam_id":85568392924504274,"keywords":["nocrits","nodmgspread","payload","uncletopia"],"game_id":440,"stv_port":27036,"stv_name":"Uncletopia | Frankfurt | 3 | All Maps | STV","players":[{"user_id":262,"name":"Bluns","steam_id":76561198155231597,"connected_time":3089000000000,"state":"active","ping":77},{"user_id":318,"name":"Valoxi","steam_id":76561197995042938,"connected_time":107000000000,"state":"active","ping":63},{"user_id":229,"name":"Bones","steam_id":76561198065081225,"connected_time":4692000000000,"state":"active","ping":57},{"user_id":267,"name":"Dunboi","steam_id":76561198120949216,"connected_time":2804000000000,"state":"active","ping":62},{"user_id":314,"name":"gorgie","steam_id":76561199032591040,"connected_time":478000000000,"state":"active","ping":75},{"user_id":321,"name":"Farmercy","steam_id":76561198000038039,"connected_time":76000000000,"state":"active","ping":60},{"user_id":268,"name":"Slooshie","steam_id":76561198008749909,"connected_time":2792000000000,"state":"active","ping":64},{"user_id":315,"name":"Bobo","steam_id":76561198052308399,"connected_time":387000000000,"state":"active","ping":53},{"user_id":248,"name":"Fat Pigeon","steam_id":76561198817940142,"connected_time":4065000000000,"state":"active","ping":57},{"user_id":312,"name":"solus control unit","steam_id":76561198131944941,"connected_time":538000000000,"state":"active","ping":61},{"user_id":288,"name":"bayley","steam_id":76561198117472639,"connected_time":1337000000000,"state":"active","ping":77},{"user_id":235,"name":"Alice can't hit pipes","steam_id":76561198052410860,"connected_time":4536000000000,"state":"active","ping":133},{"user_id":283,"name":"Udinese Dion","steam_id":76561198067931573,"connected_time":1581000000000,"state":"active","ping":85},{"user_id":319,"name":"Chief 1807","steam_id":76561198027033926,"connected_time":100000000000,"state":"active","ping":63},{"user_id":258,"name":"jingleboob","steam_id":76561198097507847,"connected_time":3312000000000,"state":"active","ping":73},{"user_id":239,"name":"akeno best waifu","steam_id":76561198267167505,"connected_time":4451000000000,"state":"active","ping":87},{"user_id":298,"name":"Flex Finster","steam_id":76561198061632224,"connected_time":871000000000,"state":"active","ping":51},{"user_id":281,"name":"kayblu","steam_id":76561198182394257,"connected_time":1619000000000,"state":"active","ping":89},{"user_id":260,"name":"Cheshireycat","steam_id":76561198067204908,"connected_time":3293000000000,"state":"active","ping":70},{"user_id":178,"name":"DERBAS","steam_id":76561198217834727,"connected_time":9156000000000,"state":"active","ping":128},{"user_id":179,"name":"Mentlegen‚Ñ¢","steam_id":76561198045609310,"connected_time":9150000000000,"state":"active","ping":130},{"user_id":320,"name":"Flippy","steam_id":76561198099819455,"connected_time":88000000000,"state":"active","ping":94},{"user_id":270,"name":"NaN","steam_id":76561198071098413,"connected_time":2576000000000,"state":"active","ping":60},{"user_id":274,"name":"PONCHO 90","steam_id":76561198412197820,"connected_time":2317000000000,"state":"active","ping":80}]},{"server_id":309,"name":"Uncletopia | Frankfurt | 4 | All Maps","name_short":"frk-4","host":"frk-1.de.uncletopia.com","port":27045,"enabled":true,"region":"eu","cc":"de","latitude":50.110924,"longitude":8.682127,"reserved":0,"last_update":"0001-01-01T00:00:00Z","name_a2s":"Uncletopia | Frankfurt | 4 | All Maps","protocol":17,"map":"pl_wutville_event","folder":"tf","game":"Team Fortress","app_id":440,"player_count":23,"max_players":24,"Bots":0,"server_type":"Dedicated","server_os":"Linux","password":true,"vac":true,"version":"7708610","steam_id":85568392924504275,"keywords":["nocrits","nodmgspread","payload","uncletopia"],"game_id":440,"stv_port":27046,"stv_name":"Uncletopia | Frankfurt | 4 | All Maps | STV","players":[{"user_id":138,"name":"Shlyk","steam_id":76561198333387103,"connected_time":607000000000,"state":"active","ping":97},{"user_id":62,"name":"goofy goober","steam_id":76561198013237629,"connected_time":6062000000000,"state":"active","ping":96},{"user_id":128,"name":"pablo.gonzalez.2005","steam_id":76561198971389390,"connected_time":734000000000,"state":"active","ping":63},{"user_id":136,"name":"Vitamin Weee","steam_id":76561199183937747,"connected_time":628000000000,"state":"active","ping":75},{"user_id":149,"name":"Joe","steam_id":76561198061717026,"connected_time":162000000000,"state":"active","ping":55},{"user_id":152,"name":"Continue?]","steam_id":76561199174579733,"connected_time":101000000000,"state":"active","ping":155},{"user_id":135,"name":"\"InsertWittyNameHere\"","steam_id":76561198273918841,"connected_time":632000000000,"state":"active","ping":142},{"user_id":139,"name":"duckman","steam_id":76561198432859876,"connected_time":574000000000,"state":"active","ping":61},{"user_id":112,"name":"Hey, I¬¥m Andy!","steam_id":76561198060337777,"connected_time":1432000000000,"state":"active","ping":64},{"user_id":89,"name":"Zelmor","steam_id":76561197997708311,"connected_time":3617000000000,"state":"active","ping":49},{"user_id":137,"name":"C√©l√©rio","steam_id":76561198088253576,"connected_time":627000000000,"state":"active","ping":46},{"user_id":118,"name":"Olisox","steam_id":76561199022155496,"connected_time":1331000000000,"state":"active","ping":74},{"user_id":147,"name":"Kagyol","steam_id":76561198312938996,"connected_time":264000000000,"state":"active","ping":68},{"user_id":150,"name":"junior","steam_id":76561198869806001,"connected_time":149000000000,"state":"active","ping":52},{"user_id":145,"name":"Des","steam_id":76561198027389350,"connected_time":276000000000,"state":"active","ping":60},{"user_id":120,"name":"tealoverr.190","steam_id":76561199028497703,"connected_time":1290000000000,"state":"active","ping":102},{"user_id":151,"name":"Abdul_the terrorist","steam_id":76561199436259546,"connected_time":114000000000,"state":"active","ping":168},{"user_id":146,"name":"crybaby","steam_id":76561199383952901,"connected_time":272000000000,"state":"active","ping":156},{"user_id":148,"name":"markley","steam_id":76561197998386422,"connected_time":253000000000,"state":"active","ping":102},{"user_id":93,"name":"ShitStain(1)","steam_id":76561199190335419,"connected_time":3539000000000,"state":"active","ping":57},{"user_id":153,"name":"Scootz","steam_id":76561198018491455,"connected_time":44000000000,"state":"active","ping":68},{"user_id":83,"name":"FliggerFlitt","steam_id":76561198147711035,"connected_time":4166000000000,"state":"active","ping":72},{"user_id":154,"name":"KingDumm79","steam_id":76561199242337520,"connected_time":43000000000,"state":"active","ping":53}]},{"server_id":310,"name":"Uncletopia | Frankfurt | 5 | All Maps","name_short":"frk-5","host":"frk-1.de.uncletopia.com","port":27055,"enabled":true,"region":"eu","cc":"de","latitude":50.110924,"longitude":8.682127,"reserved":0,"last_update":"0001-01-01T00:00:00Z","name_a2s":"Uncletopia | Frankfurt | 5 | All Maps","protocol":17,"map":"pl_badwater","folder":"tf","game":"Team Fortress","app_id":440,"player_count":23,"max_players":24,"Bots":0,"server_type":"Dedicated","server_os":"Linux","password":true,"vac":true,"version":"7708610","steam_id":85568392924504277,"keywords":["nocrits","nodmgspread","payload","uncletopia"],"game_id":440,"stv_port":27056,"stv_name":"Uncletopia | Frankfurt | 5 | All Maps | STV","players":[{"user_id":322,"name":"akakez","steam_id":76561198095432821,"connected_time":2197000000000,"state":"active","ping":121},{"user_id":326,"name":"idfk","steam_id":76561199013486916,"connected_time":1248000000000,"state":"active","ping":92},{"user_id":338,"name":"whathefox","steam_id":76561197983055690,"connected_time":116000000000,"state":"active","ping":181},{"user_id":287,"name":"DeCypher","steam_id":76561198171992619,"connected_time":3766000000000,"state":"active","ping":66},{"user_id":336,"name":"Estamie","steam_id":76561198058527691,"connected_time":151000000000,"state":"active","ping":75},{"user_id":284,"name":"Taewinzer","steam_id":76561198261820803,"connected_time":4148000000000,"state":"active","ping":71},{"user_id":333,"name":"Lyra","steam_id":76561198043601838,"connected_time":637000000000,"state":"active","ping":61},{"user_id":318,"name":"KGiorgios_Bully","steam_id":76561198825392728,"connected_time":2440000000000,"state":"active","ping":124},{"user_id":314,"name":"Mike Doe","steam_id":76561198331251922,"connected_time":2493000000000,"state":"active","ping":61},{"user_id":334,"name":"killer of noob, winner of game","steam_id":76561198190583242,"connected_time":542000000000,"state":"active","ping":76},{"user_id":232,"name":"lean","steam_id":76561198860332998,"connected_time":8119000000000,"state":"active","ping":81},{"user_id":330,"name":"The Depressed John","steam_id":76561198148193895,"connected_time":811000000000,"state":"active","ping":153},{"user_id":325,"name":"Yelowchy","steam_id":76561198199416121,"connected_time":1647000000000,"state":"active","ping":113},{"user_id":270,"name":"Solid","steam_id":76561198357049292,"connected_time":5165000000000,"state":"active","ping":82},{"user_id":316,"name":"Blue","steam_id":76561198239746476,"connected_time":2482000000000,"state":"active","ping":63},{"user_id":260,"name":"ronaldoo SIUUUUU","steam_id":76561198890409949,"connected_time":6009000000000,"state":"active","ping":96},{"user_id":328,"name":"cazador","steam_id":76561198123096922,"connected_time":1087000000000,"state":"active","ping":102},{"user_id":337,"name":"shunt","steam_id":76561198452111945,"connected_time":138000000000,"state":"active","ping":62},{"user_id":339,"name":"ŒûGhostŒû","steam_id":76561198402090252,"connected_time":96000000000,"state":"spawning","ping":119},{"user_id":319,"name":"SPONGE","steam_id":76561198040933472,"connected_time":2431000000000,"state":"active","ping":66},{"user_id":324,"name":"jonttu","steam_id":76561198201999690,"connected_time":1827000000000,"state":"active","ping":90},{"user_id":340,"name":"Average Holiday Punch Chad","steam_id":76561199179702903,"connected_time":92000000000,"state":"active","ping":160},{"user_id":312,"name":"footcock","steam_id":76561198875472890,"connected_time":2528000000000,"state":"active","ping":82}]},{"server_id":311,"name":"Uncletopia | Frankfurt | 6 | All Maps","name_short":"frk-6","host":"frk-1.de.uncletopia.com","port":27065,"enabled":true,"region":"eu","cc":"de","latitude":50.110924,"longitude":8.682127,"reserved":0,"last_update":"0001-01-01T00:00:00Z","name_a2s":"Uncletopia | Frankfurt | 6 | All Maps","protocol":17,"map":"pl_badwater","folder":"tf","game":"Team Fortress","app_id":440,"player_count":23,"max_players":24,"Bots":0,"server_type":"Dedicated","server_os":"Linux","password":true,"vac":true,"version":"7708610","steam_id":85568392924504278,"keywords":["nocrits","nodmgspread","payload","uncletopia"],"game_id":440,"stv_port":27066,"stv_name":"Uncletopia | Frankfurt | 6 | All Maps | STV","players":[{"user_id":72,"name":"Layton","steam_id":76561198087221314,"connected_time":555000000000,"state":"active","ping":52},{"user_id":63,"name":"ran is running","steam_id":76561199443185667,"connected_time":1318000000000,"state":"active","ping":139},{"user_id":78,"name":"|20BB)\u003eMach","steam_id":76561198952487564,"connected_time":164000000000,"state":"active","ping":79},{"user_id":26,"name":"justin_ (f2p)","steam_id":76561198839843428,"connected_time":3316000000000,"state":"active","ping":122},{"user_id":67,"name":"Welder","steam_id":76561198355300561,"connected_time":996000000000,"state":"active","ping":70},{"user_id":27,"name":"johncenx","steam_id":76561198366703672,"connected_time":3140000000000,"state":"active","ping":65},{"user_id":48,"name":"Montana","steam_id":76561198449437002,"connected_time":1704000000000,"state":"active","ping":86},{"user_id":68,"name":"longmanuptop","steam_id":76561198051915424,"connected_time":975000000000,"state":"active","ping":72},{"user_id":74,"name":"HANK","steam_id":76561199434060489,"connected_time":478000000000,"state":"active","ping":178},{"user_id":49,"name":"funny spoon","steam_id":76561199061928556,"connected_time":1697000000000,"state":"active","ping":60},{"user_id":44,"name":"yy!","steam_id":76561198200378103,"connected_time":1918000000000,"state":"active","ping":121},{"user_id":45,"name":"UMA yopyop","steam_id":76561198137241159,"connected_time":1905000000000,"state":"active","ping":144},{"user_id":70,"name":"Zerfesh","steam_id":76561198117534358,"connected_time":914000000000,"state":"active","ping":91},{"user_id":57,"name":"Browlin","steam_id":76561198860807512,"connected_time":1511000000000,"state":"active","ping":75},{"user_id":47,"name":"Frank","steam_id":76561198086672774,"connected_time":1798000000000,"state":"active","ping":62},{"user_id":50,"name":"Antimidation","steam_id":76561198125649544,"connected_time":1618000000000,"state":"active","ping":62},{"user_id":51,"name":"DFM :D Audiofall","steam_id":76561198208814216,"connected_time":1617000000000,"state":"active","ping":83},{"user_id":75,"name":"X-tis","steam_id":76561198043837480,"connected_time":413000000000,"state":"active","ping":75},{"user_id":76,"name":"baldski gaming","steam_id":76561198986260493,"connected_time":408000000000,"state":"active","ping":109},{"user_id":71,"name":"Cirox","steam_id":76561198383142404,"connected_time":724000000000,"state":"active","ping":86},{"user_id":61,"name":"Kindit","steam_id":76561199029242955,"connected_time":1435000000000,"state":"active","ping":104},{"user_id":77,"name":"Clitorina","steam_id":76561198077570815,"connected_time":391000000000,"state":"active","ping":57},{"user_id":58,"name":"Weenie Hut Jr's","steam_id":76561198050515739,"connected_time":1498000000000,"state":"active","ping":65}]},{"server_id":23,"name":"Uncletopia | Frankfurt | 7 | No Payload","name_short":"frk-7","host":"frk-1.de.uncletopia.com","port":27075,"enabled":true,"region":"eu","cc":"de","latitude":50.110924,"longitude":8.682127,"reserved":0,"last_update":"0001-01-01T00:00:00Z","name_a2s":"Uncletopia | Frankfurt | 7 | No Payload","protocol":17,"map":"koth_viaduct","folder":"tf","game":"Team Fortress","app_id":440,"player_count":0,"max_players":24,"Bots":0,"server_type":"Dedicated","server_os":"Linux","password":true,"vac":true,"version":"7708610","steam_id":85568392924742827,"keywords":["cp","nocrits","nodmgspread","uncletopia"],"game_id":440,"stv_port":27076,"stv_name":"Uncletopia | Frankfurt | 7 | No Payload | STV","players":null},{"server_id":24,"name":"Uncletopia | Frankfurt | 8 | Community","name_short":"frk-8","host":"frk-1.de.uncletopia.com","port":27085,"enabled":true,"region":"eu","cc":"de","latitude":50.110924,"longitude":8.682127,"reserved":0,"last_update":"0001-01-01T00:00:00Z","name_a2s":"Uncletopia | Frankfurt | 8 | Community","protocol":17,"map":"workshop/koth_ramjam_v2_b2.ugc2865676487","folder":"tf","game":"Team Fortress","app_id":440,"player_count":3,"max_players":24,"Bots":0,"server_type":"Dedicated","server_os":"Linux","password":true,"vac":true,"version":"7708610","steam_id":85568392924742828,"keywords":["cp","nocrits","nodmgspread","uncletopia"],"game_id":440,"stv_port":27086,"stv_name":"Uncletopia | Frankfurt | 8 | Community | STV","players":[{"user_id":186,"name":"Shandzu (f2p)","steam_id":76561199218288047,"connected_time":383000000000,"state":"active","ping":77},{"user_id":187,"name":"lbdeathstar","steam_id":76561199224622628,"connected_time":84000000000,"state":"active","ping":151},{"user_id":188,"name":"lulu","steam_id":76561199147764133,"connected_time":53000000000,"state":"active","ping":60}]},{"server_id":202,"name":"Uncletopia | Hong Kong | 1 | All Maps","name_short":"hgk-1","host":"hgk-1.hk.uncletopia.com","port":27015,"enabled":true,"region":"asia","cc":"hk","latitude":22.302711,"longitude":114.177216,"reserved":0,"last_update":"0001-01-01T00:00:00Z","name_a2s":"Uncletopia | Hong Kong | 1 | All Maps","protocol":17,"map":"koth_lakeside_final","folder":"tf","game":"Team Fortress","app_id":440,"player_count":0,"max_players":24,"Bots":0,"server_type":"Dedicated","server_os":"Linux","password":true,"vac":true,"version":"7708610","steam_id":85568392924494504,"keywords":["cp","nocrits","nodmgspread","uncletopia"],"game_id":440,"stv_port":27016,"stv_name":"Uncletopia | Hong Kong | 1 | All Maps | STV","players":null},{"server_id":1,"name":"Uncletopia | Los Angeles | 1 | All Maps","name_short":"lax-1","host":"lax-1.us.uncletopia.com","port":27015,"enabled":true,"region":"us-west","cc":"us","latitude":33.94279,"longitude":-118.41004,"reserved":0,"last_update":"0001-01-01T00:00:00Z","name_a2s":"Uncletopia | Los Angeles | 1 | All Maps","protocol":17,"map":"cp_dustbowl","folder":"tf","game":"Team Fortress","app_id":440,"player_count":0,"max_players":24,"Bots":0,"server_type":"Dedicated","server_os":"Linux","password":true,"vac":true,"version":"7708610","steam_id":85568392924469991,"keywords":["cp","nocrits","nodmgspread","uncletopia"],"game_id":440,"stv_port":27016,"stv_name":"Uncletopia | Los Angeles | 1 | All Maps | STV","players":null},{"server_id":112,"name":"Uncletopia | Los Angeles | 2 | All Maps","name_short":"lax-2","host":"lax-1.us.uncletopia.com","port":27025,"enabled":true,"region":"us-west","cc":"us","latitude":33.94279,"longitude":-118.41004,"reserved":0,"last_update":"0001-01-01T00:00:00Z","name_a2s":"Uncletopia | Los Angeles | 2 | All Maps","protocol":17,"map":"pl_snowycoast","folder":"tf","game":"Team Fortress","app_id":440,"player_count":0,"max_players":24,"Bots":0,"server_type":"Dedicated","server_os":"Linux","password":true,"vac":true,"version":"7708610","steam_id":85568392924469992,"keywords":["nocrits","nodmgspread","payload","uncletopia"],"game_id":440,"stv_port":27026,"stv_name":"Uncletopia | Los Angeles | 2 | All Maps | STV","players":null},{"server_id":324,"name":"Uncletopia | Los Angeles | 3 | All Maps","name_short":"lax-3","host":"lax-1.us.uncletopia.com","port":27035,"enabled":true,"region":"us-west","cc":"us","latitude":33.94279,"longitude":-118.41004,"reserved":0,"last_update":"0001-01-01T00:00:00Z","name_a2s":"Uncletopia | Los Angeles | 3 | All Maps","protocol":17,"map":"koth_viaduct","folder":"tf","game":"Team Fortress","app_id":440,"player_count":0,"max_players":24,"Bots":0,"server_type":"Dedicated","server_os":"Linux","password":true,"vac":true,"version":"7708610","steam_id":85568392924510198,"keywords":["cp","nocrits","nodmgspread","uncletopia"],"game_id":440,"stv_port":27036,"stv_name":"Uncletopia | Los Angeles | 3 | All Maps | STV","players":null},{"server_id":25,"name":"Uncletopia | Los Angeles | 4 | No Payload","name_short":"lax-4","host":"lax-1.us.uncletopia.com","port":27045,"enabled":true,"region":"us-west","cc":"us","latitude":33.94279,"longitude":-118.41004,"reserved":0,"last_update":"0001-01-01T00:00:00Z","name_a2s":"Uncletopia | Los Angeles | 4 | No Payload","protocol":17,"map":"cp_mountainlab","folder":"tf","game":"Team Fortress","app_id":440,"player_count":1,"max_players":24,"Bots":0,"server_type":"Dedicated","server_os":"Linux","password":true,"vac":true,"version":"7708610","steam_id":85568392924510199,"keywords":["cp","nocrits","nodmgspread","uncletopia"],"game_id":440,"stv_port":27046,"stv_name":"Uncletopia | Los Angeles | 4 | No Payload | STV","players":[{"user_id":3,"name":"beans","steam_id":76561199082781884,"connected_time":168000000000,"state":"active","ping":95}]},{"server_id":11,"name":"Uncletopia | London | 1 | All Maps","name_short":"lon-1","host":"lon-1.uk.uncletopia.com","port":27015,"enabled":true,"region":"eu","cc":"gb","latitude":51.509865,"longitude":-0.118092,"reserved":0,"last_update":"0001-01-01T00:00:00Z","name_a2s":"Uncletopia | London | 1 | All Maps","protocol":17,"map":"pl_snowycoast","folder":"tf","game":"Team Fortress","app_id":440,"player_count":23,"max_players":24,"Bots":0,"server_type":"Dedicated","server_os":"Linux","password":true,"vac":true,"version":"7708610","steam_id":85568392924367362,"keywords":["nocrits","nodmgspread","payload","uncletopia"],"game_id":440,"stv_port":27016,"stv_name":"Uncletopia | London | 1 | All Maps | STV","players":[{"user_id":734,"name":"I haven't had a day off in 3 we","steam_id":76561198053961616,"connected_time":97000000000,"state":"active","ping":55},{"user_id":727,"name":"barber oil rub down","steam_id":76561198108020471,"connected_time":324000000000,"state":"active","ping":76},{"user_id":674,"name":"Megamain","steam_id":76561198923772036,"connected_time":4307000000000,"state":"active","ping":49},{"user_id":731,"name":"Cosmonaut","steam_id":76561198239514504,"connected_time":223000000000,"state":"active","ping":83},{"user_id":728,"name":"The Erotic Barber","steam_id":76561198423902979,"connected_time":322000000000,"state":"active","ping":48},{"user_id":713,"name":"–ò–Ω—Å–ø–µ–∫—Ç–æ—Ä –ê—Ç–∞—Å","steam_id":76561199175688390,"connected_time":1415000000000,"state":"active","ping":82},{"user_id":663,"name":"Linus Mudrocket","steam_id":76561197979606110,"connected_time":5136000000000,"state":"active","ping":54},{"user_id":699,"name":"Ar Di","steam_id":76561198119526557,"connected_time":2812000000000,"state":"active","ping":40},{"user_id":725,"name":"shin","steam_id":76561198039757757,"connected_time":335000000000,"state":"active","ping":45},{"user_id":697,"name":"dude back off","steam_id":76561198389397410,"connected_time":2865000000000,"state":"active","ping":54},{"user_id":733,"name":"haus","steam_id":76561198186770569,"connected_time":160000000000,"state":"active","ping":64},{"user_id":706,"name":"Segra blw.tf","steam_id":76561198441974031,"connected_time":2110000000000,"state":"active","ping":70},{"user_id":686,"name":"festive jones","steam_id":76561198073975078,"connected_time":3652000000000,"state":"active","ping":51},{"user_id":732,"name":"Dane","steam_id":76561198312362896,"connected_time":192000000000,"state":"active","ping":53},{"user_id":667,"name":"Hermitcrack","steam_id":76561198149216441,"connected_time":4899000000000,"state":"active","ping":78},{"user_id":708,"name":"big tits","steam_id":76561199026097466,"connected_time":1833000000000,"state":"active","ping":77},{"user_id":730,"name":"owl","steam_id":76561198229230864,"connected_time":307000000000,"state":"active","ping":95},{"user_id":719,"name":"Kareem","steam_id":76561198364462049,"connected_time":1101000000000,"state":"active","ping":114},{"user_id":659,"name":"After8","steam_id":76561198090750865,"connected_time":5390000000000,"state":"active","ping":70},{"user_id":714,"name":"Connor McFilip","steam_id":76561198107965067,"connected_time":1383000000000,"state":"active","ping":72},{"user_id":722,"name":"Brumple Tumpus","steam_id":76561198259668029,"connected_time":487000000000,"state":"active","ping":50},{"user_id":721,"name":"player 1","steam_id":76561198348565921,"connected_time":1071000000000,"state":"active","ping":59},{"user_id":687,"name":"most sane Midnight barber","steam_id":76561198310095220,"connected_time":3635000000000,"state":"active","ping":35}]},{"server_id":114,"name":"Uncletopia | London | 2 | All Maps","name_short":"lon-2","host":"lon-1.uk.uncletopia.com","port":27025,"enabled":true,"region":"eu","cc":"gb","latitude":51.509865,"longitude":-0.118092,"reserved":0,"last_update":"0001-01-01T00:00:00Z","name_a2s":"Uncletopia | London | 2 | All Maps","protocol":17,"map":"cp_snakewater_final1","folder":"tf","game":"Team Fortress","app_id":440,"player_count":6,"max_players":24,"Bots":0,"server_type":"Dedicated","server_os":"Linux","password":true,"vac":true,"version":"7708610","steam_id":85568392924470941,"keywords":["cp","nocrits","nodmgspread","uncletopia"],"game_id":440,"stv_port":27026,"stv_name":"Uncletopia | London | 2 | All Maps | STV","players":[{"user_id":37,"name":"RedPyro2009","steam_id":76561198935824363,"connected_time":929000000000,"state":"active","ping":57},{"user_id":39,"name":"Sad Boi","steam_id":76561198862470036,"connected_time":803000000000,"state":"active","ping":94},{"user_id":45,"name":"OrangeBanana","steam_id":76561199230233875,"connected_time":167000000000,"state":"active","ping":46},{"user_id":46,"name":"Honk Honk","steam_id":76561198199097257,"connected_time":142000000000,"state":"active","ping":79},{"user_id":47,"name":"Barb√Ätrou","steam_id":76561199439141531,"connected_time":2000000000,"state":"spawning","ping":51},{"user_id":31,"name":"Frazzles","steam_id":76561199228009586,"connected_time":1981000000000,"state":"active","ping":50}]},{"server_id":320,"name":"Uncletopia | London | 3 | All Maps","name_short":"lon-3","host":"lon-1.uk.uncletopia.com","port":27035,"enabled":true,"region":"eu","cc":"gb","latitude":51.509865,"longitude":-0.118092,"reserved":0,"last_update":"0001-01-01T00:00:00Z","name_a2s":"Uncletopia | London | 3 | All Maps","protocol":17,"map":"cp_mossrock","folder":"tf","game":"Team Fortress","app_id":440,"player_count":21,"max_players":24,"Bots":0,"server_type":"Dedicated","server_os":"Linux","password":true,"vac":true,"version":"7708610","steam_id":85568392924510192,"keywords":["cp","nocrits","nodmgspread","uncletopia"],"game_id":440,"stv_port":27036,"stv_name":"Uncletopia | London | 3 | All Maps | STV","players":[{"user_id":122,"name":"you wouldn't gab a gool","steam_id":76561199190667642,"connected_time":2024000000000,"state":"active","ping":64},{"user_id":157,"name":"Fiendish Beandish","steam_id":76561198095237028,"connected_time":14000000000,"state":"spawning","ping":56},{"user_id":149,"name":"Fraser","steam_id":76561198972280645,"connected_time":196000000000,"state":"active","ping":66},{"user_id":114,"name":"Diesel","steam_id":76561198448815852,"connected_time":2357000000000,"state":"active","ping":176},{"user_id":116,"name":"living","steam_id":76561199037189679,"connected_time":2166000000000,"state":"active","ping":75},{"user_id":147,"name":"presidentialAIDS","steam_id":76561199257284077,"connected_time":357000000000,"state":"active","ping":129},{"user_id":117,"name":"xX_GamingGilf_Xx","steam_id":76561199118876157,"connected_time":2153000000000,"state":"active","ping":64},{"user_id":63,"name":"LOBZIK","steam_id":76561198114830120,"connected_time":6337000000000,"state":"active","ping":77},{"user_id":153,"name":"Charles Darwin","steam_id":76561197973496139,"connected_time":84000000000,"state":"active","ping":61},{"user_id":158,"name":"PuregoldSTF","steam_id":76561198220182655,"connected_time":12000000000,"state":"spawning","ping":99},{"user_id":93,"name":"Insanitybomb","steam_id":76561198048707708,"connected_time":3816000000000,"state":"active","ping":99},{"user_id":120,"name":"Joseph Stalin LFT","steam_id":76561198033199746,"connected_time":2113000000000,"state":"active","ping":50},{"user_id":148,"name":"mana","steam_id":76561198193802523,"connected_time":333000000000,"state":"active","ping":44},{"user_id":139,"name":"Grande","steam_id":76561198159903168,"connected_time":1068000000000,"state":"active","ping":78},{"user_id":151,"name":"shenanigan","steam_id":76561198043452925,"connected_time":137000000000,"state":"active","ping":90},{"user_id":155,"name":"Greencoffee","steam_id":76561198842090589,"connected_time":78000000000,"state":"active","ping":63},{"user_id":156,"name":"Solymr ibn Wali Barad","steam_id":76561198044008976,"connected_time":67000000000,"state":"active","ping":74},{"user_id":144,"name":"Dill Killem","steam_id":76561199071571354,"connected_time":435000000000,"state":"active","ping":71},{"user_id":141,"name":"HYA HYA FOOWAAH!","steam_id":76561198193357946,"connected_time":954000000000,"state":"active","ping":120},{"user_id":95,"name":"Pumpkin Tutter","steam_id":76561198039725179,"connected_time":3736000000000,"state":"active","ping":51},{"user_id":129,"name":"Noob_with_source","steam_id":76561198870362103,"connected_time":1855000000000,"state":"active","ping":53}]},{"server_id":321,"name":"Uncletopia | London | 4 | All Maps","name_short":"lon-4","host":"lon-1.uk.uncletopia.com","port":27045,"enabled":true,"region":"eu","cc":"gb","latitude":51.509865,"longitude":-0.118092,"reserved":0,"last_update":"0001-01-01T00:00:00Z","name_a2s":"Uncletopia | London | 4 | All Maps","protocol":17,"map":"cp_process_final","folder":"tf","game":"Team Fortress","app_id":440,"player_count":0,"max_players":24,"Bots":0,"server_type":"Dedicated","server_os":"Linux","password":true,"vac":true,"version":"7708610","steam_id":85568392924510193,"keywords":["cp","nocrits","nodmgspread","uncletopia"],"game_id":440,"stv_port":27046,"stv_name":"Uncletopia | London | 4 | All Maps | STV","players":null},{"server_id":21,"name":"Uncletopia | London | 5 | All Maps","name_short":"lon-5","host":"lon-1.uk.uncletopia.com","port":27055,"enabled":true,"region":"eu","cc":"gb","latitude":51.509865,"longitude":-0.118092,"reserved":0,"last_update":"0001-01-01T00:00:00Z","name_a2s":"Uncletopia | London | 5 | All Maps","protocol":17,"map":"cp_dustbowl","folder":"tf","game":"Team Fortress","app_id":440,"player_count":23,"max_players":24,"Bots":0,"server_type":"Dedicated","server_os":"Linux","password":true,"vac":true,"version":"7708610","steam_id":85568392924742829,"keywords":["cp","nocrits","nodmgspread","uncletopia"],"game_id":440,"stv_port":27056,"stv_name":"Uncletopia | London | 5 | All Maps | STV","players":[{"user_id":252,"name":"JugoTopia","steam_id":76561197996067209,"connected_time":939000000000,"state":"active","ping":122},{"user_id":240,"name":"harry","steam_id":76561198365118514,"connected_time":1444000000000,"state":"active","ping":123},{"user_id":241,"name":"boo_thefeared","steam_id":76561198127967685,"connected_time":1343000000000,"state":"active","ping":46},{"user_id":185,"name":"The Imperial","steam_id":76561198374118102,"connected_time":5125000000000,"state":"active","ping":52},{"user_id":256,"name":"Bacon","steam_id":76561198050165015,"connected_time":574000000000,"state":"active","ping":66},{"user_id":243,"name":"HALOID","steam_id":76561198388054352,"connected_time":1268000000000,"state":"active","ping":72},{"user_id":239,"name":"Michelin Starred Chilli Pete","steam_id":76561197996149548,"connected_time":1521000000000,"state":"active","ping":54},{"user_id":199,"name":"YC Lacus","steam_id":76561199107625942,"connected_time":4633000000000,"state":"active","ping":52},{"user_id":188,"name":"Your future girlfriend","steam_id":76561197977122134,"connected_time":5034000000000,"state":"active","ping":64},{"user_id":201,"name":"ciliorkun18","steam_id":76561198228942500,"connected_time":4423000000000,"state":"active","ping":98},{"user_id":244,"name":"MAKENTAKEN","steam_id":76561199127359587,"connected_time":1253000000000,"state":"active","ping":102},{"user_id":172,"name":"Crimea a bridge","steam_id":76561198030898371,"connected_time":5856000000000,"state":"active","ping":82},{"user_id":248,"name":"Big Benn","steam_id":76561199024168373,"connected_time":1141000000000,"state":"active","ping":86},{"user_id":253,"name":"the boss","steam_id":76561198353190790,"connected_time":861000000000,"state":"active","ping":76},{"user_id":236,"name":"Boot","steam_id":76561198423162555,"connected_time":1750000000000,"state":"active","ping":118},{"user_id":237,"name":"SageistSage","steam_id":76561199438120787,"connected_time":1703000000000,"state":"active","ping":53},{"user_id":206,"name":"coachnetworkoperared514","steam_id":76561198236015392,"connected_time":4065000000000,"state":"active","ping":120},{"user_id":232,"name":"Remyie","steam_id":76561198131031404,"connected_time":2247000000000,"state":"active","ping":92},{"user_id":198,"name":"Ale1199","steam_id":76561198994871986,"connected_time":4686000000000,"state":"active","ping":82},{"user_id":171,"name":"Ged The Bombad General","steam_id":76561198079288943,"connected_time":5931000000000,"state":"active","ping":123},{"user_id":203,"name":"your dads bald spot","steam_id":76561199383437138,"connected_time":4128000000000,"state":"active","ping":125},{"user_id":254,"name":"Blank","steam_id":76561198212308677,"connected_time":773000000000,"state":"active","ping":68},{"user_id":234,"name":"Eden","steam_id":76561198180281859,"connected_time":1919000000000,"state":"active","ping":63}]},{"server_id":22,"name":"Uncletopia | London | 6 | All Maps","name_short":"lon-6","host":"lon-1.uk.uncletopia.com","port":27065,"enabled":true,"region":"eu","cc":"gb","latitude":51.509865,"longitude":-0.118092,"reserved":0,"last_update":"0001-01-01T00:00:00Z","name_a2s":"Uncletopia | London | 6 | All Maps","protocol":17,"map":"pl_frontier_final","folder":"tf","game":"Team Fortress","app_id":440,"player_count":0,"max_players":24,"Bots":0,"server_type":"Dedicated","server_os":"Linux","password":true,"vac":true,"version":"7708610","steam_id":85568392924742830,"keywords":["nocrits","nodmgspread","payload","uncletopia"],"game_id":440,"stv_port":27066,"stv_name":"Uncletopia | London | 6 | All Maps | STV","players":null},{"server_id":40,"name":"Uncletopia | London | 7 | No Payload","name_short":"lon-7","host":"lon-1.uk.uncletopia.com","port":27075,"enabled":true,"region":"eu","cc":"gb","latitude":51.509865,"longitude":-0.118092,"reserved":0,"last_update":"0001-01-01T00:00:00Z","name_a2s":"Uncletopia | London | 7 | No Payload","protocol":17,"map":"koth_lazarus","folder":"tf","game":"Team Fortress","app_id":440,"player_count":0,"max_players":24,"Bots":0,"server_type":"Dedicated","server_os":"Linux","password":true,"vac":true,"version":"7708610","steam_id":85568392924964314,"keywords":["cp","nocrits","nodmgspread","uncletopia"],"game_id":440,"stv_port":27076,"stv_name":"Uncletopia | London | 7 | No Payload | STV","players":null},{"server_id":41,"name":"Uncletopia | London | 8 | Community","name_short":"lon-8","host":"lon-1.uk.uncletopia.com","port":27085,"enabled":true,"region":"eu","cc":"gb","latitude":51.509865,"longitude":-0.118092,"reserved":0,"last_update":"0001-01-01T00:00:00Z","name_a2s":"Uncletopia | London | 8 | Community","protocol":17,"map":"workshop/cp_sulfur_rc2.ugc619869471","folder":"tf","game":"Team Fortress","app_id":440,"player_count":0,"max_players":24,"Bots":0,"server_type":"Dedicated","server_os":"Linux","password":true,"vac":true,"version":"7708610","steam_id":85568392924964315,"keywords":["cp","nocrits","nodmgspread","uncletopia"],"game_id":440,"stv_port":27086,"stv_name":"Uncletopia | London | 8 | Community | STV","players":null},{"server_id":300,"name":"Uncletopia | Montr√©al | 1 | All Maps","name_short":"mtl-1","host":"mtl-1.ca.uncletopia.com","port":27015,"enabled":true,"region":"us-east","cc":"ca","latitude":45.50889,"longitude":-73.56167,"reserved":0,"last_update":"0001-01-01T00:00:00Z","name_a2s":"Uncletopia | Montr√©al | 1 | All Maps","protocol":17,"map":"pl_borneo","folder":"tf","game":"Team Fortress","app_id":440,"player_count":0,"max_players":24,"Bots":0,"server_type":"Dedicated","server_os":"Linux","password":true,"vac":true,"version":"7708610","steam_id":85568392924500087,"keywords":["nocrits","nodmgspread","payload","uncletopia"],"game_id":440,"stv_port":27016,"stv_name":"Uncletopia | Montr√©al | 1 | All Maps | STV","players":null},{"server_id":301,"name":"Uncletopia | Montr√©al | 2 | All Maps","name_short":"mtl-2","host":"mtl-1.ca.uncletopia.com","port":27025,"enabled":true,"region":"us-east","cc":"ca","latitude":45.50889,"longitude":-73.56167,"reserved":0,"last_update":"0001-01-01T00:00:00Z","name_a2s":"Uncletopia | Montr√©al | 2 | All Maps","protocol":17,"map":"pl_borneo","folder":"tf","game":"Team Fortress","app_id":440,"player_count":0,"max_players":24,"Bots":0,"server_type":"Dedicated","server_os":"Linux","password":true,"vac":true,"version":"7708610","steam_id":85568392924500088,"keywords":["nocrits","nodmgspread","payload","uncletopia"],"game_id":440,"stv_port":27026,"stv_name":"Uncletopia | Montr√©al | 2 | All Maps | STV","players":null},{"server_id":302,"name":"Uncletopia | Montr√©al | 3 | All Maps","name_short":"mtl-3","host":"mtl-1.ca.uncletopia.com","port":27035,"enabled":true,"region":"us-east","cc":"ca","latitude":45.50889,"longitude":-73.56167,"reserved":0,"last_update":"0001-01-01T00:00:00Z","name_a2s":"Uncletopia | Montr√©al | 3 | All Maps","protocol":17,"map":"pl_swiftwater_final1","folder":"tf","game":"Team Fortress","app_id":440,"player_count":0,"max_players":24,"Bots":0,"server_type":"Dedicated","server_os":"Linux","password":true,"vac":true,"version":"7708610","steam_id":85568392924500089,"keywords":["nocrits","nodmgspread","payload","uncletopia"],"game_id":440,"stv_port":27036,"stv_name":"Uncletopia | Montr√©al | 3 | All Maps | STV","players":null},{"server_id":303,"name":"Uncletopia | Montr√©al | 4 | No Payload","name_short":"mtl-4","host":"mtl-1.ca.uncletopia.com","port":27045,"enabled":true,"region":"us-east","cc":"ca","latitude":45.50889,"longitude":-73.56167,"reserved":0,"last_update":"0001-01-01T00:00:00Z","name_a2s":"Uncletopia | Montr√©al | 4 | No Payload","protocol":17,"map":"cp_gorge","folder":"tf","game":"Team Fortress","app_id":440,"player_count":0,"max_players":24,"Bots":0,"server_type":"Dedicated","server_os":"Linux","password":true,"vac":true,"version":"7708610","steam_id":85568392924500090,"keywords":["cp","nocrits","nodmgspread","uncletopia"],"game_id":440,"stv_port":27046,"stv_name":"Uncletopia | Montr√©al | 4 | No Payload | STV","players":null},{"server_id":13,"name":"Uncletopia | New York City | 1 | All Maps","name_short":"nyc-1","host":"nyc-1.us.uncletopia.com","port":27015,"enabled":true,"region":"us-east","cc":"us","latitude":40.73061,"longitude":-73.93524,"reserved":0,"last_update":"0001-01-01T00:00:00Z","name_a2s":"Uncletopia | New York City | 1 | All Maps","protocol":17,"map":"pl_upward","folder":"tf","game":"Team Fortress","app_id":440,"player_count":0,"max_players":24,"Bots":0,"server_type":"Dedicated","server_os":"Linux","password":true,"vac":true,"version":"7708610","steam_id":85568392924469993,"keywords":["nocrits","nodmgspread","payload","uncletopia"],"game_id":440,"stv_port":27016,"stv_name":"Uncletopia | New York City | 1 | All Maps | STV","players":null},{"server_id":14,"name":"Uncletopia | New York City | 2 | All Maps","name_short":"nyc-2","host":"nyc-1.us.uncletopia.com","port":27025,"enabled":true,"region":"us-east","cc":"us","latitude":40.73061,"longitude":-73.93524,"reserved":0,"last_update":"0001-01-01T00:00:00Z","name_a2s":"Uncletopia | New York City | 2 | All Maps","protocol":17,"map":"cp_altitude","folder":"tf","game":"Team Fortress","app_id":440,"player_count":0,"max_players":24,"Bots":0,"server_type":"Dedicated","server_os":"Linux","password":true,"vac":true,"version":"7708610","steam_id":85568392924469994,"keywords":["cp","nocrits","nodmgspread","uncletopia"],"game_id":440,"stv_port":27026,"stv_name":"Uncletopia | New York City | 2 | All Maps | STV","players":null},{"server_id":15,"name":"Uncletopia | New York City | 3 | All Maps","name_short":"nyc-3","host":"nyc-1.us.uncletopia.com","port":27035,"enabled":true,"region":"us-east","cc":"us","latitude":40.73061,"longitude":-73.93524,"reserved":0,"last_update":"0001-01-01T00:00:00Z","name_a2s":"Uncletopia | New York City | 3 | All Maps","protocol":17,"map":"koth_cascade","folder":"tf","game":"Team Fortress","app_id":440,"player_count":0,"max_players":24,"Bots":0,"server_type":"Dedicated","server_os":"Linux","password":true,"vac":true,"version":"7708610","steam_id":85568392924742820,"keywords":["cp","nocrits","nodmgspread","uncletopia"],"game_id":440,"stv_port":27036,"stv_name":"Uncletopia | New York City | 3 | All Maps | STV","players":null},{"server_id":16,"name":"Uncletopia | New York City | 4 | Community","name_short":"nyc-4","host":"nyc-1.us.uncletopia.com","port":27045,"enabled":true,"region":"us-east","cc":"us","latitude":40.73061,"longitude":-73.93524,"reserved":0,"last_update":"0001-01-01T00:00:00Z","name_a2s":"Uncletopia | New York City | 4 | Community","protocol":17,"map":"workshop/rd_asteroid_redux_rc9.ugc2154902912","folder":"tf","game":"Team Fortress","app_id":440,"player_count":0,"max_players":24,"Bots":0,"server_type":"Dedicated","server_os":"Linux","password":true,"vac":true,"version":"7708610","steam_id":85568392924742821,"keywords":["beta","nocrits","nodmgspread","rd","uncletopia"],"game_id":440,"stv_port":27046,"stv_name":"Uncletopia | New York City | 4 | Community | STV","players":null},{"server_id":142,"name":"Uncletopia | S√£o Paulo | 1 | All Maps","name_short":"sao-1","host":"sao-1.br.uncletopia.com","port":27015,"enabled":true,"region":"sa","cc":"br","latitude":-23.533773,"longitude":-46.62529,"reserved":0,"last_update":"0001-01-01T00:00:00Z","name_a2s":"Uncletopia | S√£o Paulo | 1 | All Maps","protocol":17,"map":"koth_cascade","folder":"tf","game":"Team Fortress","app_id":440,"player_count":0,"max_players":24,"Bots":0,"server_type":"Dedicated","server_os":"Linux","password":true,"vac":true,"version":"7708610","steam_id":85568392924469996,"keywords":["cp","nocrits","nodmgspread","uncletopia"],"game_id":440,"stv_port":27016,"stv_name":"Uncletopia | S√£o Paulo | 1 | All Maps | STV","players":null},{"server_id":143,"name":"Uncletopia | S√£o Paulo | 2 | All Maps","name_short":"sao-2","host":"sao-2.br.uncletopia.com","port":27015,"enabled":true,"region":"sa","cc":"br","latitude":-23.533773,"longitude":-46.62529,"reserved":0,"last_update":"0001-01-01T00:00:00Z","name_a2s":"Uncletopia | S√£o Paulo | 2 | All Maps","protocol":17,"map":"cp_process_final","folder":"tf","game":"Team Fortress","app_id":440,"player_count":18,"max_players":24,"Bots":0,"server_type":"Dedicated","server_os":"Linux","password":true,"vac":true,"version":"7708610","steam_id":85568392924485349,"keywords":["cp","nocrits","nodmgspread","uncletopia"],"game_id":440,"stv_port":27016,"stv_name":"Uncletopia | S√£o Paulo | 2 | All Maps | STV","players":[{"user_id":5,"name":"Derretimento Geral 2017","steam_id":76561198194300069,"connected_time":3621000000000,"state":"active","ping":57},{"user_id":6,"name":"Sheep","steam_id":76561198965004777,"connected_time":3595000000000,"state":"active","ping":43},{"user_id":8,"name":"Andriel","steam_id":76561198281652242,"connected_time":3561000000000,"state":"active","ping":42},{"user_id":24,"name":"CJAIME01345","steam_id":76561199091599141,"connected_time":1920000000000,"state":"active","ping":85},{"user_id":37,"name":".m.a.n.o.n.","steam_id":76561198140822403,"connected_time":831000000000,"state":"active","ping":49},{"user_id":25,"name":"Mr.Bucket","steam_id":76561199139768843,"connected_time":1657000000000,"state":"active","ping":49},{"user_id":26,"name":"normalplayer","steam_id":76561199057489152,"connected_time":1643000000000,"state":"active","ping":48},{"user_id":27,"name":"jao","steam_id":76561198408082822,"connected_time":1517000000000,"state":"active","ping":46},{"user_id":28,"name":"Casas Bahia","steam_id":76561198144739151,"connected_time":1417000000000,"state":"active","ping":49},{"user_id":43,"name":"Kasper","steam_id":76561199019108684,"connected_time":257000000000,"state":"active","ping":60},{"user_id":30,"name":"$r. Hello There #savetf2","steam_id":76561198874231807,"connected_time":1382000000000,"state":"active","ping":45},{"user_id":39,"name":"Architect","steam_id":76561198895061602,"connected_time":627000000000,"state":"active","ping":102},{"user_id":34,"name":"DUKE NUKEM 4D","steam_id":76561199371001867,"connected_time":976000000000,"state":"active","ping":102},{"user_id":35,"name":"InkKnight","steam_id":76561198927983566,"connected_time":947000000000,"state":"active","ping":83},{"user_id":36,"name":"matheus_lanches","steam_id":76561199359501901,"connected_time":922000000000,"state":"active","ping":45},{"user_id":41,"name":"Max IA","steam_id":76561198120219866,"connected_time":553000000000,"state":"active","ping":44},{"user_id":42,"name":"Neferious Acts Enjoyer","steam_id":76561198354898457,"connected_time":463000000000,"state":"active","ping":46},{"user_id":44,"name":"Pcreeper","steam_id":76561198342542456,"connected_time":227000000000,"state":"active","ping":53}]},{"server_id":7,"name":"Uncletopia | Seattle | 1 | All Maps","name_short":"sea-1","host":"sea-1.us.uncletopia.com","port":27015,"enabled":true,"region":"us-west","cc":"us","latitude":47.608013,"longitude":-122.33517,"reserved":0,"last_update":"0001-01-01T00:00:00Z","name_a2s":"Uncletopia | Seattle | 1 | All Maps","protocol":17,"map":"cp_gorge","folder":"tf","game":"Team Fortress","app_id":440,"player_count":23,"max_players":24,"Bots":0,"server_type":"Dedicated","server_os":"Linux","password":true,"vac":true,"version":"7708610","steam_id":85568392924469997,"keywords":["cp","nocrits","nodmgspread","uncletopia"],"game_id":440,"stv_port":27016,"stv_name":"Uncletopia | Seattle | 1 | All Maps | STV","players":[{"user_id":132,"name":"Grassman (Cc)","steam_id":76561198026488532,"connected_time":8895000000000,"state":"active","ping":61},{"user_id":208,"name":"SirJellyRolls","steam_id":76561198119277244,"connected_time":945000000000,"state":"active","ping":51},{"user_id":206,"name":"‚ú∑sœÅ—èŒπn–∫l—î—ï‚ú∑","steam_id":76561198055388785,"connected_time":981000000000,"state":"active","ping":91},{"user_id":216,"name":"Ipseiit","steam_id":76561198294670312,"connected_time":101000000000,"state":"active","ping":110},{"user_id":204,"name":"yolginmo","steam_id":76561198157985901,"connected_time":1471000000000,"state":"active","ping":43},{"user_id":186,"name":"zinnk","steam_id":76561198092081825,"connected_time":2554000000000,"state":"active","ping":75},{"user_id":158,"name":"BOTBOT","steam_id":76561198271928618,"connected_time":5461000000000,"state":"active","ping":124},{"user_id":195,"name":"Koishi Komeiji","steam_id":76561198063315650,"connected_time":1728000000000,"state":"active","ping":79},{"user_id":182,"name":"Angulo","steam_id":76561198056476497,"connected_time":3092000000000,"state":"active","ping":81},{"user_id":210,"name":"Ether","steam_id":76561198054806528,"connected_time":662000000000,"state":"active","ping":123},{"user_id":188,"name":"Mr. Morton, CEO of Caber Corp\ufffd\ufffd","steam_id":76561198092130334,"connected_time":2233000000000,"state":"active","ping":118},{"user_id":177,"name":"Sir Loincloth","steam_id":76561198033073991,"connected_time":3574000000000,"state":"active","ping":63},{"user_id":179,"name":"Quavo_YRN","steam_id":76561198070630154,"connected_time":3554000000000,"state":"active","ping":76},{"user_id":197,"name":"neonblack","steam_id":76561198060316801,"connected_time":1709000000000,"state":"active","ping":80},{"user_id":209,"name":"PadrePockets","steam_id":76561197993251606,"connected_time":726000000000,"state":"active","ping":111},{"user_id":173,"name":"‚ô•","steam_id":76561198401455467,"connected_time":4424000000000,"state":"active","ping":75},{"user_id":215,"name":"B-0-D-I-E ‚úì","steam_id":76561198079474904,"connected_time":404000000000,"state":"active","ping":61},{"user_id":202,"name":"waterfowl","steam_id":76561198892086855,"connected_time":1650000000000,"state":"active","ping":126},{"user_id":150,"name":"Mr.Pan","steam_id":76561198069030613,"connected_time":6975000000000,"state":"active","ping":73},{"user_id":214,"name":"Zorlovo","steam_id":76561198006443283,"connected_time":549000000000,"state":"active","ping":100},{"user_id":207,"name":"Based Jvnko Fan","steam_id":76561198355290984,"connected_time":976000000000,"state":"active","ping":59},{"user_id":213,"name":"James","steam_id":76561198880268129,"connected_time":620000000000,"state":"active","ping":82},{"user_id":185,"name":"THUD","steam_id":76561198009630323,"connected_time":2588000000000,"state":"active","ping":56}]},{"server_id":119,"name":"Uncletopia | Seattle | 2 | All Maps","name_short":"sea-2","host":"sea-1.us.uncletopia.com","port":27025,"enabled":true,"region":"us-west","cc":"us","latitude":47.608013,"longitude":-122.33517,"reserved":0,"last_update":"0001-01-01T00:00:00Z","name_a2s":"Uncletopia | Seattle | 2 | All Maps","protocol":17,"map":"pl_pier","folder":"tf","game":"Team Fortress","app_id":440,"player_count":0,"max_players":24,"Bots":0,"server_type":"Dedicated","server_os":"Linux","password":true,"vac":true,"version":"7708610","steam_id":85568392924469998,"keywords":["nocrits","nodmgspread","payload","uncletopia"],"game_id":440,"stv_port":27026,"stv_name":"Uncletopia | Seattle | 2 | All Maps | STV","players":null},{"server_id":17,"name":"Uncletopia | San Francisco | 1 | All Maps","name_short":"sfo-1","host":"sfo-1.us.uncletopia.com","port":27015,"enabled":true,"region":"us-west","cc":"us","latitude":37.77397,"longitude":-122.4313,"reserved":0,"last_update":"0001-01-01T00:00:00Z","name_a2s":"Uncletopia | San Francisco | 1 | All Maps","protocol":17,"map":"pl_barnblitz","folder":"tf","game":"Team Fortress","app_id":440,"player_count":0,"max_players":24,"Bots":0,"server_type":"Dedicated","server_os":"Linux","password":true,"vac":true,"version":"7708610","steam_id":85568392924469999,"keywords":["nocrits","nodmgspread","payload","uncletopia"],"game_id":440,"stv_port":27016,"stv_name":"Uncletopia | San Francisco | 1 | All Maps | STV","players":null},{"server_id":18,"name":"Uncletopia | San Francisco | 2 | All Maps","name_short":"sfo-2","host":"sfo-1.us.uncletopia.com","port":27025,"enabled":true,"region":"us-west","cc":"us","latitude":37.77397,"longitude":-122.4313,"reserved":0,"last_update":"0001-01-01T00:00:00Z","name_a2s":"Uncletopia | San Francisco | 2 | All Maps","protocol":17,"map":"pl_upward","folder":"tf","game":"Team Fortress","app_id":440,"player_count":0,"max_players":24,"Bots":0,"server_type":"Dedicated","server_os":"Linux","password":true,"vac":true,"version":"7708610","steam_id":85568392924470000,"keywords":["nocrits","nodmgspread","payload","uncletopia"],"game_id":440,"stv_port":27026,"stv_name":"Uncletopia | San Francisco | 2 | All Maps | STV","players":null},{"server_id":19,"name":"Uncletopia | San Francisco | 3 | No Payload","name_short":"sfo-3","host":"sfo-1.us.uncletopia.com","port":27035,"enabled":true,"region":"us-west","cc":"us","latitude":37.77397,"longitude":-122.4313,"reserved":0,"last_update":"0001-01-01T00:00:00Z","name_a2s":"Uncletopia | San Francisco | 3 | No Payload","protocol":17,"map":"pl_borneo","folder":"tf","game":"Team Fortress","app_id":440,"player_count":4,"max_players":24,"Bots":0,"server_type":"Dedicated","server_os":"Linux","password":true,"vac":true,"version":"7708610","steam_id":85568392924742824,"keywords":["nocrits","nodmgspread","payload","uncletopia"],"game_id":440,"stv_port":27036,"stv_name":"Uncletopia | San Francisco | 3 | No Payload | STV","players":[{"user_id":3,"name":"taishang","steam_id":76561198065328284,"connected_time":311000000000,"state":"active","ping":47},{"user_id":4,"name":"EmilyChains\u003c3","steam_id":76561198132008027,"connected_time":264000000000,"state":"active","ping":30},{"user_id":5,"name":"Cap? I own one, yes","steam_id":76561199037497493,"connected_time":180000000000,"state":"active","ping":107},{"user_id":6,"name":"Stran","steam_id":76561198143389308,"connected_time":75000000000,"state":"active","ping":61}]},{"server_id":20,"name":"Uncletopia | San Francisco | 4 | Community","name_short":"sfo-4","host":"sfo-1.us.uncletopia.com","port":27045,"enabled":true,"region":"us-west","cc":"us","latitude":37.77397,"longitude":-122.4313,"reserved":0,"last_update":"0001-01-01T00:00:00Z","name_a2s":"Uncletopia | San Francisco | 4 | Community","protocol":17,"map":"pl_frontier_final","folder":"tf","game":"Team Fortress","app_id":440,"player_count":0,"max_players":24,"Bots":0,"server_type":"Dedicated","server_os":"Linux","password":true,"vac":true,"version":"7708610","steam_id":85568392924742826,"keywords":["nocrits","nodmgspread","payload","uncletopia"],"game_id":440,"stv_port":27046,"stv_name":"Uncletopia | San Francisco | 4 | Community | STV","players":null},{"server_id":141,"name":"Uncletopia | Sydney | 1 | All Maps","name_short":"syd-1","host":"syd-1.au.uncletopia.com","port":27015,"enabled":true,"region":"au","cc":"au","latitude":-33.865143,"longitude":151.2099,"reserved":0,"last_update":"0001-01-01T00:00:00Z","name_a2s":"Uncletopia | Sydney | 1 | All Maps","protocol":17,"map":"koth_lakeside_final","folder":"tf","game":"Team Fortress","app_id":440,"player_count":0,"max_players":24,"Bots":0,"server_type":"Dedicated","server_os":"Linux","password":true,"vac":true,"version":"7708610","steam_id":85568392924470001,"keywords":["cp","nocrits","nodmgspread","uncletopia"],"game_id":440,"stv_port":27016,"stv_name":"Uncletopia | Sydney | 1 | All Maps | STV","players":null},{"server_id":123,"name":"Uncletopia | Sydney | 2 | All Maps","name_short":"syd-2","host":"syd-1.au.uncletopia.com","port":27025,"enabled":true,"region":"au","cc":"au","latitude":-33.865143,"longitude":151.2099,"reserved":0,"last_update":"0001-01-01T00:00:00Z","name_a2s":"Uncletopia | Sydney | 2 | All Maps","protocol":17,"map":"koth_highpass","folder":"tf","game":"Team Fortress","app_id":440,"player_count":0,"max_players":24,"Bots":0,"server_type":"Dedicated","server_os":"Linux","password":true,"vac":true,"version":"7708610","steam_id":85568392924470002,"keywords":["cp","nocrits","nodmgspread","uncletopia"],"game_id":440,"stv_port":27026,"stv_name":"Uncletopia | Sydney | 2 | All Maps | STV","players":null},{"server_id":395,"name":"Uncletopia | Sydney | 3 | All Maps","name_short":"syd-3","host":"syd-1.au.uncletopia.com","port":27035,"enabled":true,"region":"au","cc":"au","latitude":-33.865143,"longitude":151.2099,"reserved":0,"last_update":"0001-01-01T00:00:00Z","name_a2s":"Uncletopia | Sydney | 3 | All Maps","protocol":17,"map":"koth_highpass","folder":"tf","game":"Team Fortress","app_id":440,"player_count":0,"max_players":24,"Bots":0,"server_type":"Dedicated","server_os":"Linux","password":true,"vac":true,"version":"7708610","steam_id":85568392925194467,"keywords":["cp","nocrits","nodmgspread","uncletopia"],"game_id":440,"stv_port":27036,"stv_name":"Uncletopia | Sydney | 3 | All Maps | STV","players":null},{"server_id":396,"name":"Uncletopia | Sydney | 4 | All Maps","name_short":"syd-4","host":"syd-1.au.uncletopia.com","port":27045,"enabled":true,"region":"au","cc":"au","latitude":-33.865143,"longitude":151.2099,"reserved":0,"last_update":"0001-01-01T00:00:00Z","name_a2s":"Uncletopia | Sydney | 4 | All Maps","protocol":17,"map":"cp_altitude","folder":"tf","game":"Team Fortress","app_id":440,"player_count":0,"max_players":24,"Bots":0,"server_type":"Dedicated","server_os":"Linux","password":true,"vac":true,"version":"7708610","steam_id":85568392925397958,"keywords":["cp","nocrits","nodmgspread","uncletopia"],"game_id":440,"stv_port":27046,"stv_name":"Uncletopia | Sydney | 4 | All Maps | STV","players":null},{"server_id":58,"name":"Uncletopia | Sydney | 5 | No Payload","name_short":"syd-5","host":"syd-1.au.uncletopia.com","port":27055,"enabled":true,"region":"au","cc":"au","latitude":-33.865143,"longitude":151.2099,"reserved":0,"last_update":"0001-01-01T00:00:00Z","name_a2s":"Uncletopia | Sydney | 5 | No Payload","protocol":17,"map":"cp_snakewater_final1","folder":"tf","game":"Team Fortress","app_id":440,"player_count":0,"max_players":24,"Bots":0,"server_type":"Dedicated","server_os":"Linux","password":true,"vac":true,"version":"7708610","steam_id":85568392925397959,"keywords":["cp","nocrits","nodmgspread","uncletopia"],"game_id":440,"stv_port":27056,"stv_name":"Uncletopia | Sydney | 5 | No Payload | STV","players":null},{"server_id":59,"name":"Uncletopia | Sydney | 6 | Community","name_short":"syd-6","host":"syd-1.au.uncletopia.com","port":27065,"enabled":true,"region":"au","cc":"au","latitude":-33.865143,"longitude":151.2099,"reserved":0,"last_update":"0001-01-01T00:00:00Z","name_a2s":"Uncletopia | Sydney | 6 | Community","protocol":17,"map":"workshop/koth_ramjam_v2_b2.ugc2865676487","folder":"tf","game":"Team Fortress","app_id":440,"player_count":0,"max_players":24,"Bots":0,"server_type":"Dedicated","server_os":"Linux","password":true,"vac":true,"version":"7708610","steam_id":85568392925397960,"keywords":["cp","nocrits","nodmgspread","uncletopia"],"game_id":440,"stv_port":27066,"stv_name":"Uncletopia | Sydney | 6 | Community | STV","players":null},{"server_id":49,"name":"Uncletopia | Warsaw | 1 | All Maps","name_short":"waw-1","host":"waw-1.pl.uncletopia.com","port":27015,"enabled":true,"region":"eu","cc":"pl","latitude":52.2297,"longitude":21.017532,"reserved":0,"last_update":"0001-01-01T00:00:00Z","name_a2s":"Uncletopia | Warsaw | 1 | All Maps","protocol":17,"map":"koth_cascade","folder":"tf","game":"Team Fortress","app_id":440,"player_count":1,"max_players":24,"Bots":0,"server_type":"Dedicated","server_os":"Linux","password":true,"vac":true,"version":"7708610","steam_id":85568392925397850,"keywords":["cp","nocrits","nodmgspread","uncletopia"],"game_id":440,"stv_port":27016,"stv_name":"Uncletopia | Warsaw | 1 | All Maps | STV","players":[{"user_id":9,"name":"Acceptabilul","steam_id":76561198335043257,"connected_time":41000000000,"state":"active","ping":89}]},{"server_id":50,"name":"Uncletopia | Warsaw | 2 | All Maps","name_short":"waw-2","host":"waw-1.pl.uncletopia.com","port":27025,"enabled":true,"region":"eu","cc":"pl","latitude":52.2297,"longitude":21.017532,"reserved":0,"last_update":"0001-01-01T00:00:00Z","name_a2s":"Uncletopia | Warsaw | 2 | All Maps","protocol":17,"map":"pl_snowycoast","folder":"tf","game":"Team Fortress","app_id":440,"player_count":21,"max_players":24,"Bots":0,"server_type":"Dedicated","server_os":"Linux","password":true,"vac":true,"version":"7708610","steam_id":85568392925397851,"keywords":["nocrits","nodmgspread","payload","uncletopia"],"game_id":440,"stv_port":27026,"stv_name":"Uncletopia | Warsaw | 2 | All Maps | STV","players":[{"user_id":149,"name":"sandwich","steam_id":76561199209590294,"connected_time":754000000000,"state":"active","ping":87},{"user_id":150,"name":"Alfiine","steam_id":76561198206082887,"connected_time":740000000000,"state":"active","ping":73},{"user_id":144,"name":"Fr33StYl3R","steam_id":76561198043187070,"connected_time":960000000000,"state":"active","ping":103},{"user_id":145,"name":"BacalhauCheiraBem","steam_id":76561198977494154,"connected_time":918000000000,"state":"active","ping":107},{"user_id":135,"name":"concussion gaming","steam_id":76561198425494530,"connected_time":1604000000000,"state":"active","ping":117},{"user_id":146,"name":"Duda","steam_id":76561198306177608,"connected_time":915000000000,"state":"active","ping":50},{"user_id":151,"name":"Nerra","steam_id":76561198856941292,"connected_time":721000000000,"state":"active","ping":72},{"user_id":152,"name":"‚ô• Cirno ‚ô•","steam_id":76561198834982738,"connected_time":681000000000,"state":"active","ping":61},{"user_id":162,"name":"fexxor","steam_id":76561198030051719,"connected_time":103000000000,"state":"active","ping":81},{"user_id":138,"name":"xXdoge gaming 42069Xx","steam_id":76561198372971096,"connected_time":1415000000000,"state":"active","ping":90},{"user_id":154,"name":"Pingus","steam_id":76561198164880756,"connected_time":626000000000,"state":"active","ping":93},{"user_id":155,"name":"C0RVU5","steam_id":76561198295594147,"connected_time":617000000000,"state":"active","ping":90},{"user_id":147,"name":"Chloride","steam_id":76561198321197597,"connected_time":884000000000,"state":"active","ping":48},{"user_id":156,"name":"hamude.alsarhan2011","steam_id":76561199259727736,"connected_time":581000000000,"state":"active","ping":74},{"user_id":157,"name":"Riske","steam_id":76561198115840568,"connected_time":576000000000,"state":"active","ping":173},{"user_id":140,"name":"Korald","steam_id":76561198386670235,"connected_time":1393000000000,"state":"active","ping":97},{"user_id":158,"name":"BallinScout","steam_id":76561198152443697,"connected_time":537000000000,"state":"active","ping":77},{"user_id":73,"name":"engineergaming","steam_id":76561199423207269,"connected_time":5321000000000,"state":"active","ping":48},{"user_id":163,"name":"Mankor","steam_id":76561198020439322,"connected_time":40000000000,"state":"active","ping":61},{"user_id":160,"name":"‡∂ûbominasus 2137  #SaveTF2","steam_id":76561198030062981,"connected_time":464000000000,"state":"active","ping":45},{"user_id":123,"name":"snoowbrigade","steam_id":76561197989507394,"connected_time":2474000000000,"state":"active","ping":98}]},{"server_id":51,"name":"Uncletopia | Warsaw | 3 | All Maps","name_short":"waw-3","host":"waw-1.pl.uncletopia.com","port":27035,"enabled":true,"region":"eu","cc":"pl","latitude":52.2297,"longitude":21.017532,"reserved":0,"last_update":"0001-01-01T00:00:00Z","name_a2s":"Uncletopia | Warsaw | 3 | All Maps","protocol":17,"map":"pl_pier","folder":"tf","game":"Team Fortress","app_id":440,"player_count":0,"max_players":24,"Bots":0,"server_type":"Dedicated","server_os":"Linux","password":true,"vac":true,"version":"7708610","steam_id":85568392925397852,"keywords":["nocrits","nodmgspread","payload","uncletopia"],"game_id":440,"stv_port":27036,"stv_name":"Uncletopia | Warsaw | 3 | All Maps | STV","players":null},{"server_id":52,"name":"Uncletopia | Warsaw | 4 | All Maps","name_short":"waw-4","host":"waw-1.pl.uncletopia.com","port":27045,"enabled":true,"region":"eu","cc":"pl","latitude":52.2297,"longitude":21.017532,"reserved":0,"last_update":"0001-01-01T00:00:00Z","name_a2s":"Uncletopia | Warsaw | 4 | All Maps","protocol":17,"map":"pl_pier","folder":"tf","game":"Team Fortress","app_id":440,"player_count":0,"max_players":24,"Bots":0,"server_type":"Dedicated","server_os":"Linux","password":true,"vac":true,"version":"7708610","steam_id":85568392925397853,"keywords":["nocrits","nodmgspread","payload","uncletopia"],"game_id":440,"stv_port":27046,"stv_name":"Uncletopia | Warsaw | 4 | All Maps | STV","players":null},{"server_id":53,"name":"Uncletopia | Warsaw | 5 | No Payload","name_short":"waw-5","host":"waw-1.pl.uncletopia.com","port":27055,"enabled":true,"region":"eu","cc":"pl","latitude":52.2297,"longitude":21.017532,"reserved":0,"last_update":"0001-01-01T00:00:00Z","name_a2s":"Uncletopia | Warsaw | 5 | No Payload","protocol":17,"map":"pl_borneo","folder":"tf","game":"Team Fortress","app_id":440,"player_count":0,"max_players":24,"Bots":0,"server_type":"Dedicated","server_os":"Linux","password":true,"vac":true,"version":"7708610","steam_id":85568392925397854,"keywords":["nocrits","nodmgspread","payload","uncletopia"],"game_id":440,"stv_port":27056,"stv_name":"Uncletopia | Warsaw | 5 | No Payload | STV","players":null},{"server_id":54,"name":"Uncletopia | Warsaw | 6 | Community","name_short":"waw-6","host":"waw-1.pl.uncletopia.com","port":27065,"enabled":true,"region":"eu","cc":"pl","latitude":52.2297,"longitude":21.017532,"reserved":0,"last_update":"0001-01-01T00:00:00Z","name_a2s":"Uncletopia | Warsaw | 6 | Community","protocol":17,"map":"pl_swiftwater_final1","folder":"tf","game":"Team Fortress","app_id":440,"player_count":0,"max_players":24,"Bots":0,"server_type":"Dedicated","server_os":"Linux","password":true,"vac":true,"version":"7708610","steam_id":85568392925397856,"keywords":["nocrits","nodmgspread","payload","uncletopia"],"game_id":440,"stv_port":27066,"stv_name":"Uncletopia | Warsaw | 6 | Community | STV","players":null}]}