{"status":true,"message":"","result":[{"server_id":9,"name":"Uncletopia | Atlanta | 1 | All Maps","name_short":"atl-1","host":"atl-1.us.uncletopia.com","port":27015,"enabled":true,"region":"us-east","cc":"us","latitude":33.753746,"longitude":-84.38633,"reserved":0,"last_update":"0001-01-01T00:00:00Z","name_a2s":"Uncletopia | Atlanta | 1 | All Maps","protocol":17,"map":"cp_dustbowl","folder":"tf","game":"Team Fortress","app_id":440,"player_count":18,"max_players":24,"Bots":0,"server_type":"Dedicated","server_os":"Linux","password":true,"vac":true,"version":"7932396","steam_id":85568392924469982,"keywords":["cp","nocrits","nodmgspread","uncletopia"],"game_id":440,"stv_port":27016,"stv_name":"Uncletopia | Atlanta | 1 | All Maps | STV","players":[{"user_id":204,"name":"meme shortstop","steam_id":76561199453848229,"connected_time":269000000000,"state":"active","ping":100},{"user_id":205,"name":"i forgor","steam_id":76561199120622265,"connected_time":261000000000,"state":"active","ping":92},{"user_id":206,"name":"Potato Person","steam_id":76561198010373482,"connected_time":245000000000,"state":"active","ping":85},{"user_id":207,"name":"Homosexual Warmachine","steam_id":76561198040425096,"connected_time":160000000000,"state":"active","ping":74},{"user_id":168,"name":"Grand Piano Tuna","steam_id":76561198135137213,"connected_time":1331000000000,"state":"active","ping":86},{"user_id":162,"name":"Hulk Hogan Gaming","steam_id":76561199013166433,"connected_time":1480000000000,"state":"active","ping":90},{"user_id":208,"name":"Demonic Prom Queen","steam_id":76561198055493226,"connected_time":79000000000,"state":"active","ping":93},{"user_id":211,"name":"Not Guztaf","steam_id":76561198334924763,"connected_time":19000000000,"state":"spawning","ping":419},{"user_id":32,"name":"Meatballgirl","steam_id":76561198049902502,"connected_time":3885000000000,"state":"active","ping":98},{"user_id":174,"name":"Lucide","steam_id":76561197998530400,"connected_time":1232000000000,"state":"active","ping":131},{"user_id":143,"name":"Lego Yoda","steam_id":76561199008362890,"connected_time":1869000000000,"state":"active","ping":88},{"user_id":197,"name":"dark souls boss","steam_id":76561198316610724,"connected_time":480000000000,"state":"active","ping":123},{"user_id":165,"name":"catfish from toontown","steam_id":76561198060070002,"connected_time":1391000000000,"state":"active","ping":114},{"user_id":98,"name":"comet sooicidy","steam_id":76561198025173479,"connected_time":2827000000000,"state":"active","ping":102},{"user_id":198,"name":"ThinkingMonk112","steam_id":76561198432516310,"connected_time":455000000000,"state":"active","ping":82},{"user_id":199,"name":"Epifiny","steam_id":76561198027958086,"connected_time":436000000000,"state":"active","ping":109},{"user_id":202,"name":"your neighbour's garden gnome","steam_id":76561199037050183,"connected_time":316000000000,"state":"active","ping":115},{"user_id":170,"name":"Flameknight93969","steam_id":76561199107810392,"connected_time":1287000000000,"state":"active","ping":143}]},{"server_id":104,"name":"Uncletopia | Atlanta | 2 | All Maps","name_short":"atl-2","host":"atl-1.us.uncletopia.com","port":27025,"enabled":true,"region":"us-east","cc":"us","latitude":33.753746,"longitude":-84.38633,"reserved":0,"last_update":"0001-01-01T00:00:00Z","name_a2s":"Uncletopia | Atlanta | 2 | All Maps","protocol":17,"map":"pl_frontier_final","folder":"tf","game":"Team Fortress","app_id":440,"player_count":12,"max_players":24,"Bots":0,"server_type":"Dedicated","server_os":"Linux","password":true,"vac":true,"version":"7932396","steam_id":85568392924469983,"keywords":["nocrits","nodmgspread","payload","uncletopia"],"game_id":440,"stv_port":27026,"stv_name":"Uncletopia | Atlanta | 2 | All Maps | STV","players":[{"user_id":36,"name":"TurkeyZilla","steam_id":76561198292461292,"connected_time":995000000000,"state":"active","ping":135},{"user_id":38,"name":"Gray Ham","steam_id":76561198133952453,"connected_time":877000000000,"state":"active","ping":62},{"user_id":34,"name":"SlitherDoodle","steam_id":76561198000275473,"connected_time":1308000000000,"state":"active","ping":95},{"user_id":37,"name":"GorrodePiza","steam_id":76561198883869359,"connected_time":931000000000,"state":"active","ping":128},{"user_id":35,"name":"Juicesus Christin","steam_id":76561198145622436,"connected_time":1296000000000,"state":"active","ping":150},{"user_id":50,"name":"DJ Pierce","steam_id":76561198394241466,"connected_time":316000000000,"state":"active","ping":78},{"user_id":30,"name":"Coolbreadguy","steam_id":76561198139544202,"connected_time":1752000000000,"state":"active","ping":106},{"user_id":31,"name":"spreadable arse","steam_id":76561198032259680,"connected_time":1742000000000,"state":"active","ping":76},{"user_id":32,"name":"Spooko","steam_id":76561198838582643,"connected_time":1729000000000,"state":"active","ping":72},{"user_id":52,"name":"BiggSlorp","steam_id":76561199130776156,"connected_time":300000000000,"state":"active","ping":75},{"user_id":44,"name":"HalfGuest","steam_id":76561199045682328,"connected_time":529000000000,"state":"active","ping":132},{"user_id":51,"name":"leonardo doujinshi","steam_id":76561198025810326,"connected_time":308000000000,"state":"active","ping":84}]},{"server_id":400,"name":"Uncletopia | Atlanta | 3 | Community","name_short":"atl-3","host":"atl-1.us.uncletopia.com","port":27035,"enabled":true,"region":"us-east","cc":"us","latitude":33.753746,"longitude":-84.38633,"reserved":0,"last_update":"0001-01-01T00:00:00Z","name_a2s":"Uncletopia | Atlanta | 3 | Community","protocol":17,"map":"workshop/pl_divulgence_b4b.ugc2884808746","folder":"tf","game":"Team Fortress","app_id":440,"player_count":0,"max_players":24,"Bots":0,"server_type":"Dedicated","server_os":"Linux","password":true,"vac":true,"version":"7932396","steam_id":85568392924515187,"keywords":["nocrits","nodmgspread","payload","uncletopia"],"game_id":440,"stv_port":27036,"stv_name":"Uncletopia | Atlanta | 3 | Community | STV","players":null},{"server_id":401,"name":"Uncletopia | Atlanta | 4 | No Payload","name_short":"atl-4","host":"atl-1.us.uncletopia.com","port":27045,"enabled":true,"region":"us-east","cc":"us","latitude":33.753746,"longitude":-84.38633,"reserved":0,"last_update":"0001-01-01T00:00:00Z","name_a2s":"","protocol":0,"map":"","folder":"","game":"","app_id":0,"player_count":0,"max_players":0,"Bots":0,"server_type":"","server_os":"","password":false,"vac":false,"version":"","steam_id":0,"keywords":null,"game_id":0,"stv_port":0,"stv_name":"","players":null},{"server_id":2,"name":"Uncletopia | Chicago | 1 | All Maps","name_short":"chi-1","host":"chi-1.us.uncletopia.com","port":27015,"enabled":true,"region":"us-central","cc":"us","latitude":41.881832,"longitude":-87.62318,"reserved":0,"last_update":"0001-01-01T00:00:00Z","name_a2s":"Uncletopia | Chicago | 1 | All Maps","protocol":17,"map":"pl_swiftwater_final1","folder":"tf","game":"Team Fortress","app_id":440,"player_count":21,"max_players":24,"Bots":0,"server_type":"Dedicated","server_os":"Linux","password":true,"vac":true,"version":"7932396","steam_id":85568392924469984,"keywords":["nocrits","nodmgspread","payload","uncletopia"],"game_id":440,"stv_port":27016,"stv_name":"Uncletopia | Chicago | 1 | All Maps | STV","players":[{"user_id":169,"name":"GamingJuice42","steam_id":76561198110469437,"connected_time":2046000000000,"state":"active","ping":58},{"user_id":133,"name":"tesagi","steam_id":76561198026664629,"connected_time":3903000000000,"state":"active","ping":58},{"user_id":192,"name":"「randy」","steam_id":76561198149518120,"connected_time":663000000000,"state":"active","ping":86},{"user_id":166,"name":"ShofaX","steam_id":76561198199768014,"connected_time":2155000000000,"state":"active","ping":74},{"user_id":158,"name":"Artemy Burakh (FASTING)","steam_id":76561198257038275,"connected_time":2353000000000,"state":"active","ping":80},{"user_id":196,"name":"Legendstorm09","steam_id":76561199131721629,"connected_time":230000000000,"state":"active","ping":56},{"user_id":174,"name":"jim bob","steam_id":76561197992464368,"connected_time":1773000000000,"state":"active","ping":97},{"user_id":159,"name":"Minermarcus7","steam_id":76561199099397537,"connected_time":2353000000000,"state":"active","ping":77},{"user_id":152,"name":"slep.py","steam_id":76561197988287144,"connected_time":2901000000000,"state":"active","ping":55},{"user_id":156,"name":"Admiral Crumbs (Fasting)","steam_id":76561198108791583,"connected_time":2358000000000,"state":"active","ping":63},{"user_id":179,"name":"edin (Fasting)","steam_id":76561198117393097,"connected_time":1494000000000,"state":"active","ping":78},{"user_id":182,"name":"DiGiorno's Pizza","steam_id":76561198142244035,"connected_time":1379000000000,"state":"active","ping":59},{"user_id":164,"name":"swaggdood","steam_id":76561198076173018,"connected_time":2187000000000,"state":"active","ping":103},{"user_id":183,"name":"Skele","steam_id":76561198154574280,"connected_time":1372000000000,"state":"active","ping":57},{"user_id":89,"name":"Ras","steam_id":76561198123546775,"connected_time":8664000000000,"state":"active","ping":76},{"user_id":185,"name":"Sneaky_Tank","steam_id":76561198078814793,"connected_time":1142000000000,"state":"active","ping":56},{"user_id":190,"name":"Skinny pete","steam_id":76561198801608576,"connected_time":724000000000,"state":"active","ping":77},{"user_id":195,"name":"[]{}#^*+=","steam_id":76561198127039453,"connected_time":292000000000,"state":"active","ping":100},{"user_id":168,"name":"Takyon","steam_id":76561198240014196,"connected_time":2152000000000,"state":"active","ping":103},{"user_id":171,"name":"Tylody (fasting)","steam_id":76561198229690552,"connected_time":1874000000000,"state":"active","ping":105},{"user_id":188,"name":"Space","steam_id":76561198350489754,"connected_time":984000000000,"state":"active","ping":50}]},{"server_id":106,"name":"Uncletopia | Chicago | 2 | All Maps","name_short":"chi-2","host":"chi-1.us.uncletopia.com","port":27025,"enabled":true,"region":"us-central","cc":"us","latitude":41.881832,"longitude":-87.62318,"reserved":0,"last_update":"0001-01-01T00:00:00Z","name_a2s":"Uncletopia | Chicago | 2 | All Maps","protocol":17,"map":"pl_pier","folder":"tf","game":"Team Fortress","app_id":440,"player_count":24,"max_players":24,"Bots":0,"server_type":"Dedicated","server_os":"Linux","password":true,"vac":true,"version":"7932396","steam_id":85568392924469985,"keywords":["nocrits","nodmgspread","payload","uncletopia"],"game_id":440,"stv_port":27026,"stv_name":"Uncletopia | Chicago | 2 | All Maps | STV","players":[{"user_id":151,"name":"Heavy Main","steam_id":76561198333746778,"connected_time":1822000000000,"state":"active","ping":84},{"user_id":161,"name":"your local forecast","steam_id":76561198042243083,"connected_time":1101000000000,"state":"active","ping":62},{"user_id":153,"name":"Cooki","steam_id":76561198051705314,"connected_time":1770000000000,"state":"active","ping":83},{"user_id":154,"name":"Tyulmi","steam_id":76561198041432710,"connected_time":1741000000000,"state":"active","ping":91},{"user_id":164,"name":"-π- BakaD","steam_id":76561197960559169,"connected_time":334000000000,"state":"active","ping":46},{"user_id":107,"name":"Killroy NQP ❤","steam_id":76561198006983771,"connected_time":4894000000000,"state":"active","ping":78},{"user_id":165,"name":"OHGODBEES!","steam_id":76561198000653374,"connected_time":121000000000,"state":"active","ping":145},{"user_id":169,"name":"BarrowBaron","steam_id":76561198013633236,"connected_time":50000000000,"state":"active","ping":65},{"user_id":155,"name":"Yam Jazzy Jim","steam_id":76561198000788950,"connected_time":1723000000000,"state":"active","ping":60},{"user_id":115,"name":"beefmachine","steam_id":76561198001196512,"connected_time":4254000000000,"state":"active","ping":49},{"user_id":167,"name":"sleepy","steam_id":76561199008634102,"connected_time":77000000000,"state":"active","ping":70},{"user_id":127,"name":"Pluto","steam_id":76561197979253518,"connected_time":3219000000000,"state":"active","ping":78},{"user_id":163,"name":"the pyro (from tf2)","steam_id":76561198400058665,"connected_time":814000000000,"state":"active","ping":74},{"user_id":168,"name":"the 35th president of the U.S.A","steam_id":76561199077613614,"connected_time":77000000000,"state":"active","ping":83},{"user_id":146,"name":"Sunfly","steam_id":76561198034307439,"connected_time":2257000000000,"state":"active","ping":33},{"user_id":158,"name":"Sychke","steam_id":76561198067144055,"connected_time":1556000000000,"state":"active","ping":45},{"user_id":159,"name":"TheGuyWhoPlays","steam_id":76561198277363002,"connected_time":1548000000000,"state":"active","ping":56},{"user_id":67,"name":"bachphong760","steam_id":76561199433780443,"connected_time":7400000000000,"state":"active","ping":95},{"user_id":139,"name":"RokkitFrog","steam_id":76561198046465850,"connected_time":2690000000000,"state":"active","ping":75},{"user_id":109,"name":"LordGandalf23","steam_id":76561198086928298,"connected_time":4740000000000,"state":"active","ping":93},{"user_id":148,"name":"kermitcreeper(ZAZA)","steam_id":76561199222829972,"connected_time":2026000000000,"state":"active","ping":60},{"user_id":170,"name":"✿","steam_id":76561198138444785,"connected_time":45000000000,"state":"active","ping":90},{"user_id":141,"name":"aiming with drawing tablet","steam_id":76561198397662124,"connected_time":2642000000000,"state":"active","ping":91},{"user_id":160,"name":"Autistic people's Black Panther","steam_id":76561198945402162,"connected_time":1538000000000,"state":"active","ping":106}]},{"server_id":402,"name":"Uncletopia | Chicago | 3 | All Maps","name_short":"chi-3","host":"chi-1.us.uncletopia.com","port":27035,"enabled":true,"region":"us-central","cc":"us","latitude":41.881832,"longitude":-87.62318,"reserved":0,"last_update":"0001-01-01T00:00:00Z","name_a2s":"Uncletopia | Chicago | 3 | All Maps","protocol":17,"map":"pl_swiftwater_final1","folder":"tf","game":"Team Fortress","app_id":440,"player_count":24,"max_players":24,"Bots":0,"server_type":"Dedicated","server_os":"Linux","password":true,"vac":true,"version":"7932396","steam_id":85568392924515191,"keywords":["nocrits","nodmgspread","payload","uncletopia"],"game_id":440,"stv_port":27036,"stv_name":"Uncletopia | Chicago | 3 | All Maps | STV","players":[{"user_id":461,"name":"TheMrMan","steam_id":76561198072304288,"connected_time":6866000000000,"state":"active","ping":81},{"user_id":540,"name":"creeeeeee","steam_id":76561198392539722,"connected_time":246000000000,"state":"active","ping":79},{"user_id":525,"name":"Peppino","steam_id":76561198189176634,"connected_time":981000000000,"state":"active","ping":84},{"user_id":526,"name":"Zixzs","steam_id":76561198055504126,"connected_time":893000000000,"state":"active","ping":66},{"user_id":509,"name":"Norman","steam_id":76561198154715990,"connected_time":2448000000000,"state":"active","ping":95},{"user_id":527,"name":"SIN K4RMA","steam_id":76561198869287223,"connected_time":812000000000,"state":"active","ping":79},{"user_id":513,"name":"Fulgore","steam_id":76561198039912383,"connected_time":2166000000000,"state":"active","ping":177},{"user_id":543,"name":"Bush.exe","steam_id":76561198124385307,"connected_time":186000000000,"state":"active","ping":70},{"user_id":537,"name":"professional twelve year old","steam_id":76561198858796870,"connected_time":441000000000,"state":"active","ping":93},{"user_id":512,"name":"JDM Street Cred","steam_id":76561198033035560,"connected_time":2287000000000,"state":"active","ping":62},{"user_id":503,"name":"Fluffeline","steam_id":76561198352909489,"connected_time":2805000000000,"state":"active","ping":141},{"user_id":524,"name":"ChaingunnerFails","steam_id":76561198963075967,"connected_time":1218000000000,"state":"active","ping":106},{"user_id":529,"name":"Gustavo","steam_id":76561198190288063,"connected_time":802000000000,"state":"active","ping":86},{"user_id":500,"name":"5 and 23","steam_id":76561198068538473,"connected_time":2897000000000,"state":"active","ping":75},{"user_id":522,"name":"a bellhop","steam_id":76561198046797995,"connected_time":1654000000000,"state":"active","ping":61},{"user_id":536,"name":"HOTA","steam_id":76561199002778841,"connected_time":624000000000,"state":"active","ping":74},{"user_id":492,"name":"ultralisk52","steam_id":76561198051666604,"connected_time":4547000000000,"state":"active","ping":62},{"user_id":531,"name":"tntkiller","steam_id":76561198067401676,"connected_time":767000000000,"state":"active","ping":94},{"user_id":532,"name":"Magic","steam_id":76561198354674755,"connected_time":730000000000,"state":"active","ping":68},{"user_id":465,"name":"waowaowao","steam_id":76561198068804538,"connected_time":6678000000000,"state":"active","ping":71},{"user_id":545,"name":"Pixellate","steam_id":76561198085555090,"connected_time":78000000000,"state":"active","ping":102},{"user_id":534,"name":"challen","steam_id":76561197961277967,"connected_time":713000000000,"state":"active","ping":68},{"user_id":535,"name":"[12V] Marv","steam_id":76561198158638384,"connected_time":704000000000,"state":"active","ping":71},{"user_id":539,"name":"lifted tater","steam_id":76561198404564240,"connected_time":283000000000,"state":"active","ping":62}]},{"server_id":403,"name":"Uncletopia | Chicago | 4 | All Maps","name_short":"chi-4","host":"chi-1.us.uncletopia.com","port":27045,"enabled":true,"region":"us-central","cc":"us","latitude":41.881832,"longitude":-87.62318,"reserved":0,"last_update":"0001-01-01T00:00:00Z","name_a2s":"Uncletopia | Chicago | 4 | All Maps","protocol":17,"map":"pl_upward","folder":"tf","game":"Team Fortress","app_id":440,"player_count":24,"max_players":24,"Bots":0,"server_type":"Dedicated","server_os":"Linux","password":true,"vac":true,"version":"7932396","steam_id":85568392924515193,"keywords":["nocrits","nodmgspread","payload","uncletopia"],"game_id":440,"stv_port":27046,"stv_name":"Uncletopia | Chicago | 4 | All Maps | STV","players":[{"user_id":229,"name":"hestia-sm0ker","steam_id":76561198051881047,"connected_time":2135000000000,"state":"active","ping":36},{"user_id":246,"name":"Mitchell","steam_id":76561197972922328,"connected_time":726000000000,"state":"active","ping":116},{"user_id":228,"name":"my wife didn't like her present","steam_id":76561198380018244,"connected_time":2443000000000,"state":"active","ping":71},{"user_id":251,"name":"Radish Master","steam_id":76561198072523811,"connected_time":49000000000,"state":"active","ping":43},{"user_id":214,"name":"MEATBALL","steam_id":76561198028499312,"connected_time":3695000000000,"state":"active","ping":59},{"user_id":247,"name":"saint martin","steam_id":76561198173047169,"connected_time":577000000000,"state":"active","ping":59},{"user_id":234,"name":"reis","steam_id":76561199232952016,"connected_time":1730000000000,"state":"active","ping":180},{"user_id":244,"name":"scrapheap","steam_id":76561198202407087,"connected_time":986000000000,"state":"active","ping":74},{"user_id":235,"name":"Oliver_Berry","steam_id":76561199488138620,"connected_time":1714000000000,"state":"active","ping":117},{"user_id":240,"name":"DarthEthanBoy","steam_id":76561198441643581,"connected_time":1345000000000,"state":"active","ping":63},{"user_id":243,"name":"Gotta Move That Gear Up","steam_id":76561197993467034,"connected_time":1084000000000,"state":"active","ping":55},{"user_id":241,"name":"Zero","steam_id":76561198033384990,"connected_time":1270000000000,"state":"active","ping":65},{"user_id":218,"name":"brains","steam_id":76561198197388678,"connected_time":3329000000000,"state":"active","ping":76},{"user_id":238,"name":"Beedle","steam_id":76561198056871257,"connected_time":1430000000000,"state":"active","ping":64},{"user_id":202,"name":"phone","steam_id":76561198029268743,"connected_time":4584000000000,"state":"active","ping":71},{"user_id":248,"name":"Mehman","steam_id":76561199020244051,"connected_time":243000000000,"state":"active","ping":98},{"user_id":242,"name":"Aiden939","steam_id":76561198860530097,"connected_time":1209000000000,"state":"active","ping":80},{"user_id":160,"name":"YoursTruely","steam_id":76561198072129131,"connected_time":8011000000000,"state":"active","ping":67},{"user_id":245,"name":"Jbomb","steam_id":76561199197866625,"connected_time":888000000000,"state":"active","ping":74},{"user_id":249,"name":"moonage72","steam_id":76561199187008629,"connected_time":158000000000,"state":"active","ping":60},{"user_id":239,"name":"God's Sleepiest Puppy Girl","steam_id":76561198070315609,"connected_time":1399000000000,"state":"active","ping":69},{"user_id":231,"name":"Western_dragon","steam_id":76561198130456105,"connected_time":1980000000000,"state":"active","ping":101},{"user_id":200,"name":"R4MZ0!!","steam_id":76561199428160610,"connected_time":4741000000000,"state":"active","ping":113},{"user_id":233,"name":"austinsmith","steam_id":76561198167838540,"connected_time":1946000000000,"state":"active","ping":71}]},{"server_id":36,"name":"Uncletopia | Chicago | 5 | All Maps","name_short":"chi-5","host":"chi-2.us.uncletopia.com","port":27015,"enabled":true,"region":"us-central","cc":"us","latitude":41.881832,"longitude":-87.62318,"reserved":0,"last_update":"0001-01-01T00:00:00Z","name_a2s":"Uncletopia | Chicago | 5 | All Maps","protocol":17,"map":"pl_swiftwater_final1","folder":"tf","game":"Team Fortress","app_id":440,"player_count":24,"max_players":24,"Bots":0,"server_type":"Dedicated","server_os":"Linux","password":true,"vac":true,"version":"7932396","steam_id":85568392924866362,"keywords":["nocrits","nodmgspread","payload","uncletopia"],"game_id":440,"stv_port":27016,"stv_name":"Uncletopia | Chicago | 5 | All Maps | STV","players":[{"user_id":221,"name":"moe","steam_id":76561198929586245,"connected_time":566000000000,"state":"active","ping":103},{"user_id":206,"name":"Retro Phoenix","steam_id":76561198077176271,"connected_time":2912000000000,"state":"active","ping":60},{"user_id":196,"name":"The GrillMaster","steam_id":76561199088154401,"connected_time":3867000000000,"state":"active","ping":67},{"user_id":225,"name":"demoknight tf2","steam_id":76561198070393998,"connected_time":417000000000,"state":"active","ping":58},{"user_id":212,"name":"CrazyKermitRubes","steam_id":76561198009065204,"connected_time":2219000000000,"state":"active","ping":83},{"user_id":147,"name":"Versuski","steam_id":76561198085193084,"connected_time":6671000000000,"state":"active","ping":69},{"user_id":220,"name":"TheSnoringAki","steam_id":76561199049120809,"connected_time":574000000000,"state":"active","ping":86},{"user_id":194,"name":"ShawnLmao","steam_id":76561198350691501,"connected_time":3912000000000,"state":"active","ping":171},{"user_id":193,"name":"Tri-Dot","steam_id":76561199075186597,"connected_time":4072000000000,"state":"active","ping":66},{"user_id":214,"name":"ShellBug","steam_id":76561198144187527,"connected_time":1490000000000,"state":"active","ping":66},{"user_id":205,"name":"Monolith Soldier","steam_id":76561198171898155,"connected_time":3354000000000,"state":"active","ping":60},{"user_id":185,"name":"Casual Costanza","steam_id":76561198024409325,"connected_time":5100000000000,"state":"active","ping":64},{"user_id":223,"name":"GRONT","steam_id":76561198040464533,"connected_time":449000000000,"state":"active","ping":76},{"user_id":161,"name":"hido","steam_id":76561199190501445,"connected_time":6475000000000,"state":"active","ping":72},{"user_id":199,"name":"Stryder","steam_id":76561199387418697,"connected_time":3825000000000,"state":"active","ping":98},{"user_id":219,"name":"Left My Shotgun At Home","steam_id":76561199082148884,"connected_time":603000000000,"state":"active","ping":116},{"user_id":184,"name":"Mr_Frosty","steam_id":76561199380389079,"connected_time":5153000000000,"state":"active","ping":97},{"user_id":218,"name":"CyberZayne","steam_id":76561198002351356,"connected_time":1110000000000,"state":"active","ping":80},{"user_id":227,"name":"AKK0","steam_id":76561199063194145,"connected_time":202000000000,"state":"active","ping":106},{"user_id":224,"name":"MayKaye","steam_id":76561199016092265,"connected_time":449000000000,"state":"active","ping":101},{"user_id":213,"name":"Portal2Player","steam_id":76561198062870114,"connected_time":2219000000000,"state":"active","ping":79},{"user_id":204,"name":"TheSky4lif","steam_id":76561198871331139,"connected_time":3532000000000,"state":"active","ping":74},{"user_id":217,"name":"FiddyFoMike","steam_id":76561198057072581,"connected_time":1180000000000,"state":"active","ping":98},{"user_id":226,"name":"The Super Mario Bros. Movie","steam_id":76561198871692156,"connected_time":396000000000,"state":"active","ping":106}]},{"server_id":37,"name":"Uncletopia | Chicago | 6 | All Maps","name_short":"chi-6","host":"chi-2.us.uncletopia.com","port":27025,"enabled":true,"region":"us-central","cc":"us","latitude":41.881832,"longitude":-87.62318,"reserved":0,"last_update":"0001-01-01T00:00:00Z","name_a2s":"Uncletopia | Chicago | 6 | All Maps","protocol":17,"map":"koth_viaduct","folder":"tf","game":"Team Fortress","app_id":440,"player_count":0,"max_players":24,"Bots":0,"server_type":"Dedicated","server_os":"Linux","password":true,"vac":true,"version":"7932396","steam_id":85568392924866363,"keywords":["cp","nocrits","nodmgspread","uncletopia"],"game_id":440,"stv_port":27026,"stv_name":"Uncletopia | Chicago | 6 | All Maps | STV","players":null},{"server_id":38,"name":"Uncletopia | Chicago | 7 | Stopwatch Beta","name_short":"chi-7","host":"chi-2.us.uncletopia.com","port":27035,"enabled":true,"region":"us-central","cc":"us","latitude":41.881832,"longitude":-87.62318,"reserved":0,"last_update":"0001-01-01T00:00:00Z","name_a2s":"Uncletopia | Chicago | 7 | Stopwatch Beta","protocol":17,"map":"workshop/koth_ashville_final.ugc2130459942","folder":"tf","game":"Team Fortress","app_id":440,"player_count":0,"max_players":24,"Bots":0,"server_type":"Dedicated","server_os":"Linux","password":true,"vac":true,"version":"7932396","steam_id":85568392924866364,"keywords":["cp","nocrits","nodmgspread","uncletopia"],"game_id":440,"stv_port":27036,"stv_name":"Uncletopia | Chicago | 7 | Stopwatch Beta | STV","players":null},{"server_id":39,"name":"Uncletopia | Chicago | 8 | Community","name_short":"chi-8","host":"chi-2.us.uncletopia.com","port":27045,"enabled":true,"region":"us-central","cc":"us","latitude":41.881832,"longitude":-87.62318,"reserved":0,"last_update":"0001-01-01T00:00:00Z","name_a2s":"Uncletopia | Chicago | 8 | Community","protocol":17,"map":"workshop/pl_fifthcurve_rc1.ugc648227046","folder":"tf","game":"Team Fortress","app_id":440,"player_count":18,"max_players":24,"Bots":0,"server_type":"Dedicated","server_os":"Linux","password":true,"vac":true,"version":"7932396","steam_id":85568392924866365,"keywords":["nocrits","nodmgspread","payload","uncletopia"],"game_id":440,"stv_port":27046,"stv_name":"Uncletopia | Chicago | 8 | Community | STV","players":[{"user_id":543,"name":"Weapon X","steam_id":76561198075570893,"connected_time":160000000000,"state":"active","ping":72},{"user_id":537,"name":"sock_vendor","steam_id":76561198059103865,"connected_time":631000000000,"state":"active","ping":71},{"user_id":538,"name":"dweamy","steam_id":76561198119181880,"connected_time":630000000000,"state":"active","ping":60},{"user_id":544,"name":"RaTtYc","steam_id":76561198954419354,"connected_time":152000000000,"state":"active","ping":106},{"user_id":545,"name":"Caster","steam_id":76561198131592341,"connected_time":140000000000,"state":"active","ping":103},{"user_id":539,"name":"GrabHis_AndTwist_It","steam_id":76561198139155108,"connected_time":627000000000,"state":"active","ping":79},{"user_id":541,"name":"typhoon","steam_id":76561198165123178,"connected_time":406000000000,"state":"active","ping":74},{"user_id":477,"name":"ole_diggy","steam_id":76561198970212746,"connected_time":5289000000000,"state":"active","ping":65},{"user_id":546,"name":"PostBASH","steam_id":76561199194134673,"connected_time":100000000000,"state":"active","ping":87},{"user_id":509,"name":"fac_73","steam_id":76561198064692697,"connected_time":3230000000000,"state":"active","ping":70},{"user_id":542,"name":"ChozoChorizo","steam_id":76561198272609196,"connected_time":332000000000,"state":"active","ping":58},{"user_id":516,"name":"One Canadian Derg","steam_id":76561198212687343,"connected_time":2775000000000,"state":"active","ping":86},{"user_id":530,"name":"LEGEND OF THE PLUG!!!!!!!!!!!!","steam_id":76561198408436344,"connected_time":1420000000000,"state":"active","ping":104},{"user_id":540,"name":"GiraffeMan","steam_id":76561198042104084,"connected_time":595000000000,"state":"active","ping":65},{"user_id":547,"name":"Tick","steam_id":76561198184161214,"connected_time":86000000000,"state":"active","ping":42},{"user_id":548,"name":"SkyArrow","steam_id":76561198188303578,"connected_time":3000000000,"state":"spawning","ping":71},{"user_id":500,"name":"Lovedaddy","steam_id":76561198006569710,"connected_time":4123000000000,"state":"active","ping":82},{"user_id":532,"name":"Aeris","steam_id":76561198287271028,"connected_time":1245000000000,"state":"active","ping":54}]},{"server_id":8,"name":"Uncletopia | Dallas | 1 | All Maps","name_short":"dal-1","host":"dal-1.us.uncletopia.com","port":27015,"enabled":true,"region":"us-central","cc":"us","latitude":32.779167,"longitude":-96.80889,"reserved":0,"last_update":"0001-01-01T00:00:00Z","name_a2s":"Uncletopia | Dallas | 1 | All Maps","protocol":17,"map":"koth_viaduct","folder":"tf","game":"Team Fortress","app_id":440,"player_count":24,"max_players":24,"Bots":0,"server_type":"Dedicated","server_os":"Linux","password":true,"vac":true,"version":"7932396","steam_id":85568392924469986,"keywords":["cp","nocrits","nodmgspread","uncletopia"],"game_id":440,"stv_port":27016,"stv_name":"Uncletopia | Dallas | 1 | All Maps | STV","players":[{"user_id":563,"name":"NOT Susie Deltarune (not real)","steam_id":76561199007365488,"connected_time":1000000000,"state":"spawning","ping":45},{"user_id":447,"name":"Gelliterate","steam_id":76561198107233070,"connected_time":5485000000000,"state":"active","ping":46},{"user_id":549,"name":"Dr. Kaine","steam_id":76561197982183984,"connected_time":649000000000,"state":"active","ping":114},{"user_id":550,"name":"choi","steam_id":76561198053669887,"connected_time":596000000000,"state":"active","ping":89},{"user_id":560,"name":"fernando","steam_id":76561198142586591,"connected_time":320000000000,"state":"active","ping":60},{"user_id":516,"name":"RockMan","steam_id":76561199228684720,"connected_time":2330000000000,"state":"active","ping":57},{"user_id":547,"name":"Chhaam","steam_id":76561198058508132,"connected_time":804000000000,"state":"active","ping":69},{"user_id":546,"name":"slim goodbody","steam_id":76561197997100185,"connected_time":816000000000,"state":"active","ping":65},{"user_id":540,"name":"neo :)","steam_id":76561199092954930,"connected_time":1266000000000,"state":"active","ping":79},{"user_id":514,"name":"BADWOLF42","steam_id":76561198055447523,"connected_time":2957000000000,"state":"active","ping":54},{"user_id":559,"name":"seats","steam_id":76561197998756039,"connected_time":392000000000,"state":"active","ping":75},{"user_id":525,"name":"Sigiferd","steam_id":76561198148788110,"connected_time":2113000000000,"state":"active","ping":157},{"user_id":562,"name":"Ace","steam_id":76561198878661482,"connected_time":103000000000,"state":"active","ping":37},{"user_id":530,"name":"The Elder Hobo","steam_id":76561198039357659,"connected_time":1924000000000,"state":"active","ping":83},{"user_id":502,"name":"frank","steam_id":76561198045499333,"connected_time":3316000000000,"state":"active","ping":81},{"user_id":561,"name":"ElZeto","steam_id":76561198252322622,"connected_time":263000000000,"state":"active","ping":88},{"user_id":535,"name":"Publo","steam_id":76561198161777140,"connected_time":1626000000000,"state":"active","ping":54},{"user_id":556,"name":"Sup m8","steam_id":76561198081659121,"connected_time":484000000000,"state":"active","ping":44},{"user_id":533,"name":"Spinch","steam_id":76561198296224166,"connected_time":1758000000000,"state":"active","ping":81},{"user_id":501,"name":"Roxie (she/her)","steam_id":76561198283084060,"connected_time":3329000000000,"state":"active","ping":83},{"user_id":545,"name":"john_minecraft05","steam_id":76561198354026474,"connected_time":828000000000,"state":"active","ping":80},{"user_id":534,"name":"Jo","steam_id":76561198060447015,"connected_time":1740000000000,"state":"active","ping":81},{"user_id":557,"name":"SneekiCheekiQbone","steam_id":76561198045077980,"connected_time":469000000000,"state":"active","ping":75},{"user_id":511,"name":"DragonLord","steam_id":76561198074279225,"connected_time":3125000000000,"state":"active","ping":161}]},{"server_id":108,"name":"Uncletopia | Dallas | 2 | All Maps","name_short":"dal-2","host":"dal-1.us.uncletopia.com","port":27025,"enabled":true,"region":"us-central","cc":"us","latitude":32.779167,"longitude":-96.80889,"reserved":0,"last_update":"0001-01-01T00:00:00Z","name_a2s":"Uncletopia | Dallas | 2 | All Maps","protocol":17,"map":"pl_badwater","folder":"tf","game":"Team Fortress","app_id":440,"player_count":24,"max_players":24,"Bots":0,"server_type":"Dedicated","server_os":"Linux","password":true,"vac":true,"version":"7932396","steam_id":85568392924469988,"keywords":["nocrits","nodmgspread","payload","uncletopia"],"game_id":440,"stv_port":27026,"stv_name":"Uncletopia | Dallas | 2 | All Maps | STV","players":[{"user_id":384,"name":"RedMustrd","steam_id":76561199246218857,"connected_time":2047000000000,"state":"active","ping":88},{"user_id":406,"name":"Vorpas Jabwak","steam_id":76561198112186064,"connected_time":1098000000000,"state":"active","ping":74},{"user_id":382,"name":"Onyx","steam_id":76561198275349640,"connected_time":2067000000000,"state":"active","ping":58},{"user_id":409,"name":"Alkimia","steam_id":76561198385763137,"connected_time":875000000000,"state":"active","ping":193},{"user_id":400,"name":"NotTryingToWin","steam_id":76561199013705323,"connected_time":1413000000000,"state":"active","ping":56},{"user_id":413,"name":"LLaigend","steam_id":76561199099862138,"connected_time":332000000000,"state":"active","ping":54},{"user_id":416,"name":"Pansake","steam_id":76561199488189494,"connected_time":308000000000,"state":"active","ping":145},{"user_id":401,"name":"Female Gamer","steam_id":76561199366482682,"connected_time":1403000000000,"state":"active","ping":113},{"user_id":397,"name":"skeleton the stairphobic","steam_id":76561198315213115,"connected_time":1513000000000,"state":"active","ping":85},{"user_id":349,"name":"Moonflower ✦","steam_id":76561198191782483,"connected_time":5143000000000,"state":"active","ping":48},{"user_id":417,"name":"30 fps gaming","steam_id":76561199216756079,"connected_time":267000000000,"state":"active","ping":97},{"user_id":402,"name":"Bunghole Drugs","steam_id":76561198030374890,"connected_time":1399000000000,"state":"active","ping":85},{"user_id":377,"name":"selvhat","steam_id":76561198114225509,"connected_time":3483000000000,"state":"active","ping":87},{"user_id":383,"name":"errant","steam_id":76561197961758410,"connected_time":2065000000000,"state":"active","ping":37},{"user_id":414,"name":"TheGFG","steam_id":76561198166150556,"connected_time":322000000000,"state":"active","ping":69},{"user_id":420,"name":"Drapph","steam_id":76561199384213314,"connected_time":5000000000,"state":"spawning","ping":304},{"user_id":419,"name":"GoiDimLi","steam_id":76561198053286433,"connected_time":246000000000,"state":"active","ping":149},{"user_id":415,"name":"sagekiss","steam_id":76561198038831240,"connected_time":320000000000,"state":"active","ping":106},{"user_id":358,"name":"Holly she/her","steam_id":76561198982631429,"connected_time":4238000000000,"state":"active","ping":70},{"user_id":374,"name":"Piggy","steam_id":76561198000399862,"connected_time":3728000000000,"state":"active","ping":85},{"user_id":398,"name":"seriousbirb","steam_id":76561199047851076,"connected_time":1509000000000,"state":"active","ping":114},{"user_id":403,"name":"TalkyBard2197","steam_id":76561198069596456,"connected_time":1388000000000,"state":"active","ping":88},{"user_id":408,"name":"Nate","steam_id":76561198036327396,"connected_time":1057000000000,"state":"active","ping":90},{"user_id":369,"name":"B.","steam_id":76561198040445907,"connected_time":4014000000000,"state":"active","ping":75}]},{"server_id":5,"name":"Uncletopia | Frankfurt | 1 | All Maps","name_short":"frk-1","host":"frk-1.de.uncletopia.com","port":27015,"enabled":true,"region":"eu","cc":"de","latitude":50.110924,"longitude":8.682127,"reserved":0,"last_update":"0001-01-01T00:00:00Z","name_a2s":"Uncletopia | Frankfurt | 1 | All Maps","protocol":17,"map":"cp_snakewater_final1","folder":"tf","game":"Team Fortress","app_id":440,"player_count":0,"max_players":24,"Bots":0,"server_type":"Dedicated","server_os":"Linux","password":true,"vac":true,"version":"7932396","steam_id":85568392924469989,"keywords":["cp","nocrits","nodmgspread","uncletopia"],"game_id":440,"stv_port":27016,"stv_name":"Uncletopia | Frankfurt | 1 | All Maps | STV","players":null},{"server_id":110,"name":"Uncletopia | Frankfurt | 2 | All Maps","name_short":"frk-2","host":"frk-1.de.uncletopia.com","port":27025,"enabled":true,"region":"eu","cc":"de","latitude":50.110924,"longitude":8.682127,"reserved":0,"last_update":"0001-01-01T00:00:00Z","name_a2s":"Uncletopia | Frankfurt | 2 | All Maps","protocol":17,"map":"cp_process_final","folder":"tf","game":"Team Fortress","app_id":440,"player_count":24,"max_players":24,"Bots":0,"server_type":"Dedicated","server_os":"Linux","password":true,"vac":true,"version":"7932396","steam_id":85568392924469990,"keywords":["cp","nocrits","nodmgspread","uncletopia"],"game_id":440,"stv_port":27026,"stv_name":"Uncletopia | Frankfurt | 2 | All Maps | STV","players":[{"user_id":441,"name":"ducksattack","steam_id":76561198074706076,"connected_time":5618000000000,"state":"active","ping":78},{"user_id":487,"name":"UNRL","steam_id":76561198167986695,"connected_time":1740000000000,"state":"active","ping":45},{"user_id":442,"name":"The_Axe_Theory","steam_id":76561198424919706,"connected_time":5613000000000,"state":"active","ping":71},{"user_id":508,"name":"DobreStarachowickie","steam_id":76561198027126737,"connected_time":92000000000,"state":"active","ping":73},{"user_id":490,"name":"Cosmetic brain","steam_id":76561198055936410,"connected_time":1668000000000,"state":"active","ping":81},{"user_id":446,"name":"Antifaschistischer","steam_id":76561198452588605,"connected_time":5115000000000,"state":"active","ping":46},{"user_id":509,"name":"berahne khosh hal","steam_id":76561198327135462,"connected_time":48000000000,"state":"active","ping":157},{"user_id":505,"name":"Pestdoktor","steam_id":76561198058159271,"connected_time":549000000000,"state":"active","ping":58},{"user_id":501,"name":"I_Forgot_My_Name","steam_id":76561198173424578,"connected_time":1082000000000,"state":"active","ping":68},{"user_id":506,"name":"Buddy","steam_id":76561198050185582,"connected_time":545000000000,"state":"active","ping":74},{"user_id":457,"name":"wardex","steam_id":76561198058776834,"connected_time":4409000000000,"state":"active","ping":45},{"user_id":510,"name":"Dudepile","steam_id":76561198005831909,"connected_time":10000000000,"state":"spawning","ping":101},{"user_id":500,"name":"Famous Collector","steam_id":76561198097693666,"connected_time":1162000000000,"state":"active","ping":48},{"user_id":494,"name":"Ječmen","steam_id":76561198051617968,"connected_time":1431000000000,"state":"active","ping":84},{"user_id":495,"name":"big stewie","steam_id":76561198147173457,"connected_time":1422000000000,"state":"active","ping":64},{"user_id":484,"name":"Seb, Comrade","steam_id":76561198040279587,"connected_time":1842000000000,"state":"active","ping":91},{"user_id":507,"name":"Jouppi","steam_id":76561198063725468,"connected_time":532000000000,"state":"active","ping":111},{"user_id":466,"name":"Jeffrey Harpen","steam_id":76561199073314677,"connected_time":4078000000000,"state":"active","ping":65},{"user_id":497,"name":"Adrheus","steam_id":76561198149775630,"connected_time":1404000000000,"state":"active","ping":75},{"user_id":498,"name":"irvikuva","steam_id":76561198091440740,"connected_time":1379000000000,"state":"active","ping":106},{"user_id":499,"name":"Здоровенькі були","steam_id":76561198201706527,"connected_time":1375000000000,"state":"active","ping":65},{"user_id":386,"name":"Dagda","steam_id":76561198871136698,"connected_time":9938000000000,"state":"active","ping":53},{"user_id":502,"name":"Swedish Vegan","steam_id":76561198042775020,"connected_time":1082000000000,"state":"active","ping":74},{"user_id":476,"name":"fredu","steam_id":76561198107605938,"connected_time":3511000000000,"state":"active","ping":84}]},{"server_id":308,"name":"Uncletopia | Frankfurt | 3 | All Maps","name_short":"frk-3","host":"frk-1.de.uncletopia.com","port":27035,"enabled":true,"region":"eu","cc":"de","latitude":50.110924,"longitude":8.682127,"reserved":0,"last_update":"0001-01-01T00:00:00Z","name_a2s":"Uncletopia | Frankfurt | 3 | All Maps","protocol":17,"map":"koth_highpass","folder":"tf","game":"Team Fortress","app_id":440,"player_count":0,"max_players":24,"Bots":0,"server_type":"Dedicated","server_os":"Linux","password":true,"vac":true,"version":"7932396","steam_id":85568392924504274,"keywords":["cp","nocrits","nodmgspread","uncletopia"],"game_id":440,"stv_port":27036,"stv_name":"Uncletopia | Frankfurt | 3 | All Maps | STV","players":null},{"server_id":309,"name":"Uncletopia | Frankfurt | 4 | All Maps","name_short":"frk-4","host":"frk-1.de.uncletopia.com","port":27045,"enabled":true,"region":"eu","cc":"de","latitude":50.110924,"longitude":8.682127,"reserved":0,"last_update":"0001-01-01T00:00:00Z","name_a2s":"Uncletopia | Frankfurt | 4 | All Maps","protocol":17,"map":"koth_nucleus","folder":"tf","game":"Team Fortress","app_id":440,"player_count":23,"max_players":24,"Bots":0,"server_type":"Dedicated","server_os":"Linux","password":true,"vac":true,"version":"7932396","steam_id":85568392924504275,"keywords":["cp","nocrits","nodmgspread","uncletopia"],"game_id":440,"stv_port":27046,"stv_name":"Uncletopia | Frankfurt | 4 | All Maps | STV","players":[{"user_id":337,"name":"Jameegi","steam_id":76561197970466542,"connected_time":1011000000000,"state":"active","ping":65},{"user_id":345,"name":"FluoducK","steam_id":76561198158175778,"connected_time":484000000000,"state":"active","ping":83},{"user_id":320,"name":"RAZOR_7","steam_id":76561198027222035,"connected_time":2907000000000,"state":"active","ping":80},{"user_id":342,"name":"(large)","steam_id":76561198020340561,"connected_time":679000000000,"state":"active","ping":67},{"user_id":334,"name":"cl","steam_id":76561199436640904,"connected_time":1326000000000,"state":"active","ping":77},{"user_id":325,"name":"KFC worker","steam_id":76561199403752637,"connected_time":2480000000000,"state":"active","ping":52},{"user_id":307,"name":"Gravy","steam_id":76561198029548074,"connected_time":3319000000000,"state":"active","ping":73},{"user_id":327,"name":"Nyhde","steam_id":76561198012771416,"connected_time":2302000000000,"state":"active","ping":103},{"user_id":302,"name":"foul beast","steam_id":76561198055389492,"connected_time":3578000000000,"state":"active","ping":53},{"user_id":351,"name":"slippin jimmy","steam_id":76561198090788590,"connected_time":59000000000,"state":"active","ping":55},{"user_id":346,"name":"The penis scooter","steam_id":76561198173218318,"connected_time":467000000000,"state":"active","ping":51},{"user_id":349,"name":"AestheticalZ","steam_id":76561198269554197,"connected_time":128000000000,"state":"active","ping":62},{"user_id":301,"name":"Yelowchy","steam_id":76561198199416121,"connected_time":3705000000000,"state":"active","ping":61},{"user_id":350,"name":"akakez","steam_id":76561198095432821,"connected_time":126000000000,"state":"active","ping":119},{"user_id":341,"name":"Dandroid7","steam_id":76561198947673092,"connected_time":781000000000,"state":"active","ping":46},{"user_id":317,"name":"Wonkglorg","steam_id":76561198302060474,"connected_time":2996000000000,"state":"active","ping":67},{"user_id":353,"name":"XL54M15Y","steam_id":76561198048250715,"connected_time":36000000000,"state":"active","ping":48},{"user_id":354,"name":"Dr. Livesey","steam_id":76561199032936213,"connected_time":10000000000,"state":"active","ping":70},{"user_id":263,"name":"pos","steam_id":76561198026132442,"connected_time":5968000000000,"state":"active","ping":82},{"user_id":328,"name":"heavy TF2 live reaction","steam_id":76561198082502910,"connected_time":2186000000000,"state":"active","ping":52},{"user_id":316,"name":"Flostro","steam_id":76561198259793697,"connected_time":3009000000000,"state":"active","ping":59},{"user_id":318,"name":"Piteras","steam_id":76561198858532207,"connected_time":2996000000000,"state":"active","ping":88},{"user_id":281,"name":"lurid","steam_id":76561198063159528,"connected_time":4557000000000,"state":"active","ping":53}]},{"server_id":310,"name":"Uncletopia | Frankfurt | 5 | All Maps","name_short":"frk-5","host":"frk-1.de.uncletopia.com","port":27055,"enabled":true,"region":"eu","cc":"de","latitude":50.110924,"longitude":8.682127,"reserved":0,"last_update":"0001-01-01T00:00:00Z","name_a2s":"Uncletopia | Frankfurt | 5 | All Maps","protocol":17,"map":"koth_highpass","folder":"tf","game":"Team Fortress","app_id":440,"player_count":0,"max_players":24,"Bots":0,"server_type":"Dedicated","server_os":"Linux","password":true,"vac":true,"version":"7932396","steam_id":85568392924504277,"keywords":["cp","nocrits","nodmgspread","uncletopia"],"game_id":440,"stv_port":27056,"stv_name":"Uncletopia | Frankfurt | 5 | All Maps | STV","players":null},{"server_id":311,"name":"Uncletopia | Frankfurt | 6 | All Maps","name_short":"frk-6","host":"frk-1.de.uncletopia.com","port":27065,"enabled":true,"region":"eu","cc":"de","latitude":50.110924,"longitude":8.682127,"reserved":0,"last_update":"0001-01-01T00:00:00Z","name_a2s":"Uncletopia | Frankfurt | 6 | All Maps","protocol":17,"map":"pl_snowycoast","folder":"tf","game":"Team Fortress","app_id":440,"player_count":0,"max_players":24,"Bots":0,"server_type":"Dedicated","server_os":"Linux","password":true,"vac":true,"version":"7932396","steam_id":85568392924504278,"keywords":["nocrits","nodmgspread","payload","uncletopia"],"game_id":440,"stv_port":27066,"stv_name":"Uncletopia | Frankfurt | 6 | All Maps | STV","players":null},{"server_id":23,"name":"Uncletopia | Frankfurt | 7 | Stopwatch Beta","name_short":"frk-7","host":"frk-1.de.uncletopia.com","port":27075,"enabled":true,"region":"eu","cc":"de","latitude":50.110924,"longitude":8.682127,"reserved":0,"last_update":"0001-01-01T00:00:00Z","name_a2s":"Uncletopia | Frankfurt | 7 | Stopwatch Beta","protocol":17,"map":"pl_snowycoast","folder":"tf","game":"Team Fortress","app_id":440,"player_count":0,"max_players":24,"Bots":0,"server_type":"Dedicated","server_os":"Linux","password":true,"vac":true,"version":"7932396","steam_id":85568392924742827,"keywords":["nocrits","nodmgspread","payload","uncletopia"],"game_id":440,"stv_port":27076,"stv_name":"Uncletopia | Frankfurt | 7 | Stopwatch Beta | STV","players":null},{"server_id":24,"name":"Uncletopia | Frankfurt | 8 | Community","name_short":"frk-8","host":"frk-1.de.uncletopia.com","port":27085,"enabled":true,"region":"eu","cc":"de","latitude":50.110924,"longitude":8.682127,"reserved":0,"last_update":"0001-01-01T00:00:00Z","name_a2s":"Uncletopia | Frankfurt | 8 | Community","protocol":17,"map":"workshop/cp_bruhstbowl_b6.ugc2878604990","folder":"tf","game":"Team Fortress","app_id":440,"player_count":0,"max_players":24,"Bots":0,"server_type":"Dedicated","server_os":"Linux","password":true,"vac":true,"version":"7932396","steam_id":85568392924742828,"keywords":["cp","nocrits","nodmgspread","uncletopia"],"game_id":440,"stv_port":27086,"stv_name":"Uncletopia | Frankfurt | 8 | Community | STV","players":null},{"server_id":202,"name":"Uncletopia | Hong Kong | 1 | All Maps","name_short":"hgk-1","host":"hgk-1.hk.uncletopia.com","port":27015,"enabled":true,"region":"asia","cc":"hk","latitude":22.302711,"longitude":114.177216,"reserved":0,"last_update":"0001-01-01T00:00:00Z","name_a2s":"Uncletopia | Hong Kong | 1 | All Maps","protocol":17,"map":"cp_altitude","folder":"tf","game":"Team Fortress","app_id":440,"player_count":0,"max_players":24,"Bots":0,"server_type":"Dedicated","server_os":"Linux","password":true,"vac":true,"version":"7932396","steam_id":85568392924494504,"keywords":["cp","nocrits","nodmgspread","uncletopia"],"game_id":440,"stv_port":27016,"stv_name":"Uncletopia | Hong Kong | 1 | All Maps | STV","players":null},{"server_id":1,"name":"Uncletopia | Los Angeles | 1 | All Maps","name_short":"lax-1","host":"lax-1.us.uncletopia.com","port":27015,"enabled":true,"region":"us-west","cc":"us","latitude":33.94279,"longitude":-118.41004,"reserved":0,"last_update":"0001-01-01T00:00:00Z","name_a2s":"Uncletopia | Los Angeles | 1 | All Maps","protocol":17,"map":"koth_viaduct","folder":"tf","game":"Team Fortress","app_id":440,"player_count":0,"max_players":24,"Bots":0,"server_type":"Dedicated","server_os":"Linux","password":true,"vac":true,"version":"7932396","steam_id":85568392924469991,"keywords":["cp","nocrits","nodmgspread","uncletopia"],"game_id":440,"stv_port":27016,"stv_name":"Uncletopia | Los Angeles | 1 | All Maps | STV","players":null},{"server_id":112,"name":"Uncletopia | Los Angeles | 2 | All Maps","name_short":"lax-2","host":"lax-1.us.uncletopia.com","port":27025,"enabled":true,"region":"us-west","cc":"us","latitude":33.94279,"longitude":-118.41004,"reserved":0,"last_update":"0001-01-01T00:00:00Z","name_a2s":"Uncletopia | Los Angeles | 2 | All Maps","protocol":17,"map":"pl_snowycoast","folder":"tf","game":"Team Fortress","app_id":440,"player_count":0,"max_players":24,"Bots":0,"server_type":"Dedicated","server_os":"Linux","password":true,"vac":true,"version":"7932396","steam_id":85568392924469992,"keywords":["nocrits","nodmgspread","payload","uncletopia"],"game_id":440,"stv_port":27026,"stv_name":"Uncletopia | Los Angeles | 2 | All Maps | STV","players":null},{"server_id":324,"name":"Uncletopia | Los Angeles | 3 | All Maps","name_short":"lax-3","host":"lax-1.us.uncletopia.com","port":27035,"enabled":true,"region":"us-west","cc":"us","latitude":33.94279,"longitude":-118.41004,"reserved":0,"last_update":"0001-01-01T00:00:00Z","name_a2s":"Uncletopia | Los Angeles | 3 | All Maps","protocol":17,"map":"pl_snowycoast","folder":"tf","game":"Team Fortress","app_id":440,"player_count":24,"max_players":24,"Bots":0,"server_type":"Dedicated","server_os":"Linux","password":true,"vac":true,"version":"7932396","steam_id":85568392924510198,"keywords":["nocrits","nodmgspread","payload","uncletopia"],"game_id":440,"stv_port":27036,"stv_name":"Uncletopia | Los Angeles | 3 | All Maps | STV","players":[{"user_id":279,"name":"Low Poly Jerma","steam_id":76561198042689943,"connected_time":2039000000000,"state":"active","ping":109},{"user_id":294,"name":"fish","steam_id":76561198194508197,"connected_time":936000000000,"state":"active","ping":73},{"user_id":286,"name":"Honeybunch","steam_id":76561198014850580,"connected_time":1698000000000,"state":"active","ping":68},{"user_id":276,"name":"SanitysEdge","steam_id":76561198130732813,"connected_time":2122000000000,"state":"active","ping":47},{"user_id":304,"name":"Sidekick","steam_id":76561198392740835,"connected_time":167000000000,"state":"active","ping":71},{"user_id":274,"name":"Korn Dawg","steam_id":76561198026941076,"connected_time":2176000000000,"state":"active","ping":42},{"user_id":293,"name":"dave strider","steam_id":76561198065112186,"connected_time":979000000000,"state":"active","ping":73},{"user_id":288,"name":"Monsieur Pequeño","steam_id":76561198327271041,"connected_time":1653000000000,"state":"active","ping":79},{"user_id":289,"name":"SCUD missile up your ass","steam_id":76561198066452726,"connected_time":1576000000000,"state":"active","ping":48},{"user_id":283,"name":"breakfast","steam_id":76561198043712978,"connected_time":1807000000000,"state":"active","ping":58},{"user_id":273,"name":"FemboyMilk ❤","steam_id":76561198387324643,"connected_time":2187000000000,"state":"active","ping":59},{"user_id":297,"name":"Deputy Dexin","steam_id":76561198419852659,"connected_time":664000000000,"state":"active","ping":65},{"user_id":236,"name":"dewey","steam_id":76561198132791511,"connected_time":5502000000000,"state":"active","ping":58},{"user_id":298,"name":"LSD Machine","steam_id":76561198348227503,"connected_time":579000000000,"state":"active","ping":105},{"user_id":299,"name":"Quagsire Acquired","steam_id":76561198417169465,"connected_time":570000000000,"state":"active","ping":92},{"user_id":300,"name":"NovusOrdoDux","steam_id":76561198271936289,"connected_time":564000000000,"state":"active","ping":118},{"user_id":301,"name":"Jhon Xina","steam_id":76561198411174051,"connected_time":503000000000,"state":"active","ping":74},{"user_id":264,"name":"PKDarkness","steam_id":76561198103180140,"connected_time":3517000000000,"state":"active","ping":119},{"user_id":252,"name":"..flop","steam_id":76561197989058876,"connected_time":4311000000000,"state":"active","ping":68},{"user_id":266,"name":"bebo","steam_id":76561198385085005,"connected_time":3133000000000,"state":"active","ping":61},{"user_id":280,"name":"Chad Anti-Vok the Crotch Blaste","steam_id":76561198129979342,"connected_time":1988000000000,"state":"active","ping":72},{"user_id":302,"name":"Envoy","steam_id":76561198170253694,"connected_time":477000000000,"state":"active","ping":88},{"user_id":281,"name":"Dogg wader","steam_id":76561199090314340,"connected_time":1939000000000,"state":"active","ping":94},{"user_id":282,"name":"el wokismo","steam_id":76561198058617608,"connected_time":1909000000000,"state":"active","ping":53}]},{"server_id":25,"name":"Uncletopia | Los Angeles | 4 | Stopwatch Beta","name_short":"lax-4","host":"lax-1.us.uncletopia.com","port":27045,"enabled":true,"region":"us-west","cc":"us","latitude":33.94279,"longitude":-118.41004,"reserved":0,"last_update":"0001-01-01T00:00:00Z","name_a2s":"Uncletopia | Los Angeles | 4 | Stopwatch Beta","protocol":17,"map":"cp_altitude","folder":"tf","game":"Team Fortress","app_id":440,"player_count":0,"max_players":24,"Bots":0,"server_type":"Dedicated","server_os":"Linux","password":true,"vac":true,"version":"7932396","steam_id":85568392924510199,"keywords":["cp","nocrits","nodmgspread","uncletopia"],"game_id":440,"stv_port":27046,"stv_name":"Uncletopia | Los Angeles | 4 | Stopwatch Beta | STV","players":null},{"server_id":11,"name":"Uncletopia | London | 1 | All Maps","name_short":"lon-1","host":"lon-1.uk.uncletopia.com","port":27015,"enabled":true,"region":"eu","cc":"gb","latitude":51.509865,"longitude":-0.118092,"reserved":0,"last_update":"0001-01-01T00:00:00Z","name_a2s":"Uncletopia | London | 1 | All Maps","protocol":17,"map":"pl_borneo","folder":"tf","game":"Team Fortress","app_id":440,"player_count":24,"max_players":24,"Bots":0,"server_type":"Dedicated","server_os":"Linux","password":true,"vac":true,"version":"7932396","steam_id":85568392924367362,"keywords":["nocrits","nodmgspread","payload","uncletopia"],"game_id":440,"stv_port":27016,"stv_name":"Uncletopia | London | 1 | All Maps | STV","players":[{"user_id":888,"name":"Femboy Gaming","steam_id":76561198174108515,"connected_time":2728000000000,"state":"active","ping":59},{"user_id":908,"name":"Seri","steam_id":76561198017135441,"connected_time":1862000000000,"state":"active","ping":48},{"user_id":866,"name":"aminoxsos","steam_id":76561198839741609,"connected_time":5087000000000,"state":"active","ping":78},{"user_id":865,"name":"♥aura♥","steam_id":76561198066258544,"connected_time":5198000000000,"state":"active","ping":62},{"user_id":828,"name":"nappo","steam_id":76561198060105180,"connected_time":7472000000000,"state":"active","ping":73},{"user_id":887,"name":"goff","steam_id":76561198118989010,"connected_time":2770000000000,"state":"active","ping":45},{"user_id":895,"name":"♥ Emma ♥","steam_id":76561198046796406,"connected_time":2589000000000,"state":"active","ping":54},{"user_id":874,"name":"Gety0","steam_id":76561198044387185,"connected_time":3909000000000,"state":"active","ping":101},{"user_id":896,"name":"Mymy","steam_id":76561198819871606,"connected_time":2515000000000,"state":"active","ping":94},{"user_id":905,"name":"AnalBypass1989","steam_id":76561198052356557,"connected_time":2179000000000,"state":"active","ping":70},{"user_id":897,"name":"A Pigeon","steam_id":76561198114090555,"connected_time":2501000000000,"state":"active","ping":73},{"user_id":870,"name":"Fish","steam_id":76561198152128484,"connected_time":4444000000000,"state":"active","ping":49},{"user_id":909,"name":"Chambersite","steam_id":76561198197022399,"connected_time":1405000000000,"state":"active","ping":75},{"user_id":907,"name":"ptsd","steam_id":76561199382587543,"connected_time":1923000000000,"state":"active","ping":69},{"user_id":855,"name":"SOPHIIEE","steam_id":76561198443798981,"connected_time":5523000000000,"state":"active","ping":58},{"user_id":854,"name":"Munibe","steam_id":76561198107967904,"connected_time":5526000000000,"state":"active","ping":61},{"user_id":911,"name":"Twin Ih","steam_id":76561198159968450,"connected_time":750000000000,"state":"active","ping":102},{"user_id":901,"name":"Sixie","steam_id":76561198251675360,"connected_time":2292000000000,"state":"active","ping":50},{"user_id":893,"name":"UltimateAura","steam_id":76561198338361324,"connected_time":2696000000000,"state":"active","ping":42},{"user_id":878,"name":"i put rocks in your mattress","steam_id":76561198072892783,"connected_time":3602000000000,"state":"active","ping":73},{"user_id":863,"name":"yeah","steam_id":76561198188642265,"connected_time":5283000000000,"state":"active","ping":57},{"user_id":768,"name":"sushii","steam_id":76561198297987372,"connected_time":10846000000000,"state":"active","ping":58},{"user_id":894,"name":"Adopted?","steam_id":76561198118667043,"connected_time":2682000000000,"state":"active","ping":45},{"user_id":886,"name":"arcSolver","steam_id":76561198212013944,"connected_time":3262000000000,"state":"active","ping":48}]},{"server_id":114,"name":"Uncletopia | London | 2 | All Maps","name_short":"lon-2","host":"lon-1.uk.uncletopia.com","port":27025,"enabled":true,"region":"eu","cc":"gb","latitude":51.509865,"longitude":-0.118092,"reserved":0,"last_update":"0001-01-01T00:00:00Z","name_a2s":"Uncletopia | London | 2 | All Maps","protocol":17,"map":"pl_pier","folder":"tf","game":"Team Fortress","app_id":440,"player_count":15,"max_players":24,"Bots":0,"server_type":"Dedicated","server_os":"Linux","password":true,"vac":true,"version":"7932396","steam_id":85568392924470941,"keywords":["nocrits","nodmgspread","payload","uncletopia"],"game_id":440,"stv_port":27026,"stv_name":"Uncletopia | London | 2 | All Maps | STV","players":[{"user_id":418,"name":"Moxen","steam_id":76561198132316488,"connected_time":256000000000,"state":"active","ping":144},{"user_id":397,"name":"Joxaren","steam_id":76561198049407893,"connected_time":3181000000000,"state":"active","ping":57},{"user_id":419,"name":"Weebot00","steam_id":76561199479204459,"connected_time":105000000000,"state":"active","ping":58},{"user_id":412,"name":"Kumquat","steam_id":76561198200490386,"connected_time":804000000000,"state":"active","ping":65},{"user_id":420,"name":"noided","steam_id":76561199480942903,"connected_time":74000000000,"state":"active","ping":74},{"user_id":409,"name":"LIGHTWEIGHT BABY","steam_id":76561198002761980,"connected_time":1662000000000,"state":"active","ping":56},{"user_id":421,"name":"armadillo","steam_id":76561198324656652,"connected_time":11000000000,"state":"spawning","ping":44},{"user_id":344,"name":"kaelan","steam_id":76561198001425310,"connected_time":6477000000000,"state":"active","ping":75},{"user_id":384,"name":"svantezch","steam_id":76561198373831657,"connected_time":4687000000000,"state":"active","ping":74},{"user_id":422,"name":"Genesis","steam_id":76561198999652040,"connected_time":6000000000,"state":"spawning","ping":46},{"user_id":339,"name":"REN","steam_id":76561198000596385,"connected_time":6579000000000,"state":"active","ping":78},{"user_id":342,"name":"biohazard.pt","steam_id":76561198088367808,"connected_time":6551000000000,"state":"active","ping":60},{"user_id":414,"name":"zelda","steam_id":76561198273358760,"connected_time":645000000000,"state":"active","ping":63},{"user_id":387,"name":"Pai Gregório","steam_id":76561197998349793,"connected_time":4592000000000,"state":"active","ping":60},{"user_id":416,"name":"U1F","steam_id":76561198053700703,"connected_time":567000000000,"state":"active","ping":105}]},{"server_id":320,"name":"Uncletopia | London | 3 | All Maps","name_short":"lon-3","host":"lon-1.uk.uncletopia.com","port":27035,"enabled":true,"region":"eu","cc":"gb","latitude":51.509865,"longitude":-0.118092,"reserved":0,"last_update":"0001-01-01T00:00:00Z","name_a2s":"Uncletopia | London | 3 | All Maps","protocol":17,"map":"cp_dustbowl","folder":"tf","game":"Team Fortress","app_id":440,"player_count":3,"max_players":24,"Bots":0,"server_type":"Dedicated","server_os":"Linux","password":true,"vac":true,"version":"7932396","steam_id":85568392924510192,"keywords":["cp","nocrits","nodmgspread","uncletopia"],"game_id":440,"stv_port":27036,"stv_name":"Uncletopia | London | 3 | All Maps | STV","players":[{"user_id":690,"name":"Adib al-asfar","steam_id":76561198095691592,"connected_time":2885000000000,"state":"active","ping":62},{"user_id":730,"name":"Samwell","steam_id":76561198182340393,"connected_time":161000000000,"state":"active","ping":46},{"user_id":676,"name":"Jospeh","steam_id":76561198120930790,"connected_time":3770000000000,"state":"active","ping":42}]},{"server_id":321,"name":"Uncletopia | London | 4 | All Maps","name_short":"lon-4","host":"lon-1.uk.uncletopia.com","port":27045,"enabled":true,"region":"eu","cc":"gb","latitude":51.509865,"longitude":-0.118092,"reserved":0,"last_update":"0001-01-01T00:00:00Z","name_a2s":"Uncletopia | London | 4 | All Maps","protocol":17,"map":"pl_barnblitz","folder":"tf","game":"Team Fortress","app_id":440,"player_count":24,"max_players":24,"Bots":0,"server_type":"Dedicated","server_os":"Linux","password":true,"vac":true,"version":"7932396","steam_id":85568392924510193,"keywords":["nocrits","nodmgspread","payload","uncletopia"],"game_id":440,"stv_port":27046,"stv_name":"Uncletopia | London | 4 | All Maps | STV","players":[{"user_id":130,"name":"Stranger in a Strange Land","steam_id":76561198049843671,"connected_time":5210000000000,"state":"active","ping":160},{"user_id":150,"name":"dochris.2","steam_id":76561198026478625,"connected_time":4038000000000,"state":"active","ping":53},{"user_id":199,"name":"Proud Jojo Fan #TF2SP","steam_id":76561198847327216,"connected_time":961000000000,"state":"active","ping":74},{"user_id":188,"name":"tigersonalex","steam_id":76561198197991235,"connected_time":2204000000000,"state":"active","ping":70},{"user_id":207,"name":"The Lady","steam_id":76561198029895809,"connected_time":587000000000,"state":"active","ping":81},{"user_id":195,"name":"Dag!","steam_id":76561198030147941,"connected_time":1818000000000,"state":"active","ping":72},{"user_id":200,"name":"omnibombulator","steam_id":76561198025858897,"connected_time":929000000000,"state":"active","ping":46},{"user_id":171,"name":"толя","steam_id":76561199098518615,"connected_time":2969000000000,"state":"active","ping":86},{"user_id":183,"name":"John Noob","steam_id":76561197999170026,"connected_time":2267000000000,"state":"active","ping":82},{"user_id":192,"name":"peppxr","steam_id":76561198059782462,"connected_time":2179000000000,"state":"active","ping":61},{"user_id":201,"name":"Dewotter","steam_id":76561198007653168,"connected_time":925000000000,"state":"active","ping":59},{"user_id":179,"name":"Kahvi","steam_id":76561198723244199,"connected_time":2343000000000,"state":"active","ping":75},{"user_id":202,"name":"Clark","steam_id":76561197998520785,"connected_time":922000000000,"state":"active","ping":82},{"user_id":193,"name":"Kyle","steam_id":76561198071181745,"connected_time":2107000000000,"state":"active","ping":52},{"user_id":138,"name":"Teacup","steam_id":76561198190654091,"connected_time":4986000000000,"state":"active","ping":51},{"user_id":203,"name":"Have A Blessed Day","steam_id":76561198030956814,"connected_time":914000000000,"state":"active","ping":74},{"user_id":176,"name":"the day of the triffids book","steam_id":76561198083615367,"connected_time":2913000000000,"state":"active","ping":38},{"user_id":197,"name":"Pogmanson","steam_id":76561198919953445,"connected_time":1474000000000,"state":"active","ping":30},{"user_id":210,"name":"Soloman","steam_id":76561199212054667,"connected_time":35000000000,"state":"active","ping":46},{"user_id":204,"name":"john6185","steam_id":76561198314014294,"connected_time":901000000000,"state":"active","ping":57},{"user_id":208,"name":"Volcyy","steam_id":76561198063979124,"connected_time":484000000000,"state":"active","ping":50},{"user_id":152,"name":"sareena","steam_id":76561198810194062,"connected_time":4014000000000,"state":"active","ping":66},{"user_id":206,"name":"Moto_Moto2402","steam_id":76561199122173952,"connected_time":700000000000,"state":"active","ping":70}]},{"server_id":21,"name":"Uncletopia | London | 5 | All Maps","name_short":"lon-5","host":"lon-1.uk.uncletopia.com","port":27055,"enabled":true,"region":"eu","cc":"gb","latitude":51.509865,"longitude":-0.118092,"reserved":0,"last_update":"0001-01-01T00:00:00Z","name_a2s":"Uncletopia | London | 5 | All Maps","protocol":17,"map":"koth_lakeside_final","folder":"tf","game":"Team Fortress","app_id":440,"player_count":0,"max_players":24,"Bots":0,"server_type":"Dedicated","server_os":"Linux","password":true,"vac":true,"version":"7932396","steam_id":85568392924742829,"keywords":["cp","nocrits","nodmgspread","uncletopia"],"game_id":440,"stv_port":27056,"stv_name":"Uncletopia | London | 5 | All Maps | STV","players":null},{"server_id":22,"name":"Uncletopia | London | 6 | All Maps","name_short":"lon-6","host":"lon-1.uk.uncletopia.com","port":27065,"enabled":true,"region":"eu","cc":"gb","latitude":51.509865,"longitude":-0.118092,"reserved":0,"last_update":"0001-01-01T00:00:00Z","name_a2s":"Uncletopia | London | 6 | All Maps","protocol":17,"map":"pl_goldrush","folder":"tf","game":"Team Fortress","app_id":440,"player_count":24,"max_players":24,"Bots":0,"server_type":"Dedicated","server_os":"Linux","password":true,"vac":true,"version":"7932396","steam_id":85568392924742830,"keywords":["nocrits","nodmgspread","payload","uncletopia"],"game_id":440,"stv_port":27066,"stv_name":"Uncletopia | London | 6 | All Maps | STV","players":[{"user_id":246,"name":"Big Daddy's Worst Nightmare","steam_id":76561198087155304,"connected_time":906000000000,"state":"active","ping":119},{"user_id":247,"name":"Donny","steam_id":76561198317950036,"connected_time":876000000000,"state":"active","ping":85},{"user_id":195,"name":"GuSkand","steam_id":76561198043775605,"connected_time":5104000000000,"state":"active","ping":91},{"user_id":163,"name":"Well, off to hang myself","steam_id":76561198053374944,"connected_time":7547000000000,"state":"active","ping":67},{"user_id":248,"name":"Fatman","steam_id":76561197992925209,"connected_time":724000000000,"state":"active","ping":56},{"user_id":251,"name":"hai","steam_id":76561198074743037,"connected_time":521000000000,"state":"active","ping":75},{"user_id":245,"name":"martin","steam_id":76561198107039012,"connected_time":950000000000,"state":"active","ping":42},{"user_id":252,"name":"TTV/DireChris","steam_id":76561198050122096,"connected_time":414000000000,"state":"active","ping":56},{"user_id":253,"name":"LazySan","steam_id":76561198085914304,"connected_time":355000000000,"state":"active","ping":84},{"user_id":254,"name":"Panter","steam_id":76561198285729061,"connected_time":345000000000,"state":"active","ping":79},{"user_id":239,"name":"Marl Karx","steam_id":76561198396797516,"connected_time":1194000000000,"state":"active","ping":67},{"user_id":236,"name":"Jyghc","steam_id":76561198405980575,"connected_time":1273000000000,"state":"active","ping":91},{"user_id":229,"name":"Djingis Khan","steam_id":76561197967864460,"connected_time":1782000000000,"state":"active","ping":56},{"user_id":164,"name":"Yuzu","steam_id":76561198121694613,"connected_time":7396000000000,"state":"active","ping":51},{"user_id":213,"name":"Finn","steam_id":76561198179960193,"connected_time":3155000000000,"state":"active","ping":45},{"user_id":237,"name":"Cappuccino","steam_id":76561199065155403,"connected_time":1267000000000,"state":"active","ping":56},{"user_id":238,"name":"bruh","steam_id":76561197993922244,"connected_time":1204000000000,"state":"active","ping":66},{"user_id":240,"name":"conquistadorgt","steam_id":76561198848812449,"connected_time":1184000000000,"state":"active","ping":65},{"user_id":250,"name":"TAFI03","steam_id":76561198213082089,"connected_time":605000000000,"state":"active","ping":69},{"user_id":241,"name":"Portugal","steam_id":76561198991911696,"connected_time":1173000000000,"state":"active","ping":72},{"user_id":242,"name":"Mommy O.","steam_id":76561198122933193,"connected_time":1158000000000,"state":"active","ping":86},{"user_id":243,"name":"Juiceydough","steam_id":76561197997323419,"connected_time":1121000000000,"state":"active","ping":83},{"user_id":255,"name":"teleporter main","steam_id":76561198851157897,"connected_time":186000000000,"state":"active","ping":78},{"user_id":214,"name":"sarii ☆","steam_id":76561199155102111,"connected_time":2919000000000,"state":"active","ping":81}]},{"server_id":40,"name":"Uncletopia | London | 7 | No Payload","name_short":"lon-7","host":"lon-1.uk.uncletopia.com","port":27075,"enabled":true,"region":"eu","cc":"gb","latitude":51.509865,"longitude":-0.118092,"reserved":0,"last_update":"0001-01-01T00:00:00Z","name_a2s":"Uncletopia | London | 7 | No Payload","protocol":17,"map":"koth_viaduct","folder":"tf","game":"Team Fortress","app_id":440,"player_count":7,"max_players":24,"Bots":0,"server_type":"Dedicated","server_os":"Linux","password":true,"vac":true,"version":"7932396","steam_id":85568392924964314,"keywords":["cp","nocrits","nodmgspread","uncletopia"],"game_id":440,"stv_port":27076,"stv_name":"Uncletopia | London | 7 | No Payload | STV","players":[{"user_id":671,"name":"Urfangonultasadana","steam_id":76561199389286151,"connected_time":1551000000000,"state":"active","ping":94},{"user_id":666,"name":"Mr Gnash","steam_id":76561198007410990,"connected_time":3193000000000,"state":"active","ping":56},{"user_id":670,"name":"Franz","steam_id":76561199131161451,"connected_time":1742000000000,"state":"active","ping":73},{"user_id":669,"name":"Lord Tubbington","steam_id":76561198073237638,"connected_time":2060000000000,"state":"active","ping":87},{"user_id":672,"name":"Nyrgon","steam_id":76561198269206916,"connected_time":747000000000,"state":"active","ping":67},{"user_id":673,"name":"Black Sheep","steam_id":76561198042244701,"connected_time":418000000000,"state":"active","ping":59},{"user_id":674,"name":"Goose of Wisdom","steam_id":76561198233465044,"connected_time":85000000000,"state":"active","ping":134}]},{"server_id":41,"name":"Uncletopia | London | 8 | Community","name_short":"lon-8","host":"lon-1.uk.uncletopia.com","port":27085,"enabled":true,"region":"eu","cc":"gb","latitude":51.509865,"longitude":-0.118092,"reserved":0,"last_update":"0001-01-01T00:00:00Z","name_a2s":"Uncletopia | London | 8 | Community","protocol":17,"map":"workshop/cp_propaganda_b18.ugc1603743849","folder":"tf","game":"Team Fortress","app_id":440,"player_count":0,"max_players":24,"Bots":0,"server_type":"Dedicated","server_os":"Linux","password":true,"vac":true,"version":"7932396","steam_id":85568392924964315,"keywords":["cp","nocrits","nodmgspread","uncletopia"],"game_id":440,"stv_port":27086,"stv_name":"Uncletopia | London | 8 | Community | STV","players":null},{"server_id":300,"name":"Uncletopia | Montréal | 1 | All Maps","name_short":"mtl-1","host":"mtl-1.ca.uncletopia.com","port":27015,"enabled":true,"region":"us-east","cc":"ca","latitude":45.50889,"longitude":-73.56167,"reserved":0,"last_update":"0001-01-01T00:00:00Z","name_a2s":"Uncletopia | Montréal | 1 | All Maps","protocol":17,"map":"cp_dustbowl","folder":"tf","game":"Team Fortress","app_id":440,"player_count":0,"max_players":24,"Bots":0,"server_type":"Dedicated","server_os":"Linux","password":true,"vac":true,"version":"7932396","steam_id":85568392924500087,"keywords":["cp","nocrits","nodmgspread","uncletopia"],"game_id":440,"stv_port":27016,"stv_name":"Uncletopia | Montréal | 1 | All Maps | STV","players":null},{"server_id":301,"name":"Uncletopia | Montréal | 2 | All Maps","name_short":"mtl-2","host":"mtl-1.ca.uncletopia.com","port":27025,"enabled":true,"region":"us-east","cc":"ca","latitude":45.50889,"longitude":-73.56167,"reserved":0,"last_update":"0001-01-01T00:00:00Z","name_a2s":"Uncletopia | Montréal | 2 | All Maps","protocol":17,"map":"pl_badwater","folder":"tf","game":"Team Fortress","app_id":440,"player_count":0,"max_players":24,"Bots":0,"server_type":"Dedicated","server_os":"Linux","password":true,"vac":true,"version":"7932396","steam_id":85568392924500088,"keywords":["nocrits","nodmgspread","payload","uncletopia"],"game_id":440,"stv_port":27026,"stv_name":"Uncletopia | Montréal | 2 | All Maps | STV","players":null},{"server_id":302,"name":"Uncletopia | Montréal | 3 | All Maps","name_short":"mtl-3","host":"mtl-1.ca.uncletopia.com","port":27035,"enabled":true,"region":"us-east","cc":"ca","latitude":45.50889,"longitude":-73.56167,"reserved":0,"last_update":"0001-01-01T00:00:00Z","name_a2s":"Uncletopia | Montréal | 3 | All Maps","protocol":17,"map":"cp_process_final","folder":"tf","game":"Team Fortress","app_id":440,"player_count":0,"max_players":24,"Bots":0,"server_type":"Dedicated","server_os":"Linux","password":true,"vac":true,"version":"7932396","steam_id":85568392924500089,"keywords":["cp","nocrits","nodmgspread","uncletopia"],"game_id":440,"stv_port":27036,"stv_name":"Uncletopia | Montréal | 3 | All Maps | STV","players":null},{"server_id":303,"name":"Uncletopia | Montréal | 4 | No Payload","name_short":"mtl-4","host":"mtl-1.ca.uncletopia.com","port":27045,"enabled":true,"region":"us-east","cc":"ca","latitude":45.50889,"longitude":-73.56167,"reserved":0,"last_update":"0001-01-01T00:00:00Z","name_a2s":"Uncletopia | Montréal | 4 | No Payload","protocol":17,"map":"cp_snakewater_final1","folder":"tf","game":"Team Fortress","app_id":440,"player_count":0,"max_players":24,"Bots":0,"server_type":"Dedicated","server_os":"Linux","password":true,"vac":true,"version":"7932396","steam_id":85568392924500090,"keywords":["cp","nocrits","nodmgspread","uncletopia"],"game_id":440,"stv_port":27046,"stv_name":"Uncletopia | Montréal | 4 | No Payload | STV","players":null},{"server_id":13,"name":"Uncletopia | New York City | 1 | All Maps","name_short":"nyc-1","host":"nyc-1.us.uncletopia.com","port":27015,"enabled":true,"region":"us-east","cc":"us","latitude":40.73061,"longitude":-73.93524,"reserved":0,"last_update":"0001-01-01T00:00:00Z","name_a2s":"Uncletopia | New York City | 1 | All Maps","protocol":17,"map":"pl_upward","folder":"tf","game":"Team Fortress","app_id":440,"player_count":24,"max_players":24,"Bots":0,"server_type":"Dedicated","server_os":"Linux","password":true,"vac":true,"version":"7932396","steam_id":85568392924469993,"keywords":["nocrits","nodmgspread","payload","uncletopia"],"game_id":440,"stv_port":27016,"stv_name":"Uncletopia | New York City | 1 | All Maps | STV","players":[{"user_id":51,"name":"SnickerNoodle","steam_id":76561198064359644,"connected_time":3195000000000,"state":"active","ping":50},{"user_id":78,"name":"Hemiphix","steam_id":76561198329316429,"connected_time":990000000000,"state":"active","ping":55},{"user_id":74,"name":"stagefatality","steam_id":76561198006838401,"connected_time":1279000000000,"state":"active","ping":60},{"user_id":81,"name":"Illy","steam_id":76561198396107884,"connected_time":953000000000,"state":"active","ping":120},{"user_id":64,"name":"Bandee","steam_id":76561198974233692,"connected_time":2187000000000,"state":"active","ping":81},{"user_id":88,"name":"The Circle rules Your Life","steam_id":76561198072095399,"connected_time":272000000000,"state":"active","ping":37},{"user_id":87,"name":"JoCaleb02","steam_id":76561198272389829,"connected_time":637000000000,"state":"active","ping":54},{"user_id":25,"name":"Yoshimelon","steam_id":76561198253054325,"connected_time":4454000000000,"state":"active","ping":76},{"user_id":84,"name":"Ticktockman","steam_id":76561198170071647,"connected_time":850000000000,"state":"active","ping":58},{"user_id":77,"name":"Jesse Bear","steam_id":76561198217075305,"connected_time":1020000000000,"state":"active","ping":70},{"user_id":80,"name":"Devinish","steam_id":76561198024927243,"connected_time":957000000000,"state":"active","ping":79},{"user_id":29,"name":"M249 | Spectre","steam_id":76561198118334485,"connected_time":4359000000000,"state":"active","ping":68},{"user_id":30,"name":"Sapphire_Star","steam_id":76561198010016621,"connected_time":4358000000000,"state":"active","ping":100},{"user_id":31,"name":"Crafty Catgirl","steam_id":76561198007903454,"connected_time":4352000000000,"state":"active","ping":86},{"user_id":73,"name":"Kiri","steam_id":76561198271722730,"connected_time":1367000000000,"state":"active","ping":74},{"user_id":75,"name":"Mally","steam_id":76561198025013765,"connected_time":1209000000000,"state":"active","ping":91},{"user_id":65,"name":"Pixel","steam_id":76561198129243055,"connected_time":2181000000000,"state":"active","ping":62},{"user_id":53,"name":"Exio","steam_id":76561198218639325,"connected_time":3057000000000,"state":"active","ping":65},{"user_id":86,"name":"Nateraide","steam_id":76561198067122447,"connected_time":657000000000,"state":"active","ping":69},{"user_id":52,"name":"Snugboo","steam_id":76561198147970327,"connected_time":3100000000000,"state":"active","ping":44},{"user_id":67,"name":"its tombstooooone","steam_id":76561198103496593,"connected_time":1994000000000,"state":"active","ping":63},{"user_id":60,"name":"Joy #savetf2","steam_id":76561198073690173,"connected_time":2371000000000,"state":"active","ping":64},{"user_id":66,"name":"Urbanzpinapple","steam_id":76561198115426938,"connected_time":2175000000000,"state":"active","ping":86},{"user_id":71,"name":"fazaness","steam_id":76561198851525394,"connected_time":1647000000000,"state":"active","ping":70}]},{"server_id":14,"name":"Uncletopia | New York City | 2 | All Maps","name_short":"nyc-2","host":"nyc-1.us.uncletopia.com","port":27025,"enabled":true,"region":"us-east","cc":"us","latitude":40.73061,"longitude":-73.93524,"reserved":0,"last_update":"0001-01-01T00:00:00Z","name_a2s":"Uncletopia | New York City | 2 | All Maps","protocol":17,"map":"pl_badwater","folder":"tf","game":"Team Fortress","app_id":440,"player_count":23,"max_players":24,"Bots":0,"server_type":"Dedicated","server_os":"Linux","password":true,"vac":true,"version":"7932396","steam_id":85568392924469994,"keywords":["nocrits","nodmgspread","payload","uncletopia"],"game_id":440,"stv_port":27026,"stv_name":"Uncletopia | New York City | 2 | All Maps | STV","players":[{"user_id":88,"name":"Special","steam_id":76561198070380404,"connected_time":576000000000,"state":"active","ping":45},{"user_id":69,"name":"FunnyUsernameWow","steam_id":76561198324177635,"connected_time":1941000000000,"state":"active","ping":54},{"user_id":87,"name":"ZigmaDrive","steam_id":76561198025569209,"connected_time":807000000000,"state":"active","ping":46},{"user_id":94,"name":"joe","steam_id":76561198045781320,"connected_time":398000000000,"state":"active","ping":52},{"user_id":92,"name":"Wigl","steam_id":76561198019324464,"connected_time":517000000000,"state":"active","ping":48},{"user_id":79,"name":"*‧˚kitsu ʚ♥ɞ","steam_id":76561198091741658,"connected_time":1273000000000,"state":"active","ping":91},{"user_id":82,"name":"Questor","steam_id":76561198034859665,"connected_time":1087000000000,"state":"active","ping":102},{"user_id":41,"name":"unrestricted player","steam_id":76561198165567310,"connected_time":2823000000000,"state":"active","ping":49},{"user_id":73,"name":"whimsical little creature","steam_id":76561198271710504,"connected_time":1817000000000,"state":"active","ping":70},{"user_id":90,"name":"Lucille_Bluth","steam_id":76561198206133916,"connected_time":551000000000,"state":"active","ping":69},{"user_id":51,"name":"Shift","steam_id":76561198271736243,"connected_time":2430000000000,"state":"active","ping":84},{"user_id":50,"name":"Bad Rollout","steam_id":76561197971948876,"connected_time":2452000000000,"state":"active","ping":74},{"user_id":86,"name":"Primal","steam_id":76561197983118203,"connected_time":876000000000,"state":"active","ping":87},{"user_id":91,"name":"Chowdie","steam_id":76561198039605762,"connected_time":529000000000,"state":"active","ping":45},{"user_id":93,"name":"Ccxr","steam_id":76561198075616549,"connected_time":463000000000,"state":"active","ping":169},{"user_id":96,"name":"gus","steam_id":76561199221202455,"connected_time":323000000000,"state":"active","ping":117},{"user_id":58,"name":"wunkem","steam_id":76561198055948497,"connected_time":2290000000000,"state":"active","ping":84},{"user_id":62,"name":"d01nut","steam_id":76561198796394610,"connected_time":2223000000000,"state":"active","ping":63},{"user_id":78,"name":"Skiddy","steam_id":76561198125942665,"connected_time":1467000000000,"state":"active","ping":60},{"user_id":64,"name":"Nero","steam_id":76561198116376277,"connected_time":2183000000000,"state":"active","ping":101},{"user_id":84,"name":"Parth Makeo","steam_id":76561198002516581,"connected_time":977000000000,"state":"active","ping":47},{"user_id":76,"name":"MondoDong","steam_id":76561197991400109,"connected_time":1586000000000,"state":"active","ping":49},{"user_id":75,"name":"cockenjoyer96","steam_id":76561198341596112,"connected_time":1738000000000,"state":"active","ping":121}]},{"server_id":15,"name":"Uncletopia | New York City | 3 | Stopwatch Beta","name_short":"nyc-3","host":"nyc-1.us.uncletopia.com","port":27035,"enabled":true,"region":"us-east","cc":"us","latitude":40.73061,"longitude":-73.93524,"reserved":0,"last_update":"0001-01-01T00:00:00Z","name_a2s":"Uncletopia | New York City | 3 | Stopwatch Beta","protocol":17,"map":"workshop/koth_ramjam_rc1.ugc459778887","folder":"tf","game":"Team Fortress","app_id":440,"player_count":0,"max_players":24,"Bots":0,"server_type":"Dedicated","server_os":"Linux","password":true,"vac":true,"version":"7932396","steam_id":85568392924742820,"keywords":["cp","nocrits","nodmgspread","uncletopia"],"game_id":440,"stv_port":27036,"stv_name":"Uncletopia | New York City | 3 | Stopwatch Beta | STV","players":null},{"server_id":16,"name":"Uncletopia | New York City | 4 | Community","name_short":"nyc-4","host":"nyc-1.us.uncletopia.com","port":27045,"enabled":true,"region":"us-east","cc":"us","latitude":40.73061,"longitude":-73.93524,"reserved":0,"last_update":"0001-01-01T00:00:00Z","name_a2s":"Uncletopia | New York City | 4 | Community","protocol":17,"map":"workshop/koth_product_final.ugc454272353","folder":"tf","game":"Team Fortress","app_id":440,"player_count":3,"max_players":24,"Bots":0,"server_type":"Dedicated","server_os":"Linux","password":true,"vac":true,"version":"7932396","steam_id":85568392924742821,"keywords":["cp","nocrits","nodmgspread","uncletopia"],"game_id":440,"stv_port":27046,"stv_name":"Uncletopia | New York City | 4 | Community | STV","players":[{"user_id":171,"name":"RedPenguin_55 [Soldier main]","steam_id":76561199330977723,"connected_time":2110000000000,"state":"active","ping":93},{"user_id":170,"name":"Heavy Gaming(Gaming)[Gaming]","steam_id":76561199366955312,"connected_time":3451000000000,"state":"active","ping":81},{"user_id":172,"name":"Sneakyflamingo","steam_id":76561199093026056,"connected_time":1815000000000,"state":"active","ping":64}]},{"server_id":142,"name":"Uncletopia | São Paulo | 1 | All Maps","name_short":"sao-1","host":"sao-1.br.uncletopia.com","port":27015,"enabled":true,"region":"sa","cc":"br","latitude":-23.533773,"longitude":-46.62529,"reserved":0,"last_update":"0001-01-01T00:00:00Z","name_a2s":"Uncletopia | São Paulo | 1 | All Maps","protocol":17,"map":"pl_pier","folder":"tf","game":"Team Fortress","app_id":440,"player_count":4,"max_players":24,"Bots":0,"server_type":"Dedicated","server_os":"Linux","password":true,"vac":true,"version":"7932396","steam_id":85568392924469996,"keywords":["nocrits","nodmgspread","payload","uncletopia"],"game_id":440,"stv_port":27016,"stv_name":"Uncletopia | São Paulo | 1 | All Maps | STV","players":[{"user_id":6,"name":"Homero chino","steam_id":76561199066605566,"connected_time":1594000000000,"state":"active","ping":100},{"user_id":7,"name":"CatalanMadridista","steam_id":76561199182150779,"connected_time":1525000000000,"state":"active","ping":104},{"user_id":8,"name":"probrinecrack","steam_id":76561199081029120,"connected_time":1372000000000,"state":"active","ping":101},{"user_id":9,"name":"ServSky","steam_id":76561199229799084,"connected_time":1361000000000,"state":"active","ping":98}]},{"server_id":143,"name":"Uncletopia | São Paulo | 2 | All Maps","name_short":"sao-2","host":"sao-2.br.uncletopia.com","port":27015,"enabled":true,"region":"sa","cc":"br","latitude":-23.533773,"longitude":-46.62529,"reserved":0,"last_update":"0001-01-01T00:00:00Z","name_a2s":"Uncletopia | São Paulo | 2 | All Maps","protocol":17,"map":"cp_mercenarypark","folder":"tf","game":"Team Fortress","app_id":440,"player_count":23,"max_players":24,"Bots":0,"server_type":"Dedicated","server_os":"Linux","password":true,"vac":true,"version":"7932396","steam_id":85568392924485349,"keywords":["cp","nocrits","nodmgspread","uncletopia"],"game_id":440,"stv_port":27016,"stv_name":"Uncletopia | São Paulo | 2 | All Maps | STV","players":[{"user_id":28,"name":"Punga","steam_id":76561198083529226,"connected_time":2112000000000,"state":"active","ping":39},{"user_id":17,"name":"Frans","steam_id":76561198207928860,"connected_time":3208000000000,"state":"active","ping":34},{"user_id":42,"name":"rbw #\u0026!","steam_id":76561198246970652,"connected_time":549000000000,"state":"active","ping":78},{"user_id":35,"name":"starm0nster","steam_id":76561199016975635,"connected_time":1227000000000,"state":"active","ping":44},{"user_id":20,"name":"Cachorro Loko","steam_id":76561198149302888,"connected_time":2627000000000,"state":"active","ping":61},{"user_id":21,"name":"THE","steam_id":76561198815935521,"connected_time":2612000000000,"state":"active","ping":57},{"user_id":22,"name":"Aust","steam_id":76561198067966650,"connected_time":2466000000000,"state":"active","ping":39},{"user_id":50,"name":"saiko","steam_id":76561198024557594,"connected_time":234000000000,"state":"active","ping":91},{"user_id":25,"name":"Alice Heartshine","steam_id":76561198308562212,"connected_time":2180000000000,"state":"active","ping":69},{"user_id":30,"name":"Marmo \u003e_","steam_id":76561198213744979,"connected_time":1669000000000,"state":"active","ping":61},{"user_id":38,"name":"Daisy Le Nerd","steam_id":76561198149350087,"connected_time":886000000000,"state":"active","ping":44},{"user_id":43,"name":"iko","steam_id":76561198965538287,"connected_time":546000000000,"state":"active","ping":50},{"user_id":44,"name":"[F@Z3] ! VR0MRNB4$$HER","steam_id":76561198124781832,"connected_time":534000000000,"state":"active","ping":110},{"user_id":39,"name":"Niico","steam_id":76561198372529036,"connected_time":859000000000,"state":"active","ping":47},{"user_id":40,"name":"ahd21","steam_id":76561198366052681,"connected_time":823000000000,"state":"active","ping":48},{"user_id":41,"name":"MrRodje™","steam_id":76561198058756855,"connected_time":798000000000,"state":"active","ping":69},{"user_id":45,"name":"SpookyDude","steam_id":76561199083277817,"connected_time":383000000000,"state":"active","ping":74},{"user_id":46,"name":"Mikael_01","steam_id":76561199080253129,"connected_time":379000000000,"state":"active","ping":62},{"user_id":47,"name":"AY|LazyCian","steam_id":76561199121786457,"connected_time":363000000000,"state":"active","ping":48},{"user_id":54,"name":"José Mourinho","steam_id":76561199488658027,"connected_time":12000000000,"state":"spawning","ping":161},{"user_id":51,"name":"wooden house","steam_id":76561199177055367,"connected_time":182000000000,"state":"active","ping":87},{"user_id":52,"name":"marado","steam_id":76561198102394172,"connected_time":170000000000,"state":"active","ping":74},{"user_id":53,"name":"Brawmario","steam_id":76561198025313430,"connected_time":108000000000,"state":"active","ping":42}]},{"server_id":7,"name":"Uncletopia | Seattle | 1 | All Maps","name_short":"sea-1","host":"sea-1.us.uncletopia.com","port":27015,"enabled":true,"region":"us-west","cc":"us","latitude":47.608013,"longitude":-122.33517,"reserved":0,"last_update":"0001-01-01T00:00:00Z","name_a2s":"Uncletopia | Seattle | 1 | All Maps","protocol":17,"map":"pl_swiftwater_final1","folder":"tf","game":"Team Fortress","app_id":440,"player_count":24,"max_players":24,"Bots":0,"server_type":"Dedicated","server_os":"Linux","password":true,"vac":true,"version":"7932396","steam_id":85568392924469997,"keywords":["nocrits","nodmgspread","payload","uncletopia"],"game_id":440,"stv_port":27016,"stv_name":"Uncletopia | Seattle | 1 | All Maps | STV","players":[{"user_id":154,"name":"Themasterman75","steam_id":76561199385573293,"connected_time":6441000000000,"state":"active","ping":68},{"user_id":9,"name":"fwoov","steam_id":76561198129166260,"connected_time":16667000000000,"state":"active","ping":75},{"user_id":184,"name":"Daz","steam_id":76561198041431938,"connected_time":4182000000000,"state":"active","ping":51},{"user_id":222,"name":"thai tea","steam_id":76561198308290211,"connected_time":395000000000,"state":"active","ping":84},{"user_id":213,"name":"Doc Bird","steam_id":76561198194818415,"connected_time":1017000000000,"state":"active","ping":46},{"user_id":223,"name":"evilOlive","steam_id":76561198106222025,"connected_time":394000000000,"state":"active","ping":78},{"user_id":204,"name":"thunderous prophet","steam_id":76561198131166135,"connected_time":2710000000000,"state":"active","ping":38},{"user_id":179,"name":"Big Floppa","steam_id":76561199152552589,"connected_time":4234000000000,"state":"active","ping":56},{"user_id":210,"name":"Coowil","steam_id":76561198070985437,"connected_time":2106000000000,"state":"active","ping":44},{"user_id":207,"name":"★Mayd★","steam_id":76561198291985932,"connected_time":2516000000000,"state":"active","ping":70},{"user_id":182,"name":"NEBULA","steam_id":76561198086878595,"connected_time":4202000000000,"state":"active","ping":70},{"user_id":214,"name":"COOL master_9","steam_id":76561198073041151,"connected_time":776000000000,"state":"active","ping":102},{"user_id":203,"name":"Ultra Pinstinct","steam_id":76561198336604599,"connected_time":3212000000000,"state":"active","ping":64},{"user_id":119,"name":"SnoDot","steam_id":76561198062209970,"connected_time":8394000000000,"state":"active","ping":39},{"user_id":206,"name":"Keamy","steam_id":76561199471434875,"connected_time":2521000000000,"state":"active","ping":40},{"user_id":209,"name":"jayeskae","steam_id":76561198144220801,"connected_time":2429000000000,"state":"active","ping":53},{"user_id":215,"name":"sillyjack","steam_id":76561198844273999,"connected_time":771000000000,"state":"active","ping":46},{"user_id":183,"name":"cute girls add me","steam_id":76561199474493516,"connected_time":4200000000000,"state":"active","ping":83},{"user_id":201,"name":"Mediarch","steam_id":76561198050765729,"connected_time":3766000000000,"state":"active","ping":53},{"user_id":216,"name":"Arkell","steam_id":76561198135884882,"connected_time":770000000000,"state":"active","ping":48},{"user_id":133,"name":"dust | she/it","steam_id":76561198045218909,"connected_time":8110000000000,"state":"active","ping":40},{"user_id":180,"name":"delight","steam_id":76561197980280272,"connected_time":4233000000000,"state":"active","ping":50},{"user_id":198,"name":"shiadyne","steam_id":76561198271939793,"connected_time":3850000000000,"state":"active","ping":50},{"user_id":220,"name":"Terror","steam_id":76561198188685728,"connected_time":604000000000,"state":"active","ping":96}]},{"server_id":119,"name":"Uncletopia | Seattle | 2 | All Maps","name_short":"sea-2","host":"sea-1.us.uncletopia.com","port":27025,"enabled":true,"region":"us-west","cc":"us","latitude":47.608013,"longitude":-122.33517,"reserved":0,"last_update":"0001-01-01T00:00:00Z","name_a2s":"Uncletopia | Seattle | 2 | All Maps","protocol":17,"map":"pl_upward","folder":"tf","game":"Team Fortress","app_id":440,"player_count":1,"max_players":24,"Bots":0,"server_type":"Dedicated","server_os":"Linux","password":true,"vac":true,"version":"7932396","steam_id":85568392924469998,"keywords":["nocrits","nodmgspread","payload","uncletopia"],"game_id":440,"stv_port":27026,"stv_name":"Uncletopia | Seattle | 2 | All Maps | STV","players":[{"user_id":23,"name":"purple™ | they/she","steam_id":76561198057459725,"connected_time":80000000000,"state":"active","ping":46}]},{"server_id":406,"name":"Uncletopia | Seattle | 3 | Stopwatch Beta","name_short":"sea-3","host":"sea-1.us.uncletopia.com","port":27035,"enabled":true,"region":"us-west","cc":"us","latitude":47.608013,"longitude":-122.33517,"reserved":0,"last_update":"0001-01-01T00:00:00Z","name_a2s":"Uncletopia | Seattle | 3 | Stopwatch Beta","protocol":17,"map":"workshop/koth_bagel_rc6.ugc2514036946","folder":"tf","game":"Team Fortress","app_id":440,"player_count":0,"max_players":24,"Bots":0,"server_type":"Dedicated","server_os":"Linux","password":true,"vac":true,"version":"7932396","steam_id":85568392924515217,"keywords":["cp","nocrits","nodmgspread","uncletopia"],"game_id":440,"stv_port":27036,"stv_name":"Uncletopia | Seattle | 3 | Stopwatch Beta | STV","players":null},{"server_id":17,"name":"Uncletopia | San Francisco | 1 | All Maps","name_short":"sfo-1","host":"sfo-1.us.uncletopia.com","port":27015,"enabled":true,"region":"us-west","cc":"us","latitude":37.77397,"longitude":-122.4313,"reserved":0,"last_update":"0001-01-01T00:00:00Z","name_a2s":"Uncletopia | San Francisco | 1 | All Maps","protocol":17,"map":"koth_lakeside_final","folder":"tf","game":"Team Fortress","app_id":440,"player_count":9,"max_players":24,"Bots":0,"server_type":"Dedicated","server_os":"Linux","password":true,"vac":true,"version":"7932396","steam_id":85568392924469999,"keywords":["cp","nocrits","nodmgspread","uncletopia"],"game_id":440,"stv_port":27016,"stv_name":"Uncletopia | San Francisco | 1 | All Maps | STV","players":[{"user_id":47,"name":"cool beans","steam_id":76561198321591685,"connected_time":1031000000000,"state":"active","ping":104},{"user_id":46,"name":"Su1tCas3","steam_id":76561198035989471,"connected_time":1135000000000,"state":"active","ping":63},{"user_id":57,"name":"weed","steam_id":76561199128192017,"connected_time":373000000000,"state":"active","ping":71},{"user_id":44,"name":"PigPig","steam_id":76561198068190834,"connected_time":1397000000000,"state":"active","ping":70},{"user_id":49,"name":"sway sunnay","steam_id":76561198308817394,"connected_time":932000000000,"state":"active","ping":103},{"user_id":50,"name":"lolzfrdawin21","steam_id":76561199006665979,"connected_time":890000000000,"state":"active","ping":120},{"user_id":60,"name":"nfseskimo","steam_id":76561198078745666,"connected_time":177000000000,"state":"active","ping":59},{"user_id":59,"name":"Laxoloni","steam_id":76561199197045700,"connected_time":222000000000,"state":"active","ping":64},{"user_id":62,"name":"Archie","steam_id":76561198137112917,"connected_time":84000000000,"state":"active","ping":44}]},{"server_id":18,"name":"Uncletopia | San Francisco | 2 | All Maps","name_short":"sfo-2","host":"sfo-1.us.uncletopia.com","port":27025,"enabled":true,"region":"us-west","cc":"us","latitude":37.77397,"longitude":-122.4313,"reserved":0,"last_update":"0001-01-01T00:00:00Z","name_a2s":"Uncletopia | San Francisco | 2 | All Maps","protocol":17,"map":"pl_snowycoast","folder":"tf","game":"Team Fortress","app_id":440,"player_count":0,"max_players":24,"Bots":0,"server_type":"Dedicated","server_os":"Linux","password":true,"vac":true,"version":"7932396","steam_id":85568392924470000,"keywords":["nocrits","nodmgspread","payload","uncletopia"],"game_id":440,"stv_port":27026,"stv_name":"Uncletopia | San Francisco | 2 | All Maps | STV","players":null},{"server_id":19,"name":"Uncletopia | San Francisco | 3 | Stopwatch Beta","name_short":"sfo-3","host":"sfo-1.us.uncletopia.com","port":27035,"enabled":true,"region":"us-west","cc":"us","latitude":37.77397,"longitude":-122.4313,"reserved":0,"last_update":"0001-01-01T00:00:00Z","name_a2s":"Uncletopia | San Francisco | 3 | Stopwatch Beta","protocol":17,"map":"workshop/pl_badwater_pro_v12.ugc2142942074","folder":"tf","game":"Team Fortress","app_id":440,"player_count":0,"max_players":24,"Bots":0,"server_type":"Dedicated","server_os":"Linux","password":true,"vac":true,"version":"7932396","steam_id":85568392924742824,"keywords":["nocrits","nodmgspread","payload","uncletopia"],"game_id":440,"stv_port":27036,"stv_name":"Uncletopia | San Francisco | 3 | Stopwatch Beta | STV","players":null},{"server_id":20,"name":"Uncletopia | San Francisco | 4 | Community","name_short":"sfo-4","host":"sfo-1.us.uncletopia.com","port":27045,"enabled":true,"region":"us-west","cc":"us","latitude":37.77397,"longitude":-122.4313,"reserved":0,"last_update":"0001-01-01T00:00:00Z","name_a2s":"Uncletopia | San Francisco | 4 | Community","protocol":17,"map":"pl_borneo","folder":"tf","game":"Team Fortress","app_id":440,"player_count":0,"max_players":24,"Bots":0,"server_type":"Dedicated","server_os":"Linux","password":true,"vac":true,"version":"7932396","steam_id":85568392924742826,"keywords":["nocrits","nodmgspread","payload","uncletopia"],"game_id":440,"stv_port":27046,"stv_name":"Uncletopia | San Francisco | 4 | Community | STV","players":null},{"server_id":141,"name":"Uncletopia | Sydney | 1 | All Maps","name_short":"syd-1","host":"syd-1.au.uncletopia.com","port":27015,"enabled":true,"region":"au","cc":"au","latitude":-33.865143,"longitude":151.2099,"reserved":0,"last_update":"0001-01-01T00:00:00Z","name_a2s":"Uncletopia | Sydney | 1 | All Maps","protocol":17,"map":"pl_snowycoast","folder":"tf","game":"Team Fortress","app_id":440,"player_count":0,"max_players":24,"Bots":0,"server_type":"Dedicated","server_os":"Linux","password":true,"vac":true,"version":"7932396","steam_id":85568392924470001,"keywords":["nocrits","nodmgspread","payload","uncletopia"],"game_id":440,"stv_port":27016,"stv_name":"Uncletopia | Sydney | 1 | All Maps | STV","players":null},{"server_id":123,"name":"Uncletopia | Sydney | 2 | All Maps","name_short":"syd-2","host":"syd-1.au.uncletopia.com","port":27025,"enabled":true,"region":"au","cc":"au","latitude":-33.865143,"longitude":151.2099,"reserved":0,"last_update":"0001-01-01T00:00:00Z","name_a2s":"Uncletopia | Sydney | 2 | All Maps","protocol":17,"map":"koth_lakeside_final","folder":"tf","game":"Team Fortress","app_id":440,"player_count":0,"max_players":24,"Bots":0,"server_type":"Dedicated","server_os":"Linux","password":true,"vac":true,"version":"7932396","steam_id":85568392924470002,"keywords":["cp","nocrits","nodmgspread","uncletopia"],"game_id":440,"stv_port":27026,"stv_name":"Uncletopia | Sydney | 2 | All Maps | STV","players":null},{"server_id":395,"name":"Uncletopia | Sydney | 3 | All Maps","name_short":"syd-3","host":"syd-1.au.uncletopia.com","port":27035,"enabled":true,"region":"au","cc":"au","latitude":-33.865143,"longitude":151.2099,"reserved":0,"last_update":"0001-01-01T00:00:00Z","name_a2s":"Uncletopia | Sydney | 3 | All Maps","protocol":17,"map":"cp_dustbowl","folder":"tf","game":"Team Fortress","app_id":440,"player_count":0,"max_players":24,"Bots":0,"server_type":"Dedicated","server_os":"Linux","password":true,"vac":true,"version":"7932396","steam_id":85568392925194467,"keywords":["cp","nocrits","nodmgspread","uncletopia"],"game_id":440,"stv_port":27036,"stv_name":"Uncletopia | Sydney | 3 | All Maps | STV","players":null},{"server_id":396,"name":"Uncletopia | Sydney | 4 | All Maps","name_short":"syd-4","host":"syd-1.au.uncletopia.com","port":27045,"enabled":true,"region":"au","cc":"au","latitude":-33.865143,"longitude":151.2099,"reserved":0,"last_update":"0001-01-01T00:00:00Z","name_a2s":"Uncletopia | Sydney | 4 | All Maps","protocol":17,"map":"pl_pier","folder":"tf","game":"Team Fortress","app_id":440,"player_count":0,"max_players":24,"Bots":0,"server_type":"Dedicated","server_os":"Linux","password":true,"vac":true,"version":"7932396","steam_id":85568392925397958,"keywords":["nocrits","nodmgspread","payload","uncletopia"],"game_id":440,"stv_port":27046,"stv_name":"Uncletopia | Sydney | 4 | All Maps | STV","players":null},{"server_id":58,"name":"Uncletopia | Sydney | 5 | Stopwatch Beta","name_short":"syd-5","host":"syd-1.au.uncletopia.com","port":27055,"enabled":true,"region":"au","cc":"au","latitude":-33.865143,"longitude":151.2099,"reserved":0,"last_update":"0001-01-01T00:00:00Z","name_a2s":"Uncletopia | Sydney | 5 | Stopwatch Beta","protocol":17,"map":"pl_borneo","folder":"tf","game":"Team Fortress","app_id":440,"player_count":0,"max_players":24,"Bots":0,"server_type":"Dedicated","server_os":"Linux","password":true,"vac":true,"version":"7932396","steam_id":85568392925397959,"keywords":["nocrits","nodmgspread","payload","uncletopia"],"game_id":440,"stv_port":27056,"stv_name":"Uncletopia | Sydney | 5 | Stopwatch Beta | STV","players":null},{"server_id":59,"name":"Uncletopia | Sydney | 6 | Community","name_short":"syd-6","host":"syd-1.au.uncletopia.com","port":27065,"enabled":true,"region":"au","cc":"au","latitude":-33.865143,"longitude":151.2099,"reserved":0,"last_update":"0001-01-01T00:00:00Z","name_a2s":"Uncletopia | Sydney | 6 | Community","protocol":17,"map":"pl_badwater","folder":"tf","game":"Team Fortress","app_id":440,"player_count":0,"max_players":24,"Bots":0,"server_type":"Dedicated","server_os":"Linux","password":true,"vac":true,"version":"7932396","steam_id":85568392925397960,"keywords":["nocrits","nodmgspread","payload","uncletopia"],"game_id":440,"stv_port":27066,"stv_name":"Uncletopia | Sydney | 6 | Community | STV","players":null},{"server_id":49,"name":"Uncletopia | Warsaw | 1 | All Maps","name_short":"waw-1","host":"waw-1.pl.uncletopia.com","port":27015,"enabled":true,"region":"eu","cc":"pl","latitude":52.2297,"longitude":21.017532,"reserved":0,"last_update":"0001-01-01T00:00:00Z","name_a2s":"","protocol":0,"map":"","folder":"","game":"","app_id":0,"player_count":0,"max_players":0,"Bots":0,"server_type":"","server_os":"","password":false,"vac":false,"version":"","steam_id":0,"keywords":null,"game_id":0,"stv_port":0,"stv_name":"","players":null},{"server_id":50,"name":"Uncletopia | Warsaw | 2 | All Maps","name_short":"waw-2","host":"waw-1.pl.uncletopia.com","port":27025,"enabled":true,"region":"eu","cc":"pl","latitude":52.2297,"longitude":21.017532,"reserved":0,"last_update":"0001-01-01T00:00:00Z","name_a2s":"Uncletopia | Warsaw | 2 | All Maps","protocol":17,"map":"cp_metalworks","folder":"tf","game":"Team Fortress","app_id":440,"player_count":23,"max_players":24,"Bots":0,"server_type":"Dedicated","server_os":"Linux","password":true,"vac":true,"version":"7932396","steam_id":85568392925397851,"keywords":["cp","nocrits","nodmgspread","uncletopia"],"game_id":440,"stv_port":27026,"stv_name":"Uncletopia | Warsaw | 2 | All Maps | STV","players":[{"user_id":404,"name":"randem_","steam_id":76561198338793755,"connected_time":1039000000000,"state":"active","ping":73},{"user_id":364,"name":"Krustyjared2","steam_id":76561199233015498,"connected_time":4687000000000,"state":"active","ping":163},{"user_id":402,"name":"Sarah Obama Michella","steam_id":76561198078996559,"connected_time":1250000000000,"state":"active","ping":86},{"user_id":399,"name":"scarfy","steam_id":76561197992645322,"connected_time":1613000000000,"state":"active","ping":47},{"user_id":405,"name":"Pemsay","steam_id":76561198343328308,"connected_time":1003000000000,"state":"active","ping":66},{"user_id":339,"name":"percocet.puppy.2007","steam_id":76561198148074472,"connected_time":5601000000000,"state":"active","ping":60},{"user_id":403,"name":"Dragon","steam_id":76561198163255365,"connected_time":1230000000000,"state":"active","ping":119},{"user_id":388,"name":"nyanezt","steam_id":76561198253734265,"connected_time":2855000000000,"state":"active","ping":77},{"user_id":341,"name":"weed.kitten.2009","steam_id":76561198147277460,"connected_time":5585000000000,"state":"active","ping":76},{"user_id":371,"name":"Envy","steam_id":76561198132723219,"connected_time":4459000000000,"state":"active","ping":75},{"user_id":398,"name":"1 / 3 - Smelly Unfortunate","steam_id":76561198307037169,"connected_time":1883000000000,"state":"active","ping":78},{"user_id":396,"name":"l'jarius sneed","steam_id":76561198088624259,"connected_time":1985000000000,"state":"active","ping":77},{"user_id":395,"name":"Lilliputt","steam_id":76561198090146457,"connected_time":2039000000000,"state":"active","ping":70},{"user_id":407,"name":"mumbler","steam_id":76561197970641239,"connected_time":885000000000,"state":"active","ping":61},{"user_id":414,"name":"Local Sink Stealer","steam_id":76561199034119390,"connected_time":544000000000,"state":"active","ping":187},{"user_id":415,"name":"Furno","steam_id":76561197999723047,"connected_time":516000000000,"state":"active","ping":61},{"user_id":410,"name":"oscar","steam_id":76561198060516476,"connected_time":859000000000,"state":"active","ping":65},{"user_id":417,"name":"Cagnus Marlsen","steam_id":76561198077859721,"connected_time":148000000000,"state":"active","ping":76},{"user_id":378,"name":"Bobirulez","steam_id":76561198009125458,"connected_time":4018000000000,"state":"active","ping":89},{"user_id":400,"name":"BIG MEAN MOTHER HUBBARD","steam_id":76561198798803845,"connected_time":1558000000000,"state":"active","ping":60},{"user_id":380,"name":"knedloveprozelo2009cz","steam_id":76561198203516436,"connected_time":3847000000000,"state":"active","ping":54},{"user_id":381,"name":"faze stock market hairline","steam_id":76561198256619964,"connected_time":3787000000000,"state":"active","ping":77},{"user_id":389,"name":"Doctor Marijuana","steam_id":76561198288289879,"connected_time":2834000000000,"state":"active","ping":78}]},{"server_id":51,"name":"Uncletopia | Warsaw | 3 | All Maps","name_short":"waw-3","host":"waw-1.pl.uncletopia.com","port":27035,"enabled":true,"region":"eu","cc":"pl","latitude":52.2297,"longitude":21.017532,"reserved":0,"last_update":"0001-01-01T00:00:00Z","name_a2s":"Uncletopia | Warsaw | 3 | All Maps","protocol":17,"map":"koth_viaduct","folder":"tf","game":"Team Fortress","app_id":440,"player_count":0,"max_players":24,"Bots":0,"server_type":"Dedicated","server_os":"Linux","password":true,"vac":true,"version":"7932396","steam_id":85568392925397852,"keywords":["cp","nocrits","nodmgspread","uncletopia"],"game_id":440,"stv_port":27036,"stv_name":"Uncletopia | Warsaw | 3 | All Maps | STV","players":null},{"server_id":52,"name":"Uncletopia | Warsaw | 4 | All Maps","name_short":"waw-4","host":"waw-1.pl.uncletopia.com","port":27045,"enabled":true,"region":"eu","cc":"pl","latitude":52.2297,"longitude":21.017532,"reserved":0,"last_update":"0001-01-01T00:00:00Z","name_a2s":"Uncletopia | Warsaw | 4 | All Maps","protocol":17,"map":"cp_dustbowl","folder":"tf","game":"Team Fortress","app_id":440,"player_count":0,"max_players":24,"Bots":0,"server_type":"Dedicated","server_os":"Linux","password":true,"vac":true,"version":"7932396","steam_id":85568392925397853,"keywords":["cp","nocrits","nodmgspread","uncletopia"],"game_id":440,"stv_port":27046,"stv_name":"Uncletopia | Warsaw | 4 | All Maps | STV","players":null},{"server_id":53,"name":"Uncletopia | Warsaw | 5 | Stopwatch Beta","name_short":"waw-5","host":"waw-1.pl.uncletopia.com","port":27055,"enabled":true,"region":"eu","cc":"pl","latitude":52.2297,"longitude":21.017532,"reserved":0,"last_update":"0001-01-01T00:00:00Z","name_a2s":"Uncletopia | Warsaw | 5 | Stopwatch Beta","protocol":17,"map":"koth_lakeside_final","folder":"tf","game":"Team Fortress","app_id":440,"player_count":0,"max_players":24,"Bots":0,"server_type":"Dedicated","server_os":"Linux","password":true,"vac":true,"version":"7932396","steam_id":85568392925397854,"keywords":["cp","nocrits","nodmgspread","uncletopia"],"game_id":440,"stv_port":27056,"stv_name":"Uncletopia | Warsaw | 5 | Stopwatch Beta | STV","players":null},{"server_id":54,"name":"Uncletopia | Warsaw | 6 | Community","name_short":"waw-6","host":"waw-1.pl.uncletopia.com","port":27065,"enabled":true,"region":"eu","cc":"pl","latitude":52.2297,"longitude":21.017532,"reserved":0,"last_update":"0001-01-01T00:00:00Z","name_a2s":"Uncletopia | Warsaw | 6 | Community","protocol":17,"map":"pl_upward","folder":"tf","game":"Team Fortress","app_id":440,"player_count":0,"max_players":24,"Bots":0,"server_type":"Dedicated","server_os":"Linux","password":true,"vac":true,"version":"7932396","steam_id":85568392925397856,"keywords":["nocrits","nodmgspread","payload","uncletopia"],"game_id":440,"stv_port":27066,"stv_name":"Uncletopia | Warsaw | 6 | Community | STV","players":null}]}