{"status":true,"message":"","result":[{"server_id":9,"name":"Uncletopia | Atlanta | 1 | All Maps","name_short":"atl-1","host":"atl-1.us.uncletopia.com","port":27015,"enabled":true,"region":"us-east","cc":"us","latitude":33.753746,"longitude":-84.38633,"reserved":0,"last_update":"0001-01-01T00:00:00Z","name_a2s":"Uncletopia | Atlanta | 1 | All Maps","protocol":17,"map":"pl_swiftwater_final1","folder":"tf","game":"Team Fortress","app_id":440,"player_count":24,"max_players":24,"Bots":0,"server_type":"Dedicated","server_os":"Linux","password":true,"vac":true,"version":"7708610","steam_id":85568392924469982,"keywords":["nocrits","nodmgspread","payload","uncletopia"],"game_id":440,"stv_port":27016,"stv_name":"Uncletopia | Atlanta | 1 | All Maps | STV","players":[{"user_id":129,"name":"Fawny","steam_id":76561198311363172,"connected_time":84000000000,"state":"active","ping":75},{"user_id":130,"name":"Big Jums","steam_id":76561198026601028,"connected_time":76000000000,"state":"active","ping":186},{"user_id":90,"name":"sansa musa","steam_id":76561198163723555,"connected_time":2468000000000,"state":"active","ping":74},{"user_id":94,"name":"mbs","steam_id":76561198013079739,"connected_time":2413000000000,"state":"active","ping":62},{"user_id":125,"name":"√Ed","steam_id":76561198001051213,"connected_time":197000000000,"state":"connecting","ping":0},{"user_id":126,"name":"AverageRundownJoe.ttv","steam_id":76561198059359620,"connected_time":187000000000,"state":"active","ping":98},{"user_id":116,"name":"Sea4","steam_id":76561198846451551,"connected_time":591000000000,"state":"active","ping":133},{"user_id":62,"name":"ichster for peace","steam_id":76561198011675372,"connected_time":4535000000000,"state":"active","ping":117},{"user_id":117,"name":"Aniz","steam_id":76561199226665024,"connected_time":496000000000,"state":"active","ping":155},{"user_id":82,"name":"Festive Gael :3","steam_id":76561199012900656,"connected_time":2858000000000,"state":"active","ping":61},{"user_id":120,"name":"Thotimus Begonimus","steam_id":76561197970275938,"connected_time":362000000000,"state":"active","ping":45},{"user_id":81,"name":"Habber The Quesomancer","steam_id":76561198049642751,"connected_time":3282000000000,"state":"active","ping":62},{"user_id":106,"name":"Reyloko","steam_id":76561198172480913,"connected_time":891000000000,"state":"active","ping":90},{"user_id":103,"name":"taishang","steam_id":76561198065328284,"connected_time":1438000000000,"state":"active","ping":98},{"user_id":107,"name":"jae are (f2p)","steam_id":76561198027906463,"connected_time":861000000000,"state":"active","ping":66},{"user_id":121,"name":"uberheights #playoffsmode","steam_id":76561198236008378,"connected_time":293000000000,"state":"active","ping":71},{"user_id":128,"name":":P","steam_id":76561198304265800,"connected_time":131000000000,"state":"active","ping":92},{"user_id":72,"name":"AhoyK","steam_id":76561198274742715,"connected_time":3974000000000,"state":"active","ping":56},{"user_id":56,"name":"Yuhh","steam_id":76561199112894955,"connected_time":5147000000000,"state":"active","ping":85},{"user_id":127,"name":"walrusmash","steam_id":76561198117955845,"connected_time":172000000000,"state":"active","ping":60},{"user_id":86,"name":"Young-OG","steam_id":76561198058800479,"connected_time":2504000000000,"state":"active","ping":66},{"user_id":124,"name":"uhooter","steam_id":76561198007829078,"connected_time":209000000000,"state":"active","ping":74},{"user_id":131,"name":"Hitlinemoss","steam_id":76561198155435669,"connected_time":67000000000,"state":"active","ping":74},{"user_id":89,"name":"MintyPawz","steam_id":76561198111430103,"connected_time":2476000000000,"state":"active","ping":101}]},{"server_id":400,"name":"Uncletopia | Atlanta | 3 | All Maps","name_short":"atl-3","host":"atl-1.us.uncletopia.com","port":27035,"enabled":true,"region":"us-east","cc":"us","latitude":33.753746,"longitude":-84.38633,"reserved":0,"last_update":"0001-01-01T00:00:00Z","name_a2s":"Uncletopia | Atlanta | 3 | All Maps","protocol":17,"map":"pl_badwater","folder":"tf","game":"Team Fortress","app_id":440,"player_count":0,"max_players":24,"Bots":0,"server_type":"Dedicated","server_os":"Linux","password":true,"vac":true,"version":"7708610","steam_id":85568392924515187,"keywords":["nocrits","nodmgspread","payload","uncletopia"],"game_id":440,"stv_port":0,"stv_name":"","players":null},{"server_id":401,"name":"Uncletopia | Atlanta | 4 | No Payload","name_short":"atl-4","host":"atl-1.us.uncletopia.com","port":27045,"enabled":true,"region":"us-east","cc":"us","latitude":33.753746,"longitude":-84.38633,"reserved":0,"last_update":"0001-01-01T00:00:00Z","name_a2s":"Uncletopia | Atlanta | 4 | No Payload","protocol":17,"map":"cp_egypt_final","folder":"tf","game":"Team Fortress","app_id":440,"player_count":8,"max_players":24,"Bots":0,"server_type":"Dedicated","server_os":"Linux","password":true,"vac":true,"version":"7708610","steam_id":85568392924515188,"keywords":["cp","nocrits","nodmgspread","uncletopia"],"game_id":440,"stv_port":27046,"stv_name":"Uncletopia | Atlanta | 4 | No Payload | STV","players":[{"user_id":2,"name":"Centerpoint360","steam_id":76561198038968126,"connected_time":3869000000000,"state":"active","ping":77},{"user_id":14,"name":"CornParade","steam_id":76561198035979805,"connected_time":1363000000000,"state":"active","ping":126},{"user_id":26,"name":"The Fart Poop","steam_id":76561198320218630,"connected_time":660000000000,"state":"active","ping":81},{"user_id":6,"name":" RƐD  EмPıʀE","steam_id":76561199367495760,"connected_time":2499000000000,"state":"active","ping":164},{"user_id":8,"name":"ghenotic","steam_id":76561199310269979,"connected_time":2294000000000,"state":"active","ping":53},{"user_id":24,"name":"Cozy","steam_id":76561198003807560,"connected_time":963000000000,"state":"active","ping":150},{"user_id":16,"name":"THE NUT","steam_id":76561198067813626,"connected_time":1312000000000,"state":"active","ping":100},{"user_id":19,"name":"Madkiller Max","steam_id":76561197974470705,"connected_time":1114000000000,"state":"active","ping":53}]},{"server_id":2,"name":"Uncletopia | Chicago | 1 | All Maps","name_short":"chi-1","host":"chi-1.us.uncletopia.com","port":27015,"enabled":true,"region":"us-central","cc":"us","latitude":41.881832,"longitude":-87.62318,"reserved":0,"last_update":"0001-01-01T00:00:00Z","name_a2s":"Uncletopia | Chicago | 1 | All Maps","protocol":17,"map":"pl_borneo","folder":"tf","game":"Team Fortress","app_id":440,"player_count":24,"max_players":24,"Bots":0,"server_type":"Dedicated","server_os":"Linux","password":true,"vac":true,"version":"7708610","steam_id":85568392924469984,"keywords":["nocrits","nodmgspread","payload","uncletopia"],"game_id":440,"stv_port":27016,"stv_name":"Uncletopia | Chicago | 1 | All Maps | STV","players":[{"user_id":143,"name":"IPlayGamez","steam_id":76561198041387508,"connected_time":2350000000000,"state":"active","ping":65},{"user_id":171,"name":"็","steam_id":76561198039763676,"connected_time":769000000000,"state":"active","ping":63},{"user_id":150,"name":"veewon","steam_id":76561198276513608,"connected_time":1451000000000,"state":"active","ping":166},{"user_id":144,"name":"SirJellyRolls","steam_id":76561198119277244,"connected_time":2348000000000,"state":"active","ping":65},{"user_id":174,"name":"Soap Man","steam_id":76561198000490235,"connected_time":592000000000,"state":"active","ping":108},{"user_id":167,"name":"Whoa","steam_id":76561197970353496,"connected_time":857000000000,"state":"active","ping":74},{"user_id":158,"name":"Lamb Chopper","steam_id":76561198851872554,"connected_time":1070000000000,"state":"active","ping":70},{"user_id":159,"name":"lostos","steam_id":76561197983869145,"connected_time":1048000000000,"state":"active","ping":127},{"user_id":160,"name":"mbappe","steam_id":76561199442878688,"connected_time":1018000000000,"state":"active","ping":54},{"user_id":146,"name":"OneTrueCorvid","steam_id":76561199012953221,"connected_time":1735000000000,"state":"active","ping":85},{"user_id":131,"name":"dust","steam_id":76561198045218909,"connected_time":2819000000000,"state":"active","ping":84},{"user_id":156,"name":"Eternal","steam_id":76561197990721868,"connected_time":1105000000000,"state":"active","ping":78},{"user_id":153,"name":"stop","steam_id":76561198268686419,"connected_time":1426000000000,"state":"active","ping":54},{"user_id":161,"name":"fudge lord","steam_id":76561198118318422,"connected_time":1014000000000,"state":"active","ping":89},{"user_id":169,"name":"Lifial","steam_id":76561198271885819,"connected_time":841000000000,"state":"active","ping":73},{"user_id":24,"name":"Mr.Oxiclean","steam_id":76561198144729009,"connected_time":10071000000000,"state":"active","ping":63},{"user_id":163,"name":"Albino Jellyfish","steam_id":76561198208561097,"connected_time":966000000000,"state":"active","ping":63},{"user_id":170,"name":"notmanhattan","steam_id":76561198143117561,"connected_time":822000000000,"state":"active","ping":45},{"user_id":149,"name":"Idealists","steam_id":76561198829068222,"connected_time":1549000000000,"state":"active","ping":47},{"user_id":165,"name":"ragu","steam_id":76561198004882625,"connected_time":956000000000,"state":"active","ping":108},{"user_id":130,"name":"Deadasfboi","steam_id":76561198072474034,"connected_time":2969000000000,"state":"active","ping":59},{"user_id":166,"name":"TurtledoveJones","steam_id":76561198010200051,"connected_time":907000000000,"state":"active","ping":52},{"user_id":115,"name":"Drachma","steam_id":76561198007310514,"connected_time":4547000000000,"state":"active","ping":66},{"user_id":128,"name":"harry","steam_id":76561198263271697,"connected_time":3008000000000,"state":"active","ping":41}]},{"server_id":106,"name":"Uncletopia | Chicago | 2 | All Maps","name_short":"chi-2","host":"chi-1.us.uncletopia.com","port":27025,"enabled":true,"region":"us-central","cc":"us","latitude":41.881832,"longitude":-87.62318,"reserved":0,"last_update":"0001-01-01T00:00:00Z","name_a2s":"Uncletopia | Chicago | 2 | All Maps","protocol":17,"map":"cp_process_final","folder":"tf","game":"Team Fortress","app_id":440,"player_count":24,"max_players":24,"Bots":0,"server_type":"Dedicated","server_os":"Linux","password":true,"vac":true,"version":"7708610","steam_id":85568392924469985,"keywords":["cp","nocrits","nodmgspread","uncletopia"],"game_id":440,"stv_port":27026,"stv_name":"Uncletopia | Chicago | 2 | All Maps | STV","players":[{"user_id":8,"name":"fan271","steam_id":76561198351919562,"connected_time":3405000000000,"state":"active","ping":64},{"user_id":25,"name":"Void","steam_id":76561198308290211,"connected_time":1345000000000,"state":"active","ping":109},{"user_id":21,"name":"Olive Oral","steam_id":76561199080239194,"connected_time":1653000000000,"state":"active","ping":75},{"user_id":36,"name":"St. Michael","steam_id":76561198037611052,"connected_time":789000000000,"state":"active","ping":65},{"user_id":30,"name":"Nico","steam_id":76561198125701869,"connected_time":1005000000000,"state":"active","ping":66},{"user_id":17,"name":"Clank","steam_id":76561198137324252,"connected_time":2279000000000,"state":"active","ping":75},{"user_id":28,"name":"Quansen","steam_id":76561198151594550,"connected_time":1091000000000,"state":"active","ping":53},{"user_id":47,"name":"Angry Loona","steam_id":76561198282296334,"connected_time":279000000000,"state":"active","ping":62},{"user_id":24,"name":"Spraxinator","steam_id":76561199083563607,"connected_time":1636000000000,"state":"active","ping":82},{"user_id":31,"name":"Knightmare Steel","steam_id":76561198091116020,"connected_time":999000000000,"state":"active","ping":123},{"user_id":32,"name":"Sturt","steam_id":76561198418100672,"connected_time":984000000000,"state":"active","ping":53},{"user_id":33,"name":"bottle pick tf2","steam_id":76561199386939629,"connected_time":915000000000,"state":"active","ping":54},{"user_id":34,"name":"Ipseiit","steam_id":76561198294670312,"connected_time":847000000000,"state":"active","ping":62},{"user_id":35,"name":"xxRainman90xx","steam_id":76561199185785875,"connected_time":832000000000,"state":"active","ping":58},{"user_id":37,"name":"Lesbian Chungus","steam_id":76561198055964295,"connected_time":699000000000,"state":"active","ping":67},{"user_id":38,"name":"glitch","steam_id":76561197979495589,"connected_time":694000000000,"state":"active","ping":71},{"user_id":39,"name":"Dunmaglass","steam_id":76561198128928443,"connected_time":663000000000,"state":"active","ping":74},{"user_id":40,"name":"Bearegard","steam_id":76561198061926542,"connected_time":662000000000,"state":"active","ping":63},{"user_id":41,"name":"Rornir","steam_id":76561198081829615,"connected_time":628000000000,"state":"active","ping":31},{"user_id":42,"name":"-[FF]- EnglishB0t2.9","steam_id":76561199013600280,"connected_time":576000000000,"state":"active","ping":151},{"user_id":43,"name":"parsee","steam_id":76561198095139889,"connected_time":570000000000,"state":"active","ping":69},{"user_id":44,"name":"Huge","steam_id":76561199030987614,"connected_time":561000000000,"state":"active","ping":77},{"user_id":45,"name":"Yimi","steam_id":76561198097984345,"connected_time":442000000000,"state":"active","ping":88},{"user_id":46,"name":"Scorpsy","steam_id":76561198024477688,"connected_time":375000000000,"state":"active","ping":68}]},{"server_id":402,"name":"Uncletopia | Chicago | 3 | All Maps","name_short":"chi-3","host":"chi-1.us.uncletopia.com","port":27035,"enabled":true,"region":"us-central","cc":"us","latitude":41.881832,"longitude":-87.62318,"reserved":0,"last_update":"0001-01-01T00:00:00Z","name_a2s":"Uncletopia | Chicago | 3 | All Maps","protocol":17,"map":"pl_snowycoast","folder":"tf","game":"Team Fortress","app_id":440,"player_count":1,"max_players":24,"Bots":0,"server_type":"Dedicated","server_os":"Linux","password":true,"vac":true,"version":"7708610","steam_id":85568392924515191,"keywords":["nocrits","nodmgspread","payload","uncletopia"],"game_id":440,"stv_port":27036,"stv_name":"Uncletopia | Chicago | 3 | All Maps | STV","players":[{"user_id":4,"name":"Rocket","steam_id":76561198196427525,"connected_time":39000000000,"state":"active","ping":90}]},{"server_id":403,"name":"Uncletopia | Chicago | 4 | All Maps","name_short":"chi-4","host":"chi-1.us.uncletopia.com","port":27045,"enabled":true,"region":"us-central","cc":"us","latitude":41.881832,"longitude":-87.62318,"reserved":0,"last_update":"0001-01-01T00:00:00Z","name_a2s":"Uncletopia | Chicago | 4 | All Maps","protocol":17,"map":"cp_snakewater_final1","folder":"tf","game":"Team Fortress","app_id":440,"player_count":0,"max_players":24,"Bots":0,"server_type":"Dedicated","server_os":"Linux","password":true,"vac":true,"version":"7708610","steam_id":85568392924515193,"keywords":["cp","nocrits","nodmgspread","uncletopia"],"game_id":440,"stv_port":27046,"stv_name":"Uncletopia | Chicago | 4 | All Maps | STV","players":null},{"server_id":36,"name":"Uncletopia | Chicago | 5 | All Maps","name_short":"chi-5","host":"chi-2.us.uncletopia.com","port":27015,"enabled":true,"region":"us-central","cc":"us","latitude":41.881832,"longitude":-87.62318,"reserved":0,"last_update":"0001-01-01T00:00:00Z","name_a2s":"Uncletopia | Chicago | 5 | All Maps","protocol":17,"map":"pl_wutville_event","folder":"tf","game":"Team Fortress","app_id":440,"player_count":0,"max_players":24,"Bots":0,"server_type":"Dedicated","server_os":"Linux","password":true,"vac":true,"version":"7708610","steam_id":85568392924866362,"keywords":["nocrits","nodmgspread","payload","uncletopia"],"game_id":440,"stv_port":27016,"stv_name":"Uncletopia | Chicago | 5 | All Maps | STV","players":null},{"server_id":37,"name":"Uncletopia | Chicago | 6 | All Maps","name_short":"chi-6","host":"chi-2.us.uncletopia.com","port":27025,"enabled":true,"region":"us-central","cc":"us","latitude":41.881832,"longitude":-87.62318,"reserved":0,"last_update":"0001-01-01T00:00:00Z","name_a2s":"Uncletopia | Chicago | 6 | All Maps","protocol":17,"map":"koth_cascade","folder":"tf","game":"Team Fortress","app_id":440,"player_count":0,"max_players":24,"Bots":0,"server_type":"Dedicated","server_os":"Linux","password":true,"vac":true,"version":"7708610","steam_id":85568392924866363,"keywords":["cp","nocrits","nodmgspread","uncletopia"],"game_id":440,"stv_port":0,"stv_name":"","players":null},{"server_id":38,"name":"Uncletopia | Chicago | 7 | No Payload","name_short":"chi-7","host":"chi-2.us.uncletopia.com","port":27035,"enabled":true,"region":"us-central","cc":"us","latitude":41.881832,"longitude":-87.62318,"reserved":0,"last_update":"0001-01-01T00:00:00Z","name_a2s":"Uncletopia | Chicago | 7 | No Payload","protocol":17,"map":"koth_viaduct","folder":"tf","game":"Team Fortress","app_id":440,"player_count":0,"max_players":24,"Bots":0,"server_type":"Dedicated","server_os":"Linux","password":true,"vac":true,"version":"7708610","steam_id":85568392924866364,"keywords":["cp","nocrits","nodmgspread","uncletopia"],"game_id":440,"stv_port":0,"stv_name":"","players":null},{"server_id":39,"name":"Uncletopia | Chicago | 8 | Community","name_short":"chi-8","host":"chi-2.us.uncletopia.com","port":27045,"enabled":true,"region":"us-central","cc":"us","latitude":41.881832,"longitude":-87.62318,"reserved":0,"last_update":"0001-01-01T00:00:00Z","name_a2s":"Uncletopia | Chicago | 8 | Community","protocol":17,"map":"pl_pier","folder":"tf","game":"Team Fortress","app_id":440,"player_count":0,"max_players":24,"Bots":0,"server_type":"Dedicated","server_os":"Linux","password":true,"vac":true,"version":"7708610","steam_id":85568392924866365,"keywords":["nocrits","nodmgspread","payload","uncletopia"],"game_id":440,"stv_port":0,"stv_name":"","players":null},{"server_id":8,"name":"Uncletopia | Dallas | 1 | All Maps","name_short":"dal-1","host":"dal-1.us.uncletopia.com","port":27015,"enabled":true,"region":"us-central","cc":"us","latitude":32.779167,"longitude":-96.80889,"reserved":0,"last_update":"0001-01-01T00:00:00Z","name_a2s":"Uncletopia | Dallas | 1 | All Maps","protocol":17,"map":"koth_lakeside_final","folder":"tf","game":"Team Fortress","app_id":440,"player_count":0,"max_players":24,"Bots":0,"server_type":"Dedicated","server_os":"Linux","password":true,"vac":true,"version":"7708610","steam_id":85568392924469986,"keywords":["cp","nocrits","nodmgspread","uncletopia"],"game_id":440,"stv_port":27016,"stv_name":"Uncletopia | Dallas | 1 | All Maps | STV","players":null},{"server_id":108,"name":"Uncletopia | Dallas | 2 | All Maps","name_short":"dal-2","host":"dal-1.us.uncletopia.com","port":27025,"enabled":true,"region":"us-central","cc":"us","latitude":32.779167,"longitude":-96.80889,"reserved":0,"last_update":"0001-01-01T00:00:00Z","name_a2s":"Uncletopia | Dallas | 2 | All Maps","protocol":17,"map":"pl_barnblitz","folder":"tf","game":"Team Fortress","app_id":440,"player_count":0,"max_players":24,"Bots":0,"server_type":"Dedicated","server_os":"Linux","password":true,"vac":true,"version":"7708610","steam_id":85568392924469988,"keywords":["nocrits","nodmgspread","payload","uncletopia"],"game_id":440,"stv_port":0,"stv_name":"","players":null},{"server_id":5,"name":"Uncletopia | Frankfurt | 1 | All Maps","name_short":"frk-1","host":"frk-1.de.uncletopia.com","port":27015,"enabled":true,"region":"eu","cc":"de","latitude":50.110924,"longitude":8.682127,"reserved":0,"last_update":"0001-01-01T00:00:00Z","name_a2s":"Uncletopia | Frankfurt | 1 | All Maps","protocol":17,"map":"pl_barnblitz","folder":"tf","game":"Team Fortress","app_id":440,"player_count":24,"max_players":24,"Bots":0,"server_type":"Dedicated","server_os":"Linux","password":true,"vac":true,"version":"7708610","steam_id":85568392924469989,"keywords":["nocrits","nodmgspread","payload","uncletopia"],"game_id":440,"stv_port":27016,"stv_name":"Uncletopia | Frankfurt | 1 | All Maps | STV","players":[{"user_id":311,"name":"Gordon Birdman","steam_id":76561198013382324,"connected_time":2892000000000,"state":"active","ping":75},{"user_id":299,"name":"Aoshi","steam_id":76561198043868358,"connected_time":4022000000000,"state":"active","ping":60},{"user_id":338,"name":"After8","steam_id":76561198090750865,"connected_time":518000000000,"state":"active","ping":60},{"user_id":322,"name":"Posture Check","steam_id":76561198053897197,"connected_time":1833000000000,"state":"active","ping":46},{"user_id":306,"name":"Spaenny","steam_id":76561198035850165,"connected_time":3290000000000,"state":"active","ping":49},{"user_id":339,"name":"Hannibal The Conqueror","steam_id":76561198051452752,"connected_time":507000000000,"state":"active","ping":64},{"user_id":341,"name":"Appelflap64","steam_id":76561198012819017,"connected_time":457000000000,"state":"active","ping":63},{"user_id":326,"name":"sareena","steam_id":76561198810194062,"connected_time":1690000000000,"state":"active","ping":75},{"user_id":333,"name":"AuroraAce","steam_id":76561198278162691,"connected_time":1070000000000,"state":"active","ping":50},{"user_id":324,"name":"Mr. Huntsman","steam_id":76561197981910397,"connected_time":1728000000000,"state":"active","ping":60},{"user_id":331,"name":"mcdonaldburger54@yahoo.com","steam_id":76561198846982793,"connected_time":1185000000000,"state":"active","ping":60},{"user_id":325,"name":"Maddox","steam_id":76561198026419869,"connected_time":1717000000000,"state":"active","ping":73},{"user_id":318,"name":"Makeways","steam_id":76561198274466477,"connected_time":1921000000000,"state":"active","ping":73},{"user_id":343,"name":"The 4th Doctor","steam_id":76561198191516706,"connected_time":28000000000,"state":"active","ping":57},{"user_id":332,"name":"Phodom","steam_id":76561198348490786,"connected_time":1180000000000,"state":"active","ping":51},{"user_id":336,"name":"Stivo","steam_id":76561198026547999,"connected_time":553000000000,"state":"active","ping":83},{"user_id":337,"name":"Rops","steam_id":76561198031608011,"connected_time":548000000000,"state":"active","ping":85},{"user_id":340,"name":"Deacon Dracul","steam_id":76561198046880663,"connected_time":506000000000,"state":"active","ping":104},{"user_id":342,"name":"XDXDXDXDXDXDXDXDXDXDXDXDXDXDXD","steam_id":76561198972671525,"connected_time":454000000000,"state":"active","ping":101},{"user_id":313,"name":"I wish I was polish","steam_id":76561199433578516,"connected_time":2219000000000,"state":"active","ping":84},{"user_id":334,"name":"Combat Wombat","steam_id":76561197994720068,"connected_time":940000000000,"state":"active","ping":69},{"user_id":270,"name":"jones","steam_id":76561198044434971,"connected_time":6958000000000,"state":"active","ping":62},{"user_id":335,"name":"Common polish hood dweller","steam_id":76561198126524735,"connected_time":919000000000,"state":"active","ping":74},{"user_id":289,"name":"nitroglycerin","steam_id":76561198080496833,"connected_time":4611000000000,"state":"active","ping":74}]},{"server_id":110,"name":"Uncletopia | Frankfurt | 2 | All Maps","name_short":"frk-2","host":"frk-1.de.uncletopia.com","port":27025,"enabled":true,"region":"eu","cc":"de","latitude":50.110924,"longitude":8.682127,"reserved":0,"last_update":"0001-01-01T00:00:00Z","name_a2s":"Uncletopia | Frankfurt | 2 | All Maps","protocol":17,"map":"koth_king","folder":"tf","game":"Team Fortress","app_id":440,"player_count":24,"max_players":24,"Bots":0,"server_type":"Dedicated","server_os":"Linux","password":true,"vac":true,"version":"7708610","steam_id":85568392924469990,"keywords":["cp","nocrits","nodmgspread","uncletopia"],"game_id":440,"stv_port":27026,"stv_name":"Uncletopia | Frankfurt | 2 | All Maps | STV","players":[{"user_id":214,"name":"Cobb Salads","steam_id":76561197971140507,"connected_time":1750000000000,"state":"active","ping":60},{"user_id":225,"name":"viziborju","steam_id":76561199145340529,"connected_time":1206000000000,"state":"active","ping":73},{"user_id":179,"name":"Spazmatic","steam_id":76561198060956170,"connected_time":3750000000000,"state":"active","ping":143},{"user_id":167,"name":"Miatthew","steam_id":76561198034102895,"connected_time":3986000000000,"state":"active","ping":51},{"user_id":232,"name":"Aeglos","steam_id":76561198248698294,"connected_time":648000000000,"state":"active","ping":67},{"user_id":169,"name":"Supercle26","steam_id":76561199027147631,"connected_time":3928000000000,"state":"active","ping":51},{"user_id":239,"name":"DropShot","steam_id":76561198042476724,"connected_time":125000000000,"state":"active","ping":77},{"user_id":240,"name":"ambatukam!!!","steam_id":76561198197304886,"connected_time":68000000000,"state":"active","ping":116},{"user_id":202,"name":"maakgis","steam_id":76561198851703804,"connected_time":2640000000000,"state":"active","ping":119},{"user_id":151,"name":"Maske","steam_id":76561198078100812,"connected_time":4919000000000,"state":"active","ping":47},{"user_id":213,"name":"Wujek Cacek","steam_id":76561198010267943,"connected_time":1769000000000,"state":"active","ping":66},{"user_id":220,"name":"fayaman","steam_id":76561198111807532,"connected_time":1602000000000,"state":"active","ping":68},{"user_id":234,"name":"csnipery","steam_id":76561199435280050,"connected_time":352000000000,"state":"active","ping":63},{"user_id":211,"name":"ImABush","steam_id":76561198304471896,"connected_time":2017000000000,"state":"active","ping":53},{"user_id":237,"name":"Layton","steam_id":76561198087221314,"connected_time":154000000000,"state":"active","ping":47},{"user_id":228,"name":"Löysä Masa","steam_id":76561198343396172,"connected_time":1128000000000,"state":"active","ping":100},{"user_id":215,"name":"Nemo","steam_id":76561198121267506,"connected_time":1676000000000,"state":"active","ping":106},{"user_id":199,"name":"guc0","steam_id":76561198109952006,"connected_time":2759000000000,"state":"active","ping":90},{"user_id":227,"name":"DOMINOS","steam_id":76561198334591211,"connected_time":1151000000000,"state":"active","ping":61},{"user_id":219,"name":"Milk","steam_id":76561198219146857,"connected_time":1605000000000,"state":"active","ping":82},{"user_id":201,"name":"Acid","steam_id":76561198102110680,"connected_time":2747000000000,"state":"active","ping":90},{"user_id":235,"name":"Tomfool","steam_id":76561197993256481,"connected_time":346000000000,"state":"active","ping":72},{"user_id":236,"name":"45 mg","steam_id":76561198864329072,"connected_time":343000000000,"state":"active","ping":123},{"user_id":229,"name":"Proto","steam_id":76561197996013378,"connected_time":741000000000,"state":"active","ping":58}]},{"server_id":308,"name":"Uncletopia | Frankfurt | 3 | All Maps","name_short":"frk-3","host":"frk-1.de.uncletopia.com","port":27035,"enabled":true,"region":"eu","cc":"de","latitude":50.110924,"longitude":8.682127,"reserved":0,"last_update":"0001-01-01T00:00:00Z","name_a2s":"Uncletopia | Frankfurt | 3 | All Maps","protocol":17,"map":"pl_barnblitz","folder":"tf","game":"Team Fortress","app_id":440,"player_count":24,"max_players":24,"Bots":0,"server_type":"Dedicated","server_os":"Linux","password":true,"vac":true,"version":"7708610","steam_id":85568392924504274,"keywords":["nocrits","nodmgspread","payload","uncletopia"],"game_id":440,"stv_port":27036,"stv_name":"Uncletopia | Frankfurt | 3 | All Maps | STV","players":[{"user_id":34,"name":"banrab","steam_id":76561198083615367,"connected_time":6492000000000,"state":"active","ping":50},{"user_id":92,"name":"1_M_W","steam_id":76561199091749430,"connected_time":1371000000000,"state":"active","ping":81},{"user_id":94,"name":"Yagos24","steam_id":76561198409379998,"connected_time":1026000000000,"state":"active","ping":94},{"user_id":36,"name":"natalia","steam_id":76561198068054530,"connected_time":6322000000000,"state":"active","ping":200},{"user_id":8,"name":"small tony","steam_id":76561199141010349,"connected_time":7292000000000,"state":"active","ping":88},{"user_id":83,"name":"Crimea a bridge","steam_id":76561198030898371,"connected_time":2194000000000,"state":"active","ping":72},{"user_id":100,"name":"latch","steam_id":76561198064878900,"connected_time":48000000000,"state":"active","ping":50},{"user_id":75,"name":"Charmedelf","steam_id":76561197993611881,"connected_time":2502000000000,"state":"active","ping":59},{"user_id":57,"name":"Gabys","steam_id":76561198282892553,"connected_time":4240000000000,"state":"active","ping":73},{"user_id":99,"name":"Oak","steam_id":76561198248567360,"connected_time":690000000000,"state":"active","ping":54},{"user_id":71,"name":"Christuhfar","steam_id":76561198044496678,"connected_time":3090000000000,"state":"active","ping":73},{"user_id":91,"name":"Rex","steam_id":76561199032874487,"connected_time":1383000000000,"state":"active","ping":70},{"user_id":95,"name":"Perämiehenä","steam_id":76561197968945306,"connected_time":908000000000,"state":"active","ping":82},{"user_id":98,"name":"behind u","steam_id":76561198267612598,"connected_time":744000000000,"state":"active","ping":85},{"user_id":78,"name":"...","steam_id":76561198969234594,"connected_time":2403000000000,"state":"active","ping":61},{"user_id":52,"name":"ff:ff:ff:ff:ff:ff","steam_id":76561198072122983,"connected_time":4842000000000,"state":"active","ping":57},{"user_id":85,"name":"BarrackOmaha","steam_id":76561198027922724,"connected_time":2122000000000,"state":"active","ping":61},{"user_id":50,"name":"boat","steam_id":76561198044915818,"connected_time":5118000000000,"state":"active","ping":92},{"user_id":86,"name":"Dolcelatte","steam_id":76561198038501770,"connected_time":1806000000000,"state":"active","ping":59},{"user_id":82,"name":"Speibsackerl","steam_id":76561198058135257,"connected_time":2258000000000,"state":"active","ping":59},{"user_id":93,"name":"jolie rouge","steam_id":76561197988085026,"connected_time":1314000000000,"state":"active","ping":68},{"user_id":81,"name":"Tomaash","steam_id":76561198115542042,"connected_time":2308000000000,"state":"active","ping":59},{"user_id":97,"name":"freemantel30","steam_id":76561198065669800,"connected_time":778000000000,"state":"active","ping":46},{"user_id":68,"name":"MagicTITIKAKA","steam_id":76561198129509548,"connected_time":3500000000000,"state":"active","ping":109}]},{"server_id":309,"name":"Uncletopia | Frankfurt | 4 | All Maps","name_short":"frk-4","host":"frk-1.de.uncletopia.com","port":27045,"enabled":true,"region":"eu","cc":"de","latitude":50.110924,"longitude":8.682127,"reserved":0,"last_update":"0001-01-01T00:00:00Z","name_a2s":"Uncletopia | Frankfurt | 4 | All Maps","protocol":17,"map":"pl_frontier_final","folder":"tf","game":"Team Fortress","app_id":440,"player_count":24,"max_players":24,"Bots":0,"server_type":"Dedicated","server_os":"Linux","password":true,"vac":true,"version":"7708610","steam_id":85568392924504275,"keywords":["nocrits","nodmgspread","payload","uncletopia"],"game_id":440,"stv_port":27046,"stv_name":"Uncletopia | Frankfurt | 4 | All Maps | STV","players":[{"user_id":399,"name":"galaxy","steam_id":76561198164819022,"connected_time":3780000000000,"state":"active","ping":65},{"user_id":468,"name":"dustwrld","steam_id":76561198152576682,"connected_time":92000000000,"state":"active","ping":64},{"user_id":466,"name":"Yoyo12","steam_id":76561198931770279,"connected_time":288000000000,"state":"active","ping":60},{"user_id":427,"name":"Udinese Dion","steam_id":76561198067931573,"connected_time":2651000000000,"state":"active","ping":44},{"user_id":401,"name":"Bushy","steam_id":76561198076552735,"connected_time":3766000000000,"state":"active","ping":90},{"user_id":461,"name":"beurgeur","steam_id":76561198872426314,"connected_time":572000000000,"state":"active","ping":45},{"user_id":460,"name":"Scootz","steam_id":76561198018491455,"connected_time":721000000000,"state":"active","ping":63},{"user_id":451,"name":"Kaek","steam_id":76561197960283484,"connected_time":1501000000000,"state":"active","ping":68},{"user_id":449,"name":"glyph","steam_id":76561197980736364,"connected_time":1593000000000,"state":"active","ping":77},{"user_id":464,"name":"JustACoomer","steam_id":76561198151433181,"connected_time":518000000000,"state":"active","ping":61},{"user_id":459,"name":"tob:ias","steam_id":76561198832146626,"connected_time":770000000000,"state":"active","ping":56},{"user_id":418,"name":"Leibeigener","steam_id":76561199275478305,"connected_time":2985000000000,"state":"active","ping":44},{"user_id":456,"name":"fuzzy hair","steam_id":76561199137825989,"connected_time":838000000000,"state":"active","ping":48},{"user_id":458,"name":"Vitamin Weee","steam_id":76561199183937747,"connected_time":782000000000,"state":"active","ping":80},{"user_id":408,"name":"Sad Slut","steam_id":76561198838277022,"connected_time":3616000000000,"state":"active","ping":68},{"user_id":421,"name":"E_WM","steam_id":76561198283432737,"connected_time":2937000000000,"state":"active","ping":98},{"user_id":441,"name":"Fekeks |Potato Industries|","steam_id":76561198152536563,"connected_time":1851000000000,"state":"active","ping":55},{"user_id":462,"name":"Ace","steam_id":76561198979117577,"connected_time":550000000000,"state":"active","ping":62},{"user_id":432,"name":"Doriian","steam_id":76561198071438810,"connected_time":2312000000000,"state":"active","ping":82},{"user_id":453,"name":"Arcad","steam_id":76561198059786891,"connected_time":1294000000000,"state":"active","ping":84},{"user_id":455,"name":"p!ke","steam_id":76561198416081952,"connected_time":1116000000000,"state":"active","ping":60},{"user_id":467,"name":"Komisar Jozef","steam_id":76561198318491055,"connected_time":179000000000,"state":"active","ping":88},{"user_id":340,"name":"Tomamo","steam_id":76561198258031112,"connected_time":8364000000000,"state":"active","ping":86},{"user_id":443,"name":"Mury","steam_id":76561198069743049,"connected_time":1791000000000,"state":"active","ping":149}]},{"server_id":310,"name":"Uncletopia | Frankfurt | 5 | All Maps","name_short":"frk-5","host":"frk-1.de.uncletopia.com","port":27055,"enabled":true,"region":"eu","cc":"de","latitude":50.110924,"longitude":8.682127,"reserved":0,"last_update":"0001-01-01T00:00:00Z","name_a2s":"Uncletopia | Frankfurt | 5 | All Maps","protocol":17,"map":"koth_cascade","folder":"tf","game":"Team Fortress","app_id":440,"player_count":0,"max_players":24,"Bots":0,"server_type":"Dedicated","server_os":"Linux","password":true,"vac":true,"version":"7708610","steam_id":85568392924504277,"keywords":["cp","nocrits","nodmgspread","uncletopia"],"game_id":440,"stv_port":0,"stv_name":"","players":null},{"server_id":311,"name":"Uncletopia | Frankfurt | 6 | All Maps","name_short":"frk-6","host":"frk-1.de.uncletopia.com","port":27065,"enabled":true,"region":"eu","cc":"de","latitude":50.110924,"longitude":8.682127,"reserved":0,"last_update":"0001-01-01T00:00:00Z","name_a2s":"Uncletopia | Frankfurt | 6 | All Maps","protocol":17,"map":"koth_lakeside_final","folder":"tf","game":"Team Fortress","app_id":440,"player_count":17,"max_players":24,"Bots":0,"server_type":"Dedicated","server_os":"Linux","password":true,"vac":true,"version":"7708610","steam_id":85568392924504278,"keywords":["cp","nocrits","nodmgspread","uncletopia"],"game_id":440,"stv_port":0,"stv_name":"","players":[{"user_id":30,"name":"Alegz","steam_id":76561198287810139,"connected_time":531000000000,"state":"active","ping":49},{"user_id":29,"name":"KeeperOfDreams","steam_id":76561198081965556,"connected_time":623000000000,"state":"active","ping":48},{"user_id":16,"name":"Wise Mystical Tree","steam_id":76561198386130519,"connected_time":1107000000000,"state":"active","ping":115},{"user_id":17,"name":"Dead BoldKnighT","steam_id":76561198446203170,"connected_time":1094000000000,"state":"active","ping":103},{"user_id":18,"name":"Emily","steam_id":76561198013829850,"connected_time":1071000000000,"state":"active","ping":84},{"user_id":19,"name":"crolee","steam_id":76561198865817316,"connected_time":1028000000000,"state":"active","ping":49},{"user_id":20,"name":"Mata","steam_id":76561198308191713,"connected_time":1024000000000,"state":"active","ping":57},{"user_id":21,"name":"cof","steam_id":76561199128417805,"connected_time":981000000000,"state":"active","ping":78},{"user_id":31,"name":"pANDA","steam_id":76561199387065467,"connected_time":502000000000,"state":"active","ping":71},{"user_id":35,"name":"guarda-chuva","steam_id":76561198078694330,"connected_time":254000000000,"state":"active","ping":56},{"user_id":26,"name":"RandomName","steam_id":76561198055552108,"connected_time":794000000000,"state":"active","ping":47},{"user_id":33,"name":"DERBAS","steam_id":76561198217834727,"connected_time":338000000000,"state":"active","ping":120},{"user_id":36,"name":"ilgazahmeticlek","steam_id":76561199181763696,"connected_time":210000000000,"state":"active","ping":121},{"user_id":37,"name":"SLoW","steam_id":76561198032650972,"connected_time":146000000000,"state":"active","ping":106},{"user_id":38,"name":"RocketBoy08","steam_id":76561198833978944,"connected_time":54000000000,"state":"active","ping":79},{"user_id":39,"name":"AforeKingDwarf","steam_id":76561198043562926,"connected_time":15000000000,"state":"spawning","ping":60},{"user_id":40,"name":"Bromoneto","steam_id":76561198876695014,"connected_time":15000000000,"state":"active","ping":86}]},{"server_id":23,"name":"Uncletopia | Frankfurt | 7 | No Payload","name_short":"frk-7","host":"frk-1.de.uncletopia.com","port":27075,"enabled":true,"region":"eu","cc":"de","latitude":50.110924,"longitude":8.682127,"reserved":0,"last_update":"0001-01-01T00:00:00Z","name_a2s":"Uncletopia | Frankfurt | 7 | No Payload","protocol":17,"map":"ctf_well","folder":"tf","game":"Team Fortress","app_id":440,"player_count":0,"max_players":24,"Bots":0,"server_type":"Dedicated","server_os":"Linux","password":true,"vac":true,"version":"7708610","steam_id":85568392924742827,"keywords":["ctf","nocrits","nodmgspread","uncletopia"],"game_id":440,"stv_port":27076,"stv_name":"Uncletopia | Frankfurt | 7 | No Payload | STV","players":null},{"server_id":24,"name":"Uncletopia | Frankfurt | 8 | Community","name_short":"frk-8","host":"frk-1.de.uncletopia.com","port":27085,"enabled":true,"region":"eu","cc":"de","latitude":50.110924,"longitude":8.682127,"reserved":0,"last_update":"0001-01-01T00:00:00Z","name_a2s":"Uncletopia | Frankfurt | 8 | Community","protocol":17,"map":"workshop/cp_caldera_rc2.ugc2834196889","folder":"tf","game":"Team Fortress","app_id":440,"player_count":0,"max_players":24,"Bots":0,"server_type":"Dedicated","server_os":"Linux","password":true,"vac":true,"version":"7708610","steam_id":85568392924742828,"keywords":["cp","nocrits","nodmgspread","uncletopia"],"game_id":440,"stv_port":27086,"stv_name":"Uncletopia | Frankfurt | 8 | Community | STV","players":null},{"server_id":202,"name":"Uncletopia | Hong Kong | 1 | All Maps","name_short":"hgk-1","host":"hgk-1.hk.uncletopia.com","port":27015,"enabled":true,"region":"asia","cc":"hk","latitude":22.302711,"longitude":114.177216,"reserved":0,"last_update":"0001-01-01T00:00:00Z","name_a2s":"Uncletopia | Hong Kong | 1 | All Maps","protocol":17,"map":"koth_lakeside_final","folder":"tf","game":"Team Fortress","app_id":440,"player_count":0,"max_players":24,"Bots":0,"server_type":"Dedicated","server_os":"Linux","password":true,"vac":true,"version":"7708610","steam_id":85568392924494504,"keywords":["cp","nocrits","nodmgspread","uncletopia"],"game_id":440,"stv_port":27016,"stv_name":"Uncletopia | Hong Kong | 1 | All Maps | STV","players":null},{"server_id":1,"name":"Uncletopia | Los Angeles | 1 | All Maps","name_short":"lax-1","host":"lax-1.us.uncletopia.com","port":27015,"enabled":true,"region":"us-west","cc":"us","latitude":33.94279,"longitude":-118.41004,"reserved":0,"last_update":"0001-01-01T00:00:00Z","name_a2s":"Uncletopia | Los Angeles | 1 | All Maps","protocol":17,"map":"cp_process_final","folder":"tf","game":"Team Fortress","app_id":440,"player_count":0,"max_players":24,"Bots":0,"server_type":"Dedicated","server_os":"Linux","password":true,"vac":true,"version":"7708610","steam_id":85568392924469991,"keywords":["cp","nocrits","nodmgspread","uncletopia"],"game_id":440,"stv_port":0,"stv_name":"","players":null},{"server_id":112,"name":"Uncletopia | Los Angeles | 2 | All Maps","name_short":"lax-2","host":"lax-1.us.uncletopia.com","port":27025,"enabled":true,"region":"us-west","cc":"us","latitude":33.94279,"longitude":-118.41004,"reserved":0,"last_update":"0001-01-01T00:00:00Z","name_a2s":"Uncletopia | Los Angeles | 2 | All Maps","protocol":17,"map":"cp_altitude","folder":"tf","game":"Team Fortress","app_id":440,"player_count":0,"max_players":24,"Bots":0,"server_type":"Dedicated","server_os":"Linux","password":true,"vac":true,"version":"7708610","steam_id":85568392924469992,"keywords":["cp","nocrits","nodmgspread","uncletopia"],"game_id":440,"stv_port":0,"stv_name":"","players":null},{"server_id":324,"name":"Uncletopia | Los Angeles | 3 | All Maps","name_short":"lax-3","host":"lax-1.us.uncletopia.com","port":27035,"enabled":true,"region":"us-west","cc":"us","latitude":33.94279,"longitude":-118.41004,"reserved":0,"last_update":"0001-01-01T00:00:00Z","name_a2s":"Uncletopia | Los Angeles | 3 | All Maps","protocol":17,"map":"cp_altitude","folder":"tf","game":"Team Fortress","app_id":440,"player_count":0,"max_players":24,"Bots":0,"server_type":"Dedicated","server_os":"Linux","password":true,"vac":true,"version":"7708610","steam_id":85568392924510198,"keywords":["cp","nocrits","nodmgspread","uncletopia"],"game_id":440,"stv_port":0,"stv_name":"","players":null},{"server_id":25,"name":"Uncletopia | Los Angeles | 4 | No Payload","name_short":"lax-4","host":"lax-1.us.uncletopia.com","port":27045,"enabled":true,"region":"us-west","cc":"us","latitude":33.94279,"longitude":-118.41004,"reserved":0,"last_update":"0001-01-01T00:00:00Z","name_a2s":"Uncletopia | Los Angeles | 4 | No Payload","protocol":17,"map":"pl_upward","folder":"tf","game":"Team Fortress","app_id":440,"player_count":0,"max_players":24,"Bots":0,"server_type":"Dedicated","server_os":"Linux","password":true,"vac":true,"version":"7708610","steam_id":85568392924510199,"keywords":["nocrits","nodmgspread","payload","uncletopia"],"game_id":440,"stv_port":0,"stv_name":"","players":null},{"server_id":11,"name":"Uncletopia | London | 1 | All Maps","name_short":"lon-1","host":"lon-1.uk.uncletopia.com","port":27015,"enabled":true,"region":"eu","cc":"gb","latitude":51.509865,"longitude":-0.118092,"reserved":0,"last_update":"0001-01-01T00:00:00Z","name_a2s":"Uncletopia | London | 1 | All Maps","protocol":17,"map":"koth_king","folder":"tf","game":"Team Fortress","app_id":440,"player_count":16,"max_players":24,"Bots":0,"server_type":"Dedicated","server_os":"Linux","password":true,"vac":true,"version":"7708610","steam_id":85568392924367362,"keywords":["cp","nocrits","nodmgspread","uncletopia"],"game_id":440,"stv_port":27016,"stv_name":"Uncletopia | London | 1 | All Maps | STV","players":[{"user_id":316,"name":"JOHN GAMING (based)","steam_id":76561199085822219,"connected_time":74000000000,"state":"active","ping":80},{"user_id":310,"name":"jan-anne-wiebe","steam_id":76561199077022985,"connected_time":200000000000,"state":"active","ping":47},{"user_id":268,"name":"When Life gives you Lemons","steam_id":76561198318290663,"connected_time":2988000000000,"state":"active","ping":59},{"user_id":305,"name":"Kanny","steam_id":76561198058810184,"connected_time":768000000000,"state":"active","ping":53},{"user_id":318,"name":"Rambi","steam_id":76561199058078505,"connected_time":10000000000,"state":"active","ping":241},{"user_id":311,"name":"100 IQ gaming","steam_id":76561198948719596,"connected_time":190000000000,"state":"active","ping":48},{"user_id":312,"name":"honorary","steam_id":76561198273956132,"connected_time":160000000000,"state":"active","ping":67},{"user_id":289,"name":"ProfW","steam_id":76561198078456183,"connected_time":1558000000000,"state":"active","ping":56},{"user_id":274,"name":"player","steam_id":76561198054474684,"connected_time":2355000000000,"state":"active","ping":84},{"user_id":301,"name":"Jalm","steam_id":76561198827989200,"connected_time":953000000000,"state":"active","ping":60},{"user_id":314,"name":"chocolate flavoured femboy","steam_id":76561198819353867,"connected_time":144000000000,"state":"active","ping":34},{"user_id":275,"name":"festive jones","steam_id":76561198073975078,"connected_time":2080000000000,"state":"active","ping":50},{"user_id":229,"name":"✪ Danny","steam_id":76561198104483241,"connected_time":5509000000000,"state":"active","ping":47},{"user_id":225,"name":"Noob_with_source","steam_id":76561198870362103,"connected_time":5695000000000,"state":"active","ping":52},{"user_id":271,"name":"❤ Mıllennıum","steam_id":76561197998956368,"connected_time":2635000000000,"state":"active","ping":70},{"user_id":292,"name":"Circular","steam_id":76561198001536710,"connected_time":1290000000000,"state":"active","ping":44}]},{"server_id":114,"name":"Uncletopia | London | 2 | All Maps","name_short":"lon-2","host":"lon-1.uk.uncletopia.com","port":27025,"enabled":true,"region":"eu","cc":"gb","latitude":51.509865,"longitude":-0.118092,"reserved":0,"last_update":"0001-01-01T00:00:00Z","name_a2s":"Uncletopia | London | 2 | All Maps","protocol":17,"map":"cp_gravelpit","folder":"tf","game":"Team Fortress","app_id":440,"player_count":24,"max_players":24,"Bots":0,"server_type":"Dedicated","server_os":"Linux","password":true,"vac":true,"version":"7708610","steam_id":85568392924470941,"keywords":["cp","nocrits","nodmgspread","uncletopia"],"game_id":440,"stv_port":27026,"stv_name":"Uncletopia | London | 2 | All Maps | STV","players":[{"user_id":228,"name":"JeanCorben","steam_id":76561197965133561,"connected_time":2174000000000,"state":"active","ping":37},{"user_id":259,"name":"Shelly1052","steam_id":76561199043551053,"connected_time":219000000000,"state":"active","ping":45},{"user_id":242,"name":"Nomad994","steam_id":76561198051908201,"connected_time":1364000000000,"state":"active","ping":96},{"user_id":245,"name":"Baconcat","steam_id":76561198079354676,"connected_time":925000000000,"state":"active","ping":133},{"user_id":256,"name":"RetKiKimppa","steam_id":76561198109865665,"connected_time":267000000000,"state":"active","ping":75},{"user_id":262,"name":"TiringGlint","steam_id":76561199014010944,"connected_time":59000000000,"state":"active","ping":40},{"user_id":263,"name":"Rory","steam_id":76561198354037580,"connected_time":33000000000,"state":"active","ping":38},{"user_id":254,"name":"Dankki","steam_id":76561198154222890,"connected_time":448000000000,"state":"active","ping":97},{"user_id":255,"name":"Kahvi","steam_id":76561198723244199,"connected_time":385000000000,"state":"active","ping":88},{"user_id":247,"name":"Insanitybomb","steam_id":76561198048707708,"connected_time":589000000000,"state":"active","ping":55},{"user_id":244,"name":"Bobo","steam_id":76561198052308399,"connected_time":978000000000,"state":"active","ping":64},{"user_id":240,"name":"Burpman","steam_id":76561198022897937,"connected_time":1466000000000,"state":"active","ping":46},{"user_id":149,"name":"Tryrn","steam_id":76561198075487436,"connected_time":6685000000000,"state":"active","ping":93},{"user_id":243,"name":"fiyahstorm","steam_id":76561197992574261,"connected_time":1236000000000,"state":"active","ping":43},{"user_id":235,"name":"risco1bolota","steam_id":76561198323074603,"connected_time":2059000000000,"state":"active","ping":76},{"user_id":260,"name":"Fran","steam_id":76561199070516960,"connected_time":214000000000,"state":"active","ping":73},{"user_id":252,"name":"Denialman (Muted)","steam_id":76561198309182092,"connected_time":560000000000,"state":"active","ping":77},{"user_id":209,"name":"Lindbergan","steam_id":76561198226613312,"connected_time":4150000000000,"state":"active","ping":89},{"user_id":227,"name":"G.R.E","steam_id":76561197979806514,"connected_time":2189000000000,"state":"active","ping":33},{"user_id":253,"name":"MMS21","steam_id":76561198059351269,"connected_time":543000000000,"state":"active","ping":45},{"user_id":216,"name":"NotFionn","steam_id":76561198890525176,"connected_time":3192000000000,"state":"active","ping":70},{"user_id":174,"name":"soft G","steam_id":76561198109876007,"connected_time":5459000000000,"state":"active","ping":144},{"user_id":223,"name":"My left foot itches","steam_id":76561198078411001,"connected_time":2778000000000,"state":"active","ping":90},{"user_id":261,"name":"Goon Spoons","steam_id":76561198116391675,"connected_time":184000000000,"state":"active","ping":60}]},{"server_id":320,"name":"Uncletopia | London | 3 | All Maps","name_short":"lon-3","host":"lon-1.uk.uncletopia.com","port":27035,"enabled":true,"region":"eu","cc":"gb","latitude":51.509865,"longitude":-0.118092,"reserved":0,"last_update":"0001-01-01T00:00:00Z","name_a2s":"Uncletopia | London | 3 | All Maps","protocol":17,"map":"pl_frontier_final","folder":"tf","game":"Team Fortress","app_id":440,"player_count":24,"max_players":24,"Bots":0,"server_type":"Dedicated","server_os":"Linux","password":true,"vac":true,"version":"7708610","steam_id":85568392924510192,"keywords":["nocrits","nodmgspread","payload","uncletopia"],"game_id":440,"stv_port":27036,"stv_name":"Uncletopia | London | 3 | All Maps | STV","players":[{"user_id":83,"name":"GMsU | DaLuigi","steam_id":76561198054486188,"connected_time":2802000000000,"state":"active","ping":52},{"user_id":111,"name":"Blink","steam_id":76561198144033005,"connected_time":1625000000000,"state":"active","ping":46},{"user_id":127,"name":"JimJamsE","steam_id":76561198451336985,"connected_time":245000000000,"state":"active","ping":44},{"user_id":104,"name":"hushhx","steam_id":76561198216200092,"connected_time":1954000000000,"state":"active","ping":46},{"user_id":117,"name":"ball sniffa","steam_id":76561199022705805,"connected_time":1063000000000,"state":"active","ping":43},{"user_id":65,"name":"Vollys","steam_id":76561198018077773,"connected_time":3881000000000,"state":"active","ping":63},{"user_id":86,"name":"Smag","steam_id":76561198153675141,"connected_time":2744000000000,"state":"active","ping":48},{"user_id":27,"name":"Iron_Dave_Qc","steam_id":76561198159325213,"connected_time":5113000000000,"state":"active","ping":125},{"user_id":95,"name":"Man of Testicular Proportions","steam_id":76561198055949151,"connected_time":2614000000000,"state":"active","ping":44},{"user_id":84,"name":"GMsU | Rebikas","steam_id":76561198077053764,"connected_time":2798000000000,"state":"active","ping":48},{"user_id":96,"name":"KenPendersOfficial","steam_id":76561198065112022,"connected_time":2552000000000,"state":"active","ping":96},{"user_id":118,"name":"hawkblob","steam_id":76561198803720565,"connected_time":716000000000,"state":"active","ping":61},{"user_id":124,"name":"steinar","steam_id":76561198441857153,"connected_time":400000000000,"state":"active","ping":98},{"user_id":116,"name":"Blat","steam_id":76561199013233409,"connected_time":1078000000000,"state":"active","ping":67},{"user_id":98,"name":"dusty hand","steam_id":76561198386680818,"connected_time":2388000000000,"state":"active","ping":149},{"user_id":122,"name":"Exe_Red","steam_id":76561198154952759,"connected_time":605000000000,"state":"active","ping":90},{"user_id":39,"name":"Sir William Gaming","steam_id":76561198037676472,"connected_time":4880000000000,"state":"active","ping":65},{"user_id":130,"name":"i am bread","steam_id":76561199180277321,"connected_time":59000000000,"state":"active","ping":39},{"user_id":121,"name":"Rayden Belmont","steam_id":76561198062254329,"connected_time":652000000000,"state":"active","ping":127},{"user_id":131,"name":"YV","steam_id":76561198147868242,"connected_time":23000000000,"state":"active","ping":60},{"user_id":103,"name":"Proto-arc","steam_id":76561198012776747,"connected_time":1969000000000,"state":"active","ping":55},{"user_id":115,"name":"bayley","steam_id":76561198117472639,"connected_time":1111000000000,"state":"active","ping":60},{"user_id":106,"name":".viki","steam_id":76561198119607160,"connected_time":1947000000000,"state":"active","ping":79},{"user_id":114,"name":"Redmailbox","steam_id":76561198042930322,"connected_time":1323000000000,"state":"active","ping":66}]},{"server_id":321,"name":"Uncletopia | London | 4 | All Maps","name_short":"lon-4","host":"lon-1.uk.uncletopia.com","port":27045,"enabled":true,"region":"eu","cc":"gb","latitude":51.509865,"longitude":-0.118092,"reserved":0,"last_update":"0001-01-01T00:00:00Z","name_a2s":"Uncletopia | London | 4 | All Maps","protocol":17,"map":"cp_frostwatch","folder":"tf","game":"Team Fortress","app_id":440,"player_count":24,"max_players":24,"Bots":0,"server_type":"Dedicated","server_os":"Linux","password":true,"vac":true,"version":"7708610","steam_id":85568392924510193,"keywords":["cp","nocrits","nodmgspread","uncletopia"],"game_id":440,"stv_port":27046,"stv_name":"Uncletopia | London | 4 | All Maps | STV","players":[{"user_id":512,"name":"Th3Celestial","steam_id":76561198353312252,"connected_time":19000000000,"state":"spawning","ping":89},{"user_id":487,"name":"Fortezza","steam_id":76561198972539903,"connected_time":1607000000000,"state":"active","ping":59},{"user_id":461,"name":"SoupeurConscient","steam_id":76561199404717904,"connected_time":2422000000000,"state":"active","ping":68},{"user_id":488,"name":"Sir Häberli Bänz","steam_id":76561198138294650,"connected_time":1601000000000,"state":"active","ping":68},{"user_id":505,"name":"Mopo","steam_id":76561198068929700,"connected_time":574000000000,"state":"active","ping":76},{"user_id":451,"name":"wordrc","steam_id":76561198418788895,"connected_time":2650000000000,"state":"active","ping":68},{"user_id":503,"name":"TheButterPickle","steam_id":76561198354317787,"connected_time":663000000000,"state":"active","ping":57},{"user_id":511,"name":"Spointy","steam_id":76561198080556773,"connected_time":391000000000,"state":"active","ping":146},{"user_id":462,"name":"Andreus","steam_id":76561199403926001,"connected_time":2395000000000,"state":"active","ping":76},{"user_id":459,"name":"Dangerousbros","steam_id":76561198088952519,"connected_time":2458000000000,"state":"active","ping":26},{"user_id":463,"name":"Alfiine","steam_id":76561198206082887,"connected_time":2380000000000,"state":"active","ping":70},{"user_id":486,"name":"loser","steam_id":76561198874129419,"connected_time":1631000000000,"state":"active","ping":97},{"user_id":492,"name":"cacapo","steam_id":76561198022255760,"connected_time":1190000000000,"state":"active","ping":63},{"user_id":465,"name":"rat performance","steam_id":76561198065854668,"connected_time":2364000000000,"state":"active","ping":41},{"user_id":509,"name":"Lyell","steam_id":76561198350329389,"connected_time":461000000000,"state":"active","ping":85},{"user_id":513,"name":"Ferore","steam_id":76561198152824336,"connected_time":19000000000,"state":"spawning","ping":86},{"user_id":490,"name":"Lag","steam_id":76561198159360376,"connected_time":1582000000000,"state":"active","ping":65},{"user_id":504,"name":"Nobaddy","steam_id":76561198037871007,"connected_time":585000000000,"state":"active","ping":70},{"user_id":491,"name":"kalaa †","steam_id":76561198134652336,"connected_time":1526000000000,"state":"active","ping":62},{"user_id":507,"name":"Michael","steam_id":76561198003146906,"connected_time":543000000000,"state":"active","ping":38},{"user_id":495,"name":"Dr. Heinz Doofenshmirtz","steam_id":76561198154962908,"connected_time":1165000000000,"state":"active","ping":47},{"user_id":502,"name":"Avitz","steam_id":76561197986150359,"connected_time":903000000000,"state":"active","ping":45},{"user_id":477,"name":"eidis","steam_id":76561198314954479,"connected_time":2076000000000,"state":"active","ping":107},{"user_id":497,"name":"spillr-.-","steam_id":76561198031330889,"connected_time":1140000000000,"state":"active","ping":65}]},{"server_id":21,"name":"Uncletopia | London | 5 | All Maps","name_short":"lon-5","host":"lon-1.uk.uncletopia.com","port":27055,"enabled":true,"region":"eu","cc":"gb","latitude":51.509865,"longitude":-0.118092,"reserved":0,"last_update":"0001-01-01T00:00:00Z","name_a2s":"Uncletopia | London | 5 | All Maps","protocol":17,"map":"koth_lakeside_final","folder":"tf","game":"Team Fortress","app_id":440,"player_count":0,"max_players":24,"Bots":0,"server_type":"Dedicated","server_os":"Linux","password":true,"vac":true,"version":"7708610","steam_id":85568392924742829,"keywords":["cp","nocrits","nodmgspread","uncletopia"],"game_id":440,"stv_port":0,"stv_name":"","players":null},{"server_id":22,"name":"Uncletopia | London | 6 | All Maps","name_short":"lon-6","host":"lon-1.uk.uncletopia.com","port":27065,"enabled":true,"region":"eu","cc":"gb","latitude":51.509865,"longitude":-0.118092,"reserved":0,"last_update":"0001-01-01T00:00:00Z","name_a2s":"Uncletopia | London | 6 | All Maps","protocol":17,"map":"koth_viaduct","folder":"tf","game":"Team Fortress","app_id":440,"player_count":0,"max_players":24,"Bots":0,"server_type":"Dedicated","server_os":"Linux","password":true,"vac":true,"version":"7708610","steam_id":85568392924742830,"keywords":["cp","nocrits","nodmgspread","uncletopia"],"game_id":440,"stv_port":0,"stv_name":"","players":null},{"server_id":40,"name":"Uncletopia | London | 7 | No Payload","name_short":"lon-7","host":"lon-1.uk.uncletopia.com","port":27075,"enabled":true,"region":"eu","cc":"gb","latitude":51.509865,"longitude":-0.118092,"reserved":0,"last_update":"0001-01-01T00:00:00Z","name_a2s":"Uncletopia | London | 7 | No Payload","protocol":17,"map":"plr_pipeline","folder":"tf","game":"Team Fortress","app_id":440,"player_count":0,"max_players":24,"Bots":0,"server_type":"Dedicated","server_os":"Linux","password":true,"vac":true,"version":"7708610","steam_id":85568392924964314,"keywords":["nocrits","nodmgspread","payload","uncletopia"],"game_id":440,"stv_port":27076,"stv_name":"Uncletopia | London | 7 | No Payload | STV","players":null},{"server_id":41,"name":"Uncletopia | London | 8 | Community","name_short":"lon-8","host":"lon-1.uk.uncletopia.com","port":27085,"enabled":true,"region":"eu","cc":"gb","latitude":51.509865,"longitude":-0.118092,"reserved":0,"last_update":"0001-01-01T00:00:00Z","name_a2s":"Uncletopia | London | 8 | Community","protocol":17,"map":"workshop/koth_product_final.ugc454272353","folder":"tf","game":"Team Fortress","app_id":440,"player_count":0,"max_players":24,"Bots":0,"server_type":"Dedicated","server_os":"Linux","password":true,"vac":true,"version":"7708610","steam_id":85568392924964315,"keywords":["cp","nocrits","nodmgspread","uncletopia"],"game_id":440,"stv_port":27086,"stv_name":"Uncletopia | London | 8 | Community | STV","players":null},{"server_id":300,"name":"Uncletopia | Montréal | 1 | All Maps","name_short":"mtl-1","host":"mtl-1.ca.uncletopia.com","port":27015,"enabled":true,"region":"us-east","cc":"ca","latitude":45.50889,"longitude":-73.56167,"reserved":0,"last_update":"0001-01-01T00:00:00Z","name_a2s":"Uncletopia | Montréal | 1 | All Maps","protocol":17,"map":"pl_barnblitz","folder":"tf","game":"Team Fortress","app_id":440,"player_count":0,"max_players":24,"Bots":0,"server_type":"Dedicated","server_os":"Linux","password":true,"vac":true,"version":"7708610","steam_id":85568392924500087,"keywords":["nocrits","nodmgspread","payload","uncletopia"],"game_id":440,"stv_port":0,"stv_name":"","players":null},{"server_id":301,"name":"Uncletopia | Montréal | 2 | All Maps","name_short":"mtl-2","host":"mtl-1.ca.uncletopia.com","port":27025,"enabled":true,"region":"us-east","cc":"ca","latitude":45.50889,"longitude":-73.56167,"reserved":0,"last_update":"0001-01-01T00:00:00Z","name_a2s":"Uncletopia | Montréal | 2 | All Maps","protocol":17,"map":"pl_frontier_final","folder":"tf","game":"Team Fortress","app_id":440,"player_count":0,"max_players":24,"Bots":0,"server_type":"Dedicated","server_os":"Linux","password":true,"vac":true,"version":"7708610","steam_id":85568392924500088,"keywords":["nocrits","nodmgspread","payload","uncletopia"],"game_id":440,"stv_port":0,"stv_name":"","players":null},{"server_id":302,"name":"Uncletopia | Montréal | 3 | All Maps","name_short":"mtl-3","host":"mtl-1.ca.uncletopia.com","port":27035,"enabled":true,"region":"us-east","cc":"ca","latitude":45.50889,"longitude":-73.56167,"reserved":0,"last_update":"0001-01-01T00:00:00Z","name_a2s":"Uncletopia | Montréal | 3 | All Maps","protocol":17,"map":"cp_snakewater_final1","folder":"tf","game":"Team Fortress","app_id":440,"player_count":0,"max_players":24,"Bots":0,"server_type":"Dedicated","server_os":"Linux","password":true,"vac":true,"version":"7708610","steam_id":85568392924500089,"keywords":["cp","nocrits","nodmgspread","uncletopia"],"game_id":440,"stv_port":27036,"stv_name":"Uncletopia | Montréal | 3 | All Maps | STV","players":null},{"server_id":303,"name":"Uncletopia | Montréal | 4 | No Payload","name_short":"mtl-4","host":"mtl-1.ca.uncletopia.com","port":27045,"enabled":true,"region":"us-east","cc":"ca","latitude":45.50889,"longitude":-73.56167,"reserved":0,"last_update":"0001-01-01T00:00:00Z","name_a2s":"Uncletopia | Montréal | 4 | No Payload","protocol":17,"map":"pl_frontier_final","folder":"tf","game":"Team Fortress","app_id":440,"player_count":0,"max_players":24,"Bots":0,"server_type":"Dedicated","server_os":"Linux","password":true,"vac":true,"version":"7708610","steam_id":85568392924500090,"keywords":["nocrits","nodmgspread","payload","uncletopia"],"game_id":440,"stv_port":0,"stv_name":"","players":null},{"server_id":13,"name":"Uncletopia | New York City | 1 | All Maps","name_short":"nyc-1","host":"nyc-1.us.uncletopia.com","port":27015,"enabled":true,"region":"us-east","cc":"us","latitude":40.73061,"longitude":-73.93524,"reserved":0,"last_update":"0001-01-01T00:00:00Z","name_a2s":"Uncletopia | New York City | 1 | All Maps","protocol":17,"map":"pl_barnblitz","folder":"tf","game":"Team Fortress","app_id":440,"player_count":0,"max_players":24,"Bots":0,"server_type":"Dedicated","server_os":"Linux","password":true,"vac":true,"version":"7708610","steam_id":85568392924469993,"keywords":["nocrits","nodmgspread","payload","uncletopia"],"game_id":440,"stv_port":27016,"stv_name":"Uncletopia | New York City | 1 | All Maps | STV","players":null},{"server_id":14,"name":"Uncletopia | New York City | 2 | All Maps","name_short":"nyc-2","host":"nyc-1.us.uncletopia.com","port":27025,"enabled":true,"region":"us-east","cc":"us","latitude":40.73061,"longitude":-73.93524,"reserved":0,"last_update":"0001-01-01T00:00:00Z","name_a2s":"Uncletopia | New York City | 2 | All Maps","protocol":17,"map":"pl_frontier_final","folder":"tf","game":"Team Fortress","app_id":440,"player_count":0,"max_players":24,"Bots":0,"server_type":"Dedicated","server_os":"Linux","password":true,"vac":true,"version":"7708610","steam_id":85568392924469994,"keywords":["nocrits","nodmgspread","payload","uncletopia"],"game_id":440,"stv_port":0,"stv_name":"","players":null},{"server_id":15,"name":"Uncletopia | New York City | 3 | All Maps","name_short":"nyc-3","host":"nyc-1.us.uncletopia.com","port":27035,"enabled":true,"region":"us-east","cc":"us","latitude":40.73061,"longitude":-73.93524,"reserved":0,"last_update":"0001-01-01T00:00:00Z","name_a2s":"Uncletopia | New York City | 3 | All Maps","protocol":17,"map":"cp_sunshine","folder":"tf","game":"Team Fortress","app_id":440,"player_count":0,"max_players":24,"Bots":0,"server_type":"Dedicated","server_os":"Linux","password":true,"vac":true,"version":"7708610","steam_id":85568392924742820,"keywords":["cp","nocrits","nodmgspread","uncletopia"],"game_id":440,"stv_port":0,"stv_name":"","players":null},{"server_id":16,"name":"Uncletopia | New York City | 4 | Community","name_short":"nyc-4","host":"nyc-1.us.uncletopia.com","port":27045,"enabled":true,"region":"us-east","cc":"us","latitude":40.73061,"longitude":-73.93524,"reserved":0,"last_update":"0001-01-01T00:00:00Z","name_a2s":"Uncletopia | New York City | 4 | Community","protocol":17,"map":"workshop/koth_ramjam_v2_b2.ugc2865676487","folder":"tf","game":"Team Fortress","app_id":440,"player_count":0,"max_players":24,"Bots":0,"server_type":"Dedicated","server_os":"Linux","password":true,"vac":true,"version":"7708610","steam_id":85568392924742821,"keywords":["cp","nocrits","nodmgspread","uncletopia"],"game_id":440,"stv_port":27046,"stv_name":"Uncletopia | New York City | 4 | Community | STV","players":null},{"server_id":142,"name":"Uncletopia | São Paulo | 1 | All Maps","name_short":"sao-1","host":"sao-1.br.uncletopia.com","port":27015,"enabled":true,"region":"sa","cc":"br","latitude":-23.533773,"longitude":-46.62529,"reserved":0,"last_update":"0001-01-01T00:00:00Z","name_a2s":"Uncletopia | São Paulo | 1 | All Maps","protocol":17,"map":"pl_badwater","folder":"tf","game":"Team Fortress","app_id":440,"player_count":6,"max_players":24,"Bots":0,"server_type":"Dedicated","server_os":"Linux","password":true,"vac":true,"version":"7708610","steam_id":85568392924469996,"keywords":["nocrits","nodmgspread","payload","uncletopia"],"game_id":440,"stv_port":27016,"stv_name":"Uncletopia | São Paulo | 1 | All Maps | STV","players":[{"user_id":40,"name":"Bellesi","steam_id":76561198056750369,"connected_time":821000000000,"state":"active","ping":54},{"user_id":38,"name":"Mortadella","steam_id":76561198057716113,"connected_time":1032000000000,"state":"active","ping":36},{"user_id":26,"name":"matheus_lanches","steam_id":76561199359501901,"connected_time":2072000000000,"state":"active","ping":32},{"user_id":44,"name":"thomas en vidéo","steam_id":76561198126239027,"connected_time":7000000000,"state":"spawning","ping":497},{"user_id":30,"name":"Pr通りの伝説","steam_id":76561198976110673,"connected_time":1547000000000,"state":"active","ping":59},{"user_id":42,"name":"Frank２０００ ✈","steam_id":76561198057518044,"connected_time":603000000000,"state":"active","ping":74}]},{"server_id":143,"name":"Uncletopia | São Paulo | 2 | All Maps","name_short":"sao-2","host":"sao-2.br.uncletopia.com","port":27015,"enabled":true,"region":"sa","cc":"br","latitude":-23.533773,"longitude":-46.62529,"reserved":0,"last_update":"0001-01-01T00:00:00Z","name_a2s":"Uncletopia | São Paulo | 2 | All Maps","protocol":17,"map":"pl_frontier_final","folder":"tf","game":"Team Fortress","app_id":440,"player_count":2,"max_players":24,"Bots":0,"server_type":"Dedicated","server_os":"Linux","password":true,"vac":true,"version":"7708610","steam_id":85568392924485349,"keywords":["nocrits","nodmgspread","payload","uncletopia"],"game_id":440,"stv_port":27016,"stv_name":"Uncletopia | São Paulo | 2 | All Maps | STV","players":[{"user_id":13,"name":"👊 oldman 👊","steam_id":76561198319907176,"connected_time":347000000000,"state":"active","ping":92},{"user_id":14,"name":"yanmonteirorj","steam_id":76561199151167603,"connected_time":260000000000,"state":"active","ping":47}]},{"server_id":7,"name":"Uncletopia | Seattle | 1 | All Maps","name_short":"sea-1","host":"sea-1.us.uncletopia.com","port":27015,"enabled":true,"region":"us-west","cc":"us","latitude":47.608013,"longitude":-122.33517,"reserved":0,"last_update":"0001-01-01T00:00:00Z","name_a2s":"Uncletopia | Seattle | 1 | All Maps","protocol":17,"map":"koth_cascade","folder":"tf","game":"Team Fortress","app_id":440,"player_count":0,"max_players":24,"Bots":0,"server_type":"Dedicated","server_os":"Linux","password":true,"vac":true,"version":"7708610","steam_id":85568392924469997,"keywords":["cp","nocrits","nodmgspread","uncletopia"],"game_id":440,"stv_port":0,"stv_name":"","players":null},{"server_id":119,"name":"Uncletopia | Seattle | 2 | All Maps","name_short":"sea-2","host":"sea-1.us.uncletopia.com","port":27025,"enabled":true,"region":"us-west","cc":"us","latitude":47.608013,"longitude":-122.33517,"reserved":0,"last_update":"0001-01-01T00:00:00Z","name_a2s":"Uncletopia | Seattle | 2 | All Maps","protocol":17,"map":"cp_process_final","folder":"tf","game":"Team Fortress","app_id":440,"player_count":0,"max_players":24,"Bots":0,"server_type":"Dedicated","server_os":"Linux","password":true,"vac":true,"version":"7708610","steam_id":85568392924469998,"keywords":["cp","nocrits","nodmgspread","uncletopia"],"game_id":440,"stv_port":0,"stv_name":"","players":null},{"server_id":17,"name":"Uncletopia | San Francisco | 1 | All Maps","name_short":"sfo-1","host":"sfo-1.us.uncletopia.com","port":27015,"enabled":true,"region":"us-west","cc":"us","latitude":37.77397,"longitude":-122.4313,"reserved":0,"last_update":"0001-01-01T00:00:00Z","name_a2s":"Uncletopia | San Francisco | 1 | All Maps","protocol":17,"map":"cp_sunshine","folder":"tf","game":"Team Fortress","app_id":440,"player_count":0,"max_players":24,"Bots":0,"server_type":"Dedicated","server_os":"Linux","password":true,"vac":true,"version":"7708610","steam_id":85568392924469999,"keywords":["cp","nocrits","nodmgspread","uncletopia"],"game_id":440,"stv_port":0,"stv_name":"","players":null},{"server_id":18,"name":"Uncletopia | San Francisco | 2 | All Maps","name_short":"sfo-2","host":"sfo-1.us.uncletopia.com","port":27025,"enabled":true,"region":"us-west","cc":"us","latitude":37.77397,"longitude":-122.4313,"reserved":0,"last_update":"0001-01-01T00:00:00Z","name_a2s":"Uncletopia | San Francisco | 2 | All Maps","protocol":17,"map":"koth_cascade","folder":"tf","game":"Team Fortress","app_id":440,"player_count":0,"max_players":24,"Bots":0,"server_type":"Dedicated","server_os":"Linux","password":true,"vac":true,"version":"7708610","steam_id":85568392924470000,"keywords":["cp","nocrits","nodmgspread","uncletopia"],"game_id":440,"stv_port":0,"stv_name":"","players":null},{"server_id":19,"name":"Uncletopia | San Francisco | 3 | No Payload","name_short":"sfo-3","host":"sfo-1.us.uncletopia.com","port":27035,"enabled":true,"region":"us-west","cc":"us","latitude":37.77397,"longitude":-122.4313,"reserved":0,"last_update":"0001-01-01T00:00:00Z","name_a2s":"Uncletopia | San Francisco | 3 | No Payload","protocol":17,"map":"cp_snakewater_final1","folder":"tf","game":"Team Fortress","app_id":440,"player_count":0,"max_players":24,"Bots":0,"server_type":"Dedicated","server_os":"Linux","password":true,"vac":true,"version":"7708610","steam_id":85568392924742824,"keywords":["cp","nocrits","nodmgspread","uncletopia"],"game_id":440,"stv_port":0,"stv_name":"","players":null},{"server_id":20,"name":"Uncletopia | San Francisco | 4 | Community","name_short":"sfo-4","host":"sfo-1.us.uncletopia.com","port":27045,"enabled":true,"region":"us-west","cc":"us","latitude":37.77397,"longitude":-122.4313,"reserved":0,"last_update":"0001-01-01T00:00:00Z","name_a2s":"Uncletopia | San Francisco | 4 | Community","protocol":17,"map":"pl_barnblitz","folder":"tf","game":"Team Fortress","app_id":440,"player_count":0,"max_players":24,"Bots":0,"server_type":"Dedicated","server_os":"Linux","password":true,"vac":true,"version":"7708610","steam_id":85568392924742826,"keywords":["nocrits","nodmgspread","payload","uncletopia"],"game_id":440,"stv_port":0,"stv_name":"","players":null},{"server_id":141,"name":"Uncletopia | Sydney | 1 | All Maps","name_short":"syd-1","host":"syd-1.au.uncletopia.com","port":27015,"enabled":true,"region":"au","cc":"au","latitude":-33.865143,"longitude":151.2099,"reserved":0,"last_update":"0001-01-01T00:00:00Z","name_a2s":"Uncletopia | Sydney | 1 | All Maps","protocol":17,"map":"cp_snakewater_final1","folder":"tf","game":"Team Fortress","app_id":440,"player_count":0,"max_players":24,"Bots":0,"server_type":"Dedicated","server_os":"Linux","password":true,"vac":true,"version":"7708610","steam_id":85568392924470001,"keywords":["cp","nocrits","nodmgspread","uncletopia"],"game_id":440,"stv_port":27016,"stv_name":"Uncletopia | Sydney | 1 | All Maps | STV","players":null},{"server_id":123,"name":"Uncletopia | Sydney | 2 | All Maps","name_short":"syd-2","host":"syd-1.au.uncletopia.com","port":27025,"enabled":true,"region":"au","cc":"au","latitude":-33.865143,"longitude":151.2099,"reserved":0,"last_update":"0001-01-01T00:00:00Z","name_a2s":"Uncletopia | Sydney | 2 | All Maps","protocol":17,"map":"koth_cascade","folder":"tf","game":"Team Fortress","app_id":440,"player_count":0,"max_players":24,"Bots":0,"server_type":"Dedicated","server_os":"Linux","password":true,"vac":true,"version":"7708610","steam_id":85568392924470002,"keywords":["cp","nocrits","nodmgspread","uncletopia"],"game_id":440,"stv_port":27026,"stv_name":"Uncletopia | Sydney | 2 | All Maps | STV","players":null},{"server_id":395,"name":"Uncletopia | Sydney | 3 | All Maps","name_short":"syd-3","host":"syd-1.au.uncletopia.com","port":27035,"enabled":true,"region":"au","cc":"au","latitude":-33.865143,"longitude":151.2099,"reserved":0,"last_update":"0001-01-01T00:00:00Z","name_a2s":"Uncletopia | Sydney | 3 | All Maps","protocol":17,"map":"koth_cascade","folder":"tf","game":"Team Fortress","app_id":440,"player_count":0,"max_players":24,"Bots":0,"server_type":"Dedicated","server_os":"Linux","password":true,"vac":true,"version":"7708610","steam_id":85568392925194467,"keywords":["cp","nocrits","nodmgspread","uncletopia"],"game_id":440,"stv_port":27036,"stv_name":"Uncletopia | Sydney | 3 | All Maps | STV","players":null},{"server_id":396,"name":"Uncletopia | Sydney | 4 | All Maps","name_short":"syd-4","host":"syd-1.au.uncletopia.com","port":27045,"enabled":true,"region":"au","cc":"au","latitude":-33.865143,"longitude":151.2099,"reserved":0,"last_update":"0001-01-01T00:00:00Z","name_a2s":"Uncletopia | Sydney | 4 | All Maps","protocol":17,"map":"koth_lakeside_final","folder":"tf","game":"Team Fortress","app_id":440,"player_count":0,"max_players":24,"Bots":0,"server_type":"Dedicated","server_os":"Linux","password":true,"vac":true,"version":"7708610","steam_id":85568392925397958,"keywords":["cp","nocrits","nodmgspread","uncletopia"],"game_id":440,"stv_port":0,"stv_name":"","players":null},{"server_id":58,"name":"Uncletopia | Sydney | 5 | No Payload","name_short":"syd-5","host":"syd-1.au.uncletopia.com","port":27055,"enabled":true,"region":"au","cc":"au","latitude":-33.865143,"longitude":151.2099,"reserved":0,"last_update":"0001-01-01T00:00:00Z","name_a2s":"Uncletopia | Sydney | 5 | No Payload","protocol":17,"map":"koth_nucleus","folder":"tf","game":"Team Fortress","app_id":440,"player_count":0,"max_players":24,"Bots":0,"server_type":"Dedicated","server_os":"Linux","password":true,"vac":true,"version":"7708610","steam_id":85568392925397959,"keywords":["cp","nocrits","nodmgspread","uncletopia"],"game_id":440,"stv_port":27056,"stv_name":"Uncletopia | Sydney | 5 | No Payload | STV","players":null},{"server_id":59,"name":"Uncletopia | Sydney | 6 | Community","name_short":"syd-6","host":"syd-1.au.uncletopia.com","port":27065,"enabled":true,"region":"au","cc":"au","latitude":-33.865143,"longitude":151.2099,"reserved":0,"last_update":"0001-01-01T00:00:00Z","name_a2s":"Uncletopia | Sydney | 6 | Community","protocol":17,"map":"workshop/koth_product_final.ugc454272353","folder":"tf","game":"Team Fortress","app_id":440,"player_count":0,"max_players":24,"Bots":0,"server_type":"Dedicated","server_os":"Linux","password":true,"vac":true,"version":"7708610","steam_id":85568392925397960,"keywords":["cp","nocrits","nodmgspread","uncletopia"],"game_id":440,"stv_port":27066,"stv_name":"Uncletopia | Sydney | 6 | Community | STV","players":null},{"server_id":49,"name":"Uncletopia | Warsaw | 1 | All Maps","name_short":"waw-1","host":"waw-1.pl.uncletopia.com","port":27015,"enabled":true,"region":"eu","cc":"pl","latitude":52.2297,"longitude":21.017532,"reserved":0,"last_update":"0001-01-01T00:00:00Z","name_a2s":"Uncletopia | Warsaw | 1 | All Maps","protocol":17,"map":"pl_pier","folder":"tf","game":"Team Fortress","app_id":440,"player_count":0,"max_players":24,"Bots":0,"server_type":"Dedicated","server_os":"Linux","password":true,"vac":true,"version":"7708610","steam_id":85568392925397850,"keywords":["nocrits","nodmgspread","payload","uncletopia"],"game_id":440,"stv_port":27016,"stv_name":"Uncletopia | Warsaw | 1 | All Maps | STV","players":null},{"server_id":50,"name":"Uncletopia | Warsaw | 2 | All Maps","name_short":"waw-2","host":"waw-1.pl.uncletopia.com","port":27025,"enabled":true,"region":"eu","cc":"pl","latitude":52.2297,"longitude":21.017532,"reserved":0,"last_update":"0001-01-01T00:00:00Z","name_a2s":"Uncletopia | Warsaw | 2 | All Maps","protocol":17,"map":"koth_highpass","folder":"tf","game":"Team Fortress","app_id":440,"player_count":0,"max_players":24,"Bots":0,"server_type":"Dedicated","server_os":"Linux","password":true,"vac":true,"version":"7708610","steam_id":85568392925397851,"keywords":["cp","nocrits","nodmgspread","uncletopia"],"game_id":440,"stv_port":27026,"stv_name":"Uncletopia | Warsaw | 2 | All Maps | STV","players":null},{"server_id":51,"name":"Uncletopia | Warsaw | 3 | All Maps","name_short":"waw-3","host":"waw-1.pl.uncletopia.com","port":27035,"enabled":true,"region":"eu","cc":"pl","latitude":52.2297,"longitude":21.017532,"reserved":0,"last_update":"0001-01-01T00:00:00Z","name_a2s":"Uncletopia | Warsaw | 3 | All Maps","protocol":17,"map":"koth_cascade","folder":"tf","game":"Team Fortress","app_id":440,"player_count":0,"max_players":24,"Bots":0,"server_type":"Dedicated","server_os":"Linux","password":true,"vac":true,"version":"7708610","steam_id":85568392925397852,"keywords":["cp","nocrits","nodmgspread","uncletopia"],"game_id":440,"stv_port":0,"stv_name":"","players":null},{"server_id":52,"name":"Uncletopia | Warsaw | 4 | All Maps","name_short":"waw-4","host":"waw-1.pl.uncletopia.com","port":27045,"enabled":true,"region":"eu","cc":"pl","latitude":52.2297,"longitude":21.017532,"reserved":0,"last_update":"0001-01-01T00:00:00Z","name_a2s":"Uncletopia | Warsaw | 4 | All Maps","protocol":17,"map":"pl_snowycoast","folder":"tf","game":"Team Fortress","app_id":440,"player_count":0,"max_players":24,"Bots":0,"server_type":"Dedicated","server_os":"Linux","password":true,"vac":true,"version":"7708610","steam_id":85568392925397853,"keywords":["nocrits","nodmgspread","payload","uncletopia"],"game_id":440,"stv_port":27046,"stv_name":"Uncletopia | Warsaw | 4 | All Maps | STV","players":null},{"server_id":53,"name":"Uncletopia | Warsaw | 5 | No Payload","name_short":"waw-5","host":"waw-1.pl.uncletopia.com","port":27055,"enabled":true,"region":"eu","cc":"pl","latitude":52.2297,"longitude":21.017532,"reserved":0,"last_update":"0001-01-01T00:00:00Z","name_a2s":"Uncletopia | Warsaw | 5 | No Payload","protocol":17,"map":"cp_dustbowl","folder":"tf","game":"Team Fortress","app_id":440,"player_count":0,"max_players":24,"Bots":0,"server_type":"Dedicated","server_os":"Linux","password":true,"vac":true,"version":"7708610","steam_id":85568392925397854,"keywords":["cp","nocrits","nodmgspread","uncletopia"],"game_id":440,"stv_port":0,"stv_name":"","players":null},{"server_id":54,"name":"Uncletopia | Warsaw | 6 | Community","name_short":"waw-6","host":"waw-1.pl.uncletopia.com","port":27065,"enabled":true,"region":"eu","cc":"pl","latitude":52.2297,"longitude":21.017532,"reserved":0,"last_update":"0001-01-01T00:00:00Z","name_a2s":"Uncletopia | Warsaw | 6 | Community","protocol":17,"map":"koth_highpass","folder":"tf","game":"Team Fortress","app_id":440,"player_count":0,"max_players":24,"Bots":0,"server_type":"Dedicated","server_os":"Linux","password":true,"vac":true,"version":"7708610","steam_id":85568392925397856,"keywords":["cp","nocrits","nodmgspread","uncletopia"],"game_id":440,"stv_port":0,"stv_name":"","players":null}]}