{"status":true,"message":"","result":[{"server_id":9,"name":"Uncletopia | Atlanta | 1 | All Maps","name_short":"atl-1","host":"atl-1.us.uncletopia.com","port":27015,"enabled":true,"region":"us-east","cc":"us","latitude":33.753746,"longitude":-84.38633,"reserved":0,"last_update":"0001-01-01T00:00:00Z","name_a2s":"Uncletopia | Atlanta | 1 | All Maps","protocol":17,"map":"pl_borneo","folder":"tf","game":"Team Fortress","app_id":440,"player_count":18,"max_players":24,"Bots":0,"server_type":"Dedicated","server_os":"Linux","password":true,"vac":true,"version":"7961495","steam_id":85568392924469982,"keywords":["nocrits","nodmgspread","payload","uncletopia"],"game_id":440,"stv_port":27016,"stv_name":"Uncletopia | Atlanta | 1 | All Maps | STV","players":[{"user_id":728,"name":"on that zaza?","steam_id":76561198038713198,"connected_time":5805000000000,"state":"active","ping":68},{"user_id":793,"name":"Larry Laffer","steam_id":76561198046832069,"connected_time":53000000000,"state":"active","ping":59},{"user_id":719,"name":"CoffeeZombee","steam_id":76561198172708053,"connected_time":6344000000000,"state":"active","ping":55},{"user_id":761,"name":"mEch114","steam_id":76561198236936060,"connected_time":2372000000000,"state":"active","ping":55},{"user_id":754,"name":"Deez","steam_id":76561198155587897,"connected_time":2759000000000,"state":"active","ping":79},{"user_id":791,"name":"clŒªire","steam_id":76561199210863076,"connected_time":105000000000,"state":"active","ping":73},{"user_id":762,"name":"OMEN","steam_id":76561198996976374,"connected_time":2294000000000,"state":"active","ping":108},{"user_id":792,"name":"kiwi  _gaming","steam_id":76561198358929717,"connected_time":81000000000,"state":"active","ping":61},{"user_id":770,"name":"Doorstop","steam_id":76561198017707085,"connected_time":2092000000000,"state":"active","ping":76},{"user_id":786,"name":"People's_Hero","steam_id":76561198103255788,"connected_time":700000000000,"state":"active","ping":97},{"user_id":765,"name":"Kantamoe","steam_id":76561198046661611,"connected_time":2205000000000,"state":"active","ping":63},{"user_id":782,"name":"Bruh Bruh The Brah Brah","steam_id":76561198087482068,"connected_time":1378000000000,"state":"active","ping":75},{"user_id":756,"name":"SaikoTaki5555","steam_id":76561198079652548,"connected_time":2756000000000,"state":"active","ping":88},{"user_id":788,"name":"Sovulous","steam_id":76561198045389233,"connected_time":661000000000,"state":"active","ping":85},{"user_id":759,"name":"chrischrischris3018@yahoo.com","steam_id":76561198137316053,"connected_time":2666000000000,"state":"active","ping":52},{"user_id":757,"name":"Mountain Man","steam_id":76561198841559088,"connected_time":2747000000000,"state":"active","ping":63},{"user_id":758,"name":"Jaymowe","steam_id":76561198353959514,"connected_time":2726000000000,"state":"active","ping":102},{"user_id":783,"name":"Lilith","steam_id":76561198125102885,"connected_time":1317000000000,"state":"active","ping":60}]},{"server_id":104,"name":"Uncletopia | Atlanta | 2 | All Maps","name_short":"atl-2","host":"atl-1.us.uncletopia.com","port":27025,"enabled":true,"region":"us-east","cc":"us","latitude":33.753746,"longitude":-84.38633,"reserved":0,"last_update":"0001-01-01T00:00:00Z","name_a2s":"Uncletopia | Atlanta | 2 | All Maps","protocol":17,"map":"pl_borneo","folder":"tf","game":"Team Fortress","app_id":440,"player_count":0,"max_players":24,"Bots":0,"server_type":"Dedicated","server_os":"Linux","password":true,"vac":true,"version":"7961495","steam_id":85568392924469983,"keywords":["nocrits","nodmgspread","payload","uncletopia"],"game_id":440,"stv_port":27026,"stv_name":"Uncletopia | Atlanta | 2 | All Maps | STV","players":null},{"server_id":400,"name":"Uncletopia | Atlanta | 3 | Stopwatch","name_short":"atl-3","host":"atl-1.us.uncletopia.com","port":27035,"enabled":true,"region":"us-east","cc":"us","latitude":33.753746,"longitude":-84.38633,"reserved":0,"last_update":"0001-01-01T00:00:00Z","name_a2s":"Uncletopia | Atlanta | 3 | Stopwatch","protocol":17,"map":"workshop/koth_ramjam_rc1.ugc459778887","folder":"tf","game":"Team Fortress","app_id":440,"player_count":0,"max_players":24,"Bots":0,"server_type":"Dedicated","server_os":"Linux","password":true,"vac":true,"version":"7961495","steam_id":85568392924515187,"keywords":["cp","nocrits","nodmgspread","uncletopia"],"game_id":440,"stv_port":27036,"stv_name":"Uncletopia | Atlanta | 3 | Stopwatch | STV","players":null},{"server_id":401,"name":"Uncletopia | Atlanta | 4 | Community","name_short":"atl-4","host":"atl-1.us.uncletopia.com","port":27045,"enabled":true,"region":"us-east","cc":"us","latitude":33.753746,"longitude":-84.38633,"reserved":0,"last_update":"0001-01-01T00:00:00Z","name_a2s":"Uncletopia | Atlanta | 4 | Community","protocol":17,"map":"workshop/koth_kemptown_rc1.ugc767410655","folder":"tf","game":"Team Fortress","app_id":440,"player_count":0,"max_players":24,"Bots":0,"server_type":"Dedicated","server_os":"Linux","password":true,"vac":true,"version":"7961495","steam_id":85568392924515188,"keywords":["cp","nocrits","nodmgspread","uncletopia"],"game_id":440,"stv_port":27046,"stv_name":"Uncletopia | Atlanta | 4 | Community | STV","players":null},{"server_id":2,"name":"Uncletopia | Chicago | 1 | All Maps","name_short":"chi-1","host":"chi-1.us.uncletopia.com","port":27015,"enabled":true,"region":"us-central","cc":"us","latitude":41.881832,"longitude":-87.62318,"reserved":0,"last_update":"0001-01-01T00:00:00Z","name_a2s":"Uncletopia | Chicago | 1 | All Maps","protocol":17,"map":"pl_borneo","folder":"tf","game":"Team Fortress","app_id":440,"player_count":24,"max_players":24,"Bots":0,"server_type":"Dedicated","server_os":"Linux","password":true,"vac":true,"version":"7961495","steam_id":85568392924469984,"keywords":["nocrits","nodmgspread","payload","uncletopia"],"game_id":440,"stv_port":27016,"stv_name":"Uncletopia | Chicago | 1 | All Maps | STV","players":[{"user_id":909,"name":"Eden","steam_id":76561198055860134,"connected_time":3090000000000,"state":"active","ping":87},{"user_id":949,"name":"SCATTER","steam_id":76561198405168492,"connected_time":500000000000,"state":"active","ping":83},{"user_id":929,"name":"ninety9dragonfly","steam_id":76561198363406983,"connected_time":1790000000000,"state":"active","ping":124},{"user_id":950,"name":"BitPieStudios","steam_id":76561198059216393,"connected_time":438000000000,"state":"active","ping":99},{"user_id":940,"name":"malvery","steam_id":76561198076554933,"connected_time":1235000000000,"state":"active","ping":103},{"user_id":951,"name":"dipp","steam_id":76561198395577807,"connected_time":415000000000,"state":"active","ping":75},{"user_id":930,"name":"Beau","steam_id":76561198162587622,"connected_time":1778000000000,"state":"active","ping":67},{"user_id":931,"name":"Tibalt Nyahuma","steam_id":76561198034779431,"connected_time":1770000000000,"state":"active","ping":75},{"user_id":947,"name":"JtsRes","steam_id":76561197994809241,"connected_time":617000000000,"state":"active","ping":63},{"user_id":881,"name":"Wallit","steam_id":76561198174355486,"connected_time":4812000000000,"state":"active","ping":128},{"user_id":945,"name":"dobo","steam_id":76561197998785704,"connected_time":732000000000,"state":"active","ping":84},{"user_id":932,"name":"Hey","steam_id":76561198447517893,"connected_time":1763000000000,"state":"active","ping":72},{"user_id":942,"name":"[weedgang]XX GODSLAYER XX","steam_id":76561198008332777,"connected_time":1201000000000,"state":"active","ping":76},{"user_id":936,"name":"zombie","steam_id":76561198270926835,"connected_time":1583000000000,"state":"active","ping":106},{"user_id":952,"name":"Mormon Jesus","steam_id":76561198079492689,"connected_time":406000000000,"state":"active","ping":65},{"user_id":895,"name":"Blur","steam_id":76561198062314111,"connected_time":4353000000000,"state":"active","ping":73},{"user_id":911,"name":"SkyFlyWhite","steam_id":76561198241383126,"connected_time":3079000000000,"state":"active","ping":54},{"user_id":953,"name":"Beef Cheeks","steam_id":76561198042327637,"connected_time":386000000000,"state":"active","ping":68},{"user_id":875,"name":"OH BOY","steam_id":76561199052273428,"connected_time":5534000000000,"state":"active","ping":58},{"user_id":902,"name":"wetto","steam_id":76561198224811504,"connected_time":3274000000000,"state":"active","ping":61},{"user_id":903,"name":"Hipster_Giraffe","steam_id":76561198069701092,"connected_time":3259000000000,"state":"active","ping":84},{"user_id":934,"name":"ScoutBox","steam_id":76561198111539895,"connected_time":1741000000000,"state":"active","ping":97},{"user_id":941,"name":"Philo","steam_id":76561198061873341,"connected_time":1224000000000,"state":"active","ping":91},{"user_id":956,"name":"Real","steam_id":76561198119315680,"connected_time":320000000000,"state":"active","ping":58}]},{"server_id":106,"name":"Uncletopia | Chicago | 2 | All Maps","name_short":"chi-2","host":"chi-1.us.uncletopia.com","port":27025,"enabled":true,"region":"us-central","cc":"us","latitude":41.881832,"longitude":-87.62318,"reserved":0,"last_update":"0001-01-01T00:00:00Z","name_a2s":"Uncletopia | Chicago | 2 | All Maps","protocol":17,"map":"pl_frontier_final","folder":"tf","game":"Team Fortress","app_id":440,"player_count":0,"max_players":24,"Bots":0,"server_type":"Dedicated","server_os":"Linux","password":true,"vac":true,"version":"7961495","steam_id":85568392924469985,"keywords":["nocrits","nodmgspread","payload","uncletopia"],"game_id":440,"stv_port":27026,"stv_name":"Uncletopia | Chicago | 2 | All Maps | STV","players":null},{"server_id":402,"name":"Uncletopia | Chicago | 3 | All Maps","name_short":"chi-3","host":"chi-1.us.uncletopia.com","port":27035,"enabled":true,"region":"us-central","cc":"us","latitude":41.881832,"longitude":-87.62318,"reserved":0,"last_update":"0001-01-01T00:00:00Z","name_a2s":"Uncletopia | Chicago | 3 | All Maps","protocol":17,"map":"koth_cascade","folder":"tf","game":"Team Fortress","app_id":440,"player_count":0,"max_players":24,"Bots":0,"server_type":"Dedicated","server_os":"Linux","password":true,"vac":true,"version":"7961495","steam_id":85568392924515191,"keywords":["cp","nocrits","nodmgspread","uncletopia"],"game_id":440,"stv_port":27036,"stv_name":"Uncletopia | Chicago | 3 | All Maps | STV","players":null},{"server_id":403,"name":"Uncletopia | Chicago | 4 | All Maps","name_short":"chi-4","host":"chi-1.us.uncletopia.com","port":27045,"enabled":true,"region":"us-central","cc":"us","latitude":41.881832,"longitude":-87.62318,"reserved":0,"last_update":"0001-01-01T00:00:00Z","name_a2s":"Uncletopia | Chicago | 4 | All Maps","protocol":17,"map":"koth_highpass","folder":"tf","game":"Team Fortress","app_id":440,"player_count":0,"max_players":24,"Bots":0,"server_type":"Dedicated","server_os":"Linux","password":true,"vac":true,"version":"7961495","steam_id":85568392924515193,"keywords":["cp","nocrits","nodmgspread","uncletopia"],"game_id":440,"stv_port":27046,"stv_name":"Uncletopia | Chicago | 4 | All Maps | STV","players":null},{"server_id":36,"name":"Uncletopia | Chicago | 5 | All Maps","name_short":"chi-5","host":"chi-2.us.uncletopia.com","port":27015,"enabled":true,"region":"us-central","cc":"us","latitude":41.881832,"longitude":-87.62318,"reserved":0,"last_update":"0001-01-01T00:00:00Z","name_a2s":"Uncletopia | Chicago | 5 | All Maps","protocol":17,"map":"koth_highpass","folder":"tf","game":"Team Fortress","app_id":440,"player_count":0,"max_players":24,"Bots":0,"server_type":"Dedicated","server_os":"Linux","password":true,"vac":true,"version":"7961495","steam_id":85568392924866362,"keywords":["cp","nocrits","nodmgspread","uncletopia"],"game_id":440,"stv_port":27016,"stv_name":"Uncletopia | Chicago | 5 | All Maps | STV","players":null},{"server_id":37,"name":"Uncletopia | Chicago | 6 | All Maps","name_short":"chi-6","host":"chi-2.us.uncletopia.com","port":27025,"enabled":true,"region":"us-central","cc":"us","latitude":41.881832,"longitude":-87.62318,"reserved":0,"last_update":"0001-01-01T00:00:00Z","name_a2s":"Uncletopia | Chicago | 6 | All Maps","protocol":17,"map":"cp_sunshine","folder":"tf","game":"Team Fortress","app_id":440,"player_count":25,"max_players":24,"Bots":0,"server_type":"Dedicated","server_os":"Linux","password":true,"vac":true,"version":"7961495","steam_id":85568392924866363,"keywords":["cp","nocrits","nodmgspread","uncletopia"],"game_id":440,"stv_port":27026,"stv_name":"Uncletopia | Chicago | 6 | All Maps | STV","players":[{"user_id":399,"name":"Heavy Time ¬© 1991","steam_id":76561198127045046,"connected_time":569000000000,"state":"active","ping":53},{"user_id":401,"name":"as kids, my sis and i loved gum","steam_id":76561198135559825,"connected_time":497000000000,"state":"active","ping":60},{"user_id":368,"name":"dragonfish","steam_id":76561198108938632,"connected_time":2783000000000,"state":"active","ping":45},{"user_id":398,"name":"Nickson1","steam_id":76561198175839309,"connected_time":630000000000,"state":"active","ping":74},{"user_id":375,"name":"üü†„ÉÑ","steam_id":76561198018213050,"connected_time":2644000000000,"state":"active","ping":45},{"user_id":367,"name":"AkimboAoki","steam_id":76561198158323058,"connected_time":2806000000000,"state":"active","ping":99},{"user_id":400,"name":"Massive Munitions Mann","steam_id":76561198088321636,"connected_time":546000000000,"state":"active","ping":115},{"user_id":413,"name":"Gaio","steam_id":76561198136293406,"connected_time":1000000000,"state":"spawning","ping":33},{"user_id":386,"name":"rugbyralph288","steam_id":76561198161475964,"connected_time":2016000000000,"state":"active","ping":99},{"user_id":392,"name":"yoyo","steam_id":76561198285758098,"connected_time":929000000000,"state":"active","ping":119},{"user_id":402,"name":"Warzard","steam_id":76561199154051413,"connected_time":430000000000,"state":"active","ping":92},{"user_id":331,"name":"Jujubee","steam_id":76561198034377946,"connected_time":6126000000000,"state":"active","ping":76},{"user_id":349,"name":"coda","steam_id":76561198092052685,"connected_time":4985000000000,"state":"active","ping":61},{"user_id":389,"name":"basil","steam_id":76561198075758026,"connected_time":1348000000000,"state":"active","ping":88},{"user_id":385,"name":"videogame toddler","steam_id":76561198051310816,"connected_time":2033000000000,"state":"active","ping":71},{"user_id":403,"name":"RabbitGaming696","steam_id":76561198334811317,"connected_time":398000000000,"state":"active","ping":79},{"user_id":411,"name":"nickyboy","steam_id":76561198055205332,"connected_time":179000000000,"state":"active","ping":85},{"user_id":304,"name":"Dementophobic_Dude","steam_id":76561199470601524,"connected_time":7471000000000,"state":"active","ping":89},{"user_id":355,"name":"Bigburgers","steam_id":76561198165013808,"connected_time":4591000000000,"state":"active","ping":61},{"user_id":387,"name":"tf2 noob vs pro","steam_id":76561198120973162,"connected_time":1955000000000,"state":"active","ping":74},{"user_id":382,"name":"-BRH- Tangled up in Bluegrass","steam_id":76561197987181139,"connected_time":2117000000000,"state":"active","ping":72},{"user_id":405,"name":"TJGSASQUATCH","steam_id":76561198077806921,"connected_time":361000000000,"state":"active","ping":84},{"user_id":384,"name":"kaputon","steam_id":76561198146299782,"connected_time":2090000000000,"state":"active","ping":62},{"user_id":406,"name":"Poopisviel Von Einzbern","steam_id":76561198259260433,"connected_time":316000000000,"state":"active","ping":86},{"user_id":414,"name":"Jay","steam_id":76561198084129048,"connected_time":0,"state":"connecting","ping":0}]},{"server_id":38,"name":"Uncletopia | Chicago | 7 | Stopwatch","name_short":"chi-7","host":"chi-2.us.uncletopia.com","port":27035,"enabled":true,"region":"us-central","cc":"us","latitude":41.881832,"longitude":-87.62318,"reserved":0,"last_update":"0001-01-01T00:00:00Z","name_a2s":"Uncletopia | Chicago | 7 | Stopwatch","protocol":17,"map":"cp_gullywash_final1","folder":"tf","game":"Team Fortress","app_id":440,"player_count":0,"max_players":24,"Bots":0,"server_type":"Dedicated","server_os":"Linux","password":true,"vac":true,"version":"7961495","steam_id":85568392924866364,"keywords":["cp","nocrits","nodmgspread","uncletopia"],"game_id":440,"stv_port":27036,"stv_name":"Uncletopia | Chicago | 7 | Stopwatch | STV","players":null},{"server_id":39,"name":"Uncletopia | Chicago | 8 | Community","name_short":"chi-8","host":"chi-2.us.uncletopia.com","port":27045,"enabled":true,"region":"us-central","cc":"us","latitude":41.881832,"longitude":-87.62318,"reserved":0,"last_update":"0001-01-01T00:00:00Z","name_a2s":"Uncletopia | Chicago | 8 | Community","protocol":17,"map":"workshop/koth_slaughter_rc1.ugc1712845210","folder":"tf","game":"Team Fortress","app_id":440,"player_count":0,"max_players":24,"Bots":0,"server_type":"Dedicated","server_os":"Linux","password":true,"vac":true,"version":"7961495","steam_id":85568392924866365,"keywords":["cp","nocrits","nodmgspread","uncletopia"],"game_id":440,"stv_port":27046,"stv_name":"Uncletopia | Chicago | 8 | Community | STV","players":null},{"server_id":8,"name":"Uncletopia | Dallas | 1 | All Maps","name_short":"dal-1","host":"dal-1.us.uncletopia.com","port":27015,"enabled":true,"region":"us-central","cc":"us","latitude":32.779167,"longitude":-96.80889,"reserved":0,"last_update":"0001-01-01T00:00:00Z","name_a2s":"Uncletopia | Dallas | 1 | All Maps","protocol":17,"map":"pl_frontier_final","folder":"tf","game":"Team Fortress","app_id":440,"player_count":4,"max_players":24,"Bots":0,"server_type":"Dedicated","server_os":"Linux","password":true,"vac":true,"version":"7961495","steam_id":85568392924469986,"keywords":["nocrits","nodmgspread","payload","uncletopia"],"game_id":440,"stv_port":27016,"stv_name":"Uncletopia | Dallas | 1 | All Maps | STV","players":[{"user_id":948,"name":"lancer","steam_id":76561199124468228,"connected_time":703000000000,"state":"active","ping":48},{"user_id":950,"name":"chesburga2234","steam_id":76561199449006468,"connected_time":304000000000,"state":"active","ping":72},{"user_id":951,"name":"Dead_Stranger","steam_id":76561198120804563,"connected_time":257000000000,"state":"active","ping":61},{"user_id":884,"name":"Monte","steam_id":76561198097499917,"connected_time":7842000000000,"state":"active","ping":63}]},{"server_id":108,"name":"Uncletopia | Dallas | 2 | All Maps","name_short":"dal-2","host":"dal-1.us.uncletopia.com","port":27025,"enabled":true,"region":"us-central","cc":"us","latitude":32.779167,"longitude":-96.80889,"reserved":0,"last_update":"0001-01-01T00:00:00Z","name_a2s":"Uncletopia | Dallas | 2 | All Maps","protocol":17,"map":"pl_frontier_final","folder":"tf","game":"Team Fortress","app_id":440,"player_count":24,"max_players":24,"Bots":0,"server_type":"Dedicated","server_os":"Linux","password":true,"vac":true,"version":"7961495","steam_id":85568392924469988,"keywords":["nocrits","nodmgspread","payload","uncletopia"],"game_id":440,"stv_port":27026,"stv_name":"Uncletopia | Dallas | 2 | All Maps | STV","players":[{"user_id":724,"name":"keffers","steam_id":76561198202338796,"connected_time":3505000000000,"state":"active","ping":81},{"user_id":756,"name":"g0nk","steam_id":76561198838309024,"connected_time":1587000000000,"state":"active","ping":77},{"user_id":757,"name":"AKIRA","steam_id":76561198938939024,"connected_time":1581000000000,"state":"active","ping":99},{"user_id":739,"name":"Shrimp Flavored Noodles","steam_id":76561198145209609,"connected_time":2178000000000,"state":"active","ping":48},{"user_id":774,"name":"recycle","steam_id":76561198819562111,"connected_time":239000000000,"state":"active","ping":75},{"user_id":726,"name":"brian eno","steam_id":76561198109901138,"connected_time":3477000000000,"state":"active","ping":93},{"user_id":754,"name":"Bolbi","steam_id":76561198051811597,"connected_time":1672000000000,"state":"active","ping":87},{"user_id":777,"name":"Gardangle","steam_id":76561198394173831,"connected_time":59000000000,"state":"active","ping":94},{"user_id":768,"name":"29palms","steam_id":76561198095104925,"connected_time":722000000000,"state":"active","ping":105},{"user_id":743,"name":"Trashgaming","steam_id":76561199184268442,"connected_time":2037000000000,"state":"active","ping":111},{"user_id":772,"name":"my mother's house burned down","steam_id":76561198058890821,"connected_time":337000000000,"state":"active","ping":63},{"user_id":776,"name":"Phosu","steam_id":76561198180162801,"connected_time":94000000000,"state":"active","ping":61},{"user_id":749,"name":"JakeOwlsky","steam_id":76561198139194230,"connected_time":1951000000000,"state":"active","ping":111},{"user_id":746,"name":"Asrael","steam_id":76561197986044901,"connected_time":1991000000000,"state":"active","ping":98},{"user_id":750,"name":"6k911","steam_id":76561198220010599,"connected_time":1946000000000,"state":"active","ping":81},{"user_id":773,"name":"roto","steam_id":76561198138735860,"connected_time":317000000000,"state":"active","ping":94},{"user_id":763,"name":"paddle gaming","steam_id":76561199250055131,"connected_time":1127000000000,"state":"active","ping":76},{"user_id":762,"name":"BajaBlast76","steam_id":76561198144272437,"connected_time":1169000000000,"state":"active","ping":84},{"user_id":771,"name":"EvilPi99let","steam_id":76561197987243470,"connected_time":559000000000,"state":"active","ping":76},{"user_id":752,"name":"DolphinTime","steam_id":76561197999079405,"connected_time":1934000000000,"state":"active","ping":115},{"user_id":766,"name":"Sweater-Fan","steam_id":76561199389567214,"connected_time":941000000000,"state":"active","ping":72},{"user_id":767,"name":"Engineer2650","steam_id":76561198121410799,"connected_time":888000000000,"state":"active","ping":60},{"user_id":770,"name":"Zelda","steam_id":76561199008634102,"connected_time":686000000000,"state":"active","ping":63},{"user_id":775,"name":"Vaun","steam_id":76561198034075317,"connected_time":182000000000,"state":"active","ping":78}]},{"server_id":404,"name":"Uncletopia | Dallas | 3 | All Maps","name_short":"dal-3","host":"dal-1.us.uncletopia.com","port":27035,"enabled":true,"region":"us-central","cc":"us","latitude":32.779167,"longitude":-96.80889,"reserved":0,"last_update":"0001-01-01T00:00:00Z","name_a2s":"Uncletopia | Dallas | 3 | All Maps","protocol":17,"map":"cp_snakewater_final1","folder":"tf","game":"Team Fortress","app_id":440,"player_count":0,"max_players":24,"Bots":0,"server_type":"Dedicated","server_os":"Linux","password":true,"vac":true,"version":"7961495","steam_id":85568392924515219,"keywords":["cp","nocrits","nodmgspread","uncletopia"],"game_id":440,"stv_port":27036,"stv_name":"Uncletopia | Dallas | 3 | All Maps | STV","players":null},{"server_id":405,"name":"Uncletopia | Dallas | 4 | Community","name_short":"dal-4","host":"dal-1.us.uncletopia.com","port":27045,"enabled":true,"region":"us-central","cc":"us","latitude":32.779167,"longitude":-96.80889,"reserved":0,"last_update":"0001-01-01T00:00:00Z","name_a2s":"Uncletopia | Dallas | 4 | Community","protocol":17,"map":"workshop/koth_kemptown_rc1.ugc767410655","folder":"tf","game":"Team Fortress","app_id":440,"player_count":0,"max_players":24,"Bots":0,"server_type":"Dedicated","server_os":"Linux","password":true,"vac":true,"version":"7961495","steam_id":85568392924515220,"keywords":["cp","nocrits","nodmgspread","uncletopia"],"game_id":440,"stv_port":27046,"stv_name":"Uncletopia | Dallas | 4 | Community | STV","players":null},{"server_id":5,"name":"Uncletopia | Frankfurt | 1 | All Maps","name_short":"frk-1","host":"frk-1.de.uncletopia.com","port":27015,"enabled":true,"region":"eu","cc":"de","latitude":50.110924,"longitude":8.682127,"reserved":0,"last_update":"0001-01-01T00:00:00Z","name_a2s":"Uncletopia | Frankfurt | 1 | All Maps","protocol":17,"map":"koth_highpass","folder":"tf","game":"Team Fortress","app_id":440,"player_count":0,"max_players":24,"Bots":0,"server_type":"Dedicated","server_os":"Linux","password":true,"vac":true,"version":"7961495","steam_id":85568392924469989,"keywords":["cp","nocrits","nodmgspread","uncletopia"],"game_id":440,"stv_port":27016,"stv_name":"Uncletopia | Frankfurt | 1 | All Maps | STV","players":null},{"server_id":110,"name":"Uncletopia | Frankfurt | 2 | All Maps","name_short":"frk-2","host":"frk-1.de.uncletopia.com","port":27025,"enabled":true,"region":"eu","cc":"de","latitude":50.110924,"longitude":8.682127,"reserved":0,"last_update":"0001-01-01T00:00:00Z","name_a2s":"Uncletopia | Frankfurt | 2 | All Maps","protocol":17,"map":"cp_dustbowl","folder":"tf","game":"Team Fortress","app_id":440,"player_count":0,"max_players":24,"Bots":0,"server_type":"Dedicated","server_os":"Linux","password":true,"vac":true,"version":"7961495","steam_id":85568392924469990,"keywords":["cp","nocrits","nodmgspread","uncletopia"],"game_id":440,"stv_port":27026,"stv_name":"Uncletopia | Frankfurt | 2 | All Maps | STV","players":null},{"server_id":308,"name":"Uncletopia | Frankfurt | 3 | All Maps","name_short":"frk-3","host":"frk-1.de.uncletopia.com","port":27035,"enabled":true,"region":"eu","cc":"de","latitude":50.110924,"longitude":8.682127,"reserved":0,"last_update":"0001-01-01T00:00:00Z","name_a2s":"Uncletopia | Frankfurt | 3 | All Maps","protocol":17,"map":"pl_barnblitz","folder":"tf","game":"Team Fortress","app_id":440,"player_count":0,"max_players":24,"Bots":0,"server_type":"Dedicated","server_os":"Linux","password":true,"vac":true,"version":"7961495","steam_id":85568392924504274,"keywords":["nocrits","nodmgspread","payload","uncletopia"],"game_id":440,"stv_port":27036,"stv_name":"Uncletopia | Frankfurt | 3 | All Maps | STV","players":null},{"server_id":309,"name":"Uncletopia | Frankfurt | 4 | All Maps","name_short":"frk-4","host":"frk-1.de.uncletopia.com","port":27045,"enabled":true,"region":"eu","cc":"de","latitude":50.110924,"longitude":8.682127,"reserved":0,"last_update":"0001-01-01T00:00:00Z","name_a2s":"Uncletopia | Frankfurt | 4 | All Maps","protocol":17,"map":"koth_highpass","folder":"tf","game":"Team Fortress","app_id":440,"player_count":0,"max_players":24,"Bots":0,"server_type":"Dedicated","server_os":"Linux","password":true,"vac":true,"version":"7961495","steam_id":85568392924504275,"keywords":["cp","nocrits","nodmgspread","uncletopia"],"game_id":440,"stv_port":27046,"stv_name":"Uncletopia | Frankfurt | 4 | All Maps | STV","players":null},{"server_id":310,"name":"Uncletopia | Frankfurt | 5 | All Maps","name_short":"frk-5","host":"frk-1.de.uncletopia.com","port":27055,"enabled":true,"region":"eu","cc":"de","latitude":50.110924,"longitude":8.682127,"reserved":0,"last_update":"0001-01-01T00:00:00Z","name_a2s":"Uncletopia | Frankfurt | 5 | All Maps","protocol":17,"map":"pl_badwater","folder":"tf","game":"Team Fortress","app_id":440,"player_count":0,"max_players":24,"Bots":0,"server_type":"Dedicated","server_os":"Linux","password":true,"vac":true,"version":"7961495","steam_id":85568392924504277,"keywords":["nocrits","nodmgspread","payload","uncletopia"],"game_id":440,"stv_port":27056,"stv_name":"Uncletopia | Frankfurt | 5 | All Maps | STV","players":null},{"server_id":311,"name":"Uncletopia | Frankfurt | 6 | All Maps","name_short":"frk-6","host":"frk-1.de.uncletopia.com","port":27065,"enabled":true,"region":"eu","cc":"de","latitude":50.110924,"longitude":8.682127,"reserved":0,"last_update":"0001-01-01T00:00:00Z","name_a2s":"Uncletopia | Frankfurt | 6 | All Maps","protocol":17,"map":"cp_altitude","folder":"tf","game":"Team Fortress","app_id":440,"player_count":0,"max_players":24,"Bots":0,"server_type":"Dedicated","server_os":"Linux","password":true,"vac":true,"version":"7961495","steam_id":85568392924504278,"keywords":["cp","nocrits","nodmgspread","uncletopia"],"game_id":440,"stv_port":27066,"stv_name":"Uncletopia | Frankfurt | 6 | All Maps | STV","players":null},{"server_id":23,"name":"Uncletopia | Frankfurt | 7 | Stopwatch","name_short":"frk-7","host":"frk-1.de.uncletopia.com","port":27075,"enabled":true,"region":"eu","cc":"de","latitude":50.110924,"longitude":8.682127,"reserved":0,"last_update":"0001-01-01T00:00:00Z","name_a2s":"Uncletopia | Frankfurt | 7 | Stopwatch","protocol":17,"map":"pl_frontier_final","folder":"tf","game":"Team Fortress","app_id":440,"player_count":0,"max_players":24,"Bots":0,"server_type":"Dedicated","server_os":"Linux","password":true,"vac":true,"version":"7961495","steam_id":85568392924742827,"keywords":["nocrits","nodmgspread","payload","uncletopia"],"game_id":440,"stv_port":27076,"stv_name":"Uncletopia | Frankfurt | 7 | Stopwatch | STV","players":null},{"server_id":24,"name":"Uncletopia | Frankfurt | 8 | Community","name_short":"frk-8","host":"frk-1.de.uncletopia.com","port":27085,"enabled":true,"region":"eu","cc":"de","latitude":50.110924,"longitude":8.682127,"reserved":0,"last_update":"0001-01-01T00:00:00Z","name_a2s":"Uncletopia | Frankfurt | 8 | Community","protocol":17,"map":"cp_mountainlab","folder":"tf","game":"Team Fortress","app_id":440,"player_count":0,"max_players":24,"Bots":0,"server_type":"Dedicated","server_os":"Linux","password":true,"vac":true,"version":"7961495","steam_id":85568392924742828,"keywords":["cp","nocrits","nodmgspread","uncletopia"],"game_id":440,"stv_port":27086,"stv_name":"Uncletopia | Frankfurt | 8 | Community | STV","players":null},{"server_id":202,"name":"Uncletopia | Hong Kong | 1 | All Maps","name_short":"hgk-1","host":"hgk-1.hk.uncletopia.com","port":27015,"enabled":true,"region":"asia","cc":"hk","latitude":22.302711,"longitude":114.177216,"reserved":0,"last_update":"0001-01-01T00:00:00Z","name_a2s":"Uncletopia | Hong Kong | 1 | All Maps","protocol":17,"map":"pl_upward","folder":"tf","game":"Team Fortress","app_id":440,"player_count":24,"max_players":24,"Bots":0,"server_type":"Dedicated","server_os":"Linux","password":true,"vac":true,"version":"7961495","steam_id":85568392924494504,"keywords":["nocrits","nodmgspread","payload","uncletopia"],"game_id":440,"stv_port":27016,"stv_name":"Uncletopia | Hong Kong | 1 | All Maps | STV","players":[{"user_id":173,"name":"Ivy","steam_id":76561198400698408,"connected_time":2369000000000,"state":"active","ping":93},{"user_id":179,"name":"2746","steam_id":76561199390507975,"connected_time":1587000000000,"state":"active","ping":49},{"user_id":74,"name":"P","steam_id":76561198304514505,"connected_time":11836000000000,"state":"active","ping":75},{"user_id":163,"name":"Milk‚ù§","steam_id":76561198163911560,"connected_time":3367000000000,"state":"active","ping":135},{"user_id":153,"name":"Exquisite hentai connoisseur","steam_id":76561198403808601,"connected_time":4112000000000,"state":"active","ping":88},{"user_id":166,"name":"Joilee32","steam_id":76561199226255440,"connected_time":2882000000000,"state":"active","ping":80},{"user_id":152,"name":"Kyo","steam_id":76561198088550274,"connected_time":4951000000000,"state":"active","ping":42},{"user_id":142,"name":"spinach (old mouse)","steam_id":76561198042539541,"connected_time":5785000000000,"state":"active","ping":80},{"user_id":171,"name":"Cheesey","steam_id":76561198975684137,"connected_time":2384000000000,"state":"active","ping":82},{"user_id":180,"name":"SakuLightning","steam_id":76561198039422369,"connected_time":601000000000,"state":"active","ping":141},{"user_id":154,"name":"water tastes good","steam_id":76561199375947670,"connected_time":3968000000000,"state":"active","ping":67},{"user_id":177,"name":"StewB„ÉÑ","steam_id":76561198131423270,"connected_time":1754000000000,"state":"active","ping":93},{"user_id":114,"name":"Lu","steam_id":76561198320532821,"connected_time":7737000000000,"state":"active","ping":69},{"user_id":174,"name":"Fourth8","steam_id":76561198079927520,"connected_time":2369000000000,"state":"active","ping":44},{"user_id":176,"name":"14","steam_id":76561198113401862,"connected_time":1865000000000,"state":"active","ping":91},{"user_id":170,"name":"marisaloses","steam_id":76561199033032870,"connected_time":2391000000000,"state":"active","ping":70},{"user_id":106,"name":"soh.cayden","steam_id":76561198985588227,"connected_time":7999000000000,"state":"active","ping":104},{"user_id":159,"name":"TomProPlayer","steam_id":76561199223292521,"connected_time":3454000000000,"state":"active","ping":77},{"user_id":168,"name":"Skyler White yo","steam_id":76561198895193247,"connected_time":2403000000000,"state":"active","ping":96},{"user_id":150,"name":"yuuto","steam_id":76561199143532661,"connected_time":5009000000000,"state":"active","ping":99},{"user_id":172,"name":"IRA car dealership","steam_id":76561199224577498,"connected_time":2384000000000,"state":"active","ping":78},{"user_id":151,"name":"my gun can shoot now!","steam_id":76561199249938987,"connected_time":5001000000000,"state":"active","ping":41},{"user_id":169,"name":"vintage","steam_id":76561198230213828,"connected_time":2403000000000,"state":"active","ping":67},{"user_id":118,"name":"average 2fort enjoyer","steam_id":76561198062112214,"connected_time":7679000000000,"state":"active","ping":115}]},{"server_id":1,"name":"Uncletopia | Los Angeles | 1 | All Maps","name_short":"lax-1","host":"lax-1.us.uncletopia.com","port":27015,"enabled":true,"region":"us-west","cc":"us","latitude":33.94279,"longitude":-118.41004,"reserved":0,"last_update":"0001-01-01T00:00:00Z","name_a2s":"Uncletopia | Los Angeles | 1 | All Maps","protocol":17,"map":"pl_snowycoast","folder":"tf","game":"Team Fortress","app_id":440,"player_count":23,"max_players":24,"Bots":0,"server_type":"Dedicated","server_os":"Linux","password":true,"vac":true,"version":"7961495","steam_id":85568392924469991,"keywords":["nocrits","nodmgspread","payload","uncletopia"],"game_id":440,"stv_port":27016,"stv_name":"Uncletopia | Los Angeles | 1 | All Maps | STV","players":[{"user_id":586,"name":"menta fresca","steam_id":76561198086666486,"connected_time":4996000000000,"state":"active","ping":57},{"user_id":657,"name":"TheBrocklobster","steam_id":76561198039682984,"connected_time":445000000000,"state":"active","ping":62},{"user_id":590,"name":"Thatboy1958","steam_id":76561199007045946,"connected_time":4796000000000,"state":"active","ping":45},{"user_id":587,"name":"Gen-E  /geneoftf2","steam_id":76561199497800989,"connected_time":4996000000000,"state":"active","ping":118},{"user_id":613,"name":"Quigi","steam_id":76561198144645874,"connected_time":3606000000000,"state":"active","ping":83},{"user_id":615,"name":"toast","steam_id":76561198843031197,"connected_time":3592000000000,"state":"active","ping":50},{"user_id":655,"name":"The Grim Heaper","steam_id":76561197987759101,"connected_time":470000000000,"state":"active","ping":91},{"user_id":649,"name":"Arc","steam_id":76561199215227692,"connected_time":1184000000000,"state":"active","ping":61},{"user_id":656,"name":"vozz","steam_id":76561198242065410,"connected_time":468000000000,"state":"active","ping":52},{"user_id":658,"name":"Livin' Like Larry","steam_id":76561198313360974,"connected_time":331000000000,"state":"active","ping":45},{"user_id":659,"name":"THE man is EPIC","steam_id":76561198085410777,"connected_time":321000000000,"state":"active","ping":88},{"user_id":654,"name":"blast a hoe","steam_id":76561198294281809,"connected_time":496000000000,"state":"active","ping":59},{"user_id":646,"name":"CaiGaming","steam_id":76561198313023508,"connected_time":1435000000000,"state":"active","ping":67},{"user_id":597,"name":"juice drainer","steam_id":76561198361999761,"connected_time":4641000000000,"state":"active","ping":53},{"user_id":632,"name":"a mouse with a gun","steam_id":76561198066154333,"connected_time":2142000000000,"state":"active","ping":91},{"user_id":599,"name":"Nep","steam_id":76561198312425752,"connected_time":4577000000000,"state":"active","ping":63},{"user_id":641,"name":"valenz l√©","steam_id":76561198133974928,"connected_time":1955000000000,"state":"active","ping":101},{"user_id":653,"name":"kwetzal","steam_id":76561198845749671,"connected_time":508000000000,"state":"active","ping":65},{"user_id":650,"name":"Mr.Rogers","steam_id":76561198043878683,"connected_time":966000000000,"state":"active","ping":64},{"user_id":643,"name":"Conkie","steam_id":76561198059871946,"connected_time":1808000000000,"state":"active","ping":43},{"user_id":611,"name":"dumbledore, the head master","steam_id":76561198424954118,"connected_time":3848000000000,"state":"active","ping":89},{"user_id":652,"name":"Dezzithediscoduck","steam_id":76561198037043489,"connected_time":510000000000,"state":"active","ping":59},{"user_id":610,"name":"Faster 07","steam_id":76561199001109571,"connected_time":4187000000000,"state":"active","ping":70}]},{"server_id":112,"name":"Uncletopia | Los Angeles | 2 | All Maps","name_short":"lax-2","host":"lax-1.us.uncletopia.com","port":27025,"enabled":true,"region":"us-west","cc":"us","latitude":33.94279,"longitude":-118.41004,"reserved":0,"last_update":"0001-01-01T00:00:00Z","name_a2s":"Uncletopia | Los Angeles | 2 | All Maps","protocol":17,"map":"ctf_turbine","folder":"tf","game":"Team Fortress","app_id":440,"player_count":24,"max_players":24,"Bots":0,"server_type":"Dedicated","server_os":"Linux","password":true,"vac":true,"version":"7961495","steam_id":85568392924469992,"keywords":["ctf","nocrits","nodmgspread","uncletopia"],"game_id":440,"stv_port":27026,"stv_name":"Uncletopia | Los Angeles | 2 | All Maps | STV","players":[{"user_id":357,"name":"U œâ U","steam_id":76561198118802562,"connected_time":1639000000000,"state":"active","ping":61},{"user_id":374,"name":"Granny from Hoodwinked","steam_id":76561198116389072,"connected_time":445000000000,"state":"active","ping":93},{"user_id":370,"name":"Toxic Medic Main (he/they)","steam_id":76561198009314845,"connected_time":628000000000,"state":"active","ping":61},{"user_id":358,"name":"standing here,","steam_id":76561198066315453,"connected_time":1497000000000,"state":"active","ping":52},{"user_id":339,"name":"john swag","steam_id":76561198293857963,"connected_time":3204000000000,"state":"active","ping":98},{"user_id":377,"name":"bcizzo","steam_id":76561197994399953,"connected_time":140000000000,"state":"active","ping":65},{"user_id":378,"name":"Therapy Goth","steam_id":76561198048448497,"connected_time":33000000000,"state":"active","ping":105},{"user_id":324,"name":"Pescado Juegos","steam_id":76561198798161131,"connected_time":4263000000000,"state":"active","ping":93},{"user_id":345,"name":"RC","steam_id":76561198048127881,"connected_time":2891000000000,"state":"active","ping":45},{"user_id":284,"name":"Gummy","steam_id":76561199200969139,"connected_time":7296000000000,"state":"active","ping":117},{"user_id":326,"name":"krebex","steam_id":76561198004660630,"connected_time":3742000000000,"state":"active","ping":75},{"user_id":352,"name":"CheekyMcCheek","steam_id":76561198081978491,"connected_time":2281000000000,"state":"active","ping":104},{"user_id":360,"name":"MantisToboggan","steam_id":76561197969447887,"connected_time":1460000000000,"state":"active","ping":99},{"user_id":365,"name":"netoc6","steam_id":76561199065312168,"connected_time":1347000000000,"state":"active","ping":115},{"user_id":362,"name":"kill all ____","steam_id":76561198213385439,"connected_time":1430000000000,"state":"active","ping":100},{"user_id":335,"name":"Alejandro","steam_id":76561197970051493,"connected_time":3373000000000,"state":"active","ping":158},{"user_id":349,"name":"Burny Sanders","steam_id":76561197961879048,"connected_time":2469000000000,"state":"active","ping":74},{"user_id":369,"name":"JayDuh","steam_id":76561198396293109,"connected_time":804000000000,"state":"active","ping":108},{"user_id":373,"name":"lordstinkdemon666","steam_id":76561198073914311,"connected_time":589000000000,"state":"active","ping":45},{"user_id":376,"name":"LaChancla","steam_id":76561198971528917,"connected_time":192000000000,"state":"active","ping":84},{"user_id":366,"name":"thai","steam_id":76561198052462287,"connected_time":1322000000000,"state":"active","ping":74},{"user_id":296,"name":"HopeTheNeko","steam_id":76561199159285465,"connected_time":6641000000000,"state":"active","ping":59},{"user_id":368,"name":"PandaWithHat2313","steam_id":76561199116285411,"connected_time":947000000000,"state":"active","ping":59},{"user_id":350,"name":"The (SPY HAS A GUN) Aristocrat","steam_id":76561198136982572,"connected_time":2466000000000,"state":"active","ping":81}]},{"server_id":324,"name":"Uncletopia | Los Angeles | 3 | All Maps","name_short":"lax-3","host":"lax-1.us.uncletopia.com","port":27035,"enabled":true,"region":"us-west","cc":"us","latitude":33.94279,"longitude":-118.41004,"reserved":0,"last_update":"0001-01-01T00:00:00Z","name_a2s":"Uncletopia | Los Angeles | 3 | All Maps","protocol":17,"map":"pl_pier","folder":"tf","game":"Team Fortress","app_id":440,"player_count":24,"max_players":24,"Bots":0,"server_type":"Dedicated","server_os":"Linux","password":true,"vac":true,"version":"7961495","steam_id":85568392924510198,"keywords":["nocrits","nodmgspread","payload","uncletopia"],"game_id":440,"stv_port":27036,"stv_name":"Uncletopia | Los Angeles | 3 | All Maps | STV","players":[{"user_id":263,"name":"dAiLyGrInD","steam_id":76561198163531915,"connected_time":1833000000000,"state":"active","ping":90},{"user_id":283,"name":"Seriously Bruh","steam_id":76561198070408485,"connected_time":279000000000,"state":"active","ping":69},{"user_id":282,"name":"Light Green","steam_id":76561199125221195,"connected_time":375000000000,"state":"active","ping":49},{"user_id":182,"name":"tomandjerry085","steam_id":76561198800789071,"connected_time":9009000000000,"state":"active","ping":57},{"user_id":284,"name":"Bobby Ray","steam_id":76561198044131188,"connected_time":275000000000,"state":"active","ping":80},{"user_id":285,"name":"Crestec","steam_id":76561198353560441,"connected_time":259000000000,"state":"active","ping":88},{"user_id":286,"name":"Snoopist","steam_id":76561198144023761,"connected_time":251000000000,"state":"active","ping":86},{"user_id":264,"name":"sillygoon","steam_id":76561199086142678,"connected_time":1831000000000,"state":"active","ping":68},{"user_id":265,"name":"Oliver Klozoff","steam_id":76561198024788419,"connected_time":1813000000000,"state":"active","ping":104},{"user_id":255,"name":"JTuu","steam_id":76561198030606396,"connected_time":2624000000000,"state":"active","ping":74},{"user_id":266,"name":"Tummy Sunday","steam_id":76561198031336957,"connected_time":1801000000000,"state":"active","ping":90},{"user_id":278,"name":"phantom","steam_id":76561197963860777,"connected_time":800000000000,"state":"active","ping":101},{"user_id":287,"name":"CocktailShrimp_-","steam_id":76561198113196572,"connected_time":205000000000,"state":"active","ping":201},{"user_id":277,"name":"Boss","steam_id":76561197981239654,"connected_time":832000000000,"state":"active","ping":83},{"user_id":240,"name":"ghostglitch","steam_id":76561197991608573,"connected_time":4259000000000,"state":"active","ping":49},{"user_id":288,"name":"Panzer Vor","steam_id":76561198435091099,"connected_time":173000000000,"state":"active","ping":70},{"user_id":289,"name":"Caster","steam_id":76561198131592341,"connected_time":87000000000,"state":"active","ping":57},{"user_id":269,"name":"‚úø PoutyBun ‚úø","steam_id":76561197965762847,"connected_time":1752000000000,"state":"active","ping":60},{"user_id":246,"name":"Randle of John","steam_id":76561198328210524,"connected_time":4003000000000,"state":"active","ping":61},{"user_id":153,"name":"Lambchop","steam_id":76561198043900363,"connected_time":11700000000000,"state":"active","ping":75},{"user_id":290,"name":"Soft copper wings","steam_id":76561198092317849,"connected_time":61000000000,"state":"active","ping":46},{"user_id":280,"name":"Khrono691","steam_id":76561198246227600,"connected_time":615000000000,"state":"active","ping":59},{"user_id":291,"name":"starry","steam_id":76561198989740125,"connected_time":55000000000,"state":"active","ping":125},{"user_id":281,"name":"PTR","steam_id":76561198237253772,"connected_time":612000000000,"state":"active","ping":77}]},{"server_id":25,"name":"Uncletopia | Los Angeles | 4 | Stopwatch","name_short":"lax-4","host":"lax-1.us.uncletopia.com","port":27045,"enabled":true,"region":"us-west","cc":"us","latitude":33.94279,"longitude":-118.41004,"reserved":0,"last_update":"0001-01-01T00:00:00Z","name_a2s":"Uncletopia | Los Angeles | 4 | Stopwatch","protocol":17,"map":"workshop/koth_clearcut_b15.ugc2107050255","folder":"tf","game":"Team Fortress","app_id":440,"player_count":0,"max_players":24,"Bots":0,"server_type":"Dedicated","server_os":"Linux","password":true,"vac":true,"version":"7961495","steam_id":85568392924510199,"keywords":["cp","nocrits","nodmgspread","uncletopia"],"game_id":440,"stv_port":27046,"stv_name":"Uncletopia | Los Angeles | 4 | Stopwatch | STV","players":null},{"server_id":11,"name":"Uncletopia | London | 1 | All Maps","name_short":"lon-1","host":"lon-1.uk.uncletopia.com","port":27015,"enabled":true,"region":"eu","cc":"gb","latitude":51.509865,"longitude":-0.118092,"reserved":0,"last_update":"0001-01-01T00:00:00Z","name_a2s":"Uncletopia | London | 1 | All Maps","protocol":17,"map":"pl_upward","folder":"tf","game":"Team Fortress","app_id":440,"player_count":24,"max_players":24,"Bots":0,"server_type":"Dedicated","server_os":"Linux","password":true,"vac":true,"version":"7961495","steam_id":85568392924367362,"keywords":["nocrits","nodmgspread","payload","uncletopia"],"game_id":440,"stv_port":27016,"stv_name":"Uncletopia | London | 1 | All Maps | STV","players":[{"user_id":63,"name":"murderwow","steam_id":76561198024566944,"connected_time":3029000000000,"state":"active","ping":105},{"user_id":81,"name":"tony","steam_id":76561199382978934,"connected_time":57000000000,"state":"active","ping":77},{"user_id":67,"name":"MeDiciN","steam_id":76561199112280586,"connected_time":2152000000000,"state":"active","ping":138},{"user_id":47,"name":"greek femboy connoisseur","steam_id":76561198010662796,"connected_time":4750000000000,"state":"active","ping":45},{"user_id":77,"name":"Tyren","steam_id":76561198993747516,"connected_time":402000000000,"state":"active","ping":54},{"user_id":49,"name":"Skillet","steam_id":76561197979185972,"connected_time":4283000000000,"state":"active","ping":73},{"user_id":48,"name":"Kolmannen","steam_id":76561198288826376,"connected_time":4318000000000,"state":"active","ping":70},{"user_id":78,"name":"Calve","steam_id":76561198027943437,"connected_time":182000000000,"state":"active","ping":101},{"user_id":76,"name":"Kurt Beyber","steam_id":76561198047207247,"connected_time":758000000000,"state":"active","ping":67},{"user_id":55,"name":"average spy main","steam_id":76561198204491245,"connected_time":3649000000000,"state":"active","ping":151},{"user_id":46,"name":"Whos Me Bloody Valentine","steam_id":76561198046873337,"connected_time":4843000000000,"state":"active","ping":58},{"user_id":71,"name":"im high","steam_id":76561198413275515,"connected_time":1678000000000,"state":"active","ping":96},{"user_id":61,"name":"Lewylow","steam_id":76561198005425686,"connected_time":3210000000000,"state":"active","ping":48},{"user_id":40,"name":"–¥–∏–ª–¥—é–∫","steam_id":76561198397720520,"connected_time":5007000000000,"state":"active","ping":142},{"user_id":70,"name":"the FREAK !!!","steam_id":76561198076219289,"connected_time":1686000000000,"state":"active","ping":59},{"user_id":72,"name":"night.s","steam_id":76561198326287823,"connected_time":1565000000000,"state":"active","ping":74},{"user_id":73,"name":"Neimon","steam_id":76561198343485710,"connected_time":1291000000000,"state":"active","ping":129},{"user_id":66,"name":"jais","steam_id":76561198043801650,"connected_time":2833000000000,"state":"active","ping":170},{"user_id":79,"name":"Catsanddogs123","steam_id":76561198030868386,"connected_time":107000000000,"state":"active","ping":105},{"user_id":39,"name":"Rin-Nakaret","steam_id":76561197971051188,"connected_time":5124000000000,"state":"active","ping":59},{"user_id":41,"name":"dron gandon","steam_id":76561198412922428,"connected_time":4943000000000,"state":"active","ping":150},{"user_id":62,"name":"Mango_Archimedes","steam_id":76561199096635508,"connected_time":3122000000000,"state":"active","ping":57},{"user_id":44,"name":"Fatmagic Mukbang ASMR","steam_id":76561198063492110,"connected_time":4885000000000,"state":"active","ping":79},{"user_id":80,"name":"milo","steam_id":76561198119016918,"connected_time":106000000000,"state":"active","ping":56}]},{"server_id":114,"name":"Uncletopia | London | 2 | All Maps","name_short":"lon-2","host":"lon-1.uk.uncletopia.com","port":27025,"enabled":true,"region":"eu","cc":"gb","latitude":51.509865,"longitude":-0.118092,"reserved":0,"last_update":"0001-01-01T00:00:00Z","name_a2s":"Uncletopia | London | 2 | All Maps","protocol":17,"map":"koth_lakeside_final","folder":"tf","game":"Team Fortress","app_id":440,"player_count":0,"max_players":24,"Bots":0,"server_type":"Dedicated","server_os":"Linux","password":true,"vac":true,"version":"7961495","steam_id":85568392924470941,"keywords":["cp","nocrits","nodmgspread","uncletopia"],"game_id":440,"stv_port":27026,"stv_name":"Uncletopia | London | 2 | All Maps | STV","players":null},{"server_id":320,"name":"Uncletopia | London | 3 | All Maps","name_short":"lon-3","host":"lon-1.uk.uncletopia.com","port":27035,"enabled":true,"region":"eu","cc":"gb","latitude":51.509865,"longitude":-0.118092,"reserved":0,"last_update":"0001-01-01T00:00:00Z","name_a2s":"Uncletopia | London | 3 | All Maps","protocol":17,"map":"cp_process_final","folder":"tf","game":"Team Fortress","app_id":440,"player_count":0,"max_players":24,"Bots":0,"server_type":"Dedicated","server_os":"Linux","password":true,"vac":true,"version":"7961495","steam_id":85568392924510192,"keywords":["cp","nocrits","nodmgspread","uncletopia"],"game_id":440,"stv_port":27036,"stv_name":"Uncletopia | London | 3 | All Maps | STV","players":null},{"server_id":321,"name":"Uncletopia | London | 4 | All Maps","name_short":"lon-4","host":"lon-1.uk.uncletopia.com","port":27045,"enabled":true,"region":"eu","cc":"gb","latitude":51.509865,"longitude":-0.118092,"reserved":0,"last_update":"0001-01-01T00:00:00Z","name_a2s":"Uncletopia | London | 4 | All Maps","protocol":17,"map":"koth_cascade","folder":"tf","game":"Team Fortress","app_id":440,"player_count":0,"max_players":24,"Bots":0,"server_type":"Dedicated","server_os":"Linux","password":true,"vac":true,"version":"7961495","steam_id":85568392924510193,"keywords":["cp","nocrits","nodmgspread","uncletopia"],"game_id":440,"stv_port":27046,"stv_name":"Uncletopia | London | 4 | All Maps | STV","players":null},{"server_id":21,"name":"Uncletopia | London | 5 | All Maps","name_short":"lon-5","host":"lon-1.uk.uncletopia.com","port":27055,"enabled":true,"region":"eu","cc":"gb","latitude":51.509865,"longitude":-0.118092,"reserved":0,"last_update":"0001-01-01T00:00:00Z","name_a2s":"Uncletopia | London | 5 | All Maps","protocol":17,"map":"koth_lakeside_final","folder":"tf","game":"Team Fortress","app_id":440,"player_count":0,"max_players":24,"Bots":0,"server_type":"Dedicated","server_os":"Linux","password":true,"vac":true,"version":"7961495","steam_id":85568392924742829,"keywords":["cp","nocrits","nodmgspread","uncletopia"],"game_id":440,"stv_port":27056,"stv_name":"Uncletopia | London | 5 | All Maps | STV","players":null},{"server_id":22,"name":"Uncletopia | London | 6 | All Maps","name_short":"lon-6","host":"lon-1.uk.uncletopia.com","port":27065,"enabled":true,"region":"eu","cc":"gb","latitude":51.509865,"longitude":-0.118092,"reserved":0,"last_update":"0001-01-01T00:00:00Z","name_a2s":"Uncletopia | London | 6 | All Maps","protocol":17,"map":"cp_dustbowl","folder":"tf","game":"Team Fortress","app_id":440,"player_count":0,"max_players":24,"Bots":0,"server_type":"Dedicated","server_os":"Linux","password":true,"vac":true,"version":"7961495","steam_id":85568392924742830,"keywords":["cp","nocrits","nodmgspread","uncletopia"],"game_id":440,"stv_port":27066,"stv_name":"Uncletopia | London | 6 | All Maps | STV","players":null},{"server_id":40,"name":"Uncletopia | London | 7 | Stopwatch","name_short":"lon-7","host":"lon-1.uk.uncletopia.com","port":27075,"enabled":true,"region":"eu","cc":"gb","latitude":51.509865,"longitude":-0.118092,"reserved":0,"last_update":"0001-01-01T00:00:00Z","name_a2s":"Uncletopia | London | 7 | Stopwatch","protocol":17,"map":"koth_lakeside_final","folder":"tf","game":"Team Fortress","app_id":440,"player_count":0,"max_players":24,"Bots":0,"server_type":"Dedicated","server_os":"Linux","password":true,"vac":true,"version":"7961495","steam_id":85568392924964314,"keywords":["cp","nocrits","nodmgspread","uncletopia"],"game_id":440,"stv_port":27076,"stv_name":"Uncletopia | London | 7 | Stopwatch | STV","players":null},{"server_id":41,"name":"Uncletopia | London | 8 | Community","name_short":"lon-8","host":"lon-1.uk.uncletopia.com","port":27085,"enabled":true,"region":"eu","cc":"gb","latitude":51.509865,"longitude":-0.118092,"reserved":0,"last_update":"0001-01-01T00:00:00Z","name_a2s":"Uncletopia | London | 8 | Community","protocol":17,"map":"cp_snakewater_final1","folder":"tf","game":"Team Fortress","app_id":440,"player_count":0,"max_players":24,"Bots":0,"server_type":"Dedicated","server_os":"Linux","password":true,"vac":true,"version":"7961495","steam_id":85568392924964315,"keywords":["cp","nocrits","nodmgspread","uncletopia"],"game_id":440,"stv_port":27086,"stv_name":"Uncletopia | London | 8 | Community | STV","players":null},{"server_id":300,"name":"Uncletopia | Montr√©al | 1 | One Thousand Uncles","name_short":"mtl-1","host":"mtl-1.ca.uncletopia.com","port":27015,"enabled":true,"region":"us-east","cc":"ca","latitude":45.50889,"longitude":-73.56167,"reserved":0,"last_update":"0001-01-01T00:00:00Z","name_a2s":"","protocol":0,"map":"","folder":"","game":"","app_id":0,"player_count":10,"max_players":0,"Bots":0,"server_type":"","server_os":"","password":false,"vac":false,"version":"","steam_id":0,"keywords":null,"game_id":0,"stv_port":0,"stv_name":"","players":[{"user_id":491,"name":"Ak","steam_id":76561199333659458,"connected_time":8725000000000,"state":"active","ping":58},{"user_id":489,"name":"axe858","steam_id":76561199202247686,"connected_time":9628000000000,"state":"active","ping":46},{"user_id":558,"name":"Torkhum","steam_id":76561198162880748,"connected_time":1103000000000,"state":"active","ping":125},{"user_id":577,"name":"Que-sus-dilla","steam_id":76561198125712564,"connected_time":235000000000,"state":"active","ping":139},{"user_id":559,"name":"C_S_Grey_O","steam_id":76561198448241277,"connected_time":420000000000,"state":"active","ping":151},{"user_id":530,"name":"Zero-Xyfer","steam_id":76561198351621003,"connected_time":5801000000000,"state":"active","ping":75},{"user_id":532,"name":"Nari","steam_id":76561199220038535,"connected_time":5252000000000,"state":"active","ping":66},{"user_id":533,"name":"The Gremlin","steam_id":76561198419066993,"connected_time":4925000000000,"state":"active","ping":123},{"user_id":534,"name":"Cornelius","steam_id":76561198123447388,"connected_time":4909000000000,"state":"active","ping":60},{"user_id":555,"name":"alfoam","steam_id":76561198353067162,"connected_time":2993000000000,"state":"active","ping":44}]},{"server_id":301,"name":"Uncletopia | Montr√©al | 2 | One Thousand Uncles","name_short":"mtl-2","host":"mtl-1.ca.uncletopia.com","port":27025,"enabled":true,"region":"us-east","cc":"ca","latitude":45.50889,"longitude":-73.56167,"reserved":0,"last_update":"0001-01-01T00:00:00Z","name_a2s":"","protocol":0,"map":"","folder":"","game":"","app_id":0,"player_count":0,"max_players":0,"Bots":0,"server_type":"","server_os":"","password":false,"vac":false,"version":"","steam_id":0,"keywords":null,"game_id":0,"stv_port":0,"stv_name":"","players":null},{"server_id":302,"name":"Uncletopia | Montr√©al | 3 | One Thousand Uncles","name_short":"mtl-3","host":"mtl-1.ca.uncletopia.com","port":27035,"enabled":true,"region":"us-east","cc":"ca","latitude":45.50889,"longitude":-73.56167,"reserved":0,"last_update":"0001-01-01T00:00:00Z","name_a2s":"","protocol":0,"map":"","folder":"","game":"","app_id":0,"player_count":0,"max_players":0,"Bots":0,"server_type":"","server_os":"","password":false,"vac":false,"version":"","steam_id":0,"keywords":null,"game_id":0,"stv_port":0,"stv_name":"","players":null},{"server_id":13,"name":"Uncletopia | New York City | 1 | All Maps","name_short":"nyc-1","host":"nyc-1.us.uncletopia.com","port":27015,"enabled":true,"region":"us-east","cc":"us","latitude":40.73061,"longitude":-73.93524,"reserved":0,"last_update":"0001-01-01T00:00:00Z","name_a2s":"Uncletopia | New York City | 1 | All Maps","protocol":17,"map":"koth_lakeside_final","folder":"tf","game":"Team Fortress","app_id":440,"player_count":0,"max_players":24,"Bots":0,"server_type":"Dedicated","server_os":"Linux","password":true,"vac":true,"version":"7961495","steam_id":85568392924469993,"keywords":["cp","nocrits","nodmgspread","uncletopia"],"game_id":440,"stv_port":27016,"stv_name":"Uncletopia | New York City | 1 | All Maps | STV","players":null},{"server_id":14,"name":"Uncletopia | New York City | 2 | All Maps","name_short":"nyc-2","host":"nyc-1.us.uncletopia.com","port":27025,"enabled":true,"region":"us-east","cc":"us","latitude":40.73061,"longitude":-73.93524,"reserved":0,"last_update":"0001-01-01T00:00:00Z","name_a2s":"Uncletopia | New York City | 2 | All Maps","protocol":17,"map":"cp_dustbowl","folder":"tf","game":"Team Fortress","app_id":440,"player_count":0,"max_players":24,"Bots":0,"server_type":"Dedicated","server_os":"Linux","password":true,"vac":true,"version":"7961495","steam_id":85568392924469994,"keywords":["cp","nocrits","nodmgspread","uncletopia"],"game_id":440,"stv_port":27026,"stv_name":"Uncletopia | New York City | 2 | All Maps | STV","players":null},{"server_id":15,"name":"Uncletopia | New York City | 3 | Stopwatch","name_short":"nyc-3","host":"nyc-1.us.uncletopia.com","port":27035,"enabled":true,"region":"us-east","cc":"us","latitude":40.73061,"longitude":-73.93524,"reserved":0,"last_update":"0001-01-01T00:00:00Z","name_a2s":"Uncletopia | New York City | 3 | Stopwatch","protocol":17,"map":"pl_snowycoast","folder":"tf","game":"Team Fortress","app_id":440,"player_count":0,"max_players":24,"Bots":0,"server_type":"Dedicated","server_os":"Linux","password":true,"vac":true,"version":"7961495","steam_id":85568392924742820,"keywords":["nocrits","nodmgspread","payload","uncletopia"],"game_id":440,"stv_port":27036,"stv_name":"Uncletopia | New York City | 3 | Stopwatch | STV","players":null},{"server_id":16,"name":"Uncletopia | New York City | 4 | Community","name_short":"nyc-4","host":"nyc-1.us.uncletopia.com","port":27045,"enabled":true,"region":"us-east","cc":"us","latitude":40.73061,"longitude":-73.93524,"reserved":0,"last_update":"0001-01-01T00:00:00Z","name_a2s":"Uncletopia | New York City | 4 | Community","protocol":17,"map":"workshop/koth_product_final.ugc454272353","folder":"tf","game":"Team Fortress","app_id":440,"player_count":0,"max_players":24,"Bots":0,"server_type":"Dedicated","server_os":"Linux","password":true,"vac":true,"version":"7961495","steam_id":85568392924742821,"keywords":["cp","nocrits","nodmgspread","uncletopia"],"game_id":440,"stv_port":27046,"stv_name":"Uncletopia | New York City | 4 | Community | STV","players":null},{"server_id":142,"name":"Uncletopia | S√£o Paulo | 1 | All Maps","name_short":"sao-1","host":"sao-1.br.uncletopia.com","port":27015,"enabled":true,"region":"sa","cc":"br","latitude":-23.533773,"longitude":-46.62529,"reserved":0,"last_update":"0001-01-01T00:00:00Z","name_a2s":"Uncletopia | S√£o Paulo | 1 | All Maps","protocol":17,"map":"koth_viaduct","folder":"tf","game":"Team Fortress","app_id":440,"player_count":0,"max_players":24,"Bots":0,"server_type":"Dedicated","server_os":"Linux","password":true,"vac":true,"version":"7961495","steam_id":85568392924469996,"keywords":["cp","nocrits","nodmgspread","uncletopia"],"game_id":440,"stv_port":27016,"stv_name":"Uncletopia | S√£o Paulo | 1 | All Maps | STV","players":null},{"server_id":143,"name":"Uncletopia | S√£o Paulo | 2 | Community","name_short":"sao-2","host":"sao-2.br.uncletopia.com","port":27015,"enabled":true,"region":"sa","cc":"br","latitude":-23.533773,"longitude":-46.62529,"reserved":0,"last_update":"0001-01-01T00:00:00Z","name_a2s":"Uncletopia | S√£o Paulo | 2 | Community","protocol":17,"map":"workshop/koth_kemptown_rc1.ugc767410655","folder":"tf","game":"Team Fortress","app_id":440,"player_count":0,"max_players":24,"Bots":0,"server_type":"Dedicated","server_os":"Linux","password":true,"vac":true,"version":"7961495","steam_id":85568392924485349,"keywords":["cp","nocrits","nodmgspread","uncletopia"],"game_id":440,"stv_port":27016,"stv_name":"Uncletopia | S√£o Paulo | 2 | Community | STV","players":null},{"server_id":7,"name":"Uncletopia | Seattle | 1 | All Maps","name_short":"sea-1","host":"sea-1.us.uncletopia.com","port":27015,"enabled":true,"region":"us-west","cc":"us","latitude":47.608013,"longitude":-122.33517,"reserved":0,"last_update":"0001-01-01T00:00:00Z","name_a2s":"Uncletopia | Seattle | 1 | All Maps","protocol":17,"map":"pl_thundermountain","folder":"tf","game":"Team Fortress","app_id":440,"player_count":24,"max_players":24,"Bots":0,"server_type":"Dedicated","server_os":"Linux","password":true,"vac":true,"version":"7961495","steam_id":85568392924469997,"keywords":["nocrits","nodmgspread","payload","uncletopia"],"game_id":440,"stv_port":27016,"stv_name":"Uncletopia | Seattle | 1 | All Maps | STV","players":[{"user_id":485,"name":"S(Cant find an LA server)","steam_id":76561198998440538,"connected_time":294000000000,"state":"active","ping":90},{"user_id":466,"name":"And The Radio Up","steam_id":76561198405865400,"connected_time":2602000000000,"state":"active","ping":90},{"user_id":419,"name":"Lord Hater","steam_id":76561199158148782,"connected_time":7152000000000,"state":"active","ping":57},{"user_id":443,"name":"lasky","steam_id":76561198017030029,"connected_time":4728000000000,"state":"active","ping":71},{"user_id":469,"name":"Lord Fortnite","steam_id":76561198246800264,"connected_time":1583000000000,"state":"active","ping":44},{"user_id":472,"name":"Hawksgamer","steam_id":76561198152405941,"connected_time":1547000000000,"state":"active","ping":43},{"user_id":477,"name":"Conseq","steam_id":76561198335652179,"connected_time":955000000000,"state":"active","ping":48},{"user_id":453,"name":"Nom Skirrett","steam_id":76561198014600788,"connected_time":3032000000000,"state":"active","ping":60},{"user_id":428,"name":"Havi","steam_id":76561198197832829,"connected_time":6262000000000,"state":"active","ping":46},{"user_id":468,"name":"Mr8bittripper","steam_id":76561198133894229,"connected_time":1742000000000,"state":"active","ping":72},{"user_id":467,"name":"Henchie!","steam_id":76561198047567464,"connected_time":2141000000000,"state":"active","ping":88},{"user_id":441,"name":"gorlab","steam_id":76561198025089694,"connected_time":4891000000000,"state":"active","ping":67},{"user_id":478,"name":"Timemx63","steam_id":76561198062377543,"connected_time":900000000000,"state":"active","ping":40},{"user_id":471,"name":"Banette","steam_id":76561198215458333,"connected_time":1570000000000,"state":"active","ping":47},{"user_id":483,"name":"hart","steam_id":76561198046073848,"connected_time":760000000000,"state":"active","ping":47},{"user_id":484,"name":"JOHN WICK","steam_id":76561198091877422,"connected_time":449000000000,"state":"active","ping":54},{"user_id":448,"name":"TROY","steam_id":76561197983852176,"connected_time":3447000000000,"state":"active","ping":86},{"user_id":480,"name":"Common","steam_id":76561198041083863,"connected_time":874000000000,"state":"active","ping":56},{"user_id":388,"name":"Donny Q","steam_id":76561198020901703,"connected_time":9154000000000,"state":"active","ping":47},{"user_id":449,"name":"Grill Skills","steam_id":76561198053575147,"connected_time":3441000000000,"state":"active","ping":49},{"user_id":431,"name":"rat gets the cheese","steam_id":76561198031234032,"connected_time":5186000000000,"state":"active","ping":92},{"user_id":481,"name":"Cam","steam_id":76561198285054047,"connected_time":869000000000,"state":"active","ping":63},{"user_id":476,"name":"Sniff","steam_id":76561198010270922,"connected_time":1450000000000,"state":"active","ping":98},{"user_id":489,"name":"graN39","steam_id":76561198207235216,"connected_time":82000000000,"state":"active","ping":57}]},{"server_id":119,"name":"Uncletopia | Seattle | 2 | All Maps","name_short":"sea-2","host":"sea-1.us.uncletopia.com","port":27025,"enabled":true,"region":"us-west","cc":"us","latitude":47.608013,"longitude":-122.33517,"reserved":0,"last_update":"0001-01-01T00:00:00Z","name_a2s":"Uncletopia | Seattle | 2 | All Maps","protocol":17,"map":"pl_pier","folder":"tf","game":"Team Fortress","app_id":440,"player_count":20,"max_players":24,"Bots":0,"server_type":"Dedicated","server_os":"Linux","password":true,"vac":true,"version":"7961495","steam_id":85568392924469998,"keywords":["nocrits","nodmgspread","payload","uncletopia"],"game_id":440,"stv_port":27026,"stv_name":"Uncletopia | Seattle | 2 | All Maps | STV","players":[{"user_id":1008,"name":"Major_Pippy","steam_id":76561198004482878,"connected_time":209000000000,"state":"active","ping":28},{"user_id":993,"name":"Cr0w!","steam_id":76561198178437265,"connected_time":915000000000,"state":"active","ping":47},{"user_id":1007,"name":"‚ô•CharaÂñúÁîüÂ≠ê‚ô•","steam_id":76561198080500920,"connected_time":231000000000,"state":"active","ping":85},{"user_id":1013,"name":"Keamy","steam_id":76561199471434875,"connected_time":60000000000,"state":"active","ping":31},{"user_id":790,"name":"gyat","steam_id":76561198043684960,"connected_time":15459000000000,"state":"active","ping":110},{"user_id":1009,"name":"Micc","steam_id":76561199447744486,"connected_time":203000000000,"state":"active","ping":72},{"user_id":1001,"name":"JustaTroll","steam_id":76561198351004116,"connected_time":857000000000,"state":"active","ping":78},{"user_id":998,"name":"love sosa","steam_id":76561198345528370,"connected_time":891000000000,"state":"active","ping":59},{"user_id":951,"name":"CometDrg0n_(he/him)","steam_id":76561198175713051,"connected_time":5005000000000,"state":"active","ping":35},{"user_id":1005,"name":"luc","steam_id":76561198093883448,"connected_time":471000000000,"state":"active","ping":45},{"user_id":990,"name":"robbiebelcher08","steam_id":76561199474716496,"connected_time":1925000000000,"state":"active","ping":70},{"user_id":1006,"name":"Sgt Autmn","steam_id":76561198072047939,"connected_time":451000000000,"state":"active","ping":50},{"user_id":953,"name":"ElectronX","steam_id":76561198116034988,"connected_time":4983000000000,"state":"active","ping":63},{"user_id":1002,"name":"Villchip","steam_id":76561198198599982,"connected_time":819000000000,"state":"active","ping":46},{"user_id":981,"name":"Wiggs is the Shiggs","steam_id":76561198078379719,"connected_time":3295000000000,"state":"active","ping":89},{"user_id":992,"name":"Pouty","steam_id":76561198163313089,"connected_time":1540000000000,"state":"active","ping":45},{"user_id":995,"name":"jadene11","steam_id":76561199369221113,"connected_time":914000000000,"state":"active","ping":76},{"user_id":1012,"name":"Polar","steam_id":76561198055781237,"connected_time":85000000000,"state":"active","ping":41},{"user_id":1010,"name":"CookieMeister","steam_id":76561198112646899,"connected_time":175000000000,"state":"active","ping":47},{"user_id":971,"name":"top 10 sidewalks","steam_id":76561198844273999,"connected_time":3808000000000,"state":"active","ping":42}]},{"server_id":406,"name":"Uncletopia | Seattle | 3 | Stopwatch","name_short":"sea-3","host":"sea-1.us.uncletopia.com","port":27035,"enabled":true,"region":"us-west","cc":"us","latitude":47.608013,"longitude":-122.33517,"reserved":0,"last_update":"0001-01-01T00:00:00Z","name_a2s":"Uncletopia | Seattle | 3 | Stopwatch","protocol":17,"map":"workshop/koth_ramjam_rc1.ugc459778887","folder":"tf","game":"Team Fortress","app_id":440,"player_count":0,"max_players":24,"Bots":0,"server_type":"Dedicated","server_os":"Linux","password":true,"vac":true,"version":"7961495","steam_id":85568392924515217,"keywords":["cp","nocrits","nodmgspread","uncletopia"],"game_id":440,"stv_port":27036,"stv_name":"Uncletopia | Seattle | 3 | Stopwatch | STV","players":null},{"server_id":17,"name":"Uncletopia | San Francisco | 1 | All Maps","name_short":"sfo-1","host":"sfo-1.us.uncletopia.com","port":27015,"enabled":true,"region":"us-west","cc":"us","latitude":37.77397,"longitude":-122.4313,"reserved":0,"last_update":"0001-01-01T00:00:00Z","name_a2s":"Uncletopia | San Francisco | 1 | All Maps","protocol":17,"map":"koth_cascade","folder":"tf","game":"Team Fortress","app_id":440,"player_count":0,"max_players":24,"Bots":0,"server_type":"Dedicated","server_os":"Linux","password":true,"vac":true,"version":"7961495","steam_id":85568392924469999,"keywords":["cp","nocrits","nodmgspread","uncletopia"],"game_id":440,"stv_port":27016,"stv_name":"Uncletopia | San Francisco | 1 | All Maps | STV","players":null},{"server_id":18,"name":"Uncletopia | San Francisco | 2 | All Maps","name_short":"sfo-2","host":"sfo-1.us.uncletopia.com","port":27025,"enabled":true,"region":"us-west","cc":"us","latitude":37.77397,"longitude":-122.4313,"reserved":0,"last_update":"0001-01-01T00:00:00Z","name_a2s":"Uncletopia | San Francisco | 2 | All Maps","protocol":17,"map":"cp_snakewater_final1","folder":"tf","game":"Team Fortress","app_id":440,"player_count":0,"max_players":24,"Bots":0,"server_type":"Dedicated","server_os":"Linux","password":true,"vac":true,"version":"7961495","steam_id":85568392924470000,"keywords":["cp","nocrits","nodmgspread","uncletopia"],"game_id":440,"stv_port":27026,"stv_name":"Uncletopia | San Francisco | 2 | All Maps | STV","players":null},{"server_id":19,"name":"Uncletopia | San Francisco | 3 | Stopwatch","name_short":"sfo-3","host":"sfo-1.us.uncletopia.com","port":27035,"enabled":true,"region":"us-west","cc":"us","latitude":37.77397,"longitude":-122.4313,"reserved":0,"last_update":"0001-01-01T00:00:00Z","name_a2s":"Uncletopia | San Francisco | 3 | Stopwatch","protocol":17,"map":"cp_snakewater_final1","folder":"tf","game":"Team Fortress","app_id":440,"player_count":0,"max_players":24,"Bots":0,"server_type":"Dedicated","server_os":"Linux","password":true,"vac":true,"version":"7961495","steam_id":85568392924742824,"keywords":["cp","nocrits","nodmgspread","uncletopia"],"game_id":440,"stv_port":27036,"stv_name":"Uncletopia | San Francisco | 3 | Stopwatch | STV","players":null},{"server_id":20,"name":"Uncletopia | San Francisco | 4 | Community","name_short":"sfo-4","host":"sfo-1.us.uncletopia.com","port":27045,"enabled":true,"region":"us-west","cc":"us","latitude":37.77397,"longitude":-122.4313,"reserved":0,"last_update":"0001-01-01T00:00:00Z","name_a2s":"Uncletopia | San Francisco | 4 | Community","protocol":17,"map":"workshop/koth_ashville_final.ugc2130459942","folder":"tf","game":"Team Fortress","app_id":440,"player_count":0,"max_players":24,"Bots":0,"server_type":"Dedicated","server_os":"Linux","password":true,"vac":true,"version":"7961495","steam_id":85568392924742826,"keywords":["cp","nocrits","nodmgspread","uncletopia"],"game_id":440,"stv_port":27046,"stv_name":"Uncletopia | San Francisco | 4 | Community | STV","players":null},{"server_id":141,"name":"Uncletopia | Sydney | 1 | All Maps","name_short":"syd-1","host":"syd-1.au.uncletopia.com","port":27015,"enabled":true,"region":"au","cc":"au","latitude":-33.865143,"longitude":151.2099,"reserved":0,"last_update":"0001-01-01T00:00:00Z","name_a2s":"Uncletopia | Sydney | 1 | All Maps","protocol":17,"map":"koth_viaduct","folder":"tf","game":"Team Fortress","app_id":440,"player_count":24,"max_players":24,"Bots":0,"server_type":"Dedicated","server_os":"Linux","password":true,"vac":true,"version":"7961495","steam_id":85568392924470001,"keywords":["cp","nocrits","nodmgspread","uncletopia"],"game_id":440,"stv_port":27016,"stv_name":"Uncletopia | Sydney | 1 | All Maps | STV","players":[{"user_id":203,"name":"Gas Passer (sliced toast)","steam_id":76561199220276252,"connected_time":961000000000,"state":"active","ping":69},{"user_id":197,"name":"Glassy-Eyed Automaton Exploitin","steam_id":76561198072845816,"connected_time":1474000000000,"state":"active","ping":45},{"user_id":215,"name":"P. Ness (Length/Girth)","steam_id":76561198037664265,"connected_time":344000000000,"state":"active","ping":54},{"user_id":184,"name":"you can lead a Horace to water","steam_id":76561198301282416,"connected_time":2678000000000,"state":"active","ping":51},{"user_id":94,"name":"MAYHEM","steam_id":76561199323730865,"connected_time":8217000000000,"state":"active","ping":43},{"user_id":183,"name":"young thug disciple","steam_id":76561198046239819,"connected_time":2745000000000,"state":"active","ping":84},{"user_id":163,"name":"POLTERGUY","steam_id":76561199066712046,"connected_time":3406000000000,"state":"active","ping":51},{"user_id":116,"name":"h20","steam_id":76561198133490050,"connected_time":6635000000000,"state":"active","ping":66},{"user_id":179,"name":"Attling","steam_id":76561198087595494,"connected_time":2931000000000,"state":"active","ping":39},{"user_id":196,"name":"fart simulator 2013","steam_id":76561198166909147,"connected_time":1481000000000,"state":"active","ping":37},{"user_id":175,"name":"Zeal","steam_id":76561198060829393,"connected_time":2962000000000,"state":"active","ping":64},{"user_id":210,"name":"no teles 4 u","steam_id":76561198018478297,"connected_time":578000000000,"state":"active","ping":75},{"user_id":165,"name":"Joy in A Box","steam_id":76561198156820753,"connected_time":3394000000000,"state":"active","ping":163},{"user_id":208,"name":"Penguinator5000","steam_id":76561198038183553,"connected_time":840000000000,"state":"active","ping":56},{"user_id":186,"name":"I suspect... worms","steam_id":76561198060024585,"connected_time":2499000000000,"state":"active","ping":42},{"user_id":193,"name":"CypressFluff (she/her)","steam_id":76561198174667818,"connected_time":1927000000000,"state":"active","ping":66},{"user_id":216,"name":"Woopdycow","steam_id":76561198008975606,"connected_time":286000000000,"state":"active","ping":68},{"user_id":195,"name":"trooper","steam_id":76561198141570304,"connected_time":1507000000000,"state":"active","ping":59},{"user_id":198,"name":"Orewell","steam_id":76561198013119116,"connected_time":1471000000000,"state":"active","ping":73},{"user_id":200,"name":"11/10 would cook spider again","steam_id":76561198285714724,"connected_time":1329000000000,"state":"active","ping":60},{"user_id":190,"name":"MINI S.","steam_id":76561198116179875,"connected_time":2203000000000,"state":"active","ping":125},{"user_id":219,"name":"TheEarlofSandvich","steam_id":76561199021137854,"connected_time":254000000000,"state":"active","ping":54},{"user_id":206,"name":"Carpark (not deodorenting)","steam_id":76561198137128594,"connected_time":921000000000,"state":"active","ping":55},{"user_id":213,"name":"riverdrift","steam_id":76561198012251972,"connected_time":574000000000,"state":"active","ping":56}]},{"server_id":123,"name":"Uncletopia | Sydney | 2 | All Maps","name_short":"syd-2","host":"syd-1.au.uncletopia.com","port":27025,"enabled":true,"region":"au","cc":"au","latitude":-33.865143,"longitude":151.2099,"reserved":0,"last_update":"0001-01-01T00:00:00Z","name_a2s":"Uncletopia | Sydney | 2 | All Maps","protocol":17,"map":"koth_lakeside_final","folder":"tf","game":"Team Fortress","app_id":440,"player_count":1,"max_players":24,"Bots":0,"server_type":"Dedicated","server_os":"Linux","password":true,"vac":true,"version":"7961495","steam_id":85568392924470002,"keywords":["cp","nocrits","nodmgspread","uncletopia"],"game_id":440,"stv_port":27026,"stv_name":"Uncletopia | Sydney | 2 | All Maps | STV","players":[{"user_id":14,"name":"Wombon","steam_id":76561198071323879,"connected_time":106000000000,"state":"active","ping":66}]},{"server_id":395,"name":"Uncletopia | Sydney | 3 | All Maps","name_short":"syd-3","host":"syd-1.au.uncletopia.com","port":27035,"enabled":true,"region":"au","cc":"au","latitude":-33.865143,"longitude":151.2099,"reserved":0,"last_update":"0001-01-01T00:00:00Z","name_a2s":"Uncletopia | Sydney | 3 | All Maps","protocol":17,"map":"pl_pier","folder":"tf","game":"Team Fortress","app_id":440,"player_count":0,"max_players":24,"Bots":0,"server_type":"Dedicated","server_os":"Linux","password":true,"vac":true,"version":"7961495","steam_id":85568392925194467,"keywords":["nocrits","nodmgspread","payload","uncletopia"],"game_id":440,"stv_port":27036,"stv_name":"Uncletopia | Sydney | 3 | All Maps | STV","players":null},{"server_id":396,"name":"Uncletopia | Sydney | 4 | All Maps","name_short":"syd-4","host":"syd-1.au.uncletopia.com","port":27045,"enabled":true,"region":"au","cc":"au","latitude":-33.865143,"longitude":151.2099,"reserved":0,"last_update":"0001-01-01T00:00:00Z","name_a2s":"Uncletopia | Sydney | 4 | All Maps","protocol":17,"map":"cp_process_final","folder":"tf","game":"Team Fortress","app_id":440,"player_count":0,"max_players":24,"Bots":0,"server_type":"Dedicated","server_os":"Linux","password":true,"vac":true,"version":"7961495","steam_id":85568392925397958,"keywords":["cp","nocrits","nodmgspread","uncletopia"],"game_id":440,"stv_port":27046,"stv_name":"Uncletopia | Sydney | 4 | All Maps | STV","players":null},{"server_id":58,"name":"Uncletopia | Sydney | 5 | Stopwatch","name_short":"syd-5","host":"syd-1.au.uncletopia.com","port":27055,"enabled":true,"region":"au","cc":"au","latitude":-33.865143,"longitude":151.2099,"reserved":0,"last_update":"0001-01-01T00:00:00Z","name_a2s":"Uncletopia | Sydney | 5 | Stopwatch","protocol":17,"map":"pl_frontier_final","folder":"tf","game":"Team Fortress","app_id":440,"player_count":0,"max_players":24,"Bots":0,"server_type":"Dedicated","server_os":"Linux","password":true,"vac":true,"version":"7961495","steam_id":85568392925397959,"keywords":["nocrits","nodmgspread","payload","uncletopia"],"game_id":440,"stv_port":27056,"stv_name":"Uncletopia | Sydney | 5 | Stopwatch | STV","players":null},{"server_id":59,"name":"Uncletopia | Sydney | 6 | Community","name_short":"syd-6","host":"syd-1.au.uncletopia.com","port":27065,"enabled":true,"region":"au","cc":"au","latitude":-33.865143,"longitude":151.2099,"reserved":0,"last_update":"0001-01-01T00:00:00Z","name_a2s":"Uncletopia | Sydney | 6 | Community","protocol":17,"map":"workshop/pl_corrode_rc2.ugc546577989","folder":"tf","game":"Team Fortress","app_id":440,"player_count":0,"max_players":24,"Bots":0,"server_type":"Dedicated","server_os":"Linux","password":true,"vac":true,"version":"7961495","steam_id":85568392925397960,"keywords":["nocrits","nodmgspread","payload","uncletopia"],"game_id":440,"stv_port":27066,"stv_name":"Uncletopia | Sydney | 6 | Community | STV","players":null},{"server_id":49,"name":"Uncletopia | Warsaw | 1 | One Thousand Uncles","name_short":"waw-1","host":"waw-1.pl.uncletopia.com","port":27015,"enabled":true,"region":"eu","cc":"pl","latitude":52.2297,"longitude":21.017532,"reserved":0,"last_update":"0001-01-01T00:00:00Z","name_a2s":"Uncletopia | Warsaw | 1 | One Thousand Uncles","protocol":17,"map":"cp_dustbowl","folder":"tf","game":"Team Fortress","app_id":440,"player_count":25,"max_players":32,"Bots":16,"server_type":"Dedicated","server_os":"Linux","password":true,"vac":true,"version":"7961495","steam_id":85568392925397850,"keywords":["alltalk","bots","cp","danepve","increased_maxplayers","nocrits","norespawntime","uncletopia"],"game_id":440,"stv_port":0,"stv_name":"","players":[{"user_id":43,"name":"‚ô•‚ô•TGA‚ô•‚ô•","steam_id":76561198853016656,"connected_time":1660000000000,"state":"active","ping":60},{"user_id":44,"name":"mark.pridalko","steam_id":76561199178348857,"connected_time":1173000000000,"state":"active","ping":88},{"user_id":21,"name":"teh epic duck","steam_id":76561199093375505,"connected_time":4540000000000,"state":"active","ping":125},{"user_id":25,"name":"asac schrader","steam_id":76561198166721635,"connected_time":2789000000000,"state":"active","ping":158},{"user_id":48,"name":"cosmetical","steam_id":76561198444036574,"connected_time":371000000000,"state":"active","ping":71},{"user_id":45,"name":"Kotlet schabowy","steam_id":76561198048983509,"connected_time":1168000000000,"state":"active","ping":43},{"user_id":46,"name":"Janekowskii","steam_id":76561199131053042,"connected_time":973000000000,"state":"active","ping":44},{"user_id":49,"name":"clubmate v nosu","steam_id":76561199185525063,"connected_time":159000000000,"state":"active","ping":68},{"user_id":50,"name":"cof","steam_id":76561199128417805,"connected_time":27000000000,"state":"spawning","ping":71}]},{"server_id":50,"name":"Uncletopia | Warsaw | 2 | One Thousand Uncles","name_short":"waw-2","host":"waw-1.pl.uncletopia.com","port":27025,"enabled":true,"region":"eu","cc":"pl","latitude":52.2297,"longitude":21.017532,"reserved":0,"last_update":"0001-01-01T00:00:00Z","name_a2s":"Uncletopia | Warsaw | 2 | One Thousand Uncles","protocol":17,"map":"pl_goldrush","folder":"tf","game":"Team Fortress","app_id":440,"player_count":0,"max_players":32,"Bots":0,"server_type":"Dedicated","server_os":"Linux","password":true,"vac":true,"version":"7961495","steam_id":85568392925397851,"keywords":["alltalk","danepve","increased_maxplayers","nocrits","norespawntime","payload","uncletopia"],"game_id":440,"stv_port":0,"stv_name":"","players":null},{"server_id":51,"name":"Uncletopia | Warsaw | 3 | All Maps","name_short":"waw-3","host":"waw-1.pl.uncletopia.com","port":27035,"enabled":true,"region":"eu","cc":"pl","latitude":52.2297,"longitude":21.017532,"reserved":0,"last_update":"0001-01-01T00:00:00Z","name_a2s":"Uncletopia | Warsaw | 3 | All Maps","protocol":17,"map":"plr_pipeline","folder":"tf","game":"Team Fortress","app_id":440,"player_count":0,"max_players":24,"Bots":0,"server_type":"Dedicated","server_os":"Linux","password":true,"vac":true,"version":"7961495","steam_id":85568392925397852,"keywords":["nocrits","nodmgspread","payload","uncletopia"],"game_id":440,"stv_port":27036,"stv_name":"Uncletopia | Warsaw | 3 | All Maps | STV","players":null},{"server_id":52,"name":"Uncletopia | Warsaw | 4 | All Maps","name_short":"waw-4","host":"waw-1.pl.uncletopia.com","port":27045,"enabled":true,"region":"eu","cc":"pl","latitude":52.2297,"longitude":21.017532,"reserved":0,"last_update":"0001-01-01T00:00:00Z","name_a2s":"Uncletopia | Warsaw | 4 | All Maps","protocol":17,"map":"cp_coldfront","folder":"tf","game":"Team Fortress","app_id":440,"player_count":0,"max_players":24,"Bots":0,"server_type":"Dedicated","server_os":"Linux","password":true,"vac":true,"version":"7961495","steam_id":85568392925397853,"keywords":["cp","nocrits","nodmgspread","uncletopia"],"game_id":440,"stv_port":27046,"stv_name":"Uncletopia | Warsaw | 4 | All Maps | STV","players":null},{"server_id":53,"name":"Uncletopia | Warsaw | 5 | Stopwatch","name_short":"waw-5","host":"waw-1.pl.uncletopia.com","port":27055,"enabled":true,"region":"eu","cc":"pl","latitude":52.2297,"longitude":21.017532,"reserved":0,"last_update":"0001-01-01T00:00:00Z","name_a2s":"Uncletopia | Warsaw | 5 | Stopwatch","protocol":17,"map":"workshop/koth_bagel_rc6.ugc2514036946","folder":"tf","game":"Team Fortress","app_id":440,"player_count":0,"max_players":24,"Bots":0,"server_type":"Dedicated","server_os":"Linux","password":true,"vac":true,"version":"7961495","steam_id":85568392925397854,"keywords":["cp","nocrits","nodmgspread","uncletopia"],"game_id":440,"stv_port":27056,"stv_name":"Uncletopia | Warsaw | 5 | Stopwatch | STV","players":null},{"server_id":54,"name":"Uncletopia | Warsaw | 6 | Community","name_short":"waw-6","host":"waw-1.pl.uncletopia.com","port":27065,"enabled":true,"region":"eu","cc":"pl","latitude":52.2297,"longitude":21.017532,"reserved":0,"last_update":"0001-01-01T00:00:00Z","name_a2s":"Uncletopia | Warsaw | 6 | Community","protocol":17,"map":"workshop/pl_badwater_pro_v12.ugc2142942074","folder":"tf","game":"Team Fortress","app_id":440,"player_count":0,"max_players":24,"Bots":0,"server_type":"Dedicated","server_os":"Linux","password":true,"vac":true,"version":"7961495","steam_id":85568392925397856,"keywords":["nocrits","nodmgspread","payload","uncletopia"],"game_id":440,"stv_port":27066,"stv_name":"Uncletopia | Warsaw | 6 | Community | STV","players":null}]}