{"status":true,"message":"","result":[{"server_id":9,"name":"Uncletopia | Atlanta | 1 | All Maps","name_short":"atl-1","host":"atl-1.us.uncletopia.com","port":27015,"enabled":true,"region":"us-east","cc":"us","latitude":33.753746,"longitude":-84.38633,"reserved":0,"last_update":"0001-01-01T00:00:00Z","name_a2s":"Uncletopia | Atlanta | 1 | All Maps","protocol":17,"map":"koth_viaduct","folder":"tf","game":"Team Fortress","app_id":440,"player_count":0,"max_players":24,"Bots":0,"server_type":"Dedicated","server_os":"Linux","password":true,"vac":true,"version":"7757534","steam_id":85568392924469982,"keywords":["cp","nocrits","nodmgspread","uncletopia"],"game_id":440,"stv_port":27016,"stv_name":"Uncletopia | Atlanta | 1 | All Maps | STV","players":null},{"server_id":400,"name":"Uncletopia | Atlanta | 3 | Stopwatch Beta","name_short":"atl-3","host":"atl-1.us.uncletopia.com","port":27035,"enabled":true,"region":"us-east","cc":"us","latitude":33.753746,"longitude":-84.38633,"reserved":0,"last_update":"0001-01-01T00:00:00Z","name_a2s":"Uncletopia | Atlanta | 3 | Stopwatch Beta","protocol":17,"map":"koth_lakeside_final","folder":"tf","game":"Team Fortress","app_id":440,"player_count":0,"max_players":24,"Bots":0,"server_type":"Dedicated","server_os":"Linux","password":true,"vac":true,"version":"7757534","steam_id":85568392924515187,"keywords":["cp","nocrits","nodmgspread","uncletopia"],"game_id":440,"stv_port":27036,"stv_name":"Uncletopia | Atlanta | 3 | Stopwatch Beta | STV","players":null},{"server_id":401,"name":"Uncletopia | Atlanta | 4 | No Payload","name_short":"atl-4","host":"atl-1.us.uncletopia.com","port":27045,"enabled":true,"region":"us-east","cc":"us","latitude":33.753746,"longitude":-84.38633,"reserved":0,"last_update":"0001-01-01T00:00:00Z","name_a2s":"Uncletopia | Atlanta | 4 | No Payload","protocol":17,"map":"pl_pier","folder":"tf","game":"Team Fortress","app_id":440,"player_count":0,"max_players":24,"Bots":0,"server_type":"Dedicated","server_os":"Linux","password":true,"vac":true,"version":"7723704","steam_id":85568392924515188,"keywords":["nocrits","nodmgspread","payload","uncletopia"],"game_id":440,"stv_port":27046,"stv_name":"Uncletopia | Atlanta | 4 | No Payload | STV","players":null},{"server_id":2,"name":"Uncletopia | Chicago | 1 | All Maps","name_short":"chi-1","host":"chi-1.us.uncletopia.com","port":27015,"enabled":true,"region":"us-central","cc":"us","latitude":41.881832,"longitude":-87.62318,"reserved":0,"last_update":"0001-01-01T00:00:00Z","name_a2s":"Uncletopia | Chicago | 1 | All Maps","protocol":17,"map":"pl_borneo","folder":"tf","game":"Team Fortress","app_id":440,"player_count":0,"max_players":24,"Bots":0,"server_type":"Dedicated","server_os":"Linux","password":true,"vac":true,"version":"7757534","steam_id":85568392924469984,"keywords":["nocrits","nodmgspread","payload","uncletopia"],"game_id":440,"stv_port":27016,"stv_name":"Uncletopia | Chicago | 1 | All Maps | STV","players":null},{"server_id":106,"name":"Uncletopia | Chicago | 2 | All Maps","name_short":"chi-2","host":"chi-1.us.uncletopia.com","port":27025,"enabled":true,"region":"us-central","cc":"us","latitude":41.881832,"longitude":-87.62318,"reserved":0,"last_update":"0001-01-01T00:00:00Z","name_a2s":"Uncletopia | Chicago | 2 | All Maps","protocol":17,"map":"cp_process_final","folder":"tf","game":"Team Fortress","app_id":440,"player_count":19,"max_players":24,"Bots":0,"server_type":"Dedicated","server_os":"Linux","password":true,"vac":true,"version":"7757534","steam_id":85568392924469985,"keywords":["cp","nocrits","nodmgspread","uncletopia"],"game_id":440,"stv_port":27026,"stv_name":"Uncletopia | Chicago | 2 | All Maps | STV","players":[{"user_id":995,"name":"Spha","steam_id":76561198796297800,"connected_time":5672000000000,"state":"active","ping":91},{"user_id":996,"name":"b.net queue waiter","steam_id":76561197968787431,"connected_time":5656000000000,"state":"active","ping":92},{"user_id":1021,"name":"Ferioth","steam_id":76561197997993090,"connected_time":4301000000000,"state":"active","ping":63},{"user_id":1059,"name":"_DrunkenGibberish_","steam_id":76561199123070071,"connected_time":101000000000,"state":"active","ping":111},{"user_id":983,"name":"admiralmonk","steam_id":76561198845021470,"connected_time":5880000000000,"state":"active","ping":55},{"user_id":1057,"name":"jmsssss","steam_id":76561198122043365,"connected_time":160000000000,"state":"active","ping":104},{"user_id":1058,"name":"Appa","steam_id":76561198110449520,"connected_time":137000000000,"state":"active","ping":75},{"user_id":1060,"name":"King of the birds","steam_id":76561198891152046,"connected_time":70000000000,"state":"active","ping":97},{"user_id":1061,"name":"cowabunga!","steam_id":76561198361326855,"connected_time":66000000000,"state":"active","ping":51},{"user_id":1063,"name":"Tsukumojuku","steam_id":76561198307286285,"connected_time":35000000000,"state":"spawning","ping":77},{"user_id":1024,"name":"Divio","steam_id":76561197995200088,"connected_time":4152000000000,"state":"active","ping":60},{"user_id":1023,"name":"punishing bird","steam_id":76561198447797146,"connected_time":4235000000000,"state":"active","ping":69},{"user_id":1054,"name":":)","steam_id":76561198093921290,"connected_time":270000000000,"state":"active","ping":45},{"user_id":1050,"name":"Haula","steam_id":76561198076586592,"connected_time":1557000000000,"state":"active","ping":77},{"user_id":1027,"name":"Pixel","steam_id":76561198124051116,"connected_time":4119000000000,"state":"active","ping":60},{"user_id":1007,"name":"Yachenko","steam_id":76561198155929579,"connected_time":5231000000000,"state":"active","ping":85},{"user_id":1008,"name":"slayre","steam_id":76561199011493399,"connected_time":5224000000000,"state":"active","ping":104},{"user_id":1029,"name":"Lex@Pr0","steam_id":76561198102681457,"connected_time":4003000000000,"state":"active","ping":73},{"user_id":1046,"name":"|AG| Level","steam_id":76561198063633592,"connected_time":1929000000000,"state":"active","ping":73}]},{"server_id":402,"name":"Uncletopia | Chicago | 3 | All Maps","name_short":"chi-3","host":"chi-1.us.uncletopia.com","port":27035,"enabled":true,"region":"us-central","cc":"us","latitude":41.881832,"longitude":-87.62318,"reserved":0,"last_update":"0001-01-01T00:00:00Z","name_a2s":"Uncletopia | Chicago | 3 | All Maps","protocol":17,"map":"cp_dustbowl","folder":"tf","game":"Team Fortress","app_id":440,"player_count":0,"max_players":24,"Bots":0,"server_type":"Dedicated","server_os":"Linux","password":true,"vac":true,"version":"7757534","steam_id":85568392924515191,"keywords":["cp","nocrits","nodmgspread","uncletopia"],"game_id":440,"stv_port":27036,"stv_name":"Uncletopia | Chicago | 3 | All Maps | STV","players":null},{"server_id":403,"name":"Uncletopia | Chicago | 4 | All Maps","name_short":"chi-4","host":"chi-1.us.uncletopia.com","port":27045,"enabled":true,"region":"us-central","cc":"us","latitude":41.881832,"longitude":-87.62318,"reserved":0,"last_update":"0001-01-01T00:00:00Z","name_a2s":"Uncletopia | Chicago | 4 | All Maps","protocol":17,"map":"pl_pier","folder":"tf","game":"Team Fortress","app_id":440,"player_count":22,"max_players":24,"Bots":0,"server_type":"Dedicated","server_os":"Linux","password":true,"vac":true,"version":"7757534","steam_id":85568392924515193,"keywords":["nocrits","nodmgspread","payload","uncletopia"],"game_id":440,"stv_port":27046,"stv_name":"Uncletopia | Chicago | 4 | All Maps | STV","players":[{"user_id":620,"name":"cereaI","steam_id":76561198066929519,"connected_time":1252000000000,"state":"active","ping":73},{"user_id":633,"name":"alexwasherefirst","steam_id":76561198846755124,"connected_time":605000000000,"state":"active","ping":116},{"user_id":643,"name":"crouton.net","steam_id":76561198068374646,"connected_time":281000000000,"state":"active","ping":89},{"user_id":512,"name":"NovaSc6ut","steam_id":76561198277163301,"connected_time":10893000000000,"state":"active","ping":69},{"user_id":592,"name":"irreversible reboot","steam_id":76561198309823950,"connected_time":4319000000000,"state":"active","ping":85},{"user_id":636,"name":"Oscar","steam_id":76561198096972418,"connected_time":503000000000,"state":"active","ping":87},{"user_id":635,"name":"Dirty Dan","steam_id":76561198066626345,"connected_time":571000000000,"state":"active","ping":74},{"user_id":637,"name":"Female Gamer","steam_id":76561199366482682,"connected_time":492000000000,"state":"active","ping":103},{"user_id":644,"name":"twitch.tv/blazingin","steam_id":76561198119873148,"connected_time":261000000000,"state":"active","ping":69},{"user_id":645,"name":"Galactamarx","steam_id":76561198028065755,"connected_time":16000000000,"state":"active","ping":119},{"user_id":634,"name":"Joostanian","steam_id":76561198338797268,"connected_time":586000000000,"state":"active","ping":88},{"user_id":638,"name":"bongo knight","steam_id":76561199333675426,"connected_time":431000000000,"state":"active","ping":175},{"user_id":569,"name":"kinars","steam_id":76561198857791409,"connected_time":6129000000000,"state":"active","ping":161},{"user_id":623,"name":"Czechoslovakia!","steam_id":76561198214713811,"connected_time":1062000000000,"state":"active","ping":91},{"user_id":624,"name":"Sly Fox Lemmy","steam_id":76561198069225954,"connected_time":1048000000000,"state":"active","ping":78},{"user_id":618,"name":"primordialheath","steam_id":76561199386942638,"connected_time":1679000000000,"state":"active","ping":67},{"user_id":639,"name":"bussington","steam_id":76561198133150219,"connected_time":427000000000,"state":"active","ping":59},{"user_id":640,"name":"Mani","steam_id":76561198139428711,"connected_time":427000000000,"state":"active","ping":59},{"user_id":627,"name":"Dr.McMoon","steam_id":76561198357908422,"connected_time":986000000000,"state":"active","ping":73},{"user_id":641,"name":"Mythius","steam_id":76561198401392472,"connected_time":419000000000,"state":"active","ping":69},{"user_id":628,"name":"ccat","steam_id":76561198281773224,"connected_time":953000000000,"state":"active","ping":96},{"user_id":630,"name":"Chrisscar","steam_id":76561198086298130,"connected_time":816000000000,"state":"active","ping":104}]},{"server_id":36,"name":"Uncletopia | Chicago | 5 | All Maps","name_short":"chi-5","host":"chi-2.us.uncletopia.com","port":27015,"enabled":true,"region":"us-central","cc":"us","latitude":41.881832,"longitude":-87.62318,"reserved":0,"last_update":"0001-01-01T00:00:00Z","name_a2s":"Uncletopia | Chicago | 5 | All Maps","protocol":17,"map":"pl_frontier_final","folder":"tf","game":"Team Fortress","app_id":440,"player_count":0,"max_players":24,"Bots":0,"server_type":"Dedicated","server_os":"Linux","password":true,"vac":true,"version":"7757534","steam_id":85568392924866362,"keywords":["nocrits","nodmgspread","payload","uncletopia"],"game_id":440,"stv_port":27016,"stv_name":"Uncletopia | Chicago | 5 | All Maps | STV","players":null},{"server_id":37,"name":"Uncletopia | Chicago | 6 | All Maps","name_short":"chi-6","host":"chi-2.us.uncletopia.com","port":27025,"enabled":true,"region":"us-central","cc":"us","latitude":41.881832,"longitude":-87.62318,"reserved":0,"last_update":"0001-01-01T00:00:00Z","name_a2s":"Uncletopia | Chicago | 6 | All Maps","protocol":17,"map":"pl_swiftwater_final1","folder":"tf","game":"Team Fortress","app_id":440,"player_count":19,"max_players":24,"Bots":0,"server_type":"Dedicated","server_os":"Linux","password":true,"vac":true,"version":"7757534","steam_id":85568392924866363,"keywords":["nocrits","nodmgspread","payload","uncletopia"],"game_id":440,"stv_port":27026,"stv_name":"Uncletopia | Chicago | 6 | All Maps | STV","players":[{"user_id":673,"name":"Bottom Text","steam_id":76561198075447301,"connected_time":2264000000000,"state":"active","ping":67},{"user_id":591,"name":"Dr.KombatPhD.ttv","steam_id":76561198263847667,"connected_time":9069000000000,"state":"active","ping":63},{"user_id":699,"name":"shroomish enjoyer","steam_id":76561198149775502,"connected_time":1118000000000,"state":"active","ping":79},{"user_id":585,"name":"Waxing Green Gibus","steam_id":76561198269228580,"connected_time":9661000000000,"state":"active","ping":59},{"user_id":674,"name":"big boy","steam_id":76561198053832401,"connected_time":2186000000000,"state":"active","ping":117},{"user_id":677,"name":"Demilious","steam_id":76561198090525010,"connected_time":2097000000000,"state":"active","ping":75},{"user_id":679,"name":"Ricardo Chavez","steam_id":76561198129389124,"connected_time":2024000000000,"state":"active","ping":93},{"user_id":709,"name":"Brendan","steam_id":76561198041079914,"connected_time":575000000000,"state":"active","ping":62},{"user_id":713,"name":"snki","steam_id":76561198324048855,"connected_time":239000000000,"state":"active","ping":136},{"user_id":684,"name":"PJammer","steam_id":76561198280485363,"connected_time":1902000000000,"state":"active","ping":96},{"user_id":700,"name":"the j","steam_id":76561198257263022,"connected_time":1101000000000,"state":"active","ping":78},{"user_id":703,"name":"carp","steam_id":76561198193144463,"connected_time":797000000000,"state":"active","ping":94},{"user_id":650,"name":"ChaoticAngel","steam_id":76561198293528217,"connected_time":5157000000000,"state":"active","ping":58},{"user_id":714,"name":"MrSirGent","steam_id":76561199086357213,"connected_time":239000000000,"state":"active","ping":72},{"user_id":706,"name":"weed lesbian","steam_id":76561198042263805,"connected_time":770000000000,"state":"active","ping":87},{"user_id":708,"name":"Alexlovesapples","steam_id":76561198309026054,"connected_time":713000000000,"state":"active","ping":104},{"user_id":711,"name":"YellowShade","steam_id":76561198200828527,"connected_time":572000000000,"state":"active","ping":61},{"user_id":712,"name":"Kennyboy149","steam_id":76561198048024644,"connected_time":570000000000,"state":"active","ping":82},{"user_id":668,"name":"moe5x","steam_id":76561198316877833,"connected_time":2999000000000,"state":"active","ping":92}]},{"server_id":38,"name":"Uncletopia | Chicago | 7 | Stopwatch Beta","name_short":"chi-7","host":"chi-2.us.uncletopia.com","port":27035,"enabled":true,"region":"us-central","cc":"us","latitude":41.881832,"longitude":-87.62318,"reserved":0,"last_update":"0001-01-01T00:00:00Z","name_a2s":"Uncletopia | Chicago | 7 | Stopwatch Beta","protocol":17,"map":"workshop/pl_barnblitz_pro7.ugc582280235","folder":"tf","game":"Team Fortress","app_id":440,"player_count":0,"max_players":24,"Bots":0,"server_type":"Dedicated","server_os":"Linux","password":true,"vac":true,"version":"7757534","steam_id":85568392924866364,"keywords":["nocrits","nodmgspread","payload","uncletopia"],"game_id":440,"stv_port":27036,"stv_name":"Uncletopia | Chicago | 7 | Stopwatch Beta | STV","players":null},{"server_id":39,"name":"Uncletopia | Chicago | 8 | Community","name_short":"chi-8","host":"chi-2.us.uncletopia.com","port":27045,"enabled":true,"region":"us-central","cc":"us","latitude":41.881832,"longitude":-87.62318,"reserved":0,"last_update":"0001-01-01T00:00:00Z","name_a2s":"Uncletopia | Chicago | 8 | Community","protocol":17,"map":"workshop/koth_slaughter_rc1.ugc1712845210","folder":"tf","game":"Team Fortress","app_id":440,"player_count":0,"max_players":24,"Bots":0,"server_type":"Dedicated","server_os":"Linux","password":true,"vac":true,"version":"7757534","steam_id":85568392924866365,"keywords":["cp","nocrits","nodmgspread","uncletopia"],"game_id":440,"stv_port":27046,"stv_name":"Uncletopia | Chicago | 8 | Community | STV","players":null},{"server_id":8,"name":"Uncletopia | Dallas | 1 | All Maps","name_short":"dal-1","host":"dal-1.us.uncletopia.com","port":27015,"enabled":true,"region":"us-central","cc":"us","latitude":32.779167,"longitude":-96.80889,"reserved":0,"last_update":"0001-01-01T00:00:00Z","name_a2s":"Uncletopia | Dallas | 1 | All Maps","protocol":17,"map":"cp_5gorge","folder":"tf","game":"Team Fortress","app_id":440,"player_count":0,"max_players":24,"Bots":0,"server_type":"Dedicated","server_os":"Linux","password":true,"vac":true,"version":"7757534","steam_id":85568392924469986,"keywords":["cp","nocrits","nodmgspread","uncletopia"],"game_id":440,"stv_port":27016,"stv_name":"Uncletopia | Dallas | 1 | All Maps | STV","players":null},{"server_id":108,"name":"Uncletopia | Dallas | 2 | All Maps","name_short":"dal-2","host":"dal-1.us.uncletopia.com","port":27025,"enabled":true,"region":"us-central","cc":"us","latitude":32.779167,"longitude":-96.80889,"reserved":0,"last_update":"0001-01-01T00:00:00Z","name_a2s":"Uncletopia | Dallas | 2 | All Maps","protocol":17,"map":"pl_frontier_final","folder":"tf","game":"Team Fortress","app_id":440,"player_count":24,"max_players":24,"Bots":0,"server_type":"Dedicated","server_os":"Linux","password":true,"vac":true,"version":"7757534","steam_id":85568392924469988,"keywords":["nocrits","nodmgspread","payload","uncletopia"],"game_id":440,"stv_port":27026,"stv_name":"Uncletopia | Dallas | 2 | All Maps | STV","players":[{"user_id":445,"name":"Can You Feel It Mr.Krabs","steam_id":76561198128302414,"connected_time":6622000000000,"state":"active","ping":60},{"user_id":504,"name":"Ironaka","steam_id":76561198029993183,"connected_time":2366000000000,"state":"active","ping":93},{"user_id":525,"name":"turn around","steam_id":76561198046526036,"connected_time":93000000000,"state":"active","ping":75},{"user_id":467,"name":"teh mummy","steam_id":76561198044123636,"connected_time":3754000000000,"state":"active","ping":63},{"user_id":509,"name":"[Deep]GooeyGapedGrannys","steam_id":76561198089731303,"connected_time":1770000000000,"state":"active","ping":90},{"user_id":506,"name":"heavy weapons guy","steam_id":76561198151135298,"connected_time":1857000000000,"state":"active","ping":71},{"user_id":516,"name":"scrapheap","steam_id":76561198202407087,"connected_time":689000000000,"state":"active","ping":86},{"user_id":503,"name":"hoodwink00❤","steam_id":76561198133869796,"connected_time":2402000000000,"state":"active","ping":64},{"user_id":472,"name":"BLUEDREAMZz","steam_id":76561198188687169,"connected_time":3642000000000,"state":"active","ping":76},{"user_id":521,"name":"Etomb","steam_id":76561198210017208,"connected_time":503000000000,"state":"active","ping":99},{"user_id":501,"name":"teatimesukka","steam_id":76561198978749594,"connected_time":2498000000000,"state":"active","ping":35},{"user_id":511,"name":"Jonny","steam_id":76561198072507309,"connected_time":1692000000000,"state":"active","ping":76},{"user_id":478,"name":"Zoot Suit Tom","steam_id":76561198170834958,"connected_time":3611000000000,"state":"active","ping":67},{"user_id":477,"name":"Young Thug","steam_id":76561198060389529,"connected_time":3615000000000,"state":"active","ping":52},{"user_id":517,"name":"Dennis Reynolds","steam_id":76561199446865070,"connected_time":675000000000,"state":"active","ping":97},{"user_id":522,"name":"Makako :)","steam_id":76561198309235459,"connected_time":484000000000,"state":"active","ping":72},{"user_id":523,"name":"Hifumi Togo","steam_id":76561198074930636,"connected_time":378000000000,"state":"active","ping":64},{"user_id":492,"name":"Gundam Guy","steam_id":76561198178453993,"connected_time":3042000000000,"state":"active","ping":86},{"user_id":513,"name":"rice white","steam_id":76561198320732910,"connected_time":1596000000000,"state":"active","ping":93},{"user_id":442,"name":"captainspatklz","steam_id":76561198432167270,"connected_time":6953000000000,"state":"active","ping":76},{"user_id":524,"name":"CoryBaxterWH","steam_id":76561198060041823,"connected_time":326000000000,"state":"active","ping":94},{"user_id":514,"name":"Lapiz","steam_id":76561198068172102,"connected_time":1510000000000,"state":"active","ping":60},{"user_id":520,"name":"Ash40000","steam_id":76561198092841526,"connected_time":611000000000,"state":"active","ping":60},{"user_id":498,"name":"Megadesk","steam_id":76561198078219641,"connected_time":2700000000000,"state":"active","ping":96}]},{"server_id":5,"name":"Uncletopia | Frankfurt | 1 | All Maps","name_short":"frk-1","host":"frk-1.de.uncletopia.com","port":27015,"enabled":true,"region":"eu","cc":"de","latitude":50.110924,"longitude":8.682127,"reserved":0,"last_update":"0001-01-01T00:00:00Z","name_a2s":"Uncletopia | Frankfurt | 1 | All Maps","protocol":17,"map":"pl_badwater","folder":"tf","game":"Team Fortress","app_id":440,"player_count":0,"max_players":24,"Bots":0,"server_type":"Dedicated","server_os":"Linux","password":true,"vac":true,"version":"7757534","steam_id":85568392924469989,"keywords":["nocrits","nodmgspread","payload","uncletopia"],"game_id":440,"stv_port":27016,"stv_name":"Uncletopia | Frankfurt | 1 | All Maps | STV","players":null},{"server_id":110,"name":"Uncletopia | Frankfurt | 2 | All Maps","name_short":"frk-2","host":"frk-1.de.uncletopia.com","port":27025,"enabled":true,"region":"eu","cc":"de","latitude":50.110924,"longitude":8.682127,"reserved":0,"last_update":"0001-01-01T00:00:00Z","name_a2s":"Uncletopia | Frankfurt | 2 | All Maps","protocol":17,"map":"koth_viaduct","folder":"tf","game":"Team Fortress","app_id":440,"player_count":0,"max_players":24,"Bots":0,"server_type":"Dedicated","server_os":"Linux","password":true,"vac":true,"version":"7757534","steam_id":85568392924469990,"keywords":["cp","nocrits","nodmgspread","uncletopia"],"game_id":440,"stv_port":27026,"stv_name":"Uncletopia | Frankfurt | 2 | All Maps | STV","players":null},{"server_id":308,"name":"Uncletopia | Frankfurt | 3 | All Maps","name_short":"frk-3","host":"frk-1.de.uncletopia.com","port":27035,"enabled":true,"region":"eu","cc":"de","latitude":50.110924,"longitude":8.682127,"reserved":0,"last_update":"0001-01-01T00:00:00Z","name_a2s":"Uncletopia | Frankfurt | 3 | All Maps","protocol":17,"map":"pl_barnblitz","folder":"tf","game":"Team Fortress","app_id":440,"player_count":0,"max_players":24,"Bots":0,"server_type":"Dedicated","server_os":"Linux","password":true,"vac":true,"version":"7757534","steam_id":85568392924504274,"keywords":["nocrits","nodmgspread","payload","uncletopia"],"game_id":440,"stv_port":27036,"stv_name":"Uncletopia | Frankfurt | 3 | All Maps | STV","players":null},{"server_id":309,"name":"Uncletopia | Frankfurt | 4 | All Maps","name_short":"frk-4","host":"frk-1.de.uncletopia.com","port":27045,"enabled":true,"region":"eu","cc":"de","latitude":50.110924,"longitude":8.682127,"reserved":0,"last_update":"0001-01-01T00:00:00Z","name_a2s":"Uncletopia | Frankfurt | 4 | All Maps","protocol":17,"map":"pl_snowycoast","folder":"tf","game":"Team Fortress","app_id":440,"player_count":0,"max_players":24,"Bots":0,"server_type":"Dedicated","server_os":"Linux","password":true,"vac":true,"version":"7757534","steam_id":85568392924504275,"keywords":["nocrits","nodmgspread","payload","uncletopia"],"game_id":440,"stv_port":27046,"stv_name":"Uncletopia | Frankfurt | 4 | All Maps | STV","players":null},{"server_id":310,"name":"Uncletopia | Frankfurt | 5 | All Maps","name_short":"frk-5","host":"frk-1.de.uncletopia.com","port":27055,"enabled":true,"region":"eu","cc":"de","latitude":50.110924,"longitude":8.682127,"reserved":0,"last_update":"0001-01-01T00:00:00Z","name_a2s":"Uncletopia | Frankfurt | 5 | All Maps","protocol":17,"map":"cp_altitude","folder":"tf","game":"Team Fortress","app_id":440,"player_count":0,"max_players":24,"Bots":0,"server_type":"Dedicated","server_os":"Linux","password":true,"vac":true,"version":"7757534","steam_id":85568392924504277,"keywords":["cp","nocrits","nodmgspread","uncletopia"],"game_id":440,"stv_port":27056,"stv_name":"Uncletopia | Frankfurt | 5 | All Maps | STV","players":null},{"server_id":311,"name":"Uncletopia | Frankfurt | 6 | All Maps","name_short":"frk-6","host":"frk-1.de.uncletopia.com","port":27065,"enabled":true,"region":"eu","cc":"de","latitude":50.110924,"longitude":8.682127,"reserved":0,"last_update":"0001-01-01T00:00:00Z","name_a2s":"Uncletopia | Frankfurt | 6 | All Maps","protocol":17,"map":"koth_highpass","folder":"tf","game":"Team Fortress","app_id":440,"player_count":0,"max_players":24,"Bots":0,"server_type":"Dedicated","server_os":"Linux","password":true,"vac":true,"version":"7757534","steam_id":85568392924504278,"keywords":["cp","nocrits","nodmgspread","uncletopia"],"game_id":440,"stv_port":27066,"stv_name":"Uncletopia | Frankfurt | 6 | All Maps | STV","players":null},{"server_id":23,"name":"Uncletopia | Frankfurt | 7 | Stopwatch Beta","name_short":"frk-7","host":"frk-1.de.uncletopia.com","port":27075,"enabled":true,"region":"eu","cc":"de","latitude":50.110924,"longitude":8.682127,"reserved":0,"last_update":"0001-01-01T00:00:00Z","name_a2s":"Uncletopia | Frankfurt | 7 | Stopwatch Beta","protocol":17,"map":"pl_borneo","folder":"tf","game":"Team Fortress","app_id":440,"player_count":0,"max_players":24,"Bots":0,"server_type":"Dedicated","server_os":"Linux","password":true,"vac":true,"version":"7757534","steam_id":85568392924742827,"keywords":["nocrits","nodmgspread","payload","uncletopia"],"game_id":440,"stv_port":27076,"stv_name":"Uncletopia | Frankfurt | 7 | Stopwatch Beta | STV","players":null},{"server_id":24,"name":"Uncletopia | Frankfurt | 8 | Community","name_short":"frk-8","host":"frk-1.de.uncletopia.com","port":27085,"enabled":true,"region":"eu","cc":"de","latitude":50.110924,"longitude":8.682127,"reserved":0,"last_update":"0001-01-01T00:00:00Z","name_a2s":"Uncletopia | Frankfurt | 8 | Community","protocol":17,"map":"workshop/pl_eruption_b9a.ugc2807898013","folder":"tf","game":"Team Fortress","app_id":440,"player_count":0,"max_players":24,"Bots":0,"server_type":"Dedicated","server_os":"Linux","password":true,"vac":true,"version":"7757534","steam_id":85568392924742828,"keywords":["nocrits","nodmgspread","payload","uncletopia"],"game_id":440,"stv_port":27086,"stv_name":"Uncletopia | Frankfurt | 8 | Community | STV","players":null},{"server_id":202,"name":"Uncletopia | Hong Kong | 1 | All Maps","name_short":"hgk-1","host":"hgk-1.hk.uncletopia.com","port":27015,"enabled":true,"region":"asia","cc":"hk","latitude":22.302711,"longitude":114.177216,"reserved":0,"last_update":"0001-01-01T00:00:00Z","name_a2s":"Uncletopia | Hong Kong | 1 | All Maps","protocol":17,"map":"pl_upward","folder":"tf","game":"Team Fortress","app_id":440,"player_count":23,"max_players":24,"Bots":0,"server_type":"Dedicated","server_os":"Linux","password":true,"vac":true,"version":"7757534","steam_id":85568392924494504,"keywords":["nocrits","nodmgspread","payload","uncletopia"],"game_id":440,"stv_port":27016,"stv_name":"Uncletopia | Hong Kong | 1 | All Maps | STV","players":[{"user_id":200,"name":"caramelCase","steam_id":76561198871689972,"connected_time":816000000000,"state":"active","ping":114},{"user_id":27,"name":"Noyour","steam_id":76561198323259830,"connected_time":12727000000000,"state":"active","ping":115},{"user_id":207,"name":"greeny the dawg","steam_id":76561198024666371,"connected_time":245000000000,"state":"active","ping":90},{"user_id":149,"name":"Buttman","steam_id":76561198044693388,"connected_time":2225000000000,"state":"active","ping":55},{"user_id":98,"name":"A Toilet","steam_id":76561198148278657,"connected_time":6469000000000,"state":"active","ping":123},{"user_id":101,"name":"DarkGamer TF2","steam_id":76561199234460334,"connected_time":6259000000000,"state":"active","ping":76},{"user_id":206,"name":"Your Daily Dose of Caffeine","steam_id":76561198148007513,"connected_time":309000000000,"state":"active","ping":55},{"user_id":41,"name":"煙海 | Enkai","steam_id":76561198050460825,"connected_time":11250000000000,"state":"active","ping":74},{"user_id":142,"name":"Tokuyu","steam_id":76561198296752777,"connected_time":2535000000000,"state":"active","ping":162},{"user_id":208,"name":"Urotsuki","steam_id":76561198074339034,"connected_time":144000000000,"state":"active","ping":72},{"user_id":150,"name":"Christiano Ronaldo 07 Portugal","steam_id":76561199468805514,"connected_time":2110000000000,"state":"active","ping":140},{"user_id":141,"name":"Cá Tháng 4","steam_id":76561198047162026,"connected_time":2555000000000,"state":"active","ping":74},{"user_id":203,"name":"oh, the misery !","steam_id":76561198383599763,"connected_time":518000000000,"state":"active","ping":117},{"user_id":136,"name":"Degenerate With Standard","steam_id":76561199174449723,"connected_time":2833000000000,"state":"active","ping":122},{"user_id":123,"name":"jerrybel","steam_id":76561198055553140,"connected_time":4093000000000,"state":"active","ping":79},{"user_id":127,"name":"Michael Scott","steam_id":76561198023082794,"connected_time":3814000000000,"state":"active","ping":51},{"user_id":204,"name":"irylfaith","steam_id":76561199071455481,"connected_time":447000000000,"state":"active","ping":91},{"user_id":192,"name":"IDontLaunder","steam_id":76561199103223706,"connected_time":1415000000000,"state":"active","ping":167},{"user_id":186,"name":"rtgod","steam_id":76561198125363469,"connected_time":1609000000000,"state":"active","ping":81},{"user_id":126,"name":"Beef Wellington","steam_id":76561197995635241,"connected_time":3954000000000,"state":"active","ping":117},{"user_id":56,"name":"uptriste","steam_id":76561198158666692,"connected_time":10336000000000,"state":"active","ping":44},{"user_id":130,"name":"Batbob","steam_id":76561198999413123,"connected_time":3538000000000,"state":"active","ping":83},{"user_id":191,"name":"junbi OK","steam_id":76561198116387218,"connected_time":1429000000000,"state":"active","ping":86}]},{"server_id":1,"name":"Uncletopia | Los Angeles | 1 | All Maps","name_short":"lax-1","host":"lax-1.us.uncletopia.com","port":27015,"enabled":true,"region":"us-west","cc":"us","latitude":33.94279,"longitude":-118.41004,"reserved":0,"last_update":"0001-01-01T00:00:00Z","name_a2s":"Uncletopia | Los Angeles | 1 | All Maps","protocol":17,"map":"pl_swiftwater_final1","folder":"tf","game":"Team Fortress","app_id":440,"player_count":0,"max_players":24,"Bots":0,"server_type":"Dedicated","server_os":"Linux","password":true,"vac":true,"version":"7757534","steam_id":85568392924469991,"keywords":["nocrits","nodmgspread","payload","uncletopia"],"game_id":440,"stv_port":27016,"stv_name":"Uncletopia | Los Angeles | 1 | All Maps | STV","players":null},{"server_id":112,"name":"Uncletopia | Los Angeles | 2 | All Maps","name_short":"lax-2","host":"lax-1.us.uncletopia.com","port":27025,"enabled":true,"region":"us-west","cc":"us","latitude":33.94279,"longitude":-118.41004,"reserved":0,"last_update":"0001-01-01T00:00:00Z","name_a2s":"Uncletopia | Los Angeles | 2 | All Maps","protocol":17,"map":"koth_cascade","folder":"tf","game":"Team Fortress","app_id":440,"player_count":0,"max_players":24,"Bots":0,"server_type":"Dedicated","server_os":"Linux","password":true,"vac":true,"version":"7757534","steam_id":85568392924469992,"keywords":["cp","nocrits","nodmgspread","uncletopia"],"game_id":440,"stv_port":27026,"stv_name":"Uncletopia | Los Angeles | 2 | All Maps | STV","players":null},{"server_id":324,"name":"Uncletopia | Los Angeles | 3 | All Maps","name_short":"lax-3","host":"lax-1.us.uncletopia.com","port":27035,"enabled":true,"region":"us-west","cc":"us","latitude":33.94279,"longitude":-118.41004,"reserved":0,"last_update":"0001-01-01T00:00:00Z","name_a2s":"Uncletopia | Los Angeles | 3 | All Maps","protocol":17,"map":"koth_highpass","folder":"tf","game":"Team Fortress","app_id":440,"player_count":0,"max_players":24,"Bots":0,"server_type":"Dedicated","server_os":"Linux","password":true,"vac":true,"version":"7757534","steam_id":85568392924510198,"keywords":["cp","nocrits","nodmgspread","uncletopia"],"game_id":440,"stv_port":27036,"stv_name":"Uncletopia | Los Angeles | 3 | All Maps | STV","players":null},{"server_id":25,"name":"Uncletopia | Los Angeles | 4 | Stopwatch Beta","name_short":"lax-4","host":"lax-1.us.uncletopia.com","port":27045,"enabled":true,"region":"us-west","cc":"us","latitude":33.94279,"longitude":-118.41004,"reserved":0,"last_update":"0001-01-01T00:00:00Z","name_a2s":"Uncletopia | Los Angeles | 4 | Stopwatch Beta","protocol":17,"map":"koth_viaduct","folder":"tf","game":"Team Fortress","app_id":440,"player_count":0,"max_players":24,"Bots":0,"server_type":"Dedicated","server_os":"Linux","password":true,"vac":true,"version":"7757534","steam_id":85568392924510199,"keywords":["cp","nocrits","nodmgspread","uncletopia"],"game_id":440,"stv_port":27046,"stv_name":"Uncletopia | Los Angeles | 4 | Stopwatch Beta | STV","players":null},{"server_id":11,"name":"Uncletopia | London | 1 | All Maps","name_short":"lon-1","host":"lon-1.uk.uncletopia.com","port":27015,"enabled":true,"region":"eu","cc":"gb","latitude":51.509865,"longitude":-0.118092,"reserved":0,"last_update":"0001-01-01T00:00:00Z","name_a2s":"Uncletopia | London | 1 | All Maps","protocol":17,"map":"pl_pier","folder":"tf","game":"Team Fortress","app_id":440,"player_count":0,"max_players":24,"Bots":0,"server_type":"Dedicated","server_os":"Linux","password":true,"vac":true,"version":"7757534","steam_id":85568392924367362,"keywords":["nocrits","nodmgspread","payload","uncletopia"],"game_id":440,"stv_port":27016,"stv_name":"Uncletopia | London | 1 | All Maps | STV","players":null},{"server_id":114,"name":"Uncletopia | London | 2 | All Maps","name_short":"lon-2","host":"lon-1.uk.uncletopia.com","port":27025,"enabled":true,"region":"eu","cc":"gb","latitude":51.509865,"longitude":-0.118092,"reserved":0,"last_update":"0001-01-01T00:00:00Z","name_a2s":"Uncletopia | London | 2 | All Maps","protocol":17,"map":"pl_borneo","folder":"tf","game":"Team Fortress","app_id":440,"player_count":0,"max_players":24,"Bots":0,"server_type":"Dedicated","server_os":"Linux","password":true,"vac":true,"version":"7757534","steam_id":85568392924470941,"keywords":["nocrits","nodmgspread","payload","uncletopia"],"game_id":440,"stv_port":27026,"stv_name":"Uncletopia | London | 2 | All Maps | STV","players":null},{"server_id":320,"name":"Uncletopia | London | 3 | All Maps","name_short":"lon-3","host":"lon-1.uk.uncletopia.com","port":27035,"enabled":true,"region":"eu","cc":"gb","latitude":51.509865,"longitude":-0.118092,"reserved":0,"last_update":"0001-01-01T00:00:00Z","name_a2s":"Uncletopia | London | 3 | All Maps","protocol":17,"map":"koth_highpass","folder":"tf","game":"Team Fortress","app_id":440,"player_count":0,"max_players":24,"Bots":0,"server_type":"Dedicated","server_os":"Linux","password":true,"vac":true,"version":"7757534","steam_id":85568392924510192,"keywords":["cp","nocrits","nodmgspread","uncletopia"],"game_id":440,"stv_port":27036,"stv_name":"Uncletopia | London | 3 | All Maps | STV","players":null},{"server_id":321,"name":"Uncletopia | London | 4 | All Maps","name_short":"lon-4","host":"lon-1.uk.uncletopia.com","port":27045,"enabled":true,"region":"eu","cc":"gb","latitude":51.509865,"longitude":-0.118092,"reserved":0,"last_update":"0001-01-01T00:00:00Z","name_a2s":"Uncletopia | London | 4 | All Maps","protocol":17,"map":"cp_snakewater_final1","folder":"tf","game":"Team Fortress","app_id":440,"player_count":0,"max_players":24,"Bots":0,"server_type":"Dedicated","server_os":"Linux","password":true,"vac":true,"version":"7757534","steam_id":85568392924510193,"keywords":["cp","nocrits","nodmgspread","uncletopia"],"game_id":440,"stv_port":27046,"stv_name":"Uncletopia | London | 4 | All Maps | STV","players":null},{"server_id":21,"name":"Uncletopia | London | 5 | All Maps","name_short":"lon-5","host":"lon-1.uk.uncletopia.com","port":27055,"enabled":true,"region":"eu","cc":"gb","latitude":51.509865,"longitude":-0.118092,"reserved":0,"last_update":"0001-01-01T00:00:00Z","name_a2s":"Uncletopia | London | 5 | All Maps","protocol":17,"map":"pl_snowycoast","folder":"tf","game":"Team Fortress","app_id":440,"player_count":0,"max_players":24,"Bots":0,"server_type":"Dedicated","server_os":"Linux","password":true,"vac":true,"version":"7757534","steam_id":85568392924742829,"keywords":["nocrits","nodmgspread","payload","uncletopia"],"game_id":440,"stv_port":27056,"stv_name":"Uncletopia | London | 5 | All Maps | STV","players":null},{"server_id":22,"name":"Uncletopia | London | 6 | All Maps","name_short":"lon-6","host":"lon-1.uk.uncletopia.com","port":27065,"enabled":true,"region":"eu","cc":"gb","latitude":51.509865,"longitude":-0.118092,"reserved":0,"last_update":"0001-01-01T00:00:00Z","name_a2s":"Uncletopia | London | 6 | All Maps","protocol":17,"map":"pl_frontier_final","folder":"tf","game":"Team Fortress","app_id":440,"player_count":24,"max_players":24,"Bots":0,"server_type":"Dedicated","server_os":"Linux","password":true,"vac":true,"version":"7757534","steam_id":85568392924742830,"keywords":["nocrits","nodmgspread","payload","uncletopia"],"game_id":440,"stv_port":27066,"stv_name":"Uncletopia | London | 6 | All Maps | STV","players":[{"user_id":45,"name":"Coffee","steam_id":76561199077316448,"connected_time":3901000000000,"state":"active","ping":66},{"user_id":96,"name":"coPe","steam_id":76561198869055760,"connected_time":843000000000,"state":"active","ping":114},{"user_id":115,"name":"frosty.","steam_id":76561198822290056,"connected_time":277000000000,"state":"active","ping":136},{"user_id":71,"name":"Sir Kiops","steam_id":76561198022769275,"connected_time":2000000000000,"state":"active","ping":148},{"user_id":60,"name":"MEDENJOYER","steam_id":76561198180361759,"connected_time":3241000000000,"state":"active","ping":53},{"user_id":93,"name":"MRLOLENO","steam_id":76561198450911838,"connected_time":885000000000,"state":"active","ping":70},{"user_id":116,"name":"Deur","steam_id":76561199014305863,"connected_time":256000000000,"state":"active","ping":89},{"user_id":62,"name":"Asda","steam_id":76561198210348121,"connected_time":3195000000000,"state":"active","ping":61},{"user_id":68,"name":"Corpus Christi","steam_id":76561198417999443,"connected_time":2484000000000,"state":"active","ping":105},{"user_id":117,"name":"Sonder","steam_id":76561198115893794,"connected_time":239000000000,"state":"active","ping":79},{"user_id":34,"name":"LuckyStar","steam_id":76561198126840092,"connected_time":4770000000000,"state":"active","ping":110},{"user_id":63,"name":"ivanmixo","steam_id":76561198160213989,"connected_time":2904000000000,"state":"active","ping":64},{"user_id":106,"name":"ugly","steam_id":76561199050412617,"connected_time":634000000000,"state":"active","ping":108},{"user_id":39,"name":"minn","steam_id":76561198099101232,"connected_time":4453000000000,"state":"active","ping":50},{"user_id":110,"name":"WestWooosh","steam_id":76561198867997347,"connected_time":489000000000,"state":"active","ping":89},{"user_id":97,"name":"$b","steam_id":76561198118412910,"connected_time":819000000000,"state":"active","ping":58},{"user_id":111,"name":"MINI CRIT!999","steam_id":76561198027649268,"connected_time":479000000000,"state":"active","ping":176},{"user_id":118,"name":"Mraptkibbles","steam_id":76561198874227493,"connected_time":212000000000,"state":"active","ping":117},{"user_id":114,"name":"Tree","steam_id":76561198150045340,"connected_time":371000000000,"state":"active","ping":71},{"user_id":95,"name":"Aspect","steam_id":76561198238625372,"connected_time":864000000000,"state":"active","ping":69},{"user_id":100,"name":"1ostSou1","steam_id":76561199316324276,"connected_time":796000000000,"state":"active","ping":108},{"user_id":87,"name":"Sentry / Axsalot #Savetf2","steam_id":76561199173960227,"connected_time":1050000000000,"state":"active","ping":112},{"user_id":108,"name":"theblackfire","steam_id":76561198883641136,"connected_time":623000000000,"state":"active","ping":96},{"user_id":65,"name":"Tickle_Tipson","steam_id":76561198237603082,"connected_time":2891000000000,"state":"active","ping":100}]},{"server_id":40,"name":"Uncletopia | London | 7 | No Payload","name_short":"lon-7","host":"lon-1.uk.uncletopia.com","port":27075,"enabled":true,"region":"eu","cc":"gb","latitude":51.509865,"longitude":-0.118092,"reserved":0,"last_update":"0001-01-01T00:00:00Z","name_a2s":"Uncletopia | London | 7 | No Payload","protocol":17,"map":"pl_upward","folder":"tf","game":"Team Fortress","app_id":440,"player_count":1,"max_players":24,"Bots":0,"server_type":"Dedicated","server_os":"Linux","password":true,"vac":true,"version":"7757534","steam_id":85568392924964314,"keywords":["nocrits","nodmgspread","payload","uncletopia"],"game_id":440,"stv_port":27076,"stv_name":"Uncletopia | London | 7 | No Payload | STV","players":[{"user_id":6,"name":"Tf2 Degreaser lover","steam_id":76561199137392321,"connected_time":11000000000,"state":"active","ping":53}]},{"server_id":41,"name":"Uncletopia | London | 8 | Community","name_short":"lon-8","host":"lon-1.uk.uncletopia.com","port":27085,"enabled":true,"region":"eu","cc":"gb","latitude":51.509865,"longitude":-0.118092,"reserved":0,"last_update":"0001-01-01T00:00:00Z","name_a2s":"Uncletopia | London | 8 | Community","protocol":17,"map":"cp_snakewater_final1","folder":"tf","game":"Team Fortress","app_id":440,"player_count":0,"max_players":24,"Bots":0,"server_type":"Dedicated","server_os":"Linux","password":true,"vac":true,"version":"7757534","steam_id":85568392924964315,"keywords":["cp","nocrits","nodmgspread","uncletopia"],"game_id":440,"stv_port":27086,"stv_name":"Uncletopia | London | 8 | Community | STV","players":null},{"server_id":300,"name":"Uncletopia | Montréal | 1 | All Maps","name_short":"mtl-1","host":"mtl-1.ca.uncletopia.com","port":27015,"enabled":true,"region":"us-east","cc":"ca","latitude":45.50889,"longitude":-73.56167,"reserved":0,"last_update":"0001-01-01T00:00:00Z","name_a2s":"Uncletopia | Montréal | 1 | All Maps","protocol":17,"map":"koth_highpass","folder":"tf","game":"Team Fortress","app_id":440,"player_count":0,"max_players":24,"Bots":0,"server_type":"Dedicated","server_os":"Linux","password":true,"vac":true,"version":"7757534","steam_id":85568392924500087,"keywords":["cp","nocrits","nodmgspread","uncletopia"],"game_id":440,"stv_port":27016,"stv_name":"Uncletopia | Montréal | 1 | All Maps | STV","players":null},{"server_id":301,"name":"Uncletopia | Montréal | 2 | All Maps","name_short":"mtl-2","host":"mtl-1.ca.uncletopia.com","port":27025,"enabled":true,"region":"us-east","cc":"ca","latitude":45.50889,"longitude":-73.56167,"reserved":0,"last_update":"0001-01-01T00:00:00Z","name_a2s":"Uncletopia | Montréal | 2 | All Maps","protocol":17,"map":"cp_altitude","folder":"tf","game":"Team Fortress","app_id":440,"player_count":0,"max_players":24,"Bots":0,"server_type":"Dedicated","server_os":"Linux","password":true,"vac":true,"version":"7757534","steam_id":85568392924500088,"keywords":["cp","nocrits","nodmgspread","uncletopia"],"game_id":440,"stv_port":27026,"stv_name":"Uncletopia | Montréal | 2 | All Maps | STV","players":null},{"server_id":302,"name":"Uncletopia | Montréal | 3 | All Maps","name_short":"mtl-3","host":"mtl-1.ca.uncletopia.com","port":27035,"enabled":true,"region":"us-east","cc":"ca","latitude":45.50889,"longitude":-73.56167,"reserved":0,"last_update":"0001-01-01T00:00:00Z","name_a2s":"Uncletopia | Montréal | 3 | All Maps","protocol":17,"map":"koth_viaduct","folder":"tf","game":"Team Fortress","app_id":440,"player_count":0,"max_players":24,"Bots":0,"server_type":"Dedicated","server_os":"Linux","password":true,"vac":true,"version":"7757534","steam_id":85568392924500089,"keywords":["cp","nocrits","nodmgspread","uncletopia"],"game_id":440,"stv_port":27036,"stv_name":"Uncletopia | Montréal | 3 | All Maps | STV","players":null},{"server_id":303,"name":"Uncletopia | Montréal | 4 | No Payload","name_short":"mtl-4","host":"mtl-1.ca.uncletopia.com","port":27045,"enabled":true,"region":"us-east","cc":"ca","latitude":45.50889,"longitude":-73.56167,"reserved":0,"last_update":"0001-01-01T00:00:00Z","name_a2s":"Uncletopia | Montréal | 4 | No Payload","protocol":17,"map":"koth_lakeside_final","folder":"tf","game":"Team Fortress","app_id":440,"player_count":0,"max_players":24,"Bots":0,"server_type":"Dedicated","server_os":"Linux","password":true,"vac":true,"version":"7757534","steam_id":85568392924500090,"keywords":["cp","nocrits","nodmgspread","uncletopia"],"game_id":440,"stv_port":27046,"stv_name":"Uncletopia | Montréal | 4 | No Payload | STV","players":null},{"server_id":13,"name":"Uncletopia | New York City | 1 | All Maps","name_short":"nyc-1","host":"nyc-1.us.uncletopia.com","port":27015,"enabled":true,"region":"us-east","cc":"us","latitude":40.73061,"longitude":-73.93524,"reserved":0,"last_update":"0001-01-01T00:00:00Z","name_a2s":"Uncletopia | New York City | 1 | All Maps","protocol":17,"map":"pl_snowycoast","folder":"tf","game":"Team Fortress","app_id":440,"player_count":0,"max_players":24,"Bots":0,"server_type":"Dedicated","server_os":"Linux","password":true,"vac":true,"version":"7757534","steam_id":85568392924469993,"keywords":["nocrits","nodmgspread","payload","uncletopia"],"game_id":440,"stv_port":27016,"stv_name":"Uncletopia | New York City | 1 | All Maps | STV","players":null},{"server_id":14,"name":"Uncletopia | New York City | 2 | All Maps","name_short":"nyc-2","host":"nyc-1.us.uncletopia.com","port":27025,"enabled":true,"region":"us-east","cc":"us","latitude":40.73061,"longitude":-73.93524,"reserved":0,"last_update":"0001-01-01T00:00:00Z","name_a2s":"Uncletopia | New York City | 2 | All Maps","protocol":17,"map":"cp_altitude","folder":"tf","game":"Team Fortress","app_id":440,"player_count":0,"max_players":24,"Bots":0,"server_type":"Dedicated","server_os":"Linux","password":true,"vac":true,"version":"7757534","steam_id":85568392924469994,"keywords":["cp","nocrits","nodmgspread","uncletopia"],"game_id":440,"stv_port":27026,"stv_name":"Uncletopia | New York City | 2 | All Maps | STV","players":null},{"server_id":15,"name":"Uncletopia | New York City | 3 | Stopwatch Beta","name_short":"nyc-3","host":"nyc-1.us.uncletopia.com","port":27035,"enabled":true,"region":"us-east","cc":"us","latitude":40.73061,"longitude":-73.93524,"reserved":0,"last_update":"0001-01-01T00:00:00Z","name_a2s":"Uncletopia | New York City | 3 | Stopwatch Beta","protocol":17,"map":"workshop/koth_product_final.ugc454272353","folder":"tf","game":"Team Fortress","app_id":440,"player_count":0,"max_players":24,"Bots":0,"server_type":"Dedicated","server_os":"Linux","password":true,"vac":true,"version":"7757534","steam_id":85568392924742820,"keywords":["cp","nocrits","nodmgspread","uncletopia"],"game_id":440,"stv_port":27036,"stv_name":"Uncletopia | New York City | 3 | Stopwatch Beta | STV","players":null},{"server_id":16,"name":"Uncletopia | New York City | 4 | Community","name_short":"nyc-4","host":"nyc-1.us.uncletopia.com","port":27045,"enabled":true,"region":"us-east","cc":"us","latitude":40.73061,"longitude":-73.93524,"reserved":0,"last_update":"0001-01-01T00:00:00Z","name_a2s":"Uncletopia | New York City | 4 | Community","protocol":17,"map":"workshop/koth_synthetic_rc6a.ugc1549817316","folder":"tf","game":"Team Fortress","app_id":440,"player_count":0,"max_players":24,"Bots":0,"server_type":"Dedicated","server_os":"Linux","password":true,"vac":true,"version":"7757534","steam_id":85568392924742821,"keywords":["cp","nocrits","nodmgspread","uncletopia"],"game_id":440,"stv_port":27046,"stv_name":"Uncletopia | New York City | 4 | Community | STV","players":null},{"server_id":142,"name":"Uncletopia | São Paulo | 1 | All Maps","name_short":"sao-1","host":"sao-1.br.uncletopia.com","port":27015,"enabled":true,"region":"sa","cc":"br","latitude":-23.533773,"longitude":-46.62529,"reserved":0,"last_update":"0001-01-01T00:00:00Z","name_a2s":"Uncletopia | São Paulo | 1 | All Maps","protocol":17,"map":"koth_cascade","folder":"tf","game":"Team Fortress","app_id":440,"player_count":0,"max_players":24,"Bots":0,"server_type":"Dedicated","server_os":"Linux","password":true,"vac":true,"version":"7757534","steam_id":85568392924469996,"keywords":["cp","nocrits","nodmgspread","uncletopia"],"game_id":440,"stv_port":27016,"stv_name":"Uncletopia | São Paulo | 1 | All Maps | STV","players":null},{"server_id":143,"name":"Uncletopia | São Paulo | 2 | All Maps","name_short":"sao-2","host":"sao-2.br.uncletopia.com","port":27015,"enabled":true,"region":"sa","cc":"br","latitude":-23.533773,"longitude":-46.62529,"reserved":0,"last_update":"0001-01-01T00:00:00Z","name_a2s":"Uncletopia | São Paulo | 2 | All Maps","protocol":17,"map":"koth_cascade","folder":"tf","game":"Team Fortress","app_id":440,"player_count":0,"max_players":24,"Bots":0,"server_type":"Dedicated","server_os":"Linux","password":true,"vac":true,"version":"7757534","steam_id":85568392924485349,"keywords":["cp","nocrits","nodmgspread","uncletopia"],"game_id":440,"stv_port":27016,"stv_name":"Uncletopia | São Paulo | 2 | All Maps | STV","players":null},{"server_id":7,"name":"Uncletopia | Seattle | 1 | All Maps","name_short":"sea-1","host":"sea-1.us.uncletopia.com","port":27015,"enabled":true,"region":"us-west","cc":"us","latitude":47.608013,"longitude":-122.33517,"reserved":0,"last_update":"0001-01-01T00:00:00Z","name_a2s":"Uncletopia | Seattle | 1 | All Maps","protocol":17,"map":"pl_upward","folder":"tf","game":"Team Fortress","app_id":440,"player_count":24,"max_players":24,"Bots":0,"server_type":"Dedicated","server_os":"Linux","password":true,"vac":true,"version":"7757534","steam_id":85568392924469997,"keywords":["nocrits","nodmgspread","payload","uncletopia"],"game_id":440,"stv_port":27016,"stv_name":"Uncletopia | Seattle | 1 | All Maps | STV","players":[{"user_id":765,"name":"rat gets the cheese","steam_id":76561198031234032,"connected_time":7565000000000,"state":"active","ping":95},{"user_id":767,"name":"Arsonist Goose","steam_id":76561198147441830,"connected_time":7552000000000,"state":"active","ping":72},{"user_id":817,"name":"PopcornNinja101","steam_id":76561198330680181,"connected_time":1473000000000,"state":"active","ping":46},{"user_id":806,"name":"Scampy","steam_id":76561198001506924,"connected_time":3580000000000,"state":"active","ping":55},{"user_id":781,"name":"joseph smith's tradwife","steam_id":76561198325306660,"connected_time":6940000000000,"state":"active","ping":54},{"user_id":820,"name":"StrangeMachine","steam_id":76561198046628064,"connected_time":1326000000000,"state":"active","ping":54},{"user_id":655,"name":"Level 99 Mudcrab","steam_id":76561198077452771,"connected_time":19523000000000,"state":"active","ping":57},{"user_id":825,"name":"the them","steam_id":76561198082922382,"connected_time":131000000000,"state":"active","ping":76},{"user_id":818,"name":"Koyota","steam_id":76561198069878114,"connected_time":1402000000000,"state":"active","ping":74},{"user_id":790,"name":"An Old Lady","steam_id":76561198047480318,"connected_time":5725000000000,"state":"active","ping":69},{"user_id":797,"name":"KOOLAID","steam_id":76561198062775462,"connected_time":4964000000000,"state":"active","ping":75},{"user_id":785,"name":"rorywashere /ᐠ - ˕ -マ Ⳋ","steam_id":76561198065825165,"connected_time":6754000000000,"state":"active","ping":110},{"user_id":819,"name":"Lapras Lazuli","steam_id":76561198086995944,"connected_time":1370000000000,"state":"active","ping":65},{"user_id":808,"name":"gorlab","steam_id":76561198025089694,"connected_time":3214000000000,"state":"active","ping":60},{"user_id":814,"name":"big car","steam_id":76561198067082350,"connected_time":1914000000000,"state":"active","ping":75},{"user_id":810,"name":"\u003c3","steam_id":76561198196829267,"connected_time":2793000000000,"state":"active","ping":75},{"user_id":821,"name":"organic reproduction","steam_id":76561198314221897,"connected_time":1325000000000,"state":"active","ping":53},{"user_id":822,"name":"The Population of Sweden","steam_id":76561198202201644,"connected_time":1270000000000,"state":"active","ping":48},{"user_id":824,"name":"ʀ.ꕤ｡.","steam_id":76561198029580420,"connected_time":245000000000,"state":"active","ping":172},{"user_id":815,"name":"Oreodog300","steam_id":76561198137626866,"connected_time":1842000000000,"state":"active","ping":73},{"user_id":792,"name":"profile name","steam_id":76561198032625036,"connected_time":5580000000000,"state":"active","ping":59},{"user_id":823,"name":"façade","steam_id":76561199157009256,"connected_time":258000000000,"state":"active","ping":67},{"user_id":789,"name":"Yack Skag","steam_id":76561198068251493,"connected_time":5757000000000,"state":"active","ping":71},{"user_id":787,"name":"p9 jorts","steam_id":76561199041179985,"connected_time":6679000000000,"state":"active","ping":70}]},{"server_id":119,"name":"Uncletopia | Seattle | 2 | All Maps","name_short":"sea-2","host":"sea-1.us.uncletopia.com","port":27025,"enabled":true,"region":"us-west","cc":"us","latitude":47.608013,"longitude":-122.33517,"reserved":0,"last_update":"0001-01-01T00:00:00Z","name_a2s":"Uncletopia | Seattle | 2 | All Maps","protocol":17,"map":"pl_snowycoast","folder":"tf","game":"Team Fortress","app_id":440,"player_count":23,"max_players":24,"Bots":0,"server_type":"Dedicated","server_os":"Linux","password":true,"vac":true,"version":"7757534","steam_id":85568392924469998,"keywords":["nocrits","nodmgspread","payload","uncletopia"],"game_id":440,"stv_port":27026,"stv_name":"Uncletopia | Seattle | 2 | All Maps | STV","players":[{"user_id":385,"name":"Feel the bern","steam_id":76561198078824519,"connected_time":1921000000000,"state":"active","ping":83},{"user_id":391,"name":"hi i have a new mouse","steam_id":76561198424248616,"connected_time":1752000000000,"state":"active","ping":76},{"user_id":369,"name":"Nobuunga","steam_id":76561198100614981,"connected_time":3012000000000,"state":"active","ping":54},{"user_id":336,"name":"SvicidalBug","steam_id":76561198221390504,"connected_time":4952000000000,"state":"active","ping":61},{"user_id":403,"name":"Fengo","steam_id":76561198139917991,"connected_time":815000000000,"state":"active","ping":89},{"user_id":374,"name":"Oomitch","steam_id":76561198071702759,"connected_time":2471000000000,"state":"active","ping":56},{"user_id":405,"name":"Lays BBQ Chips","steam_id":76561198881093314,"connected_time":439000000000,"state":"active","ping":60},{"user_id":321,"name":"Deryn Sharp","steam_id":76561198047017346,"connected_time":6604000000000,"state":"active","ping":82},{"user_id":383,"name":"Sad Sapling","steam_id":76561198075612150,"connected_time":2180000000000,"state":"active","ping":91},{"user_id":371,"name":"oil","steam_id":76561198099980149,"connected_time":2793000000000,"state":"active","ping":76},{"user_id":395,"name":"goldhed","steam_id":76561198051751133,"connected_time":1414000000000,"state":"active","ping":56},{"user_id":350,"name":"Branz","steam_id":76561198076632143,"connected_time":4316000000000,"state":"active","ping":97},{"user_id":406,"name":"jadeite","steam_id":76561198022298676,"connected_time":401000000000,"state":"active","ping":32},{"user_id":379,"name":"Oxybe","steam_id":76561198010089172,"connected_time":2331000000000,"state":"active","ping":138},{"user_id":367,"name":"Palidens Cat","steam_id":76561199191671568,"connected_time":3394000000000,"state":"active","ping":70},{"user_id":399,"name":"Some Dood on the Internet","steam_id":76561198054657687,"connected_time":1055000000000,"state":"active","ping":60},{"user_id":366,"name":"Oh No! It's Twister!","steam_id":76561198016791916,"connected_time":3434000000000,"state":"active","ping":83},{"user_id":400,"name":"Colonel Chikara","steam_id":76561198010021087,"connected_time":1028000000000,"state":"active","ping":69},{"user_id":378,"name":"Shoggoth","steam_id":76561198117892299,"connected_time":2369000000000,"state":"active","ping":69},{"user_id":313,"name":"Julien","steam_id":76561199389584938,"connected_time":7023000000000,"state":"active","ping":43},{"user_id":402,"name":"Squatter1","steam_id":76561198078987734,"connected_time":896000000000,"state":"active","ping":108},{"user_id":372,"name":"Death Bird","steam_id":76561198041329791,"connected_time":2675000000000,"state":"active","ping":76},{"user_id":382,"name":"mobe","steam_id":76561198121633820,"connected_time":2203000000000,"state":"active","ping":81}]},{"server_id":406,"name":"Uncletopia | Seattle | 3 | Stopwatch Beta","name_short":"sea-3","host":"sea-1.us.uncletopia.com","port":27035,"enabled":true,"region":"us-west","cc":"us","latitude":47.608013,"longitude":-122.33517,"reserved":0,"last_update":"0001-01-01T00:00:00Z","name_a2s":"Uncletopia | Seattle | 3 | Stopwatch Beta","protocol":17,"map":"workshop/pl_summercoast_rc8e.ugc1761528829","folder":"tf","game":"Team Fortress","app_id":440,"player_count":0,"max_players":24,"Bots":0,"server_type":"Dedicated","server_os":"Linux","password":true,"vac":true,"version":"7757534","steam_id":85568392924515217,"keywords":["nocrits","nodmgspread","payload","uncletopia"],"game_id":440,"stv_port":27036,"stv_name":"Uncletopia | Seattle | 3 | Stopwatch Beta | STV","players":null},{"server_id":17,"name":"Uncletopia | San Francisco | 1 | All Maps","name_short":"sfo-1","host":"sfo-1.us.uncletopia.com","port":27015,"enabled":true,"region":"us-west","cc":"us","latitude":37.77397,"longitude":-122.4313,"reserved":0,"last_update":"0001-01-01T00:00:00Z","name_a2s":"Uncletopia | San Francisco | 1 | All Maps","protocol":17,"map":"koth_viaduct","folder":"tf","game":"Team Fortress","app_id":440,"player_count":0,"max_players":24,"Bots":0,"server_type":"Dedicated","server_os":"Linux","password":true,"vac":true,"version":"7757534","steam_id":85568392924469999,"keywords":["cp","nocrits","nodmgspread","uncletopia"],"game_id":440,"stv_port":27016,"stv_name":"Uncletopia | San Francisco | 1 | All Maps | STV","players":null},{"server_id":18,"name":"Uncletopia | San Francisco | 2 | All Maps","name_short":"sfo-2","host":"sfo-1.us.uncletopia.com","port":27025,"enabled":true,"region":"us-west","cc":"us","latitude":37.77397,"longitude":-122.4313,"reserved":0,"last_update":"0001-01-01T00:00:00Z","name_a2s":"Uncletopia | San Francisco | 2 | All Maps","protocol":17,"map":"pl_swiftwater_final1","folder":"tf","game":"Team Fortress","app_id":440,"player_count":20,"max_players":24,"Bots":0,"server_type":"Dedicated","server_os":"Linux","password":true,"vac":true,"version":"7757534","steam_id":85568392924470000,"keywords":["nocrits","nodmgspread","payload","uncletopia"],"game_id":440,"stv_port":27026,"stv_name":"Uncletopia | San Francisco | 2 | All Maps | STV","players":[{"user_id":164,"name":"Jango","steam_id":76561198121922413,"connected_time":1423000000000,"state":"active","ping":54},{"user_id":133,"name":"DeL's Arcade","steam_id":76561197972530119,"connected_time":4326000000000,"state":"active","ping":119},{"user_id":163,"name":"NewNebula12","steam_id":76561198146473719,"connected_time":1427000000000,"state":"active","ping":73},{"user_id":143,"name":"MinusSoup918","steam_id":76561198060902773,"connected_time":3062000000000,"state":"active","ping":71},{"user_id":174,"name":"Big Tony","steam_id":76561198086790000,"connected_time":342000000000,"state":"active","ping":81},{"user_id":175,"name":"Durazorn","steam_id":76561198096327396,"connected_time":318000000000,"state":"active","ping":110},{"user_id":109,"name":"NooBHatteR","steam_id":76561198077662703,"connected_time":6406000000000,"state":"active","ping":68},{"user_id":179,"name":"ice cream (冰淇淋)","steam_id":76561198976530881,"connected_time":78000000000,"state":"active","ping":58},{"user_id":156,"name":"Murk Wahlberg","steam_id":76561198131467867,"connected_time":2343000000000,"state":"active","ping":31},{"user_id":180,"name":"ahh","steam_id":76561198083271257,"connected_time":69000000000,"state":"active","ping":115},{"user_id":177,"name":"Lord_Durango","steam_id":76561199097564514,"connected_time":210000000000,"state":"active","ping":60},{"user_id":149,"name":"Schnitz(Lost my Glasses)","steam_id":76561198265484253,"connected_time":2593000000000,"state":"active","ping":63},{"user_id":171,"name":"Cyber Bear","steam_id":76561198015897168,"connected_time":1089000000000,"state":"active","ping":54},{"user_id":118,"name":"times table","steam_id":76561198341452558,"connected_time":5779000000000,"state":"active","ping":87},{"user_id":178,"name":"RustyOrion","steam_id":76561198439186347,"connected_time":172000000000,"state":"active","ping":67},{"user_id":137,"name":"Taste Of Pancakes","steam_id":76561198158784641,"connected_time":4239000000000,"state":"active","ping":73},{"user_id":159,"name":"unlucky","steam_id":76561199204822104,"connected_time":2252000000000,"state":"active","ping":76},{"user_id":144,"name":"Twisted Freaking Cyclepath","steam_id":76561198080775161,"connected_time":3058000000000,"state":"active","ping":75},{"user_id":160,"name":"EatSomeBEES","steam_id":76561198047334307,"connected_time":2210000000000,"state":"active","ping":64},{"user_id":162,"name":"PonYOOOOOOO","steam_id":76561199067424111,"connected_time":1824000000000,"state":"active","ping":60}]},{"server_id":19,"name":"Uncletopia | San Francisco | 3 | Stopwatch Beta","name_short":"sfo-3","host":"sfo-1.us.uncletopia.com","port":27035,"enabled":true,"region":"us-west","cc":"us","latitude":37.77397,"longitude":-122.4313,"reserved":0,"last_update":"0001-01-01T00:00:00Z","name_a2s":"Uncletopia | San Francisco | 3 | Stopwatch Beta","protocol":17,"map":"workshop/pl_vigil_rc9.ugc1266210012","folder":"tf","game":"Team Fortress","app_id":440,"player_count":0,"max_players":24,"Bots":0,"server_type":"Dedicated","server_os":"Linux","password":true,"vac":true,"version":"7757534","steam_id":85568392924742824,"keywords":["nocrits","nodmgspread","payload","uncletopia"],"game_id":440,"stv_port":27036,"stv_name":"Uncletopia | San Francisco | 3 | Stopwatch Beta | STV","players":null},{"server_id":20,"name":"Uncletopia | San Francisco | 4 | Community","name_short":"sfo-4","host":"sfo-1.us.uncletopia.com","port":27045,"enabled":true,"region":"us-west","cc":"us","latitude":37.77397,"longitude":-122.4313,"reserved":0,"last_update":"0001-01-01T00:00:00Z","name_a2s":"Uncletopia | San Francisco | 4 | Community","protocol":17,"map":"workshop/koth_bagel_rc5.ugc2514036946","folder":"tf","game":"Team Fortress","app_id":440,"player_count":0,"max_players":24,"Bots":0,"server_type":"Dedicated","server_os":"Linux","password":true,"vac":true,"version":"7757534","steam_id":85568392924742826,"keywords":["cp","nocrits","nodmgspread","uncletopia"],"game_id":440,"stv_port":27046,"stv_name":"Uncletopia | San Francisco | 4 | Community | STV","players":null},{"server_id":141,"name":"Uncletopia | Sydney | 1 | All Maps","name_short":"syd-1","host":"syd-1.au.uncletopia.com","port":27015,"enabled":true,"region":"au","cc":"au","latitude":-33.865143,"longitude":151.2099,"reserved":0,"last_update":"0001-01-01T00:00:00Z","name_a2s":"Uncletopia | Sydney | 1 | All Maps","protocol":17,"map":"pl_upward","folder":"tf","game":"Team Fortress","app_id":440,"player_count":23,"max_players":24,"Bots":0,"server_type":"Dedicated","server_os":"Linux","password":true,"vac":true,"version":"7757534","steam_id":85568392924470001,"keywords":["nocrits","nodmgspread","payload","uncletopia"],"game_id":440,"stv_port":27016,"stv_name":"Uncletopia | Sydney | 1 | All Maps | STV","players":[{"user_id":465,"name":"Meme Aids","steam_id":76561198847593053,"connected_time":2804000000000,"state":"active","ping":55},{"user_id":492,"name":"Cv76","steam_id":76561198817942619,"connected_time":624000000000,"state":"active","ping":37},{"user_id":469,"name":"Leonidas","steam_id":76561198054096076,"connected_time":2547000000000,"state":"active","ping":53},{"user_id":487,"name":"Drakeo","steam_id":76561198268859184,"connected_time":660000000000,"state":"active","ping":91},{"user_id":488,"name":"Ratbagus","steam_id":76561197993827486,"connected_time":645000000000,"state":"active","ping":78},{"user_id":495,"name":"Matt","steam_id":76561198006791420,"connected_time":479000000000,"state":"active","ping":98},{"user_id":499,"name":"ADUCK","steam_id":76561198249887912,"connected_time":273000000000,"state":"active","ping":59},{"user_id":490,"name":"SWAG DRAGON","steam_id":76561197960279341,"connected_time":635000000000,"state":"active","ping":61},{"user_id":501,"name":"fear, uncertainty and doubt","steam_id":76561197980015398,"connected_time":253000000000,"state":"active","ping":46},{"user_id":434,"name":"match","steam_id":76561198088227748,"connected_time":5749000000000,"state":"active","ping":58},{"user_id":470,"name":"HououinKyoumaMadScientistSoCOOL","steam_id":76561198287321229,"connected_time":2536000000000,"state":"active","ping":75},{"user_id":481,"name":"ScaleForm","steam_id":76561198950855452,"connected_time":1097000000000,"state":"active","ping":64},{"user_id":441,"name":"Hally","steam_id":76561198045236233,"connected_time":5000000000000,"state":"active","ping":57},{"user_id":480,"name":"Hungus Humongous","steam_id":76561198379682659,"connected_time":1656000000000,"state":"active","ping":63},{"user_id":474,"name":"Lobarté","steam_id":76561198090116136,"connected_time":2339000000000,"state":"active","ping":62},{"user_id":464,"name":"clout","steam_id":76561198073310502,"connected_time":2810000000000,"state":"active","ping":80},{"user_id":494,"name":"cunning chris","steam_id":76561197972510204,"connected_time":589000000000,"state":"active","ping":57},{"user_id":467,"name":"A KNIFE!","steam_id":76561198160390701,"connected_time":2689000000000,"state":"active","ping":54},{"user_id":500,"name":"PieRats","steam_id":76561199098598057,"connected_time":254000000000,"state":"active","ping":70},{"user_id":429,"name":"Void_Robin","steam_id":76561198855798566,"connected_time":6364000000000,"state":"active","ping":69},{"user_id":503,"name":"TigerThorn","steam_id":76561198930701873,"connected_time":170000000000,"state":"active","ping":60},{"user_id":504,"name":"Professional Model Railroader","steam_id":76561199249059042,"connected_time":164000000000,"state":"active","ping":96},{"user_id":505,"name":"CRUMMPET","steam_id":76561199466188620,"connected_time":144000000000,"state":"active","ping":75}]},{"server_id":123,"name":"Uncletopia | Sydney | 2 | All Maps","name_short":"syd-2","host":"syd-1.au.uncletopia.com","port":27025,"enabled":true,"region":"au","cc":"au","latitude":-33.865143,"longitude":151.2099,"reserved":0,"last_update":"0001-01-01T00:00:00Z","name_a2s":"Uncletopia | Sydney | 2 | All Maps","protocol":17,"map":"pl_frontier_final","folder":"tf","game":"Team Fortress","app_id":440,"player_count":24,"max_players":24,"Bots":0,"server_type":"Dedicated","server_os":"Linux","password":true,"vac":true,"version":"7757534","steam_id":85568392924470002,"keywords":["nocrits","nodmgspread","payload","uncletopia"],"game_id":440,"stv_port":27026,"stv_name":"Uncletopia | Sydney | 2 | All Maps | STV","players":[{"user_id":220,"name":"TheDoctor30","steam_id":76561198433686866,"connected_time":221000000000,"state":"active","ping":107},{"user_id":199,"name":"Paula","steam_id":76561198010688399,"connected_time":2124000000000,"state":"active","ping":124},{"user_id":163,"name":"Eugene (built different)","steam_id":76561198079108027,"connected_time":3972000000000,"state":"active","ping":54},{"user_id":174,"name":"Johngamer2418","steam_id":76561198377832282,"connected_time":3493000000000,"state":"active","ping":55},{"user_id":219,"name":"FROS-T","steam_id":76561199230621703,"connected_time":397000000000,"state":"active","ping":78},{"user_id":191,"name":"Wild ???","steam_id":76561198133529257,"connected_time":2996000000000,"state":"active","ping":65},{"user_id":203,"name":"EpicGuy4227","steam_id":76561198094132328,"connected_time":1905000000000,"state":"active","ping":52},{"user_id":179,"name":"Pew pew pew!","steam_id":76561198004120277,"connected_time":3371000000000,"state":"active","ping":44},{"user_id":169,"name":"pants money","steam_id":76561198066256359,"connected_time":3798000000000,"state":"active","ping":53},{"user_id":207,"name":"pizza supper","steam_id":76561198044487625,"connected_time":1386000000000,"state":"active","ping":45},{"user_id":162,"name":"sabeuo","steam_id":76561198288259746,"connected_time":4133000000000,"state":"active","ping":59},{"user_id":216,"name":"freek","steam_id":76561198406237673,"connected_time":544000000000,"state":"active","ping":58},{"user_id":206,"name":"cretin","steam_id":76561198127848228,"connected_time":1503000000000,"state":"active","ping":59},{"user_id":171,"name":"Dr. Hoppity","steam_id":76561197999715646,"connected_time":3584000000000,"state":"active","ping":57},{"user_id":218,"name":"Oysenberry","steam_id":76561198125443335,"connected_time":408000000000,"state":"active","ping":34},{"user_id":212,"name":"Kanga Bangas","steam_id":76561198162187264,"connected_time":1019000000000,"state":"active","ping":82},{"user_id":189,"name":"pablo.rodriguez.2015","steam_id":76561198166909147,"connected_time":3112000000000,"state":"active","ping":40},{"user_id":210,"name":"Morgenstern","steam_id":76561198253080474,"connected_time":1332000000000,"state":"active","ping":65},{"user_id":213,"name":"BeSpOkE","steam_id":76561198880911058,"connected_time":893000000000,"state":"active","ping":73},{"user_id":215,"name":"Jasmine","steam_id":76561198872890799,"connected_time":578000000000,"state":"active","ping":80},{"user_id":198,"name":"tweedie","steam_id":76561198063425523,"connected_time":2139000000000,"state":"active","ping":61},{"user_id":217,"name":"calm","steam_id":76561198079512004,"connected_time":528000000000,"state":"active","ping":58},{"user_id":182,"name":"Beano","steam_id":76561198064883218,"connected_time":3312000000000,"state":"active","ping":67},{"user_id":195,"name":"Shtinky","steam_id":76561199186320078,"connected_time":2550000000000,"state":"active","ping":51}]},{"server_id":395,"name":"Uncletopia | Sydney | 3 | All Maps","name_short":"syd-3","host":"syd-1.au.uncletopia.com","port":27035,"enabled":true,"region":"au","cc":"au","latitude":-33.865143,"longitude":151.2099,"reserved":0,"last_update":"0001-01-01T00:00:00Z","name_a2s":"Uncletopia | Sydney | 3 | All Maps","protocol":17,"map":"pl_pier","folder":"tf","game":"Team Fortress","app_id":440,"player_count":1,"max_players":24,"Bots":0,"server_type":"Dedicated","server_os":"Linux","password":true,"vac":true,"version":"7757534","steam_id":85568392925194467,"keywords":["nocrits","nodmgspread","payload","uncletopia"],"game_id":440,"stv_port":27036,"stv_name":"Uncletopia | Sydney | 3 | All Maps | STV","players":[{"user_id":25,"name":"*+gay-furry-daddy-milker+* (f2p","steam_id":76561199140643169,"connected_time":173000000000,"state":"active","ping":277}]},{"server_id":396,"name":"Uncletopia | Sydney | 4 | All Maps","name_short":"syd-4","host":"syd-1.au.uncletopia.com","port":27045,"enabled":true,"region":"au","cc":"au","latitude":-33.865143,"longitude":151.2099,"reserved":0,"last_update":"0001-01-01T00:00:00Z","name_a2s":"Uncletopia | Sydney | 4 | All Maps","protocol":17,"map":"cp_sunshine","folder":"tf","game":"Team Fortress","app_id":440,"player_count":0,"max_players":24,"Bots":0,"server_type":"Dedicated","server_os":"Linux","password":true,"vac":true,"version":"7757534","steam_id":85568392925397958,"keywords":["cp","nocrits","nodmgspread","uncletopia"],"game_id":440,"stv_port":27046,"stv_name":"Uncletopia | Sydney | 4 | All Maps | STV","players":null},{"server_id":58,"name":"Uncletopia | Sydney | 5 | Stopwatch Beta","name_short":"syd-5","host":"syd-1.au.uncletopia.com","port":27055,"enabled":true,"region":"au","cc":"au","latitude":-33.865143,"longitude":151.2099,"reserved":0,"last_update":"0001-01-01T00:00:00Z","name_a2s":"Uncletopia | Sydney | 5 | Stopwatch Beta","protocol":17,"map":"pl_barnblitz","folder":"tf","game":"Team Fortress","app_id":440,"player_count":0,"max_players":24,"Bots":0,"server_type":"Dedicated","server_os":"Linux","password":true,"vac":true,"version":"7757534","steam_id":85568392925397959,"keywords":["nocrits","nodmgspread","payload","uncletopia"],"game_id":440,"stv_port":27056,"stv_name":"Uncletopia | Sydney | 5 | Stopwatch Beta | STV","players":null},{"server_id":59,"name":"Uncletopia | Sydney | 6 | Community","name_short":"syd-6","host":"syd-1.au.uncletopia.com","port":27065,"enabled":true,"region":"au","cc":"au","latitude":-33.865143,"longitude":151.2099,"reserved":0,"last_update":"0001-01-01T00:00:00Z","name_a2s":"Uncletopia | Sydney | 6 | Community","protocol":17,"map":"workshop/koth_synthetic_rc6a.ugc1549817316","folder":"tf","game":"Team Fortress","app_id":440,"player_count":0,"max_players":24,"Bots":0,"server_type":"Dedicated","server_os":"Linux","password":true,"vac":true,"version":"7757534","steam_id":85568392925397960,"keywords":["cp","nocrits","nodmgspread","uncletopia"],"game_id":440,"stv_port":27066,"stv_name":"Uncletopia | Sydney | 6 | Community | STV","players":null},{"server_id":49,"name":"Uncletopia | Warsaw | 1 | All Maps","name_short":"waw-1","host":"waw-1.pl.uncletopia.com","port":27015,"enabled":true,"region":"eu","cc":"pl","latitude":52.2297,"longitude":21.017532,"reserved":0,"last_update":"0001-01-01T00:00:00Z","name_a2s":"","protocol":0,"map":"","folder":"","game":"","app_id":0,"player_count":0,"max_players":0,"Bots":0,"server_type":"","server_os":"","password":false,"vac":false,"version":"","steam_id":0,"keywords":null,"game_id":0,"stv_port":0,"stv_name":"","players":null},{"server_id":50,"name":"Uncletopia | Warsaw | 2 | All Maps","name_short":"waw-2","host":"waw-1.pl.uncletopia.com","port":27025,"enabled":true,"region":"eu","cc":"pl","latitude":52.2297,"longitude":21.017532,"reserved":0,"last_update":"0001-01-01T00:00:00Z","name_a2s":"Uncletopia | Warsaw | 2 | All Maps","protocol":17,"map":"pl_snowycoast","folder":"tf","game":"Team Fortress","app_id":440,"player_count":0,"max_players":24,"Bots":0,"server_type":"Dedicated","server_os":"Linux","password":true,"vac":true,"version":"7757534","steam_id":85568392925397851,"keywords":["nocrits","nodmgspread","payload","uncletopia"],"game_id":440,"stv_port":27026,"stv_name":"Uncletopia | Warsaw | 2 | All Maps | STV","players":null},{"server_id":51,"name":"Uncletopia | Warsaw | 3 | All Maps","name_short":"waw-3","host":"waw-1.pl.uncletopia.com","port":27035,"enabled":true,"region":"eu","cc":"pl","latitude":52.2297,"longitude":21.017532,"reserved":0,"last_update":"0001-01-01T00:00:00Z","name_a2s":"Uncletopia | Warsaw | 3 | All Maps","protocol":17,"map":"cp_sunshine","folder":"tf","game":"Team Fortress","app_id":440,"player_count":0,"max_players":24,"Bots":0,"server_type":"Dedicated","server_os":"Linux","password":true,"vac":true,"version":"7757534","steam_id":85568392925397852,"keywords":["cp","nocrits","nodmgspread","uncletopia"],"game_id":440,"stv_port":27036,"stv_name":"Uncletopia | Warsaw | 3 | All Maps | STV","players":null},{"server_id":52,"name":"Uncletopia | Warsaw | 4 | All Maps","name_short":"waw-4","host":"waw-1.pl.uncletopia.com","port":27045,"enabled":true,"region":"eu","cc":"pl","latitude":52.2297,"longitude":21.017532,"reserved":0,"last_update":"0001-01-01T00:00:00Z","name_a2s":"Uncletopia | Warsaw | 4 | All Maps","protocol":17,"map":"pl_borneo","folder":"tf","game":"Team Fortress","app_id":440,"player_count":0,"max_players":24,"Bots":0,"server_type":"Dedicated","server_os":"Linux","password":true,"vac":true,"version":"7757534","steam_id":85568392925397853,"keywords":["nocrits","nodmgspread","payload","uncletopia"],"game_id":440,"stv_port":27046,"stv_name":"Uncletopia | Warsaw | 4 | All Maps | STV","players":null},{"server_id":53,"name":"Uncletopia | Warsaw | 5 | Stopwatch Beta","name_short":"waw-5","host":"waw-1.pl.uncletopia.com","port":27055,"enabled":true,"region":"eu","cc":"pl","latitude":52.2297,"longitude":21.017532,"reserved":0,"last_update":"0001-01-01T00:00:00Z","name_a2s":"Uncletopia | Warsaw | 5 | Stopwatch Beta","protocol":17,"map":"pl_upward","folder":"tf","game":"Team Fortress","app_id":440,"player_count":0,"max_players":24,"Bots":0,"server_type":"Dedicated","server_os":"Linux","password":true,"vac":true,"version":"7757534","steam_id":85568392925397854,"keywords":["nocrits","nodmgspread","payload","uncletopia"],"game_id":440,"stv_port":27056,"stv_name":"Uncletopia | Warsaw | 5 | Stopwatch Beta | STV","players":null},{"server_id":54,"name":"Uncletopia | Warsaw | 6 | Community","name_short":"waw-6","host":"waw-1.pl.uncletopia.com","port":27065,"enabled":true,"region":"eu","cc":"pl","latitude":52.2297,"longitude":21.017532,"reserved":0,"last_update":"0001-01-01T00:00:00Z","name_a2s":"Uncletopia | Warsaw | 6 | Community","protocol":17,"map":"pl_barnblitz","folder":"tf","game":"Team Fortress","app_id":440,"player_count":0,"max_players":24,"Bots":0,"server_type":"Dedicated","server_os":"Linux","password":true,"vac":true,"version":"7757534","steam_id":85568392925397856,"keywords":["nocrits","nodmgspread","payload","uncletopia"],"game_id":440,"stv_port":27066,"stv_name":"Uncletopia | Warsaw | 6 | Community | STV","players":null}]}