{"status":true,"message":"","result":[{"server_id":9,"name":"Uncletopia | Atlanta | 1 | All Maps","name_short":"atl-1","host":"atl-1.us.uncletopia.com","port":27015,"enabled":true,"region":"us-east","cc":"us","latitude":33.753746,"longitude":-84.38633,"reserved":0,"last_update":"0001-01-01T00:00:00Z","name_a2s":"Uncletopia | Atlanta | 1 | All Maps","protocol":17,"map":"koth_cascade","folder":"tf","game":"Team Fortress","app_id":440,"player_count":0,"max_players":24,"Bots":0,"server_type":"Dedicated","server_os":"Linux","password":true,"vac":true,"version":"7757534","steam_id":85568392924469982,"keywords":["cp","nocrits","nodmgspread","uncletopia"],"game_id":440,"stv_port":27016,"stv_name":"Uncletopia | Atlanta | 1 | All Maps | STV","players":null},{"server_id":104,"name":"Uncletopia | Atlanta | 2 | All Maps","name_short":"atl-2","host":"atl-1.us.uncletopia.com","port":27025,"enabled":true,"region":"us-east","cc":"us","latitude":33.753746,"longitude":-84.38633,"reserved":0,"last_update":"0001-01-01T00:00:00Z","name_a2s":"Uncletopia | Atlanta | 2 | All Maps","protocol":17,"map":"cp_dustbowl","folder":"tf","game":"Team Fortress","app_id":440,"player_count":0,"max_players":24,"Bots":0,"server_type":"Dedicated","server_os":"Linux","password":true,"vac":true,"version":"7757534","steam_id":85568392924469983,"keywords":["cp","nocrits","nodmgspread","uncletopia"],"game_id":440,"stv_port":27026,"stv_name":"Uncletopia | Atlanta | 2 | All Maps | STV","players":null},{"server_id":400,"name":"Uncletopia | Atlanta | 3 | Community","name_short":"atl-3","host":"atl-1.us.uncletopia.com","port":27035,"enabled":true,"region":"us-east","cc":"us","latitude":33.753746,"longitude":-84.38633,"reserved":0,"last_update":"0001-01-01T00:00:00Z","name_a2s":"Uncletopia | Atlanta | 3 | Community","protocol":17,"map":"cp_snakewater_final1","folder":"tf","game":"Team Fortress","app_id":440,"player_count":0,"max_players":24,"Bots":0,"server_type":"Dedicated","server_os":"Linux","password":true,"vac":true,"version":"7757534","steam_id":85568392924515187,"keywords":["cp","nocrits","nodmgspread","uncletopia"],"game_id":440,"stv_port":27036,"stv_name":"Uncletopia | Atlanta | 3 | Community | STV","players":null},{"server_id":401,"name":"Uncletopia | Atlanta | 4 | No Payload","name_short":"atl-4","host":"atl-1.us.uncletopia.com","port":27045,"enabled":true,"region":"us-east","cc":"us","latitude":33.753746,"longitude":-84.38633,"reserved":0,"last_update":"0001-01-01T00:00:00Z","name_a2s":"","protocol":0,"map":"","folder":"","game":"","app_id":0,"player_count":0,"max_players":0,"Bots":0,"server_type":"","server_os":"","password":false,"vac":false,"version":"","steam_id":0,"keywords":null,"game_id":0,"stv_port":0,"stv_name":"","players":null},{"server_id":2,"name":"Uncletopia | Chicago | 1 | All Maps","name_short":"chi-1","host":"chi-1.us.uncletopia.com","port":27015,"enabled":true,"region":"us-central","cc":"us","latitude":41.881832,"longitude":-87.62318,"reserved":0,"last_update":"0001-01-01T00:00:00Z","name_a2s":"Uncletopia | Chicago | 1 | All Maps","protocol":17,"map":"pl_snowycoast","folder":"tf","game":"Team Fortress","app_id":440,"player_count":24,"max_players":24,"Bots":0,"server_type":"Dedicated","server_os":"Linux","password":true,"vac":true,"version":"7757534","steam_id":85568392924469984,"keywords":["nocrits","nodmgspread","payload","uncletopia"],"game_id":440,"stv_port":27016,"stv_name":"Uncletopia | Chicago | 1 | All Maps | STV","players":[{"user_id":131,"name":"soda drink","steam_id":76561198092422065,"connected_time":495000000000,"state":"active","ping":75},{"user_id":29,"name":"Pizza Vore","steam_id":76561198286114190,"connected_time":6137000000000,"state":"active","ping":139},{"user_id":112,"name":"Walter White","steam_id":76561199030987614,"connected_time":1744000000000,"state":"active","ping":85},{"user_id":143,"name":"JupiterSky","steam_id":76561198142785186,"connected_time":128000000000,"state":"active","ping":84},{"user_id":113,"name":"LerN","steam_id":76561198083463877,"connected_time":1744000000000,"state":"active","ping":46},{"user_id":110,"name":"god doesnt here me","steam_id":76561198125328737,"connected_time":1758000000000,"state":"active","ping":61},{"user_id":15,"name":"Raizen","steam_id":76561199092445367,"connected_time":7683000000000,"state":"active","ping":38},{"user_id":111,"name":"THEFUMESMAKEMESTRONGER","steam_id":76561198047844129,"connected_time":1758000000000,"state":"active","ping":67},{"user_id":107,"name":"Tom","steam_id":76561198070630154,"connected_time":2012000000000,"state":"active","ping":90},{"user_id":121,"name":"shadow elite","steam_id":76561198165212575,"connected_time":1610000000000,"state":"active","ping":75},{"user_id":115,"name":"FROYO yumyum","steam_id":76561198150567198,"connected_time":1736000000000,"state":"active","ping":60},{"user_id":133,"name":"Elflocky","steam_id":76561199096852639,"connected_time":448000000000,"state":"active","ping":71},{"user_id":134,"name":"B0otstrut beel","steam_id":76561198202457221,"connected_time":438000000000,"state":"active","ping":70},{"user_id":123,"name":"仙女头子于谦","steam_id":76561199031075505,"connected_time":1562000000000,"state":"active","ping":170},{"user_id":141,"name":"VerdantSunset","steam_id":76561198062313478,"connected_time":145000000000,"state":"active","ping":80},{"user_id":138,"name":"♥♥Domo♥♥","steam_id":76561198134313911,"connected_time":241000000000,"state":"active","ping":86},{"user_id":144,"name":"Porsy","steam_id":76561198041850843,"connected_time":71000000000,"state":"active","ping":40},{"user_id":109,"name":"chef!","steam_id":76561198086960878,"connected_time":1935000000000,"state":"active","ping":54},{"user_id":135,"name":"Doctor Vegeta","steam_id":76561198353898356,"connected_time":432000000000,"state":"active","ping":107},{"user_id":136,"name":"ThatThingWithaK","steam_id":76561198317602350,"connected_time":396000000000,"state":"active","ping":84},{"user_id":76,"name":"ItsRoy","steam_id":76561198119525485,"connected_time":4220000000000,"state":"active","ping":56},{"user_id":128,"name":"pelt","steam_id":76561197993593754,"connected_time":734000000000,"state":"active","ping":51},{"user_id":137,"name":"big gay bowacunga","steam_id":76561198389398163,"connected_time":365000000000,"state":"active","ping":62},{"user_id":120,"name":"SuperFresh","steam_id":76561198200723198,"connected_time":1637000000000,"state":"active","ping":38}]},{"server_id":106,"name":"Uncletopia | Chicago | 2 | All Maps","name_short":"chi-2","host":"chi-1.us.uncletopia.com","port":27025,"enabled":true,"region":"us-central","cc":"us","latitude":41.881832,"longitude":-87.62318,"reserved":0,"last_update":"0001-01-01T00:00:00Z","name_a2s":"Uncletopia | Chicago | 2 | All Maps","protocol":17,"map":"cp_altitude","folder":"tf","game":"Team Fortress","app_id":440,"player_count":0,"max_players":24,"Bots":0,"server_type":"Dedicated","server_os":"Linux","password":true,"vac":true,"version":"7757534","steam_id":85568392924469985,"keywords":["cp","nocrits","nodmgspread","uncletopia"],"game_id":440,"stv_port":27026,"stv_name":"Uncletopia | Chicago | 2 | All Maps | STV","players":null},{"server_id":402,"name":"Uncletopia | Chicago | 3 | All Maps","name_short":"chi-3","host":"chi-1.us.uncletopia.com","port":27035,"enabled":true,"region":"us-central","cc":"us","latitude":41.881832,"longitude":-87.62318,"reserved":0,"last_update":"0001-01-01T00:00:00Z","name_a2s":"Uncletopia | Chicago | 3 | All Maps","protocol":17,"map":"pl_upward","folder":"tf","game":"Team Fortress","app_id":440,"player_count":5,"max_players":24,"Bots":0,"server_type":"Dedicated","server_os":"Linux","password":true,"vac":true,"version":"7757534","steam_id":85568392924515191,"keywords":["nocrits","nodmgspread","payload","uncletopia"],"game_id":440,"stv_port":27036,"stv_name":"Uncletopia | Chicago | 3 | All Maps | STV","players":[{"user_id":7,"name":"magickxanadu","steam_id":76561199117360103,"connected_time":512000000000,"state":"active","ping":72},{"user_id":8,"name":"+Goober+","steam_id":76561199200969139,"connected_time":331000000000,"state":"active","ping":97},{"user_id":9,"name":"ConRad","steam_id":76561198439758876,"connected_time":319000000000,"state":"active","ping":81},{"user_id":10,"name":"Neon","steam_id":76561198089067907,"connected_time":156000000000,"state":"active","ping":62},{"user_id":11,"name":"AED","steam_id":76561198384123465,"connected_time":145000000000,"state":"active","ping":68}]},{"server_id":403,"name":"Uncletopia | Chicago | 4 | All Maps","name_short":"chi-4","host":"chi-1.us.uncletopia.com","port":27045,"enabled":true,"region":"us-central","cc":"us","latitude":41.881832,"longitude":-87.62318,"reserved":0,"last_update":"0001-01-01T00:00:00Z","name_a2s":"Uncletopia | Chicago | 4 | All Maps","protocol":17,"map":"koth_lakeside_final","folder":"tf","game":"Team Fortress","app_id":440,"player_count":0,"max_players":24,"Bots":0,"server_type":"Dedicated","server_os":"Linux","password":true,"vac":true,"version":"7757534","steam_id":85568392924515193,"keywords":["cp","nocrits","nodmgspread","uncletopia"],"game_id":440,"stv_port":27046,"stv_name":"Uncletopia | Chicago | 4 | All Maps | STV","players":null},{"server_id":36,"name":"Uncletopia | Chicago | 5 | All Maps","name_short":"chi-5","host":"chi-2.us.uncletopia.com","port":27015,"enabled":true,"region":"us-central","cc":"us","latitude":41.881832,"longitude":-87.62318,"reserved":0,"last_update":"0001-01-01T00:00:00Z","name_a2s":"Uncletopia | Chicago | 5 | All Maps","protocol":17,"map":"koth_cascade","folder":"tf","game":"Team Fortress","app_id":440,"player_count":0,"max_players":24,"Bots":0,"server_type":"Dedicated","server_os":"Linux","password":true,"vac":true,"version":"7757534","steam_id":85568392924866362,"keywords":["cp","nocrits","nodmgspread","uncletopia"],"game_id":440,"stv_port":27016,"stv_name":"Uncletopia | Chicago | 5 | All Maps | STV","players":null},{"server_id":37,"name":"Uncletopia | Chicago | 6 | All Maps","name_short":"chi-6","host":"chi-2.us.uncletopia.com","port":27025,"enabled":true,"region":"us-central","cc":"us","latitude":41.881832,"longitude":-87.62318,"reserved":0,"last_update":"0001-01-01T00:00:00Z","name_a2s":"Uncletopia | Chicago | 6 | All Maps","protocol":17,"map":"pl_borneo","folder":"tf","game":"Team Fortress","app_id":440,"player_count":0,"max_players":24,"Bots":0,"server_type":"Dedicated","server_os":"Linux","password":true,"vac":true,"version":"7757534","steam_id":85568392924866363,"keywords":["nocrits","nodmgspread","payload","uncletopia"],"game_id":440,"stv_port":27026,"stv_name":"Uncletopia | Chicago | 6 | All Maps | STV","players":null},{"server_id":38,"name":"Uncletopia | Chicago | 7 | Stopwatch Beta","name_short":"chi-7","host":"chi-2.us.uncletopia.com","port":27035,"enabled":true,"region":"us-central","cc":"us","latitude":41.881832,"longitude":-87.62318,"reserved":0,"last_update":"0001-01-01T00:00:00Z","name_a2s":"Uncletopia | Chicago | 7 | Stopwatch Beta","protocol":17,"map":"pl_barnblitz","folder":"tf","game":"Team Fortress","app_id":440,"player_count":0,"max_players":24,"Bots":0,"server_type":"Dedicated","server_os":"Linux","password":true,"vac":true,"version":"7757534","steam_id":85568392924866364,"keywords":["nocrits","nodmgspread","payload","uncletopia"],"game_id":440,"stv_port":27036,"stv_name":"Uncletopia | Chicago | 7 | Stopwatch Beta | STV","players":null},{"server_id":39,"name":"Uncletopia | Chicago | 8 | Community","name_short":"chi-8","host":"chi-2.us.uncletopia.com","port":27045,"enabled":true,"region":"us-central","cc":"us","latitude":41.881832,"longitude":-87.62318,"reserved":0,"last_update":"0001-01-01T00:00:00Z","name_a2s":"Uncletopia | Chicago | 8 | Community","protocol":17,"map":"koth_cascade","folder":"tf","game":"Team Fortress","app_id":440,"player_count":0,"max_players":24,"Bots":0,"server_type":"Dedicated","server_os":"Linux","password":true,"vac":true,"version":"7757534","steam_id":85568392924866365,"keywords":["cp","nocrits","nodmgspread","uncletopia"],"game_id":440,"stv_port":27046,"stv_name":"Uncletopia | Chicago | 8 | Community | STV","players":null},{"server_id":8,"name":"Uncletopia | Dallas | 1 | All Maps","name_short":"dal-1","host":"dal-1.us.uncletopia.com","port":27015,"enabled":true,"region":"us-central","cc":"us","latitude":32.779167,"longitude":-96.80889,"reserved":0,"last_update":"0001-01-01T00:00:00Z","name_a2s":"Uncletopia | Dallas | 1 | All Maps","protocol":17,"map":"koth_cascade","folder":"tf","game":"Team Fortress","app_id":440,"player_count":0,"max_players":24,"Bots":0,"server_type":"Dedicated","server_os":"Linux","password":true,"vac":true,"version":"7757534","steam_id":85568392924469986,"keywords":["cp","nocrits","nodmgspread","uncletopia"],"game_id":440,"stv_port":27016,"stv_name":"Uncletopia | Dallas | 1 | All Maps | STV","players":null},{"server_id":108,"name":"Uncletopia | Dallas | 2 | All Maps","name_short":"dal-2","host":"dal-1.us.uncletopia.com","port":27025,"enabled":true,"region":"us-central","cc":"us","latitude":32.779167,"longitude":-96.80889,"reserved":0,"last_update":"0001-01-01T00:00:00Z","name_a2s":"Uncletopia | Dallas | 2 | All Maps","protocol":17,"map":"cp_process_final","folder":"tf","game":"Team Fortress","app_id":440,"player_count":24,"max_players":24,"Bots":0,"server_type":"Dedicated","server_os":"Linux","password":true,"vac":true,"version":"7757534","steam_id":85568392924469988,"keywords":["cp","nocrits","nodmgspread","uncletopia"],"game_id":440,"stv_port":27026,"stv_name":"Uncletopia | Dallas | 2 | All Maps | STV","players":[{"user_id":115,"name":"BurningKev","steam_id":76561198057688837,"connected_time":5036000000000,"state":"active","ping":73},{"user_id":116,"name":"ice cream (冰淇淋)","steam_id":76561198976530881,"connected_time":5031000000000,"state":"active","ping":74},{"user_id":137,"name":"Kiso 火","steam_id":76561198141026844,"connected_time":2619000000000,"state":"active","ping":120},{"user_id":153,"name":"Arrythmia","steam_id":76561198093748123,"connected_time":959000000000,"state":"active","ping":105},{"user_id":150,"name":"ark","steam_id":76561198041066271,"connected_time":1231000000000,"state":"active","ping":75},{"user_id":151,"name":"Kenji","steam_id":76561198089630547,"connected_time":1100000000000,"state":"active","ping":60},{"user_id":154,"name":"Camfour","steam_id":76561198083090140,"connected_time":926000000000,"state":"active","ping":84},{"user_id":156,"name":"Winter the Witchie","steam_id":76561198151971178,"connected_time":858000000000,"state":"active","ping":82},{"user_id":128,"name":"the pest","steam_id":76561198826298849,"connected_time":3443000000000,"state":"active","ping":94},{"user_id":155,"name":"Gless","steam_id":76561198059194418,"connected_time":883000000000,"state":"active","ping":86},{"user_id":117,"name":"SadFapping","steam_id":76561198076651049,"connected_time":5015000000000,"state":"active","ping":114},{"user_id":129,"name":"endo","steam_id":76561197995204381,"connected_time":3441000000000,"state":"active","ping":75},{"user_id":130,"name":"JoJo","steam_id":76561198063687796,"connected_time":3440000000000,"state":"active","ping":118},{"user_id":140,"name":"CFG Ponder","steam_id":76561198127039453,"connected_time":2505000000000,"state":"active","ping":70},{"user_id":141,"name":"smugdoug","steam_id":76561198021381678,"connected_time":2479000000000,"state":"active","ping":76},{"user_id":144,"name":"Habber The Quesomancer","steam_id":76561198049642751,"connected_time":2219000000000,"state":"active","ping":43},{"user_id":149,"name":"ProbiusSC","steam_id":76561198379167322,"connected_time":1341000000000,"state":"active","ping":89},{"user_id":114,"name":"Grassman (Cc)","steam_id":76561198026488532,"connected_time":5086000000000,"state":"active","ping":89},{"user_id":109,"name":"Blue Necromancer","steam_id":76561198275755146,"connected_time":5833000000000,"state":"active","ping":98},{"user_id":147,"name":"white ray","steam_id":76561198026664629,"connected_time":1572000000000,"state":"active","ping":75},{"user_id":120,"name":"Dude bro","steam_id":76561198249916746,"connected_time":4436000000000,"state":"active","ping":75},{"user_id":157,"name":"°Creamy Gilligan","steam_id":76561198001569384,"connected_time":590000000000,"state":"active","ping":86},{"user_id":135,"name":"A Gamer [F2P]","steam_id":76561198138712892,"connected_time":2674000000000,"state":"active","ping":44},{"user_id":124,"name":"Joe Swanson","steam_id":76561199089907740,"connected_time":4380000000000,"state":"active","ping":134}]},{"server_id":5,"name":"Uncletopia | Frankfurt | 1 | All Maps","name_short":"frk-1","host":"frk-1.de.uncletopia.com","port":27015,"enabled":true,"region":"eu","cc":"de","latitude":50.110924,"longitude":8.682127,"reserved":0,"last_update":"0001-01-01T00:00:00Z","name_a2s":"Uncletopia | Frankfurt | 1 | All Maps","protocol":17,"map":"cp_altitude","folder":"tf","game":"Team Fortress","app_id":440,"player_count":0,"max_players":24,"Bots":0,"server_type":"Dedicated","server_os":"Linux","password":true,"vac":true,"version":"7757534","steam_id":85568392924469989,"keywords":["cp","nocrits","nodmgspread","uncletopia"],"game_id":440,"stv_port":27016,"stv_name":"Uncletopia | Frankfurt | 1 | All Maps | STV","players":null},{"server_id":110,"name":"Uncletopia | Frankfurt | 2 | All Maps","name_short":"frk-2","host":"frk-1.de.uncletopia.com","port":27025,"enabled":true,"region":"eu","cc":"de","latitude":50.110924,"longitude":8.682127,"reserved":0,"last_update":"0001-01-01T00:00:00Z","name_a2s":"Uncletopia | Frankfurt | 2 | All Maps","protocol":17,"map":"koth_lakeside_final","folder":"tf","game":"Team Fortress","app_id":440,"player_count":0,"max_players":24,"Bots":0,"server_type":"Dedicated","server_os":"Linux","password":true,"vac":true,"version":"7757534","steam_id":85568392924469990,"keywords":["cp","nocrits","nodmgspread","uncletopia"],"game_id":440,"stv_port":27026,"stv_name":"Uncletopia | Frankfurt | 2 | All Maps | STV","players":null},{"server_id":308,"name":"Uncletopia | Frankfurt | 3 | All Maps","name_short":"frk-3","host":"frk-1.de.uncletopia.com","port":27035,"enabled":true,"region":"eu","cc":"de","latitude":50.110924,"longitude":8.682127,"reserved":0,"last_update":"0001-01-01T00:00:00Z","name_a2s":"Uncletopia | Frankfurt | 3 | All Maps","protocol":17,"map":"pl_swiftwater_final1","folder":"tf","game":"Team Fortress","app_id":440,"player_count":23,"max_players":24,"Bots":0,"server_type":"Dedicated","server_os":"Linux","password":true,"vac":true,"version":"7757534","steam_id":85568392924504274,"keywords":["nocrits","nodmgspread","payload","uncletopia"],"game_id":440,"stv_port":27036,"stv_name":"Uncletopia | Frankfurt | 3 | All Maps | STV","players":[{"user_id":332,"name":"jail or the grave","steam_id":76561198274105878,"connected_time":140000000000,"state":"active","ping":80},{"user_id":300,"name":"Princess Fuzz","steam_id":76561198025783000,"connected_time":2630000000000,"state":"active","ping":48},{"user_id":278,"name":"REN","steam_id":76561198000596385,"connected_time":4875000000000,"state":"active","ping":70},{"user_id":321,"name":"XPullaHiiri","steam_id":76561198031652375,"connected_time":1151000000000,"state":"active","ping":84},{"user_id":298,"name":"tired","steam_id":76561198046838168,"connected_time":2649000000000,"state":"active","ping":47},{"user_id":291,"name":"Elon Ma","steam_id":76561199018053264,"connected_time":3534000000000,"state":"active","ping":69},{"user_id":336,"name":"OzKo","steam_id":76561198245355476,"connected_time":4000000000,"state":"spawning","ping":166},{"user_id":307,"name":"Pronton","steam_id":76561198082502910,"connected_time":2493000000000,"state":"active","ping":58},{"user_id":322,"name":"Udinese Dion","steam_id":76561198067931573,"connected_time":1034000000000,"state":"active","ping":40},{"user_id":333,"name":"LINCKDOE","steam_id":76561198101494093,"connected_time":135000000000,"state":"active","ping":86},{"user_id":296,"name":"the joy of recycling","steam_id":76561198415564349,"connected_time":2716000000000,"state":"active","ping":61},{"user_id":264,"name":"fregaropa","steam_id":76561198150806166,"connected_time":5304000000000,"state":"active","ping":83},{"user_id":328,"name":"mp1mp2mp3","steam_id":76561198088967665,"connected_time":879000000000,"state":"active","ping":81},{"user_id":325,"name":"Spajro","steam_id":76561198257383813,"connected_time":976000000000,"state":"active","ping":47},{"user_id":304,"name":"Charrky","steam_id":76561198054398642,"connected_time":2549000000000,"state":"active","ping":48},{"user_id":311,"name":"pepper","steam_id":76561198059782462,"connected_time":2334000000000,"state":"active","ping":49},{"user_id":326,"name":"Faline","steam_id":76561198166925190,"connected_time":971000000000,"state":"active","ping":164},{"user_id":335,"name":"pond","steam_id":76561198214849363,"connected_time":96000000000,"state":"active","ping":77},{"user_id":327,"name":"retard transplan t plantt","steam_id":76561198857396812,"connected_time":934000000000,"state":"active","ping":48},{"user_id":329,"name":"El Presidente","steam_id":76561198302711029,"connected_time":838000000000,"state":"active","ping":82},{"user_id":306,"name":"AleXandriX","steam_id":76561198035203950,"connected_time":2499000000000,"state":"active","ping":59},{"user_id":312,"name":"Prism","steam_id":76561198075538312,"connected_time":2267000000000,"state":"active","ping":38},{"user_id":323,"name":"Stabbyratbag","steam_id":76561198119531916,"connected_time":1033000000000,"state":"active","ping":58}]},{"server_id":309,"name":"Uncletopia | Frankfurt | 4 | All Maps","name_short":"frk-4","host":"frk-1.de.uncletopia.com","port":27045,"enabled":true,"region":"eu","cc":"de","latitude":50.110924,"longitude":8.682127,"reserved":0,"last_update":"0001-01-01T00:00:00Z","name_a2s":"Uncletopia | Frankfurt | 4 | All Maps","protocol":17,"map":"koth_cascade","folder":"tf","game":"Team Fortress","app_id":440,"player_count":0,"max_players":24,"Bots":0,"server_type":"Dedicated","server_os":"Linux","password":true,"vac":true,"version":"7757534","steam_id":85568392924504275,"keywords":["cp","nocrits","nodmgspread","uncletopia"],"game_id":440,"stv_port":27046,"stv_name":"Uncletopia | Frankfurt | 4 | All Maps | STV","players":null},{"server_id":310,"name":"Uncletopia | Frankfurt | 5 | All Maps","name_short":"frk-5","host":"frk-1.de.uncletopia.com","port":27055,"enabled":true,"region":"eu","cc":"de","latitude":50.110924,"longitude":8.682127,"reserved":0,"last_update":"0001-01-01T00:00:00Z","name_a2s":"Uncletopia | Frankfurt | 5 | All Maps","protocol":17,"map":"cp_altitude","folder":"tf","game":"Team Fortress","app_id":440,"player_count":20,"max_players":24,"Bots":0,"server_type":"Dedicated","server_os":"Linux","password":true,"vac":true,"version":"7757534","steam_id":85568392924504277,"keywords":["cp","nocrits","nodmgspread","uncletopia"],"game_id":440,"stv_port":27056,"stv_name":"Uncletopia | Frankfurt | 5 | All Maps | STV","players":[{"user_id":195,"name":"Shartyfarty68420","steam_id":76561199187248993,"connected_time":465000000000,"state":"active","ping":77},{"user_id":204,"name":"Anti_Dragon","steam_id":76561198969060607,"connected_time":10000000000,"state":"spawning","ping":103},{"user_id":202,"name":"Small Tom 29","steam_id":76561198276807116,"connected_time":117000000000,"state":"active","ping":100},{"user_id":167,"name":"that fat croc from donkey kong","steam_id":76561198159172495,"connected_time":2602000000000,"state":"active","ping":65},{"user_id":205,"name":"balanced diet","steam_id":76561198240320806,"connected_time":0,"state":"spawning","ping":0},{"user_id":176,"name":"SantiTzePug","steam_id":76561199049615996,"connected_time":1457000000000,"state":"active","ping":72},{"user_id":185,"name":"actually drunk","steam_id":76561198121408313,"connected_time":1041000000000,"state":"active","ping":75},{"user_id":159,"name":"numanuma-hei.ei","steam_id":76561198081100918,"connected_time":3162000000000,"state":"active","ping":96},{"user_id":188,"name":"Optimizator 50","steam_id":76561198039631442,"connected_time":832000000000,"state":"active","ping":76},{"user_id":171,"name":"Air","steam_id":76561198271025518,"connected_time":1839000000000,"state":"active","ping":96},{"user_id":149,"name":"Meta","steam_id":76561198413073432,"connected_time":3723000000000,"state":"active","ping":68},{"user_id":194,"name":"Knösta","steam_id":76561198143422139,"connected_time":492000000000,"state":"active","ping":104},{"user_id":93,"name":"MRLOLENO","steam_id":76561198450911838,"connected_time":6922000000000,"state":"active","ping":63},{"user_id":172,"name":"Lassie","steam_id":76561198131924713,"connected_time":1790000000000,"state":"active","ping":51},{"user_id":201,"name":"unnecessary","steam_id":76561197994492154,"connected_time":174000000000,"state":"active","ping":60},{"user_id":180,"name":"SCRAMMMBLED","steam_id":76561197998307746,"connected_time":1290000000000,"state":"active","ping":96},{"user_id":189,"name":"Lordware","steam_id":76561198022011299,"connected_time":735000000000,"state":"active","ping":90},{"user_id":153,"name":"Penis Contortionist","steam_id":76561198073663784,"connected_time":3641000000000,"state":"active","ping":53},{"user_id":196,"name":"PanPatrik","steam_id":76561198293331527,"connected_time":434000000000,"state":"active","ping":44},{"user_id":190,"name":"CRWND","steam_id":76561198329810027,"connected_time":691000000000,"state":"active","ping":49}]},{"server_id":311,"name":"Uncletopia | Frankfurt | 6 | All Maps","name_short":"frk-6","host":"frk-1.de.uncletopia.com","port":27065,"enabled":true,"region":"eu","cc":"de","latitude":50.110924,"longitude":8.682127,"reserved":0,"last_update":"0001-01-01T00:00:00Z","name_a2s":"Uncletopia | Frankfurt | 6 | All Maps","protocol":17,"map":"pl_frontier_final","folder":"tf","game":"Team Fortress","app_id":440,"player_count":1,"max_players":24,"Bots":0,"server_type":"Dedicated","server_os":"Linux","password":true,"vac":true,"version":"7757534","steam_id":85568392924504278,"keywords":["nocrits","nodmgspread","payload","uncletopia"],"game_id":440,"stv_port":27066,"stv_name":"Uncletopia | Frankfurt | 6 | All Maps | STV","players":[{"user_id":6,"name":"Get gud","steam_id":76561198389057210,"connected_time":193000000000,"state":"active","ping":74}]},{"server_id":23,"name":"Uncletopia | Frankfurt | 7 | Stopwatch Beta","name_short":"frk-7","host":"frk-1.de.uncletopia.com","port":27075,"enabled":true,"region":"eu","cc":"de","latitude":50.110924,"longitude":8.682127,"reserved":0,"last_update":"0001-01-01T00:00:00Z","name_a2s":"Uncletopia | Frankfurt | 7 | Stopwatch Beta","protocol":17,"map":"workshop/koth_ramjam_rc1.ugc459778887","folder":"tf","game":"Team Fortress","app_id":440,"player_count":0,"max_players":24,"Bots":0,"server_type":"Dedicated","server_os":"Linux","password":true,"vac":true,"version":"7757534","steam_id":85568392924742827,"keywords":["cp","nocrits","nodmgspread","uncletopia"],"game_id":440,"stv_port":27076,"stv_name":"Uncletopia | Frankfurt | 7 | Stopwatch Beta | STV","players":null},{"server_id":24,"name":"Uncletopia | Frankfurt | 8 | Community","name_short":"frk-8","host":"frk-1.de.uncletopia.com","port":27085,"enabled":true,"region":"eu","cc":"de","latitude":50.110924,"longitude":8.682127,"reserved":0,"last_update":"0001-01-01T00:00:00Z","name_a2s":"Uncletopia | Frankfurt | 8 | Community","protocol":17,"map":"workshop/koth_kemptown_rc1.ugc767410655","folder":"tf","game":"Team Fortress","app_id":440,"player_count":0,"max_players":24,"Bots":0,"server_type":"Dedicated","server_os":"Linux","password":true,"vac":true,"version":"7757534","steam_id":85568392924742828,"keywords":["cp","nocrits","nodmgspread","uncletopia"],"game_id":440,"stv_port":27086,"stv_name":"Uncletopia | Frankfurt | 8 | Community | STV","players":null},{"server_id":202,"name":"Uncletopia | Hong Kong | 1 | All Maps","name_short":"hgk-1","host":"hgk-1.hk.uncletopia.com","port":27015,"enabled":true,"region":"asia","cc":"hk","latitude":22.302711,"longitude":114.177216,"reserved":0,"last_update":"0001-01-01T00:00:00Z","name_a2s":"Uncletopia | Hong Kong | 1 | All Maps","protocol":17,"map":"cp_process_final","folder":"tf","game":"Team Fortress","app_id":440,"player_count":21,"max_players":24,"Bots":0,"server_type":"Dedicated","server_os":"Linux","password":true,"vac":true,"version":"7757534","steam_id":85568392924494504,"keywords":["cp","nocrits","nodmgspread","uncletopia"],"game_id":440,"stv_port":27016,"stv_name":"Uncletopia | Hong Kong | 1 | All Maps | STV","players":[{"user_id":296,"name":"AmaiRetarded","steam_id":76561199122491157,"connected_time":6209000000000,"state":"active","ping":150},{"user_id":328,"name":"tiden2000","steam_id":76561198092969425,"connected_time":3346000000000,"state":"active","ping":103},{"user_id":280,"name":"Stupid B","steam_id":76561198131423270,"connected_time":7352000000000,"state":"active","ping":84},{"user_id":342,"name":"76485675","steam_id":76561199390507975,"connected_time":2251000000000,"state":"active","ping":52},{"user_id":315,"name":"detf2oxification","steam_id":76561199077602424,"connected_time":4795000000000,"state":"active","ping":61},{"user_id":304,"name":"煙海 | Enkai","steam_id":76561198050460825,"connected_time":5495000000000,"state":"active","ping":75},{"user_id":350,"name":"Pipe","steam_id":76561198113829622,"connected_time":225000000000,"state":"active","ping":131},{"user_id":335,"name":"Cipher(I_Lag_a_lot_bare_with_me","steam_id":76561198796591492,"connected_time":2788000000000,"state":"active","ping":110},{"user_id":323,"name":"Lelouch","steam_id":76561198828840546,"connected_time":3433000000000,"state":"active","ping":80},{"user_id":321,"name":"zzz","steam_id":76561198219926077,"connected_time":3449000000000,"state":"active","ping":37},{"user_id":299,"name":"Noyour","steam_id":76561198323259830,"connected_time":5561000000000,"state":"active","ping":111},{"user_id":295,"name":"쿠키","steam_id":76561197997220367,"connected_time":6229000000000,"state":"active","ping":53},{"user_id":348,"name":"bob","steam_id":76561198378829574,"connected_time":420000000000,"state":"active","ping":48},{"user_id":319,"name":"母の肉団子@hao123.com","steam_id":76561198069561896,"connected_time":3776000000000,"state":"active","ping":41},{"user_id":345,"name":"mister beast","steam_id":76561198346128694,"connected_time":1003000000000,"state":"active","ping":84},{"user_id":307,"name":"instant karma","steam_id":76561198027307933,"connected_time":5416000000000,"state":"active","ping":59},{"user_id":180,"name":"Bertengkar","steam_id":76561198213031155,"connected_time":17197000000000,"state":"active","ping":94},{"user_id":338,"name":"muse","steam_id":76561198046580378,"connected_time":2580000000000,"state":"active","ping":117},{"user_id":349,"name":"sáu thiện nhân","steam_id":76561199373637717,"connected_time":253000000000,"state":"active","ping":61},{"user_id":332,"name":"P","steam_id":76561198304514505,"connected_time":3191000000000,"state":"active","ping":68},{"user_id":316,"name":"(64)","steam_id":76561198000062599,"connected_time":4495000000000,"state":"active","ping":134}]},{"server_id":1,"name":"Uncletopia | Los Angeles | 1 | All Maps","name_short":"lax-1","host":"lax-1.us.uncletopia.com","port":27015,"enabled":true,"region":"us-west","cc":"us","latitude":33.94279,"longitude":-118.41004,"reserved":0,"last_update":"0001-01-01T00:00:00Z","name_a2s":"Uncletopia | Los Angeles | 1 | All Maps","protocol":17,"map":"koth_lakeside_final","folder":"tf","game":"Team Fortress","app_id":440,"player_count":0,"max_players":24,"Bots":0,"server_type":"Dedicated","server_os":"Linux","password":true,"vac":true,"version":"7757534","steam_id":85568392924469991,"keywords":["cp","nocrits","nodmgspread","uncletopia"],"game_id":440,"stv_port":27016,"stv_name":"Uncletopia | Los Angeles | 1 | All Maps | STV","players":null},{"server_id":112,"name":"Uncletopia | Los Angeles | 2 | All Maps","name_short":"lax-2","host":"lax-1.us.uncletopia.com","port":27025,"enabled":true,"region":"us-west","cc":"us","latitude":33.94279,"longitude":-118.41004,"reserved":0,"last_update":"0001-01-01T00:00:00Z","name_a2s":"Uncletopia | Los Angeles | 2 | All Maps","protocol":17,"map":"pl_badwater","folder":"tf","game":"Team Fortress","app_id":440,"player_count":0,"max_players":24,"Bots":0,"server_type":"Dedicated","server_os":"Linux","password":true,"vac":true,"version":"7757534","steam_id":85568392924469992,"keywords":["nocrits","nodmgspread","payload","uncletopia"],"game_id":440,"stv_port":27026,"stv_name":"Uncletopia | Los Angeles | 2 | All Maps | STV","players":null},{"server_id":324,"name":"Uncletopia | Los Angeles | 3 | All Maps","name_short":"lax-3","host":"lax-1.us.uncletopia.com","port":27035,"enabled":true,"region":"us-west","cc":"us","latitude":33.94279,"longitude":-118.41004,"reserved":0,"last_update":"0001-01-01T00:00:00Z","name_a2s":"Uncletopia | Los Angeles | 3 | All Maps","protocol":17,"map":"pl_barnblitz","folder":"tf","game":"Team Fortress","app_id":440,"player_count":0,"max_players":24,"Bots":0,"server_type":"Dedicated","server_os":"Linux","password":true,"vac":true,"version":"7757534","steam_id":85568392924510198,"keywords":["nocrits","nodmgspread","payload","uncletopia"],"game_id":440,"stv_port":27036,"stv_name":"Uncletopia | Los Angeles | 3 | All Maps | STV","players":null},{"server_id":25,"name":"Uncletopia | Los Angeles | 4 | Stopwatch Beta","name_short":"lax-4","host":"lax-1.us.uncletopia.com","port":27045,"enabled":true,"region":"us-west","cc":"us","latitude":33.94279,"longitude":-118.41004,"reserved":0,"last_update":"0001-01-01T00:00:00Z","name_a2s":"Uncletopia | Los Angeles | 4 | Stopwatch Beta","protocol":17,"map":"pl_swiftwater_final1","folder":"tf","game":"Team Fortress","app_id":440,"player_count":0,"max_players":24,"Bots":0,"server_type":"Dedicated","server_os":"Linux","password":true,"vac":true,"version":"7757534","steam_id":85568392924510199,"keywords":["nocrits","nodmgspread","payload","uncletopia"],"game_id":440,"stv_port":27046,"stv_name":"Uncletopia | Los Angeles | 4 | Stopwatch Beta | STV","players":null},{"server_id":11,"name":"Uncletopia | London | 1 | All Maps","name_short":"lon-1","host":"lon-1.uk.uncletopia.com","port":27015,"enabled":true,"region":"eu","cc":"gb","latitude":51.509865,"longitude":-0.118092,"reserved":0,"last_update":"0001-01-01T00:00:00Z","name_a2s":"Uncletopia | London | 1 | All Maps","protocol":17,"map":"koth_viaduct","folder":"tf","game":"Team Fortress","app_id":440,"player_count":23,"max_players":24,"Bots":0,"server_type":"Dedicated","server_os":"Linux","password":true,"vac":true,"version":"7757534","steam_id":85568392924367362,"keywords":["cp","nocrits","nodmgspread","uncletopia"],"game_id":440,"stv_port":27016,"stv_name":"Uncletopia | London | 1 | All Maps | STV","players":[{"user_id":286,"name":"Frobmiak","steam_id":76561198088811544,"connected_time":1747000000000,"state":"active","ping":73},{"user_id":283,"name":"Sus Fring","steam_id":76561198821542489,"connected_time":2034000000000,"state":"active","ping":96},{"user_id":246,"name":"♣Бредовый Месяц","steam_id":76561198796404149,"connected_time":4120000000000,"state":"active","ping":109},{"user_id":290,"name":"shenanigan","steam_id":76561198043452925,"connected_time":1593000000000,"state":"active","ping":97},{"user_id":249,"name":"JeanCorben","steam_id":76561197965133561,"connected_time":4081000000000,"state":"active","ping":40},{"user_id":298,"name":"Cosmonaut","steam_id":76561198239514504,"connected_time":1228000000000,"state":"active","ping":60},{"user_id":235,"name":"Dlaf'rferg (she/her)","steam_id":76561198284744735,"connected_time":4294000000000,"state":"active","ping":52},{"user_id":258,"name":"doopsuiker","steam_id":76561198025916703,"connected_time":3535000000000,"state":"active","ping":67},{"user_id":291,"name":"Hermitcrack","steam_id":76561198149216441,"connected_time":1591000000000,"state":"active","ping":73},{"user_id":309,"name":"Kotlet schabowy","steam_id":76561198048983509,"connected_time":129000000000,"state":"active","ping":90},{"user_id":264,"name":"Aimrow","steam_id":76561198023275245,"connected_time":3074000000000,"state":"active","ping":85},{"user_id":274,"name":"kebab","steam_id":76561198042227084,"connected_time":2616000000000,"state":"active","ping":71},{"user_id":239,"name":"ANNENİ SİKERİM","steam_id":76561198114623647,"connected_time":4269000000000,"state":"active","ping":105},{"user_id":303,"name":"ayadam","steam_id":76561198161515769,"connected_time":771000000000,"state":"active","ping":116},{"user_id":302,"name":"Squishy","steam_id":76561198124618876,"connected_time":805000000000,"state":"active","ping":96},{"user_id":299,"name":"Even Kvam","steam_id":76561198144322832,"connected_time":1057000000000,"state":"active","ping":75},{"user_id":304,"name":"Huzd","steam_id":76561198329617950,"connected_time":716000000000,"state":"active","ping":88},{"user_id":306,"name":"Скряга Мак Дак","steam_id":76561198274366137,"connected_time":214000000000,"state":"active","ping":115},{"user_id":263,"name":"EdSuedi","steam_id":76561199387956486,"connected_time":3232000000000,"state":"active","ping":62},{"user_id":307,"name":"inV 2Pipe","steam_id":76561198147078303,"connected_time":207000000000,"state":"active","ping":87},{"user_id":305,"name":"Foreskin Gamer","steam_id":76561198283106341,"connected_time":651000000000,"state":"active","ping":68},{"user_id":277,"name":"NLSAM","steam_id":76561199111154916,"connected_time":2543000000000,"state":"active","ping":61},{"user_id":289,"name":"boneez","steam_id":76561198186800982,"connected_time":1642000000000,"state":"active","ping":63}]},{"server_id":114,"name":"Uncletopia | London | 2 | All Maps","name_short":"lon-2","host":"lon-1.uk.uncletopia.com","port":27025,"enabled":true,"region":"eu","cc":"gb","latitude":51.509865,"longitude":-0.118092,"reserved":0,"last_update":"0001-01-01T00:00:00Z","name_a2s":"Uncletopia | London | 2 | All Maps","protocol":17,"map":"pl_badwater","folder":"tf","game":"Team Fortress","app_id":440,"player_count":23,"max_players":24,"Bots":0,"server_type":"Dedicated","server_os":"Linux","password":true,"vac":true,"version":"7757534","steam_id":85568392924470941,"keywords":["nocrits","nodmgspread","payload","uncletopia"],"game_id":440,"stv_port":27026,"stv_name":"Uncletopia | London | 2 | All Maps | STV","players":[{"user_id":15,"name":"jojo4444","steam_id":76561199240832170,"connected_time":1757000000000,"state":"active","ping":73},{"user_id":16,"name":"Silvent2077","steam_id":76561199250417497,"connected_time":1415000000000,"state":"active","ping":123},{"user_id":44,"name":"TV","steam_id":76561198177326926,"connected_time":300000000000,"state":"active","ping":160},{"user_id":45,"name":"kyra","steam_id":76561198412004372,"connected_time":280000000000,"state":"active","ping":60},{"user_id":50,"name":"Procrastination","steam_id":76561198060012688,"connected_time":75000000000,"state":"active","ping":59},{"user_id":51,"name":"emilybakker62@gmail.com","steam_id":76561198272809526,"connected_time":55000000000,"state":"connecting","ping":44},{"user_id":22,"name":"GlitchyTrashCan","steam_id":76561198309789756,"connected_time":1198000000000,"state":"active","ping":69},{"user_id":23,"name":"Anonymous47007","steam_id":76561199005211417,"connected_time":1177000000000,"state":"active","ping":81},{"user_id":52,"name":"Vezage","steam_id":76561198064916164,"connected_time":33000000000,"state":"active","ping":62},{"user_id":25,"name":"cof","steam_id":76561199128417805,"connected_time":846000000000,"state":"active","ping":58},{"user_id":49,"name":"Laurie","steam_id":76561198082951750,"connected_time":89000000000,"state":"active","ping":46},{"user_id":53,"name":"ඞbominasus 2137  #SaveTF2","steam_id":76561198030062981,"connected_time":11000000000,"state":"spawning","ping":66},{"user_id":28,"name":"Ljubi Te Brat . . .","steam_id":76561198054582971,"connected_time":702000000000,"state":"active","ping":108},{"user_id":36,"name":"or win","steam_id":76561198056238137,"connected_time":438000000000,"state":"active","ping":58},{"user_id":47,"name":"dunduu","steam_id":76561198875240717,"connected_time":169000000000,"state":"active","ping":78},{"user_id":46,"name":"Max Andrew","steam_id":76561198158955194,"connected_time":229000000000,"state":"active","ping":60},{"user_id":32,"name":"Silva_mlon","steam_id":76561199310242047,"connected_time":632000000000,"state":"active","ping":60},{"user_id":33,"name":"A Shiny Meat Bicycle","steam_id":76561198358757709,"connected_time":601000000000,"state":"active","ping":160},{"user_id":37,"name":"Quillz","steam_id":76561197996567754,"connected_time":431000000000,"state":"active","ping":120},{"user_id":39,"name":"JeffTheDwarf","steam_id":76561198867619407,"connected_time":407000000000,"state":"active","ping":72},{"user_id":40,"name":"floppy-adde","steam_id":76561199258890641,"connected_time":407000000000,"state":"active","ping":76},{"user_id":48,"name":"Dispenser","steam_id":76561198130195469,"connected_time":131000000000,"state":"active","ping":84},{"user_id":43,"name":"SynthBox3","steam_id":76561199094075745,"connected_time":390000000000,"state":"active","ping":120}]},{"server_id":320,"name":"Uncletopia | London | 3 | All Maps","name_short":"lon-3","host":"lon-1.uk.uncletopia.com","port":27035,"enabled":true,"region":"eu","cc":"gb","latitude":51.509865,"longitude":-0.118092,"reserved":0,"last_update":"0001-01-01T00:00:00Z","name_a2s":"Uncletopia | London | 3 | All Maps","protocol":17,"map":"pl_badwater","folder":"tf","game":"Team Fortress","app_id":440,"player_count":24,"max_players":24,"Bots":0,"server_type":"Dedicated","server_os":"Linux","password":true,"vac":true,"version":"7757534","steam_id":85568392924510192,"keywords":["nocrits","nodmgspread","payload","uncletopia"],"game_id":440,"stv_port":27036,"stv_name":"Uncletopia | London | 3 | All Maps | STV","players":[{"user_id":150,"name":"Ghost","steam_id":76561198110914180,"connected_time":268000000000,"state":"active","ping":100},{"user_id":132,"name":"mohemmedmokhter2005","steam_id":76561199197650506,"connected_time":1038000000000,"state":"active","ping":102},{"user_id":151,"name":"mud","steam_id":76561198141497461,"connected_time":246000000000,"state":"active","ping":74},{"user_id":98,"name":"Tails8521","steam_id":76561198051747164,"connected_time":3380000000000,"state":"active","ping":48},{"user_id":110,"name":"Dog ?","steam_id":76561198347020945,"connected_time":2581000000000,"state":"active","ping":90},{"user_id":143,"name":"Dolcelatte","steam_id":76561198038501770,"connected_time":561000000000,"state":"active","ping":60},{"user_id":127,"name":"Arti","steam_id":76561197983352845,"connected_time":1513000000000,"state":"active","ping":55},{"user_id":138,"name":"Koi-Koi","steam_id":76561198045527771,"connected_time":885000000000,"state":"active","ping":71},{"user_id":109,"name":"Edison Trent","steam_id":76561198067133145,"connected_time":2592000000000,"state":"active","ping":65},{"user_id":111,"name":"e36 1.8","steam_id":76561198134203031,"connected_time":2474000000000,"state":"active","ping":71},{"user_id":153,"name":"Topi","steam_id":76561198165732391,"connected_time":19000000000,"state":"spawning","ping":83},{"user_id":152,"name":"fabacher","steam_id":76561198057905272,"connected_time":223000000000,"state":"active","ping":60},{"user_id":18,"name":"Baguette","steam_id":76561199069435825,"connected_time":8478000000000,"state":"active","ping":49},{"user_id":105,"name":"Los Santo's ♿*","steam_id":76561198301727826,"connected_time":3102000000000,"state":"active","ping":73},{"user_id":141,"name":"Kwizine","steam_id":76561198147999400,"connected_time":771000000000,"state":"active","ping":68},{"user_id":68,"name":"Balls","steam_id":76561198086400484,"connected_time":5252000000000,"state":"active","ping":73},{"user_id":146,"name":"blackballs@yeniakit.com.tr","steam_id":76561198887626156,"connected_time":480000000000,"state":"active","ping":271},{"user_id":144,"name":"Mr. Hunts","steam_id":76561197981910397,"connected_time":547000000000,"state":"active","ping":60},{"user_id":123,"name":"Arcader","steam_id":76561198109860110,"connected_time":1678000000000,"state":"active","ping":70},{"user_id":96,"name":"finbar","steam_id":76561198056812396,"connected_time":3404000000000,"state":"active","ping":98},{"user_id":147,"name":"Yessirskiii","steam_id":76561198179324075,"connected_time":461000000000,"state":"active","ping":64},{"user_id":148,"name":"Charles Darwin","steam_id":76561197973496139,"connected_time":434000000000,"state":"active","ping":75},{"user_id":114,"name":"Meki","steam_id":76561198108279631,"connected_time":2304000000000,"state":"active","ping":104},{"user_id":137,"name":"X45Y","steam_id":76561198112534025,"connected_time":935000000000,"state":"active","ping":48}]},{"server_id":321,"name":"Uncletopia | London | 4 | All Maps","name_short":"lon-4","host":"lon-1.uk.uncletopia.com","port":27045,"enabled":true,"region":"eu","cc":"gb","latitude":51.509865,"longitude":-0.118092,"reserved":0,"last_update":"0001-01-01T00:00:00Z","name_a2s":"Uncletopia | London | 4 | All Maps","protocol":17,"map":"koth_viaduct","folder":"tf","game":"Team Fortress","app_id":440,"player_count":0,"max_players":24,"Bots":0,"server_type":"Dedicated","server_os":"Linux","password":true,"vac":true,"version":"7757534","steam_id":85568392924510193,"keywords":["cp","nocrits","nodmgspread","uncletopia"],"game_id":440,"stv_port":27046,"stv_name":"Uncletopia | London | 4 | All Maps | STV","players":null},{"server_id":21,"name":"Uncletopia | London | 5 | All Maps","name_short":"lon-5","host":"lon-1.uk.uncletopia.com","port":27055,"enabled":true,"region":"eu","cc":"gb","latitude":51.509865,"longitude":-0.118092,"reserved":0,"last_update":"0001-01-01T00:00:00Z","name_a2s":"Uncletopia | London | 5 | All Maps","protocol":17,"map":"pl_borneo","folder":"tf","game":"Team Fortress","app_id":440,"player_count":0,"max_players":24,"Bots":0,"server_type":"Dedicated","server_os":"Linux","password":true,"vac":true,"version":"7757534","steam_id":85568392924742829,"keywords":["nocrits","nodmgspread","payload","uncletopia"],"game_id":440,"stv_port":27056,"stv_name":"Uncletopia | London | 5 | All Maps | STV","players":null},{"server_id":22,"name":"Uncletopia | London | 6 | All Maps","name_short":"lon-6","host":"lon-1.uk.uncletopia.com","port":27065,"enabled":true,"region":"eu","cc":"gb","latitude":51.509865,"longitude":-0.118092,"reserved":0,"last_update":"0001-01-01T00:00:00Z","name_a2s":"Uncletopia | London | 6 | All Maps","protocol":17,"map":"cp_mountainlab","folder":"tf","game":"Team Fortress","app_id":440,"player_count":0,"max_players":24,"Bots":0,"server_type":"Dedicated","server_os":"Linux","password":true,"vac":true,"version":"7757534","steam_id":85568392924742830,"keywords":["cp","nocrits","nodmgspread","uncletopia"],"game_id":440,"stv_port":27066,"stv_name":"Uncletopia | London | 6 | All Maps | STV","players":null},{"server_id":40,"name":"Uncletopia | London | 7 | No Payload","name_short":"lon-7","host":"lon-1.uk.uncletopia.com","port":27075,"enabled":true,"region":"eu","cc":"gb","latitude":51.509865,"longitude":-0.118092,"reserved":0,"last_update":"0001-01-01T00:00:00Z","name_a2s":"Uncletopia | London | 7 | No Payload","protocol":17,"map":"pl_badwater","folder":"tf","game":"Team Fortress","app_id":440,"player_count":0,"max_players":24,"Bots":0,"server_type":"Dedicated","server_os":"Linux","password":true,"vac":true,"version":"7757534","steam_id":85568392924964314,"keywords":["nocrits","nodmgspread","payload","uncletopia"],"game_id":440,"stv_port":27076,"stv_name":"Uncletopia | London | 7 | No Payload | STV","players":null},{"server_id":41,"name":"Uncletopia | London | 8 | Community","name_short":"lon-8","host":"lon-1.uk.uncletopia.com","port":27085,"enabled":true,"region":"eu","cc":"gb","latitude":51.509865,"longitude":-0.118092,"reserved":0,"last_update":"0001-01-01T00:00:00Z","name_a2s":"Uncletopia | London | 8 | Community","protocol":17,"map":"workshop/koth_ashville_final.ugc2130459942","folder":"tf","game":"Team Fortress","app_id":440,"player_count":20,"max_players":24,"Bots":0,"server_type":"Dedicated","server_os":"Linux","password":true,"vac":true,"version":"7757534","steam_id":85568392924964315,"keywords":["cp","nocrits","nodmgspread","uncletopia"],"game_id":440,"stv_port":27086,"stv_name":"Uncletopia | London | 8 | Community | STV","players":[{"user_id":3,"name":"˹Fate's·Marionette˼","steam_id":76561198034197381,"connected_time":4035000000000,"state":"active","ping":51},{"user_id":62,"name":"Kirvis","steam_id":76561198027831643,"connected_time":414000000000,"state":"active","ping":84},{"user_id":49,"name":"Ioann_Gunner","steam_id":76561199129518963,"connected_time":1235000000000,"state":"active","ping":134},{"user_id":64,"name":"[T]aKer","steam_id":76561198001778013,"connected_time":394000000000,"state":"active","ping":46},{"user_id":65,"name":"Forgotten Weapons","steam_id":76561198047955867,"connected_time":138000000000,"state":"active","ping":100},{"user_id":9,"name":"OutOfRage","steam_id":76561198211205791,"connected_time":3249000000000,"state":"active","ping":45},{"user_id":11,"name":"Watson","steam_id":76561197974362869,"connected_time":2951000000000,"state":"active","ping":68},{"user_id":66,"name":"Son Goku","steam_id":76561199383437138,"connected_time":93000000000,"state":"active","ping":125},{"user_id":24,"name":"Nickel","steam_id":76561199037745941,"connected_time":2460000000000,"state":"active","ping":138},{"user_id":17,"name":"PizzaPete123","steam_id":76561198089478290,"connected_time":2746000000000,"state":"active","ping":42},{"user_id":52,"name":"w presser","steam_id":76561197994600818,"connected_time":1107000000000,"state":"active","ping":37},{"user_id":27,"name":"silicon based life form","steam_id":76561199127121346,"connected_time":2370000000000,"state":"active","ping":55},{"user_id":21,"name":"Doktor Drip","steam_id":76561198843329045,"connected_time":2581000000000,"state":"active","ping":106},{"user_id":67,"name":"78","steam_id":76561198208328357,"connected_time":85000000000,"state":"active","ping":83},{"user_id":42,"name":"5KY13R","steam_id":76561198027603266,"connected_time":1833000000000,"state":"active","ping":114},{"user_id":30,"name":"Spenji","steam_id":76561198126634202,"connected_time":2207000000000,"state":"active","ping":56},{"user_id":35,"name":"Raymus","steam_id":76561198021330407,"connected_time":2054000000000,"state":"active","ping":51},{"user_id":61,"name":"Sneikijs","steam_id":76561198052549308,"connected_time":459000000000,"state":"active","ping":40},{"user_id":44,"name":"Fat Pigeon","steam_id":76561198817940142,"connected_time":1566000000000,"state":"active","ping":45},{"user_id":46,"name":"dismissy","steam_id":76561198073904781,"connected_time":1549000000000,"state":"active","ping":75}]},{"server_id":300,"name":"Uncletopia | Montréal | 1 | All Maps","name_short":"mtl-1","host":"mtl-1.ca.uncletopia.com","port":27015,"enabled":true,"region":"us-east","cc":"ca","latitude":45.50889,"longitude":-73.56167,"reserved":0,"last_update":"0001-01-01T00:00:00Z","name_a2s":"Uncletopia | Montréal | 1 | All Maps","protocol":17,"map":"pl_upward","folder":"tf","game":"Team Fortress","app_id":440,"player_count":0,"max_players":24,"Bots":0,"server_type":"Dedicated","server_os":"Linux","password":true,"vac":true,"version":"7757534","steam_id":85568392924500087,"keywords":["nocrits","nodmgspread","payload","uncletopia"],"game_id":440,"stv_port":27016,"stv_name":"Uncletopia | Montréal | 1 | All Maps | STV","players":null},{"server_id":301,"name":"Uncletopia | Montréal | 2 | All Maps","name_short":"mtl-2","host":"mtl-1.ca.uncletopia.com","port":27025,"enabled":true,"region":"us-east","cc":"ca","latitude":45.50889,"longitude":-73.56167,"reserved":0,"last_update":"0001-01-01T00:00:00Z","name_a2s":"Uncletopia | Montréal | 2 | All Maps","protocol":17,"map":"pl_snowycoast","folder":"tf","game":"Team Fortress","app_id":440,"player_count":0,"max_players":24,"Bots":0,"server_type":"Dedicated","server_os":"Linux","password":true,"vac":true,"version":"7757534","steam_id":85568392924500088,"keywords":["nocrits","nodmgspread","payload","uncletopia"],"game_id":440,"stv_port":27026,"stv_name":"Uncletopia | Montréal | 2 | All Maps | STV","players":null},{"server_id":302,"name":"Uncletopia | Montréal | 3 | All Maps","name_short":"mtl-3","host":"mtl-1.ca.uncletopia.com","port":27035,"enabled":true,"region":"us-east","cc":"ca","latitude":45.50889,"longitude":-73.56167,"reserved":0,"last_update":"0001-01-01T00:00:00Z","name_a2s":"Uncletopia | Montréal | 3 | All Maps","protocol":17,"map":"pl_swiftwater_final1","folder":"tf","game":"Team Fortress","app_id":440,"player_count":0,"max_players":24,"Bots":0,"server_type":"Dedicated","server_os":"Linux","password":true,"vac":true,"version":"7757534","steam_id":85568392924500089,"keywords":["nocrits","nodmgspread","payload","uncletopia"],"game_id":440,"stv_port":27036,"stv_name":"Uncletopia | Montréal | 3 | All Maps | STV","players":null},{"server_id":303,"name":"Uncletopia | Montréal | 4 | No Payload","name_short":"mtl-4","host":"mtl-1.ca.uncletopia.com","port":27045,"enabled":true,"region":"us-east","cc":"ca","latitude":45.50889,"longitude":-73.56167,"reserved":0,"last_update":"0001-01-01T00:00:00Z","name_a2s":"Uncletopia | Montréal | 4 | No Payload","protocol":17,"map":"cp_gravelpit","folder":"tf","game":"Team Fortress","app_id":440,"player_count":0,"max_players":24,"Bots":0,"server_type":"Dedicated","server_os":"Linux","password":true,"vac":true,"version":"7757534","steam_id":85568392924500090,"keywords":["cp","nocrits","nodmgspread","uncletopia"],"game_id":440,"stv_port":27046,"stv_name":"Uncletopia | Montréal | 4 | No Payload | STV","players":null},{"server_id":13,"name":"Uncletopia | New York City | 1 | All Maps","name_short":"nyc-1","host":"nyc-1.us.uncletopia.com","port":27015,"enabled":true,"region":"us-east","cc":"us","latitude":40.73061,"longitude":-73.93524,"reserved":0,"last_update":"0001-01-01T00:00:00Z","name_a2s":"Uncletopia | New York City | 1 | All Maps","protocol":17,"map":"koth_viaduct","folder":"tf","game":"Team Fortress","app_id":440,"player_count":0,"max_players":24,"Bots":0,"server_type":"Dedicated","server_os":"Linux","password":true,"vac":true,"version":"7757534","steam_id":85568392924469993,"keywords":["cp","nocrits","nodmgspread","uncletopia"],"game_id":440,"stv_port":27016,"stv_name":"Uncletopia | New York City | 1 | All Maps | STV","players":null},{"server_id":14,"name":"Uncletopia | New York City | 2 | All Maps","name_short":"nyc-2","host":"nyc-1.us.uncletopia.com","port":27025,"enabled":true,"region":"us-east","cc":"us","latitude":40.73061,"longitude":-73.93524,"reserved":0,"last_update":"0001-01-01T00:00:00Z","name_a2s":"Uncletopia | New York City | 2 | All Maps","protocol":17,"map":"pl_frontier_final","folder":"tf","game":"Team Fortress","app_id":440,"player_count":23,"max_players":24,"Bots":0,"server_type":"Dedicated","server_os":"Linux","password":true,"vac":true,"version":"7757534","steam_id":85568392924469994,"keywords":["nocrits","nodmgspread","payload","uncletopia"],"game_id":440,"stv_port":27026,"stv_name":"Uncletopia | New York City | 2 | All Maps | STV","players":[{"user_id":43,"name":"Epifiny","steam_id":76561198027958086,"connected_time":549000000000,"state":"active","ping":87},{"user_id":11,"name":"CakeBlock","steam_id":76561198067238228,"connected_time":2960000000000,"state":"active","ping":49},{"user_id":12,"name":"Sparky","steam_id":76561198086845464,"connected_time":2918000000000,"state":"active","ping":76},{"user_id":13,"name":"Nobody #SaveTF2","steam_id":76561198235164104,"connected_time":2851000000000,"state":"active","ping":84},{"user_id":23,"name":"Nurse Swerve","steam_id":76561198051968570,"connected_time":2166000000000,"state":"active","ping":70},{"user_id":15,"name":"marshmallowdragon999","steam_id":76561199129773712,"connected_time":2348000000000,"state":"active","ping":82},{"user_id":17,"name":"JIMMY!!!","steam_id":76561197979090955,"connected_time":2284000000000,"state":"active","ping":76},{"user_id":36,"name":"Stool Pigeon Billionaire","steam_id":76561198011675372,"connected_time":1929000000000,"state":"active","ping":130},{"user_id":20,"name":"CoconutNeutral","steam_id":76561198277110108,"connected_time":2216000000000,"state":"active","ping":74},{"user_id":21,"name":"Gabe Newell","steam_id":76561198330119627,"connected_time":2208000000000,"state":"active","ping":79},{"user_id":22,"name":"mudman","steam_id":76561198079420187,"connected_time":2190000000000,"state":"active","ping":57},{"user_id":24,"name":"JerlBays","steam_id":76561198096773292,"connected_time":2158000000000,"state":"active","ping":67},{"user_id":25,"name":"[TSG] Turner's Chocolate Milk","steam_id":76561198058963288,"connected_time":2135000000000,"state":"active","ping":54},{"user_id":26,"name":"Gumit","steam_id":76561198208126512,"connected_time":2133000000000,"state":"active","ping":57},{"user_id":27,"name":"Cassandra (She/her)","steam_id":76561198094123940,"connected_time":2103000000000,"state":"active","ping":74},{"user_id":38,"name":"jdm2512","steam_id":76561198824777983,"connected_time":1544000000000,"state":"active","ping":119},{"user_id":37,"name":"Resistance","steam_id":76561198146782074,"connected_time":1747000000000,"state":"active","ping":63},{"user_id":30,"name":"Kirsk","steam_id":76561198084397649,"connected_time":2019000000000,"state":"active","ping":79},{"user_id":31,"name":"Mury","steam_id":76561198069743049,"connected_time":2003000000000,"state":"active","ping":107},{"user_id":44,"name":"puffy","steam_id":76561198411347037,"connected_time":229000000000,"state":"active","ping":52},{"user_id":33,"name":"Hoofuyu","steam_id":76561199022142345,"connected_time":1985000000000,"state":"active","ping":89},{"user_id":42,"name":"FUNKY TOWN SLAYER","steam_id":76561198119489292,"connected_time":592000000000,"state":"active","ping":75},{"user_id":46,"name":"Gary","steam_id":76561198133309753,"connected_time":186000000000,"state":"active","ping":51}]},{"server_id":15,"name":"Uncletopia | New York City | 3 | Stopwatch Beta","name_short":"nyc-3","host":"nyc-1.us.uncletopia.com","port":27035,"enabled":true,"region":"us-east","cc":"us","latitude":40.73061,"longitude":-73.93524,"reserved":0,"last_update":"0001-01-01T00:00:00Z","name_a2s":"Uncletopia | New York City | 3 | Stopwatch Beta","protocol":17,"map":"pl_upward","folder":"tf","game":"Team Fortress","app_id":440,"player_count":0,"max_players":24,"Bots":0,"server_type":"Dedicated","server_os":"Linux","password":true,"vac":true,"version":"7757534","steam_id":85568392924742820,"keywords":["nocrits","nodmgspread","payload","uncletopia"],"game_id":440,"stv_port":27036,"stv_name":"Uncletopia | New York City | 3 | Stopwatch Beta | STV","players":null},{"server_id":16,"name":"Uncletopia | New York City | 4 | Community","name_short":"nyc-4","host":"nyc-1.us.uncletopia.com","port":27045,"enabled":true,"region":"us-east","cc":"us","latitude":40.73061,"longitude":-73.93524,"reserved":0,"last_update":"0001-01-01T00:00:00Z","name_a2s":"Uncletopia | New York City | 4 | Community","protocol":17,"map":"pl_swiftwater_final1","folder":"tf","game":"Team Fortress","app_id":440,"player_count":0,"max_players":24,"Bots":0,"server_type":"Dedicated","server_os":"Linux","password":true,"vac":true,"version":"7757534","steam_id":85568392924742821,"keywords":["nocrits","nodmgspread","payload","uncletopia"],"game_id":440,"stv_port":27046,"stv_name":"Uncletopia | New York City | 4 | Community | STV","players":null},{"server_id":142,"name":"Uncletopia | São Paulo | 1 | All Maps","name_short":"sao-1","host":"sao-1.br.uncletopia.com","port":27015,"enabled":true,"region":"sa","cc":"br","latitude":-23.533773,"longitude":-46.62529,"reserved":0,"last_update":"0001-01-01T00:00:00Z","name_a2s":"Uncletopia | São Paulo | 1 | All Maps","protocol":17,"map":"koth_lakeside_final","folder":"tf","game":"Team Fortress","app_id":440,"player_count":0,"max_players":24,"Bots":0,"server_type":"Dedicated","server_os":"Linux","password":true,"vac":true,"version":"7757534","steam_id":85568392924469996,"keywords":["cp","nocrits","nodmgspread","uncletopia"],"game_id":440,"stv_port":27016,"stv_name":"Uncletopia | São Paulo | 1 | All Maps | STV","players":null},{"server_id":143,"name":"Uncletopia | São Paulo | 2 | All Maps","name_short":"sao-2","host":"sao-2.br.uncletopia.com","port":27015,"enabled":true,"region":"sa","cc":"br","latitude":-23.533773,"longitude":-46.62529,"reserved":0,"last_update":"0001-01-01T00:00:00Z","name_a2s":"Uncletopia | São Paulo | 2 | All Maps","protocol":17,"map":"cp_process_final","folder":"tf","game":"Team Fortress","app_id":440,"player_count":0,"max_players":24,"Bots":0,"server_type":"Dedicated","server_os":"Linux","password":true,"vac":true,"version":"7757534","steam_id":85568392924485349,"keywords":["cp","nocrits","nodmgspread","uncletopia"],"game_id":440,"stv_port":27016,"stv_name":"Uncletopia | São Paulo | 2 | All Maps | STV","players":null},{"server_id":7,"name":"Uncletopia | Seattle | 1 | All Maps","name_short":"sea-1","host":"sea-1.us.uncletopia.com","port":27015,"enabled":true,"region":"us-west","cc":"us","latitude":47.608013,"longitude":-122.33517,"reserved":0,"last_update":"0001-01-01T00:00:00Z","name_a2s":"Uncletopia | Seattle | 1 | All Maps","protocol":17,"map":"pl_upward","folder":"tf","game":"Team Fortress","app_id":440,"player_count":12,"max_players":24,"Bots":0,"server_type":"Dedicated","server_os":"Linux","password":true,"vac":true,"version":"7757534","steam_id":85568392924469997,"keywords":["nocrits","nodmgspread","payload","uncletopia"],"game_id":440,"stv_port":27016,"stv_name":"Uncletopia | Seattle | 1 | All Maps | STV","players":[{"user_id":25,"name":"rustyorion","steam_id":76561198439186347,"connected_time":226000000000,"state":"active","ping":59},{"user_id":7,"name":"bobletoob","steam_id":76561199184464900,"connected_time":1950000000000,"state":"active","ping":84},{"user_id":10,"name":"watchfull","steam_id":76561198433266742,"connected_time":1187000000000,"state":"active","ping":53},{"user_id":12,"name":"amagicowl","steam_id":76561199060487814,"connected_time":1062000000000,"state":"active","ping":50},{"user_id":13,"name":"The Arthroscopic Arthropod","steam_id":76561198142011456,"connected_time":1058000000000,"state":"active","ping":76},{"user_id":19,"name":"Festive Bastard","steam_id":76561198094512904,"connected_time":597000000000,"state":"active","ping":94},{"user_id":20,"name":"Chicken","steam_id":76561198220970932,"connected_time":509000000000,"state":"active","ping":151},{"user_id":16,"name":"Iron_Dave_Qc","steam_id":76561198159325213,"connected_time":944000000000,"state":"active","ping":118},{"user_id":21,"name":"Average Guy","steam_id":76561199211257988,"connected_time":505000000000,"state":"active","ping":125},{"user_id":22,"name":"blozet","steam_id":76561199120161035,"connected_time":503000000000,"state":"active","ping":226},{"user_id":23,"name":"Bony","steam_id":76561199001748822,"connected_time":425000000000,"state":"active","ping":46},{"user_id":24,"name":"Smiles","steam_id":76561198107197973,"connected_time":362000000000,"state":"active","ping":64}]},{"server_id":119,"name":"Uncletopia | Seattle | 2 | All Maps","name_short":"sea-2","host":"sea-1.us.uncletopia.com","port":27025,"enabled":true,"region":"us-west","cc":"us","latitude":47.608013,"longitude":-122.33517,"reserved":0,"last_update":"0001-01-01T00:00:00Z","name_a2s":"Uncletopia | Seattle | 2 | All Maps","protocol":17,"map":"cp_process_final","folder":"tf","game":"Team Fortress","app_id":440,"player_count":0,"max_players":24,"Bots":0,"server_type":"Dedicated","server_os":"Linux","password":true,"vac":true,"version":"7757534","steam_id":85568392924469998,"keywords":["cp","nocrits","nodmgspread","uncletopia"],"game_id":440,"stv_port":27026,"stv_name":"Uncletopia | Seattle | 2 | All Maps | STV","players":null},{"server_id":406,"name":"Uncletopia | Seattle | 3 | Stopwatch Beta","name_short":"sea-3","host":"sea-1.us.uncletopia.com","port":27035,"enabled":true,"region":"us-west","cc":"us","latitude":47.608013,"longitude":-122.33517,"reserved":0,"last_update":"0001-01-01T00:00:00Z","name_a2s":"Uncletopia | Seattle | 3 | Stopwatch Beta","protocol":17,"map":"cp_dustbowl","folder":"tf","game":"Team Fortress","app_id":440,"player_count":0,"max_players":24,"Bots":0,"server_type":"Dedicated","server_os":"Linux","password":true,"vac":true,"version":"7757534","steam_id":85568392924515217,"keywords":["cp","nocrits","nodmgspread","uncletopia"],"game_id":440,"stv_port":27036,"stv_name":"Uncletopia | Seattle | 3 | Stopwatch Beta | STV","players":null},{"server_id":17,"name":"Uncletopia | San Francisco | 1 | All Maps","name_short":"sfo-1","host":"sfo-1.us.uncletopia.com","port":27015,"enabled":true,"region":"us-west","cc":"us","latitude":37.77397,"longitude":-122.4313,"reserved":0,"last_update":"0001-01-01T00:00:00Z","name_a2s":"Uncletopia | San Francisco | 1 | All Maps","protocol":17,"map":"cp_process_final","folder":"tf","game":"Team Fortress","app_id":440,"player_count":0,"max_players":24,"Bots":0,"server_type":"Dedicated","server_os":"Linux","password":true,"vac":true,"version":"7757534","steam_id":85568392924469999,"keywords":["cp","nocrits","nodmgspread","uncletopia"],"game_id":440,"stv_port":27016,"stv_name":"Uncletopia | San Francisco | 1 | All Maps | STV","players":null},{"server_id":18,"name":"Uncletopia | San Francisco | 2 | All Maps","name_short":"sfo-2","host":"sfo-1.us.uncletopia.com","port":27025,"enabled":true,"region":"us-west","cc":"us","latitude":37.77397,"longitude":-122.4313,"reserved":0,"last_update":"0001-01-01T00:00:00Z","name_a2s":"Uncletopia | San Francisco | 2 | All Maps","protocol":17,"map":"koth_highpass","folder":"tf","game":"Team Fortress","app_id":440,"player_count":0,"max_players":24,"Bots":0,"server_type":"Dedicated","server_os":"Linux","password":true,"vac":true,"version":"7757534","steam_id":85568392924470000,"keywords":["cp","nocrits","nodmgspread","uncletopia"],"game_id":440,"stv_port":27026,"stv_name":"Uncletopia | San Francisco | 2 | All Maps | STV","players":null},{"server_id":19,"name":"Uncletopia | San Francisco | 3 | Stopwatch Beta","name_short":"sfo-3","host":"sfo-1.us.uncletopia.com","port":27035,"enabled":true,"region":"us-west","cc":"us","latitude":37.77397,"longitude":-122.4313,"reserved":0,"last_update":"0001-01-01T00:00:00Z","name_a2s":"Uncletopia | San Francisco | 3 | Stopwatch Beta","protocol":17,"map":"koth_lakeside_final","folder":"tf","game":"Team Fortress","app_id":440,"player_count":0,"max_players":24,"Bots":0,"server_type":"Dedicated","server_os":"Linux","password":true,"vac":true,"version":"7757534","steam_id":85568392924742824,"keywords":["cp","nocrits","nodmgspread","uncletopia"],"game_id":440,"stv_port":27036,"stv_name":"Uncletopia | San Francisco | 3 | Stopwatch Beta | STV","players":null},{"server_id":20,"name":"Uncletopia | San Francisco | 4 | Community","name_short":"sfo-4","host":"sfo-1.us.uncletopia.com","port":27045,"enabled":true,"region":"us-west","cc":"us","latitude":37.77397,"longitude":-122.4313,"reserved":0,"last_update":"0001-01-01T00:00:00Z","name_a2s":"Uncletopia | San Francisco | 4 | Community","protocol":17,"map":"cp_altitude","folder":"tf","game":"Team Fortress","app_id":440,"player_count":0,"max_players":24,"Bots":0,"server_type":"Dedicated","server_os":"Linux","password":true,"vac":true,"version":"7757534","steam_id":85568392924742826,"keywords":["cp","nocrits","nodmgspread","uncletopia"],"game_id":440,"stv_port":27046,"stv_name":"Uncletopia | San Francisco | 4 | Community | STV","players":null},{"server_id":141,"name":"Uncletopia | Sydney | 1 | All Maps","name_short":"syd-1","host":"syd-1.au.uncletopia.com","port":27015,"enabled":true,"region":"au","cc":"au","latitude":-33.865143,"longitude":151.2099,"reserved":0,"last_update":"0001-01-01T00:00:00Z","name_a2s":"Uncletopia | Sydney | 1 | All Maps","protocol":17,"map":"pl_barnblitz","folder":"tf","game":"Team Fortress","app_id":440,"player_count":0,"max_players":24,"Bots":0,"server_type":"Dedicated","server_os":"Linux","password":true,"vac":true,"version":"7757534","steam_id":85568392924470001,"keywords":["nocrits","nodmgspread","payload","uncletopia"],"game_id":440,"stv_port":27016,"stv_name":"Uncletopia | Sydney | 1 | All Maps | STV","players":null},{"server_id":123,"name":"Uncletopia | Sydney | 2 | All Maps","name_short":"syd-2","host":"syd-1.au.uncletopia.com","port":27025,"enabled":true,"region":"au","cc":"au","latitude":-33.865143,"longitude":151.2099,"reserved":0,"last_update":"0001-01-01T00:00:00Z","name_a2s":"Uncletopia | Sydney | 2 | All Maps","protocol":17,"map":"cp_snakewater_final1","folder":"tf","game":"Team Fortress","app_id":440,"player_count":0,"max_players":24,"Bots":0,"server_type":"Dedicated","server_os":"Linux","password":true,"vac":true,"version":"7757534","steam_id":85568392924470002,"keywords":["cp","nocrits","nodmgspread","uncletopia"],"game_id":440,"stv_port":27026,"stv_name":"Uncletopia | Sydney | 2 | All Maps | STV","players":null},{"server_id":395,"name":"Uncletopia | Sydney | 3 | All Maps","name_short":"syd-3","host":"syd-1.au.uncletopia.com","port":27035,"enabled":true,"region":"au","cc":"au","latitude":-33.865143,"longitude":151.2099,"reserved":0,"last_update":"0001-01-01T00:00:00Z","name_a2s":"Uncletopia | Sydney | 3 | All Maps","protocol":17,"map":"cp_sunshine","folder":"tf","game":"Team Fortress","app_id":440,"player_count":0,"max_players":24,"Bots":0,"server_type":"Dedicated","server_os":"Linux","password":true,"vac":true,"version":"7757534","steam_id":85568392925194467,"keywords":["cp","nocrits","nodmgspread","uncletopia"],"game_id":440,"stv_port":27036,"stv_name":"Uncletopia | Sydney | 3 | All Maps | STV","players":null},{"server_id":396,"name":"Uncletopia | Sydney | 4 | All Maps","name_short":"syd-4","host":"syd-1.au.uncletopia.com","port":27045,"enabled":true,"region":"au","cc":"au","latitude":-33.865143,"longitude":151.2099,"reserved":0,"last_update":"0001-01-01T00:00:00Z","name_a2s":"Uncletopia | Sydney | 4 | All Maps","protocol":17,"map":"koth_highpass","folder":"tf","game":"Team Fortress","app_id":440,"player_count":0,"max_players":24,"Bots":0,"server_type":"Dedicated","server_os":"Linux","password":true,"vac":true,"version":"7757534","steam_id":85568392925397958,"keywords":["cp","nocrits","nodmgspread","uncletopia"],"game_id":440,"stv_port":27046,"stv_name":"Uncletopia | Sydney | 4 | All Maps | STV","players":null},{"server_id":58,"name":"Uncletopia | Sydney | 5 | Stopwatch Beta","name_short":"syd-5","host":"syd-1.au.uncletopia.com","port":27055,"enabled":true,"region":"au","cc":"au","latitude":-33.865143,"longitude":151.2099,"reserved":0,"last_update":"0001-01-01T00:00:00Z","name_a2s":"Uncletopia | Sydney | 5 | Stopwatch Beta","protocol":17,"map":"koth_cascade","folder":"tf","game":"Team Fortress","app_id":440,"player_count":0,"max_players":24,"Bots":0,"server_type":"Dedicated","server_os":"Linux","password":true,"vac":true,"version":"7757534","steam_id":85568392925397959,"keywords":["cp","nocrits","nodmgspread","uncletopia"],"game_id":440,"stv_port":27056,"stv_name":"Uncletopia | Sydney | 5 | Stopwatch Beta | STV","players":null},{"server_id":59,"name":"Uncletopia | Sydney | 6 | Community","name_short":"syd-6","host":"syd-1.au.uncletopia.com","port":27065,"enabled":true,"region":"au","cc":"au","latitude":-33.865143,"longitude":151.2099,"reserved":0,"last_update":"0001-01-01T00:00:00Z","name_a2s":"Uncletopia | Sydney | 6 | Community","protocol":17,"map":"workshop/koth_trenchfoot_b1a.ugc731436616","folder":"tf","game":"Team Fortress","app_id":440,"player_count":0,"max_players":24,"Bots":0,"server_type":"Dedicated","server_os":"Linux","password":true,"vac":true,"version":"7757534","steam_id":85568392925397960,"keywords":["cp","nocrits","nodmgspread","uncletopia"],"game_id":440,"stv_port":27066,"stv_name":"Uncletopia | Sydney | 6 | Community | STV","players":null},{"server_id":49,"name":"Uncletopia | Warsaw | 1 | All Maps","name_short":"waw-1","host":"waw-1.pl.uncletopia.com","port":27015,"enabled":true,"region":"eu","cc":"pl","latitude":52.2297,"longitude":21.017532,"reserved":0,"last_update":"0001-01-01T00:00:00Z","name_a2s":"","protocol":0,"map":"","folder":"","game":"","app_id":0,"player_count":0,"max_players":0,"Bots":0,"server_type":"","server_os":"","password":false,"vac":false,"version":"","steam_id":0,"keywords":null,"game_id":0,"stv_port":0,"stv_name":"","players":null},{"server_id":50,"name":"Uncletopia | Warsaw | 2 | All Maps","name_short":"waw-2","host":"waw-1.pl.uncletopia.com","port":27025,"enabled":true,"region":"eu","cc":"pl","latitude":52.2297,"longitude":21.017532,"reserved":0,"last_update":"0001-01-01T00:00:00Z","name_a2s":"Uncletopia | Warsaw | 2 | All Maps","protocol":17,"map":"koth_viaduct","folder":"tf","game":"Team Fortress","app_id":440,"player_count":0,"max_players":24,"Bots":0,"server_type":"Dedicated","server_os":"Linux","password":true,"vac":true,"version":"7757534","steam_id":85568392925397851,"keywords":["cp","nocrits","nodmgspread","uncletopia"],"game_id":440,"stv_port":27026,"stv_name":"Uncletopia | Warsaw | 2 | All Maps | STV","players":null},{"server_id":51,"name":"Uncletopia | Warsaw | 3 | All Maps","name_short":"waw-3","host":"waw-1.pl.uncletopia.com","port":27035,"enabled":true,"region":"eu","cc":"pl","latitude":52.2297,"longitude":21.017532,"reserved":0,"last_update":"0001-01-01T00:00:00Z","name_a2s":"Uncletopia | Warsaw | 3 | All Maps","protocol":17,"map":"pl_badwater","folder":"tf","game":"Team Fortress","app_id":440,"player_count":0,"max_players":24,"Bots":0,"server_type":"Dedicated","server_os":"Linux","password":true,"vac":true,"version":"7757534","steam_id":85568392925397852,"keywords":["nocrits","nodmgspread","payload","uncletopia"],"game_id":440,"stv_port":27036,"stv_name":"Uncletopia | Warsaw | 3 | All Maps | STV","players":null},{"server_id":52,"name":"Uncletopia | Warsaw | 4 | All Maps","name_short":"waw-4","host":"waw-1.pl.uncletopia.com","port":27045,"enabled":true,"region":"eu","cc":"pl","latitude":52.2297,"longitude":21.017532,"reserved":0,"last_update":"0001-01-01T00:00:00Z","name_a2s":"Uncletopia | Warsaw | 4 | All Maps","protocol":17,"map":"koth_lakeside_final","folder":"tf","game":"Team Fortress","app_id":440,"player_count":0,"max_players":24,"Bots":0,"server_type":"Dedicated","server_os":"Linux","password":true,"vac":true,"version":"7757534","steam_id":85568392925397853,"keywords":["cp","nocrits","nodmgspread","uncletopia"],"game_id":440,"stv_port":27046,"stv_name":"Uncletopia | Warsaw | 4 | All Maps | STV","players":null},{"server_id":53,"name":"Uncletopia | Warsaw | 5 | Stopwatch Beta","name_short":"waw-5","host":"waw-1.pl.uncletopia.com","port":27055,"enabled":true,"region":"eu","cc":"pl","latitude":52.2297,"longitude":21.017532,"reserved":0,"last_update":"0001-01-01T00:00:00Z","name_a2s":"Uncletopia | Warsaw | 5 | Stopwatch Beta","protocol":17,"map":"pl_borneo","folder":"tf","game":"Team Fortress","app_id":440,"player_count":0,"max_players":24,"Bots":0,"server_type":"Dedicated","server_os":"Linux","password":true,"vac":true,"version":"7757534","steam_id":85568392925397854,"keywords":["nocrits","nodmgspread","payload","uncletopia"],"game_id":440,"stv_port":27056,"stv_name":"Uncletopia | Warsaw | 5 | Stopwatch Beta | STV","players":null},{"server_id":54,"name":"Uncletopia | Warsaw | 6 | Community","name_short":"waw-6","host":"waw-1.pl.uncletopia.com","port":27065,"enabled":true,"region":"eu","cc":"pl","latitude":52.2297,"longitude":21.017532,"reserved":0,"last_update":"0001-01-01T00:00:00Z","name_a2s":"Uncletopia | Warsaw | 6 | Community","protocol":17,"map":"koth_lakeside_final","folder":"tf","game":"Team Fortress","app_id":440,"player_count":0,"max_players":24,"Bots":0,"server_type":"Dedicated","server_os":"Linux","password":true,"vac":true,"version":"7757534","steam_id":85568392925397856,"keywords":["cp","nocrits","nodmgspread","uncletopia"],"game_id":440,"stv_port":27066,"stv_name":"Uncletopia | Warsaw | 6 | Community | STV","players":null}]}