{"status":true,"message":"","result":[{"server_id":9,"name":"Uncletopia | Atlanta | 1 | All Maps","name_short":"atl-1","host":"atl-1.us.uncletopia.com","port":27015,"enabled":true,"region":"us-east","cc":"us","latitude":33.753746,"longitude":-84.38633,"reserved":0,"last_update":"0001-01-01T00:00:00Z","name_a2s":"Uncletopia | Atlanta | 1 | All Maps","protocol":17,"map":"pl_enclosure_final","folder":"tf","game":"Team Fortress","app_id":440,"player_count":24,"max_players":24,"Bots":0,"server_type":"Dedicated","server_os":"Linux","password":true,"vac":true,"version":"7757534","steam_id":85568392924469982,"keywords":["nocrits","nodmgspread","payload","uncletopia"],"game_id":440,"stv_port":27016,"stv_name":"Uncletopia | Atlanta | 1 | All Maps | STV","players":[{"user_id":195,"name":"Sway","steam_id":76561198170353885,"connected_time":833000000000,"state":"active","ping":74},{"user_id":191,"name":"sand","steam_id":76561198086193212,"connected_time":977000000000,"state":"active","ping":59},{"user_id":166,"name":"Bottom Trans Cowgirl","steam_id":76561198304239680,"connected_time":2782000000000,"state":"active","ping":75},{"user_id":183,"name":"catboy phroliax","steam_id":76561198207075529,"connected_time":1707000000000,"state":"active","ping":76},{"user_id":180,"name":"DevSlashUser","steam_id":76561198805884205,"connected_time":1840000000000,"state":"active","ping":61},{"user_id":201,"name":"Jeffenthropus","steam_id":76561198134204248,"connected_time":45000000000,"state":"active","ping":70},{"user_id":199,"name":"Humble Leader","steam_id":76561198169966346,"connected_time":226000000000,"state":"active","ping":93},{"user_id":126,"name":"FourBeanSalad","steam_id":76561198117415145,"connected_time":5616000000000,"state":"active","ping":108},{"user_id":174,"name":"William Wallace","steam_id":76561199343316814,"connected_time":2230000000000,"state":"active","ping":57},{"user_id":154,"name":"Ashes!","steam_id":76561197998475441,"connected_time":3329000000000,"state":"active","ping":76},{"user_id":188,"name":"-W3E- grim10465","steam_id":76561198045698581,"connected_time":1067000000000,"state":"active","ping":59},{"user_id":123,"name":"I'm Only 4 Inches","steam_id":76561198055542546,"connected_time":5731000000000,"state":"active","ping":76},{"user_id":171,"name":"Monkey Mode","steam_id":76561197961267543,"connected_time":2395000000000,"state":"active","ping":53},{"user_id":197,"name":"Plutia","steam_id":76561197996787193,"connected_time":404000000000,"state":"active","ping":85},{"user_id":160,"name":"̝̬̩͓̯̠̪ͦ͒̀ͫ̚ ͦ͒̚","steam_id":76561199161322235,"connected_time":2904000000000,"state":"active","ping":99},{"user_id":153,"name":"BambuBabyPackRunner","steam_id":76561198320866421,"connected_time":3336000000000,"state":"active","ping":50},{"user_id":192,"name":"Poomanchu","steam_id":76561198070071631,"connected_time":945000000000,"state":"active","ping":107},{"user_id":189,"name":"Doctor Vegeta","steam_id":76561198353898356,"connected_time":1066000000000,"state":"active","ping":89},{"user_id":190,"name":"namisimp102","steam_id":76561198166710027,"connected_time":1065000000000,"state":"active","ping":54},{"user_id":198,"name":"Law","steam_id":76561198320282310,"connected_time":276000000000,"state":"active","ping":85},{"user_id":196,"name":"\u003c blank \u003e","steam_id":76561199383789041,"connected_time":778000000000,"state":"active","ping":172},{"user_id":187,"name":"Shy","steam_id":76561198394890836,"connected_time":1184000000000,"state":"active","ping":57},{"user_id":165,"name":"a crystal lizard","steam_id":76561197997661928,"connected_time":2850000000000,"state":"active","ping":89},{"user_id":200,"name":"Legit_Jaxer","steam_id":76561198172234053,"connected_time":195000000000,"state":"active","ping":108}]},{"server_id":400,"name":"Uncletopia | Atlanta | 3 | Community","name_short":"atl-3","host":"atl-1.us.uncletopia.com","port":27035,"enabled":true,"region":"us-east","cc":"us","latitude":33.753746,"longitude":-84.38633,"reserved":0,"last_update":"0001-01-01T00:00:00Z","name_a2s":"Uncletopia | Atlanta | 3 | Community","protocol":17,"map":"cp_mountainlab","folder":"tf","game":"Team Fortress","app_id":440,"player_count":0,"max_players":24,"Bots":0,"server_type":"Dedicated","server_os":"Linux","password":true,"vac":true,"version":"7757534","steam_id":85568392924515187,"keywords":["cp","nocrits","nodmgspread","uncletopia"],"game_id":440,"stv_port":27036,"stv_name":"Uncletopia | Atlanta | 3 | Community | STV","players":null},{"server_id":401,"name":"Uncletopia | Atlanta | 4 | No Payload","name_short":"atl-4","host":"atl-1.us.uncletopia.com","port":27045,"enabled":true,"region":"us-east","cc":"us","latitude":33.753746,"longitude":-84.38633,"reserved":0,"last_update":"0001-01-01T00:00:00Z","name_a2s":"","protocol":0,"map":"","folder":"","game":"","app_id":0,"player_count":0,"max_players":0,"Bots":0,"server_type":"","server_os":"","password":false,"vac":false,"version":"","steam_id":0,"keywords":null,"game_id":0,"stv_port":0,"stv_name":"","players":null},{"server_id":2,"name":"Uncletopia | Chicago | 1 | All Maps","name_short":"chi-1","host":"chi-1.us.uncletopia.com","port":27015,"enabled":true,"region":"us-central","cc":"us","latitude":41.881832,"longitude":-87.62318,"reserved":0,"last_update":"0001-01-01T00:00:00Z","name_a2s":"Uncletopia | Chicago | 1 | All Maps","protocol":17,"map":"cp_sunshine","folder":"tf","game":"Team Fortress","app_id":440,"player_count":23,"max_players":24,"Bots":0,"server_type":"Dedicated","server_os":"Linux","password":true,"vac":true,"version":"7757534","steam_id":85568392924469984,"keywords":["cp","nocrits","nodmgspread","uncletopia"],"game_id":440,"stv_port":27016,"stv_name":"Uncletopia | Chicago | 1 | All Maps | STV","players":[{"user_id":372,"name":"Frisbee","steam_id":76561197962808987,"connected_time":1168000000000,"state":"active","ping":60},{"user_id":346,"name":"Spyte","steam_id":76561198085957674,"connected_time":3049000000000,"state":"active","ping":118},{"user_id":368,"name":"tyg","steam_id":76561198056246867,"connected_time":1328000000000,"state":"active","ping":75},{"user_id":350,"name":"indi","steam_id":76561198045917538,"connected_time":2813000000000,"state":"active","ping":56},{"user_id":371,"name":"Majin Boo Radley","steam_id":76561198288471052,"connected_time":1174000000000,"state":"active","ping":55},{"user_id":363,"name":"quagmire toilet gaming","steam_id":76561198098788416,"connected_time":1403000000000,"state":"active","ping":66},{"user_id":362,"name":"Stumblin' in","steam_id":76561198119826352,"connected_time":1539000000000,"state":"active","ping":75},{"user_id":333,"name":"Bocchi the Rock","steam_id":76561198025668771,"connected_time":4031000000000,"state":"active","ping":131},{"user_id":386,"name":"Lilac","steam_id":76561198977523626,"connected_time":133000000000,"state":"active","ping":69},{"user_id":384,"name":"BLANK3T (They/He) | RGL.gg","steam_id":76561198028875624,"connected_time":434000000000,"state":"active","ping":79},{"user_id":377,"name":"A True Mantelgen","steam_id":76561198004352979,"connected_time":713000000000,"state":"active","ping":64},{"user_id":277,"name":"catrinaisahuman","steam_id":76561198281355729,"connected_time":7652000000000,"state":"active","ping":66},{"user_id":365,"name":"pigeoncup","steam_id":76561198964926838,"connected_time":1363000000000,"state":"active","ping":59},{"user_id":379,"name":"hi","steam_id":76561198108685037,"connected_time":535000000000,"state":"active","ping":69},{"user_id":361,"name":"Candy Sparkles","steam_id":76561198126871264,"connected_time":1625000000000,"state":"active","ping":86},{"user_id":356,"name":"Fobby #Savetf2","steam_id":76561198047681469,"connected_time":2298000000000,"state":"active","ping":78},{"user_id":328,"name":"6kre_1t","steam_id":76561198106157810,"connected_time":4304000000000,"state":"active","ping":55},{"user_id":374,"name":"D(b) Hell","steam_id":76561198067869016,"connected_time":872000000000,"state":"active","ping":45},{"user_id":348,"name":"Tyler\u0026Fingers","steam_id":76561198085154485,"connected_time":2995000000000,"state":"active","ping":82},{"user_id":387,"name":"caberknight tf2","steam_id":76561199273882768,"connected_time":108000000000,"state":"active","ping":68},{"user_id":370,"name":"FALRayne","steam_id":76561198113348816,"connected_time":1221000000000,"state":"active","ping":56},{"user_id":383,"name":"Prowox","steam_id":76561198032606089,"connected_time":509000000000,"state":"active","ping":160},{"user_id":376,"name":"98","steam_id":76561198134813102,"connected_time":744000000000,"state":"active","ping":60}]},{"server_id":106,"name":"Uncletopia | Chicago | 2 | All Maps","name_short":"chi-2","host":"chi-1.us.uncletopia.com","port":27025,"enabled":true,"region":"us-central","cc":"us","latitude":41.881832,"longitude":-87.62318,"reserved":0,"last_update":"0001-01-01T00:00:00Z","name_a2s":"Uncletopia | Chicago | 2 | All Maps","protocol":17,"map":"cp_sunshine","folder":"tf","game":"Team Fortress","app_id":440,"player_count":24,"max_players":24,"Bots":0,"server_type":"Dedicated","server_os":"Linux","password":true,"vac":true,"version":"7757534","steam_id":85568392924469985,"keywords":["cp","nocrits","nodmgspread","uncletopia"],"game_id":440,"stv_port":27026,"stv_name":"Uncletopia | Chicago | 2 | All Maps | STV","players":[{"user_id":410,"name":"teafital","steam_id":76561198406252824,"connected_time":361000000000,"state":"active","ping":93},{"user_id":392,"name":"BooBoo Keys","steam_id":76561198239676878,"connected_time":2622000000000,"state":"active","ping":56},{"user_id":406,"name":"neon bug","steam_id":76561198969875709,"connected_time":1301000000000,"state":"active","ping":180},{"user_id":409,"name":"Average Engineer Main","steam_id":76561197999657118,"connected_time":527000000000,"state":"active","ping":110},{"user_id":379,"name":"Mr.YoYo","steam_id":76561198988717854,"connected_time":3241000000000,"state":"active","ping":95},{"user_id":367,"name":"Blades_87","steam_id":76561198150870338,"connected_time":3512000000000,"state":"active","ping":90},{"user_id":400,"name":"Big P","steam_id":76561198089128146,"connected_time":2269000000000,"state":"active","ping":58},{"user_id":416,"name":"Crazy Cane","steam_id":76561198993941174,"connected_time":223000000000,"state":"active","ping":68},{"user_id":401,"name":"A Puppy","steam_id":76561198828184456,"connected_time":1713000000000,"state":"active","ping":56},{"user_id":370,"name":"work it harder make it better","steam_id":76561198328109873,"connected_time":3447000000000,"state":"active","ping":69},{"user_id":373,"name":"sleepychungus45","steam_id":76561198215559840,"connected_time":3415000000000,"state":"active","ping":60},{"user_id":411,"name":"bessie","steam_id":76561198079603532,"connected_time":332000000000,"state":"active","ping":86},{"user_id":405,"name":"TheCoolStinko","steam_id":76561198208975096,"connected_time":1311000000000,"state":"active","ping":59},{"user_id":388,"name":"Foreskin Reattachment service","steam_id":76561198060342804,"connected_time":2750000000000,"state":"active","ping":105},{"user_id":417,"name":"floppy muppet","steam_id":76561198003076261,"connected_time":128000000000,"state":"active","ping":87},{"user_id":395,"name":"Skullypoo","steam_id":76561198067912022,"connected_time":2595000000000,"state":"active","ping":60},{"user_id":374,"name":"puffy","steam_id":76561198411347037,"connected_time":3413000000000,"state":"active","ping":68},{"user_id":375,"name":"mynameisweenis","steam_id":76561198990223681,"connected_time":3409000000000,"state":"active","ping":108},{"user_id":413,"name":"worst tf2 player ever","steam_id":76561198103496593,"connected_time":321000000000,"state":"active","ping":62},{"user_id":342,"name":"Strange Diplomat","steam_id":76561198428191920,"connected_time":5879000000000,"state":"active","ping":74},{"user_id":414,"name":"Eden","steam_id":76561198075587475,"connected_time":297000000000,"state":"active","ping":42},{"user_id":404,"name":"Magnum_doom","steam_id":76561199119161534,"connected_time":1396000000000,"state":"active","ping":74},{"user_id":398,"name":"JelloMotion","steam_id":76561198045892038,"connected_time":2522000000000,"state":"active","ping":60},{"user_id":415,"name":"ᵐ'ˢf'ᵗˢ","steam_id":76561198090271815,"connected_time":285000000000,"state":"active","ping":107}]},{"server_id":402,"name":"Uncletopia | Chicago | 3 | All Maps","name_short":"chi-3","host":"chi-1.us.uncletopia.com","port":27035,"enabled":true,"region":"us-central","cc":"us","latitude":41.881832,"longitude":-87.62318,"reserved":0,"last_update":"0001-01-01T00:00:00Z","name_a2s":"Uncletopia | Chicago | 3 | All Maps","protocol":17,"map":"koth_cascade","folder":"tf","game":"Team Fortress","app_id":440,"player_count":0,"max_players":24,"Bots":0,"server_type":"Dedicated","server_os":"Linux","password":true,"vac":true,"version":"7757534","steam_id":85568392924515191,"keywords":["cp","nocrits","nodmgspread","uncletopia"],"game_id":440,"stv_port":27036,"stv_name":"Uncletopia | Chicago | 3 | All Maps | STV","players":null},{"server_id":403,"name":"Uncletopia | Chicago | 4 | All Maps","name_short":"chi-4","host":"chi-1.us.uncletopia.com","port":27045,"enabled":true,"region":"us-central","cc":"us","latitude":41.881832,"longitude":-87.62318,"reserved":0,"last_update":"0001-01-01T00:00:00Z","name_a2s":"Uncletopia | Chicago | 4 | All Maps","protocol":17,"map":"pl_snowycoast","folder":"tf","game":"Team Fortress","app_id":440,"player_count":24,"max_players":24,"Bots":0,"server_type":"Dedicated","server_os":"Linux","password":true,"vac":true,"version":"7757534","steam_id":85568392924515193,"keywords":["nocrits","nodmgspread","payload","uncletopia"],"game_id":440,"stv_port":27046,"stv_name":"Uncletopia | Chicago | 4 | All Maps | STV","players":[{"user_id":249,"name":"Zwahe✟","steam_id":76561198119750206,"connected_time":699000000000,"state":"active","ping":75},{"user_id":251,"name":"Skink","steam_id":76561198343428818,"connected_time":683000000000,"state":"active","ping":86},{"user_id":235,"name":"shadow wizard","steam_id":76561198165212575,"connected_time":1256000000000,"state":"active","ping":68},{"user_id":237,"name":"Critscare","steam_id":76561198087712508,"connected_time":1215000000000,"state":"active","ping":45},{"user_id":190,"name":"Winter the Witchie","steam_id":76561198151971178,"connected_time":4439000000000,"state":"active","ping":56},{"user_id":223,"name":"Quansen","steam_id":76561198151594550,"connected_time":2532000000000,"state":"active","ping":59},{"user_id":253,"name":"jcera","steam_id":76561198882985900,"connected_time":609000000000,"state":"active","ping":74},{"user_id":248,"name":"Bludgeon","steam_id":76561198272009412,"connected_time":796000000000,"state":"active","ping":107},{"user_id":200,"name":"Doost44","steam_id":76561198115785902,"connected_time":3837000000000,"state":"active","ping":61},{"user_id":228,"name":"RyInc","steam_id":76561198874261643,"connected_time":2425000000000,"state":"active","ping":47},{"user_id":255,"name":"Eosson","steam_id":76561198108642113,"connected_time":521000000000,"state":"active","ping":60},{"user_id":238,"name":"Poppy","steam_id":76561198311745553,"connected_time":1178000000000,"state":"active","ping":92},{"user_id":260,"name":"dunbar","steam_id":76561198043873119,"connected_time":69000000000,"state":"active","ping":54},{"user_id":258,"name":"I Lead MLB In \"Bats Eaten\"","steam_id":76561198034079853,"connected_time":111000000000,"state":"active","ping":70},{"user_id":208,"name":"TheMightyWoz","steam_id":76561198428397322,"connected_time":3591000000000,"state":"active","ping":115},{"user_id":256,"name":"turd ferguson","steam_id":76561198071620782,"connected_time":459000000000,"state":"active","ping":91},{"user_id":241,"name":"Coffee with a Stranger","steam_id":76561198307422313,"connected_time":1074000000000,"state":"active","ping":71},{"user_id":233,"name":"SpinetinglingToast","steam_id":76561198099470670,"connected_time":1413000000000,"state":"active","ping":69},{"user_id":259,"name":"MynMonster","steam_id":76561198333128330,"connected_time":72000000000,"state":"active","ping":35},{"user_id":203,"name":"Chicanery","steam_id":76561198977589038,"connected_time":3805000000000,"state":"active","ping":84},{"user_id":246,"name":"TechnoNeko22","steam_id":76561198335866466,"connected_time":926000000000,"state":"active","ping":88},{"user_id":244,"name":"psychopath john","steam_id":76561198294649667,"connected_time":1006000000000,"state":"active","ping":140},{"user_id":254,"name":"hestus","steam_id":76561199132268907,"connected_time":592000000000,"state":"active","ping":52},{"user_id":257,"name":"Hertz","steam_id":76561198245322982,"connected_time":406000000000,"state":"active","ping":63}]},{"server_id":36,"name":"Uncletopia | Chicago | 5 | All Maps","name_short":"chi-5","host":"chi-2.us.uncletopia.com","port":27015,"enabled":true,"region":"us-central","cc":"us","latitude":41.881832,"longitude":-87.62318,"reserved":0,"last_update":"0001-01-01T00:00:00Z","name_a2s":"Uncletopia | Chicago | 5 | All Maps","protocol":17,"map":"koth_lakeside_final","folder":"tf","game":"Team Fortress","app_id":440,"player_count":0,"max_players":24,"Bots":0,"server_type":"Dedicated","server_os":"Linux","password":true,"vac":true,"version":"7757534","steam_id":85568392924866362,"keywords":["cp","nocrits","nodmgspread","uncletopia"],"game_id":440,"stv_port":27016,"stv_name":"Uncletopia | Chicago | 5 | All Maps | STV","players":null},{"server_id":37,"name":"Uncletopia | Chicago | 6 | All Maps","name_short":"chi-6","host":"chi-2.us.uncletopia.com","port":27025,"enabled":true,"region":"us-central","cc":"us","latitude":41.881832,"longitude":-87.62318,"reserved":0,"last_update":"0001-01-01T00:00:00Z","name_a2s":"Uncletopia | Chicago | 6 | All Maps","protocol":17,"map":"cp_dustbowl","folder":"tf","game":"Team Fortress","app_id":440,"player_count":0,"max_players":24,"Bots":0,"server_type":"Dedicated","server_os":"Linux","password":true,"vac":true,"version":"7757534","steam_id":85568392924866363,"keywords":["cp","nocrits","nodmgspread","uncletopia"],"game_id":440,"stv_port":27026,"stv_name":"Uncletopia | Chicago | 6 | All Maps | STV","players":null},{"server_id":38,"name":"Uncletopia | Chicago | 7 | Stopwatch Beta","name_short":"chi-7","host":"chi-2.us.uncletopia.com","port":27035,"enabled":true,"region":"us-central","cc":"us","latitude":41.881832,"longitude":-87.62318,"reserved":0,"last_update":"0001-01-01T00:00:00Z","name_a2s":"Uncletopia | Chicago | 7 | Stopwatch Beta","protocol":17,"map":"workshop/koth_bagel_rc6.ugc2514036946","folder":"tf","game":"Team Fortress","app_id":440,"player_count":0,"max_players":24,"Bots":0,"server_type":"Dedicated","server_os":"Linux","password":true,"vac":true,"version":"7757534","steam_id":85568392924866364,"keywords":["cp","nocrits","nodmgspread","uncletopia"],"game_id":440,"stv_port":27036,"stv_name":"Uncletopia | Chicago | 7 | Stopwatch Beta | STV","players":null},{"server_id":39,"name":"Uncletopia | Chicago | 8 | Community","name_short":"chi-8","host":"chi-2.us.uncletopia.com","port":27045,"enabled":true,"region":"us-central","cc":"us","latitude":41.881832,"longitude":-87.62318,"reserved":0,"last_update":"0001-01-01T00:00:00Z","name_a2s":"Uncletopia | Chicago | 8 | Community","protocol":17,"map":"koth_lakeside_final","folder":"tf","game":"Team Fortress","app_id":440,"player_count":0,"max_players":24,"Bots":0,"server_type":"Dedicated","server_os":"Linux","password":true,"vac":true,"version":"7757534","steam_id":85568392924866365,"keywords":["cp","nocrits","nodmgspread","uncletopia"],"game_id":440,"stv_port":27046,"stv_name":"Uncletopia | Chicago | 8 | Community | STV","players":null},{"server_id":8,"name":"Uncletopia | Dallas | 1 | All Maps","name_short":"dal-1","host":"dal-1.us.uncletopia.com","port":27015,"enabled":true,"region":"us-central","cc":"us","latitude":32.779167,"longitude":-96.80889,"reserved":0,"last_update":"0001-01-01T00:00:00Z","name_a2s":"Uncletopia | Dallas | 1 | All Maps","protocol":17,"map":"pl_pier","folder":"tf","game":"Team Fortress","app_id":440,"player_count":24,"max_players":24,"Bots":0,"server_type":"Dedicated","server_os":"Linux","password":true,"vac":true,"version":"7757534","steam_id":85568392924469986,"keywords":["nocrits","nodmgspread","payload","uncletopia"],"game_id":440,"stv_port":27016,"stv_name":"Uncletopia | Dallas | 1 | All Maps | STV","players":[{"user_id":161,"name":"[LINUX] Purple Penguin Pybro","steam_id":76561198093538786,"connected_time":1482000000000,"state":"active","ping":47},{"user_id":146,"name":"Mads Mikkelsen","steam_id":76561198083482001,"connected_time":2233000000000,"state":"active","ping":161},{"user_id":139,"name":"mentos14","steam_id":76561198097993629,"connected_time":2763000000000,"state":"active","ping":86},{"user_id":163,"name":"Big Sauce","steam_id":76561198046654750,"connected_time":1438000000000,"state":"active","ping":93},{"user_id":147,"name":"Enron Hubbard","steam_id":76561198012951411,"connected_time":2222000000000,"state":"active","ping":82},{"user_id":179,"name":"Rin","steam_id":76561198151519157,"connected_time":748000000000,"state":"active","ping":33},{"user_id":164,"name":"potty trained","steam_id":76561198141557766,"connected_time":1407000000000,"state":"active","ping":89},{"user_id":165,"name":"cheeks","steam_id":76561197993371179,"connected_time":1402000000000,"state":"active","ping":67},{"user_id":181,"name":"Vivzen","steam_id":76561198972619900,"connected_time":195000000000,"state":"active","ping":50},{"user_id":176,"name":"Weezer Expert (Wexpert)","steam_id":76561198072070843,"connected_time":1076000000000,"state":"active","ping":75},{"user_id":162,"name":"mkl","steam_id":76561197986401685,"connected_time":1482000000000,"state":"active","ping":60},{"user_id":182,"name":"samsoeder","steam_id":76561198293741183,"connected_time":163000000000,"state":"active","ping":75},{"user_id":177,"name":"Pine Tree","steam_id":76561198112323877,"connected_time":961000000000,"state":"active","ping":102},{"user_id":170,"name":"Ayvier","steam_id":76561198042750874,"connected_time":1251000000000,"state":"active","ping":92},{"user_id":183,"name":"tulpa","steam_id":76561198013253513,"connected_time":123000000000,"state":"active","ping":78},{"user_id":154,"name":"Acro Banwagon","steam_id":76561198092451804,"connected_time":1936000000000,"state":"active","ping":75},{"user_id":180,"name":"trobin120","steam_id":76561199122420273,"connected_time":655000000000,"state":"active","ping":84},{"user_id":178,"name":"god approaches","steam_id":76561198081617990,"connected_time":950000000000,"state":"active","ping":91},{"user_id":149,"name":"box","steam_id":76561198985635309,"connected_time":2192000000000,"state":"active","ping":94},{"user_id":184,"name":"slap cheeks","steam_id":76561198128285450,"connected_time":66000000000,"state":"active","ping":96},{"user_id":151,"name":"Shamrock Shake Oct.10.2020 @8pm","steam_id":76561198833313201,"connected_time":2142000000000,"state":"active","ping":87},{"user_id":185,"name":"Johnny Lawrence #JohnnyMaxxing","steam_id":76561199367141671,"connected_time":60000000000,"state":"active","ping":90},{"user_id":150,"name":"Leviathan","steam_id":76561197997528907,"connected_time":2186000000000,"state":"active","ping":75},{"user_id":168,"name":"Crows!","steam_id":76561198150086324,"connected_time":1376000000000,"state":"active","ping":60}]},{"server_id":108,"name":"Uncletopia | Dallas | 2 | All Maps","name_short":"dal-2","host":"dal-1.us.uncletopia.com","port":27025,"enabled":true,"region":"us-central","cc":"us","latitude":32.779167,"longitude":-96.80889,"reserved":0,"last_update":"0001-01-01T00:00:00Z","name_a2s":"Uncletopia | Dallas | 2 | All Maps","protocol":17,"map":"cp_sunshine","folder":"tf","game":"Team Fortress","app_id":440,"player_count":15,"max_players":24,"Bots":0,"server_type":"Dedicated","server_os":"Linux","password":true,"vac":true,"version":"7757534","steam_id":85568392924469988,"keywords":["cp","nocrits","nodmgspread","uncletopia"],"game_id":440,"stv_port":27026,"stv_name":"Uncletopia | Dallas | 2 | All Maps | STV","players":[{"user_id":9,"name":"Deputy Goldrush","steam_id":76561198097061140,"connected_time":1918000000000,"state":"active","ping":77},{"user_id":25,"name":"orionEDM","steam_id":76561198986145301,"connected_time":610000000000,"state":"active","ping":42},{"user_id":11,"name":"Gamebug115","steam_id":76561199053075437,"connected_time":1838000000000,"state":"active","ping":445},{"user_id":26,"name":"Satori Komeiji","steam_id":76561198158211423,"connected_time":600000000000,"state":"active","ping":74},{"user_id":21,"name":"Agent Bowtie","steam_id":76561198175839279,"connected_time":932000000000,"state":"active","ping":53},{"user_id":19,"name":"boombox","steam_id":76561198237013798,"connected_time":1193000000000,"state":"active","ping":100},{"user_id":20,"name":"HerrSpray™","steam_id":76561198023183581,"connected_time":1178000000000,"state":"active","ping":73},{"user_id":22,"name":"Skyrim killable children mod","steam_id":76561198862836173,"connected_time":799000000000,"state":"active","ping":119},{"user_id":23,"name":"NBA Youngboy","steam_id":76561199118797200,"connected_time":719000000000,"state":"active","ping":49},{"user_id":32,"name":"Metbol","steam_id":76561198001362410,"connected_time":295000000000,"state":"active","ping":61},{"user_id":33,"name":"Iadork","steam_id":76561198405128441,"connected_time":273000000000,"state":"active","ping":75},{"user_id":29,"name":"Superman123389","steam_id":76561198267472539,"connected_time":441000000000,"state":"active","ping":90},{"user_id":36,"name":"Boss Baby Gaming","steam_id":76561198221277332,"connected_time":169000000000,"state":"active","ping":51},{"user_id":37,"name":"name420","steam_id":76561198129374525,"connected_time":161000000000,"state":"active","ping":60},{"user_id":38,"name":"Phat_nibba29","steam_id":76561198165661855,"connected_time":38000000000,"state":"active","ping":64}]},{"server_id":5,"name":"Uncletopia | Frankfurt | 1 | All Maps","name_short":"frk-1","host":"frk-1.de.uncletopia.com","port":27015,"enabled":true,"region":"eu","cc":"de","latitude":50.110924,"longitude":8.682127,"reserved":0,"last_update":"0001-01-01T00:00:00Z","name_a2s":"Uncletopia | Frankfurt | 1 | All Maps","protocol":17,"map":"pl_frontier_final","folder":"tf","game":"Team Fortress","app_id":440,"player_count":22,"max_players":24,"Bots":0,"server_type":"Dedicated","server_os":"Linux","password":true,"vac":true,"version":"7757534","steam_id":85568392924469989,"keywords":["nocrits","nodmgspread","payload","uncletopia"],"game_id":440,"stv_port":27016,"stv_name":"Uncletopia | Frankfurt | 1 | All Maps | STV","players":[{"user_id":593,"name":"Xoukz","steam_id":76561198356014540,"connected_time":342000000000,"state":"active","ping":101},{"user_id":604,"name":"VIN WEASEL","steam_id":76561198014387066,"connected_time":196000000000,"state":"active","ping":46},{"user_id":547,"name":"Mumu :3","steam_id":76561198052794823,"connected_time":2977000000000,"state":"active","ping":56},{"user_id":563,"name":"Sejertut","steam_id":76561199278786305,"connected_time":2094000000000,"state":"active","ping":88},{"user_id":537,"name":"jge","steam_id":76561198123186387,"connected_time":3339000000000,"state":"active","ping":58},{"user_id":568,"name":"OfficialP3","steam_id":76561198060567791,"connected_time":1989000000000,"state":"active","ping":64},{"user_id":595,"name":"R","steam_id":76561199379233899,"connected_time":316000000000,"state":"active","ping":90},{"user_id":596,"name":"Microsoft PowerPoint","steam_id":76561198204290539,"connected_time":315000000000,"state":"active","ping":87},{"user_id":597,"name":"Baklava Enjoyer","steam_id":76561198990679631,"connected_time":298000000000,"state":"active","ping":130},{"user_id":583,"name":"Phiphler","steam_id":76561197994055715,"connected_time":1081000000000,"state":"active","ping":66},{"user_id":598,"name":"minespweper","steam_id":76561199096919345,"connected_time":297000000000,"state":"active","ping":92},{"user_id":599,"name":"Solu","steam_id":76561198054652468,"connected_time":295000000000,"state":"active","ping":47},{"user_id":585,"name":"GogsCrunchyNuts","steam_id":76561198150599213,"connected_time":771000000000,"state":"active","ping":104},{"user_id":603,"name":"livingtops","steam_id":76561198128765380,"connected_time":246000000000,"state":"active","ping":88},{"user_id":600,"name":"balanced diet","steam_id":76561198240320806,"connected_time":282000000000,"state":"active","ping":63},{"user_id":574,"name":"joe","steam_id":76561198026484403,"connected_time":1524000000000,"state":"active","ping":74},{"user_id":601,"name":"pumaschildkroete","steam_id":76561198044892630,"connected_time":276000000000,"state":"active","ping":57},{"user_id":602,"name":"Chambersite","steam_id":76561198197022399,"connected_time":260000000000,"state":"active","ping":71},{"user_id":605,"name":"Sparky","steam_id":76561198036754195,"connected_time":157000000000,"state":"active","ping":44},{"user_id":577,"name":"Waffles","steam_id":76561199086942763,"connected_time":1456000000000,"state":"active","ping":82},{"user_id":606,"name":"Utkunator","steam_id":76561198967463151,"connected_time":115000000000,"state":"active","ping":90},{"user_id":588,"name":"flange","steam_id":76561198040182692,"connected_time":725000000000,"state":"active","ping":51}]},{"server_id":110,"name":"Uncletopia | Frankfurt | 2 | All Maps","name_short":"frk-2","host":"frk-1.de.uncletopia.com","port":27025,"enabled":true,"region":"eu","cc":"de","latitude":50.110924,"longitude":8.682127,"reserved":0,"last_update":"0001-01-01T00:00:00Z","name_a2s":"Uncletopia | Frankfurt | 2 | All Maps","protocol":17,"map":"koth_highpass","folder":"tf","game":"Team Fortress","app_id":440,"player_count":14,"max_players":24,"Bots":0,"server_type":"Dedicated","server_os":"Linux","password":true,"vac":true,"version":"7757534","steam_id":85568392924469990,"keywords":["cp","nocrits","nodmgspread","uncletopia"],"game_id":440,"stv_port":27026,"stv_name":"Uncletopia | Frankfurt | 2 | All Maps | STV","players":[{"user_id":422,"name":"relicpastor","steam_id":76561198076341852,"connected_time":19000000000,"state":"spawning","ping":63},{"user_id":383,"name":"Waltcha","steam_id":76561198007691468,"connected_time":2710000000000,"state":"active","ping":58},{"user_id":416,"name":"mirankaran03","steam_id":76561199222589451,"connected_time":502000000000,"state":"active","ping":82},{"user_id":418,"name":"lenovo","steam_id":76561198049872496,"connected_time":394000000000,"state":"active","ping":91},{"user_id":421,"name":"Astyloblatta","steam_id":76561199222909666,"connected_time":295000000000,"state":"active","ping":54},{"user_id":420,"name":"Koalified","steam_id":76561198095350290,"connected_time":332000000000,"state":"active","ping":172},{"user_id":392,"name":"Jin","steam_id":76561198248878364,"connected_time":2444000000000,"state":"active","ping":46},{"user_id":402,"name":"MaccyF","steam_id":76561198039214805,"connected_time":1325000000000,"state":"active","ping":68},{"user_id":380,"name":"Spetse","steam_id":76561197990649972,"connected_time":2791000000000,"state":"active","ping":92},{"user_id":413,"name":"♫★Xriasp★♫","steam_id":76561198104721321,"connected_time":593000000000,"state":"active","ping":75},{"user_id":355,"name":"Norbert Hallelujah","steam_id":76561198137876982,"connected_time":5244000000000,"state":"active","ping":58},{"user_id":414,"name":"HBflis","steam_id":76561198423612640,"connected_time":569000000000,"state":"active","ping":67},{"user_id":404,"name":"pablo","steam_id":76561198002913482,"connected_time":1294000000000,"state":"active","ping":93},{"user_id":394,"name":"Okacha","steam_id":76561198341166854,"connected_time":2229000000000,"state":"active","ping":106}]},{"server_id":308,"name":"Uncletopia | Frankfurt | 3 | All Maps","name_short":"frk-3","host":"frk-1.de.uncletopia.com","port":27035,"enabled":true,"region":"eu","cc":"de","latitude":50.110924,"longitude":8.682127,"reserved":0,"last_update":"0001-01-01T00:00:00Z","name_a2s":"Uncletopia | Frankfurt | 3 | All Maps","protocol":17,"map":"pl_pier","folder":"tf","game":"Team Fortress","app_id":440,"player_count":24,"max_players":24,"Bots":0,"server_type":"Dedicated","server_os":"Linux","password":true,"vac":true,"version":"7757534","steam_id":85568392924504274,"keywords":["nocrits","nodmgspread","payload","uncletopia"],"game_id":440,"stv_port":27036,"stv_name":"Uncletopia | Frankfurt | 3 | All Maps | STV","players":[{"user_id":221,"name":"SlwoFø","steam_id":76561198049663931,"connected_time":370000000000,"state":"active","ping":60},{"user_id":188,"name":"Juss","steam_id":76561198298722637,"connected_time":2406000000000,"state":"active","ping":75},{"user_id":205,"name":"σsiris","steam_id":76561198050791602,"connected_time":962000000000,"state":"active","ping":46},{"user_id":183,"name":"Balls","steam_id":76561198086400484,"connected_time":2781000000000,"state":"active","ping":84},{"user_id":208,"name":"thebananabomb00","steam_id":76561198296409283,"connected_time":798000000000,"state":"active","ping":75},{"user_id":231,"name":"Na'vi Misato (by popular demand","steam_id":76561198130860698,"connected_time":80000000000,"state":"active","ping":68},{"user_id":232,"name":"Dragon","steam_id":76561198880628326,"connected_time":11000000000,"state":"spawning","ping":44},{"user_id":172,"name":"Radegast the Brown","steam_id":76561198075489505,"connected_time":3952000000000,"state":"active","ping":64},{"user_id":230,"name":"Slav-matros","steam_id":76561198251977912,"connected_time":143000000000,"state":"active","ping":59},{"user_id":224,"name":"Tomfool","steam_id":76561197993256481,"connected_time":319000000000,"state":"active","ping":65},{"user_id":199,"name":"tankcom","steam_id":76561198003280485,"connected_time":1003000000000,"state":"active","ping":43},{"user_id":219,"name":"haifa wehbe","steam_id":76561198079390726,"connected_time":510000000000,"state":"active","ping":71},{"user_id":220,"name":"Dezalt","steam_id":76561198154866092,"connected_time":465000000000,"state":"active","ping":83},{"user_id":201,"name":"Kowalski","steam_id":76561198004218740,"connected_time":988000000000,"state":"active","ping":65},{"user_id":225,"name":"Pyrolander","steam_id":76561198050785450,"connected_time":308000000000,"state":"active","ping":51},{"user_id":198,"name":"glyph","steam_id":76561197980736364,"connected_time":1156000000000,"state":"active","ping":77},{"user_id":226,"name":"KittyKate ❤","steam_id":76561198116340817,"connected_time":304000000000,"state":"active","ping":71},{"user_id":227,"name":"holykyckling","steam_id":76561198040661615,"connected_time":254000000000,"state":"active","ping":75},{"user_id":216,"name":"Eren","steam_id":76561198180623345,"connected_time":555000000000,"state":"active","ping":79},{"user_id":217,"name":"SİKİŞMAKİNESİ","steam_id":76561198254610075,"connected_time":546000000000,"state":"active","ping":81},{"user_id":218,"name":"DeepBlue","steam_id":76561198140075795,"connected_time":543000000000,"state":"active","ping":53},{"user_id":197,"name":"RIFT","steam_id":76561198991622379,"connected_time":1246000000000,"state":"active","ping":59},{"user_id":233,"name":"gaming for jesus","steam_id":76561199236428794,"connected_time":6000000000,"state":"spawning","ping":85},{"user_id":228,"name":"lanzer","steam_id":76561198049983016,"connected_time":244000000000,"state":"active","ping":91}]},{"server_id":309,"name":"Uncletopia | Frankfurt | 4 | All Maps","name_short":"frk-4","host":"frk-1.de.uncletopia.com","port":27045,"enabled":true,"region":"eu","cc":"de","latitude":50.110924,"longitude":8.682127,"reserved":0,"last_update":"0001-01-01T00:00:00Z","name_a2s":"Uncletopia | Frankfurt | 4 | All Maps","protocol":17,"map":"pl_badwater","folder":"tf","game":"Team Fortress","app_id":440,"player_count":22,"max_players":24,"Bots":0,"server_type":"Dedicated","server_os":"Linux","password":true,"vac":true,"version":"7757534","steam_id":85568392924504275,"keywords":["nocrits","nodmgspread","payload","uncletopia"],"game_id":440,"stv_port":27046,"stv_name":"Uncletopia | Frankfurt | 4 | All Maps | STV","players":[{"user_id":104,"name":"yoursbzt","steam_id":76561198201866574,"connected_time":21000000000,"state":"active","ping":80},{"user_id":38,"name":"walking sentry","steam_id":76561199225363633,"connected_time":4337000000000,"state":"active","ping":70},{"user_id":80,"name":"addicted","steam_id":76561199129801006,"connected_time":1823000000000,"state":"active","ping":50},{"user_id":79,"name":"maxharmony","steam_id":76561198233819688,"connected_time":2121000000000,"state":"active","ping":83},{"user_id":90,"name":"Acanda","steam_id":76561198123246537,"connected_time":1141000000000,"state":"active","ping":55},{"user_id":86,"name":"Explosive-Legend #savetf2","steam_id":76561199126827973,"connected_time":1445000000000,"state":"active","ping":127},{"user_id":103,"name":"Martini","steam_id":76561198086977720,"connected_time":52000000000,"state":"active","ping":83},{"user_id":78,"name":"generic alias","steam_id":76561198271607226,"connected_time":2436000000000,"state":"active","ping":92},{"user_id":97,"name":"BLACK MAN FROM JOJO","steam_id":76561198272948471,"connected_time":725000000000,"state":"active","ping":140},{"user_id":46,"name":"dddd","steam_id":76561198120894372,"connected_time":3859000000000,"state":"active","ping":106},{"user_id":98,"name":"$t@lker_Tim","steam_id":76561198963658042,"connected_time":546000000000,"state":"active","ping":118},{"user_id":92,"name":"Enforcer02","steam_id":76561197966045944,"connected_time":963000000000,"state":"active","ping":56},{"user_id":75,"name":"WarAndroid","steam_id":76561198873727435,"connected_time":2497000000000,"state":"active","ping":60},{"user_id":89,"name":"cloud","steam_id":76561198179768931,"connected_time":1210000000000,"state":"active","ping":47},{"user_id":93,"name":"Joe * tf2cases.com","steam_id":76561198061717026,"connected_time":944000000000,"state":"active","ping":54},{"user_id":100,"name":"fl1p","steam_id":76561198148565659,"connected_time":420000000000,"state":"active","ping":76},{"user_id":56,"name":"blazeeight","steam_id":76561198159456502,"connected_time":3680000000000,"state":"active","ping":63},{"user_id":67,"name":"Seail_M","steam_id":76561198002405605,"connected_time":3584000000000,"state":"active","ping":53},{"user_id":70,"name":"shotgun","steam_id":76561199422569282,"connected_time":3049000000000,"state":"active","ping":647},{"user_id":101,"name":"hora","steam_id":76561198404470526,"connected_time":293000000000,"state":"active","ping":96},{"user_id":62,"name":"FUKAYU","steam_id":76561198380484033,"connected_time":3652000000000,"state":"active","ping":55},{"user_id":65,"name":"Bobo","steam_id":76561198052308399,"connected_time":3609000000000,"state":"active","ping":62}]},{"server_id":310,"name":"Uncletopia | Frankfurt | 5 | All Maps","name_short":"frk-5","host":"frk-1.de.uncletopia.com","port":27055,"enabled":true,"region":"eu","cc":"de","latitude":50.110924,"longitude":8.682127,"reserved":0,"last_update":"0001-01-01T00:00:00Z","name_a2s":"Uncletopia | Frankfurt | 5 | All Maps","protocol":17,"map":"cp_steel","folder":"tf","game":"Team Fortress","app_id":440,"player_count":21,"max_players":24,"Bots":0,"server_type":"Dedicated","server_os":"Linux","password":true,"vac":true,"version":"7757534","steam_id":85568392924504277,"keywords":["cp","nocrits","nodmgspread","uncletopia"],"game_id":440,"stv_port":27056,"stv_name":"Uncletopia | Frankfurt | 5 | All Maps | STV","players":[{"user_id":172,"name":"sex havin'","steam_id":76561198169857427,"connected_time":1913000000000,"state":"active","ping":74},{"user_id":186,"name":"Pastoss","steam_id":76561198379098260,"connected_time":1486000000000,"state":"active","ping":54},{"user_id":198,"name":"umbrella leaf","steam_id":76561198299372487,"connected_time":536000000000,"state":"active","ping":51},{"user_id":157,"name":"BluDiamynt","steam_id":76561198894231340,"connected_time":2575000000000,"state":"active","ping":63},{"user_id":197,"name":"GuSkand","steam_id":76561198043775605,"connected_time":634000000000,"state":"active","ping":88},{"user_id":192,"name":"Mr Manager","steam_id":76561198021775885,"connected_time":913000000000,"state":"active","ping":48},{"user_id":160,"name":"Pilaarius","steam_id":76561198120273212,"connected_time":2460000000000,"state":"active","ping":79},{"user_id":208,"name":"Schnitzel","steam_id":76561198262231733,"connected_time":32000000000,"state":"active","ping":74},{"user_id":169,"name":"󠀡󠀡","steam_id":76561198015585266,"connected_time":1943000000000,"state":"active","ping":72},{"user_id":164,"name":"TylowStar","steam_id":76561198357107806,"connected_time":2194000000000,"state":"active","ping":60},{"user_id":170,"name":"Louki","steam_id":76561198150080041,"connected_time":1941000000000,"state":"active","ping":59},{"user_id":136,"name":"im so silly XD  :333","steam_id":76561198058012525,"connected_time":5069000000000,"state":"active","ping":66},{"user_id":203,"name":"Vershal Smershal","steam_id":76561198116223995,"connected_time":383000000000,"state":"active","ping":61},{"user_id":199,"name":"azzy","steam_id":76561198061293740,"connected_time":471000000000,"state":"active","ping":86},{"user_id":184,"name":"Mad Cat Kivima","steam_id":76561198028959678,"connected_time":1674000000000,"state":"active","ping":97},{"user_id":183,"name":"shoras","steam_id":76561198019680159,"connected_time":1752000000000,"state":"active","ping":86},{"user_id":201,"name":"etc","steam_id":76561197998394797,"connected_time":446000000000,"state":"active","ping":56},{"user_id":206,"name":"plazma","steam_id":76561198886594048,"connected_time":195000000000,"state":"active","ping":99},{"user_id":207,"name":"Mi Manchi","steam_id":76561198171573129,"connected_time":109000000000,"state":"active","ping":59},{"user_id":191,"name":"Mozza","steam_id":76561198035915570,"connected_time":998000000000,"state":"active","ping":78},{"user_id":193,"name":"Ksidon","steam_id":76561198031825197,"connected_time":896000000000,"state":"active","ping":68}]},{"server_id":311,"name":"Uncletopia | Frankfurt | 6 | All Maps","name_short":"frk-6","host":"frk-1.de.uncletopia.com","port":27065,"enabled":true,"region":"eu","cc":"de","latitude":50.110924,"longitude":8.682127,"reserved":0,"last_update":"0001-01-01T00:00:00Z","name_a2s":"Uncletopia | Frankfurt | 6 | All Maps","protocol":17,"map":"koth_viaduct","folder":"tf","game":"Team Fortress","app_id":440,"player_count":4,"max_players":24,"Bots":0,"server_type":"Dedicated","server_os":"Linux","password":true,"vac":true,"version":"7757534","steam_id":85568392924504278,"keywords":["cp","nocrits","nodmgspread","uncletopia"],"game_id":440,"stv_port":27066,"stv_name":"Uncletopia | Frankfurt | 6 | All Maps | STV","players":[{"user_id":25,"name":"eric","steam_id":76561198988470542,"connected_time":1518000000000,"state":"active","ping":58},{"user_id":23,"name":"ran is running","steam_id":76561199443185667,"connected_time":1762000000000,"state":"active","ping":133},{"user_id":17,"name":"The voice in your head","steam_id":76561198848650365,"connected_time":2573000000000,"state":"active","ping":88},{"user_id":24,"name":"J005KE","steam_id":76561198815127418,"connected_time":1662000000000,"state":"active","ping":78}]},{"server_id":23,"name":"Uncletopia | Frankfurt | 7 | Stopwatch Beta","name_short":"frk-7","host":"frk-1.de.uncletopia.com","port":27075,"enabled":true,"region":"eu","cc":"de","latitude":50.110924,"longitude":8.682127,"reserved":0,"last_update":"0001-01-01T00:00:00Z","name_a2s":"Uncletopia | Frankfurt | 7 | Stopwatch Beta","protocol":17,"map":"pl_swiftwater_final1","folder":"tf","game":"Team Fortress","app_id":440,"player_count":0,"max_players":24,"Bots":0,"server_type":"Dedicated","server_os":"Linux","password":true,"vac":true,"version":"7757534","steam_id":85568392924742827,"keywords":["nocrits","nodmgspread","payload","uncletopia"],"game_id":440,"stv_port":27076,"stv_name":"Uncletopia | Frankfurt | 7 | Stopwatch Beta | STV","players":null},{"server_id":24,"name":"Uncletopia | Frankfurt | 8 | Community","name_short":"frk-8","host":"frk-1.de.uncletopia.com","port":27085,"enabled":true,"region":"eu","cc":"de","latitude":50.110924,"longitude":8.682127,"reserved":0,"last_update":"0001-01-01T00:00:00Z","name_a2s":"Uncletopia | Frankfurt | 8 | Community","protocol":17,"map":"koth_viaduct","folder":"tf","game":"Team Fortress","app_id":440,"player_count":0,"max_players":24,"Bots":0,"server_type":"Dedicated","server_os":"Linux","password":true,"vac":true,"version":"7757534","steam_id":85568392924742828,"keywords":["cp","nocrits","nodmgspread","uncletopia"],"game_id":440,"stv_port":27086,"stv_name":"Uncletopia | Frankfurt | 8 | Community | STV","players":null},{"server_id":202,"name":"Uncletopia | Hong Kong | 1 | All Maps","name_short":"hgk-1","host":"hgk-1.hk.uncletopia.com","port":27015,"enabled":true,"region":"asia","cc":"hk","latitude":22.302711,"longitude":114.177216,"reserved":0,"last_update":"0001-01-01T00:00:00Z","name_a2s":"Uncletopia | Hong Kong | 1 | All Maps","protocol":17,"map":"cp_process_final","folder":"tf","game":"Team Fortress","app_id":440,"player_count":0,"max_players":24,"Bots":0,"server_type":"Dedicated","server_os":"Linux","password":true,"vac":true,"version":"7757534","steam_id":85568392924494504,"keywords":["cp","nocrits","nodmgspread","uncletopia"],"game_id":440,"stv_port":27016,"stv_name":"Uncletopia | Hong Kong | 1 | All Maps | STV","players":null},{"server_id":1,"name":"Uncletopia | Los Angeles | 1 | All Maps","name_short":"lax-1","host":"lax-1.us.uncletopia.com","port":27015,"enabled":true,"region":"us-west","cc":"us","latitude":33.94279,"longitude":-118.41004,"reserved":0,"last_update":"0001-01-01T00:00:00Z","name_a2s":"Uncletopia | Los Angeles | 1 | All Maps","protocol":17,"map":"koth_lakeside_final","folder":"tf","game":"Team Fortress","app_id":440,"player_count":0,"max_players":24,"Bots":0,"server_type":"Dedicated","server_os":"Linux","password":true,"vac":true,"version":"7757534","steam_id":85568392924469991,"keywords":["cp","nocrits","nodmgspread","uncletopia"],"game_id":440,"stv_port":27016,"stv_name":"Uncletopia | Los Angeles | 1 | All Maps | STV","players":null},{"server_id":112,"name":"Uncletopia | Los Angeles | 2 | All Maps","name_short":"lax-2","host":"lax-1.us.uncletopia.com","port":27025,"enabled":true,"region":"us-west","cc":"us","latitude":33.94279,"longitude":-118.41004,"reserved":0,"last_update":"0001-01-01T00:00:00Z","name_a2s":"Uncletopia | Los Angeles | 2 | All Maps","protocol":17,"map":"koth_viaduct","folder":"tf","game":"Team Fortress","app_id":440,"player_count":0,"max_players":24,"Bots":0,"server_type":"Dedicated","server_os":"Linux","password":true,"vac":true,"version":"7757534","steam_id":85568392924469992,"keywords":["cp","nocrits","nodmgspread","uncletopia"],"game_id":440,"stv_port":27026,"stv_name":"Uncletopia | Los Angeles | 2 | All Maps | STV","players":null},{"server_id":324,"name":"Uncletopia | Los Angeles | 3 | All Maps","name_short":"lax-3","host":"lax-1.us.uncletopia.com","port":27035,"enabled":true,"region":"us-west","cc":"us","latitude":33.94279,"longitude":-118.41004,"reserved":0,"last_update":"0001-01-01T00:00:00Z","name_a2s":"Uncletopia | Los Angeles | 3 | All Maps","protocol":17,"map":"cp_altitude","folder":"tf","game":"Team Fortress","app_id":440,"player_count":0,"max_players":24,"Bots":0,"server_type":"Dedicated","server_os":"Linux","password":true,"vac":true,"version":"7757534","steam_id":85568392924510198,"keywords":["cp","nocrits","nodmgspread","uncletopia"],"game_id":440,"stv_port":27036,"stv_name":"Uncletopia | Los Angeles | 3 | All Maps | STV","players":null},{"server_id":25,"name":"Uncletopia | Los Angeles | 4 | Stopwatch Beta","name_short":"lax-4","host":"lax-1.us.uncletopia.com","port":27045,"enabled":true,"region":"us-west","cc":"us","latitude":33.94279,"longitude":-118.41004,"reserved":0,"last_update":"0001-01-01T00:00:00Z","name_a2s":"Uncletopia | Los Angeles | 4 | Stopwatch Beta","protocol":17,"map":"cp_dustbowl","folder":"tf","game":"Team Fortress","app_id":440,"player_count":0,"max_players":24,"Bots":0,"server_type":"Dedicated","server_os":"Linux","password":true,"vac":true,"version":"7757534","steam_id":85568392924510199,"keywords":["cp","nocrits","nodmgspread","uncletopia"],"game_id":440,"stv_port":27046,"stv_name":"Uncletopia | Los Angeles | 4 | Stopwatch Beta | STV","players":null},{"server_id":11,"name":"Uncletopia | London | 1 | All Maps","name_short":"lon-1","host":"lon-1.uk.uncletopia.com","port":27015,"enabled":true,"region":"eu","cc":"gb","latitude":51.509865,"longitude":-0.118092,"reserved":0,"last_update":"0001-01-01T00:00:00Z","name_a2s":"Uncletopia | London | 1 | All Maps","protocol":17,"map":"pl_badwater","folder":"tf","game":"Team Fortress","app_id":440,"player_count":24,"max_players":24,"Bots":0,"server_type":"Dedicated","server_os":"Linux","password":true,"vac":true,"version":"7757534","steam_id":85568392924367362,"keywords":["nocrits","nodmgspread","payload","uncletopia"],"game_id":440,"stv_port":27016,"stv_name":"Uncletopia | London | 1 | All Maps | STV","players":[{"user_id":444,"name":"astra","steam_id":76561198042980579,"connected_time":3310000000000,"state":"active","ping":63},{"user_id":435,"name":"Gnarville","steam_id":76561198006373329,"connected_time":3522000000000,"state":"active","ping":47},{"user_id":433,"name":"robsan","steam_id":76561198137375391,"connected_time":4106000000000,"state":"active","ping":76},{"user_id":394,"name":"Hegyi tahó F2P","steam_id":76561199219150356,"connected_time":5534000000000,"state":"active","ping":74},{"user_id":439,"name":"British Disapproval","steam_id":76561198001375260,"connected_time":3492000000000,"state":"active","ping":50},{"user_id":480,"name":"JGV","steam_id":76561198094654971,"connected_time":944000000000,"state":"active","ping":76},{"user_id":384,"name":"[waffles]","steam_id":76561198951206047,"connected_time":5901000000000,"state":"active","ping":86},{"user_id":468,"name":"trite","steam_id":76561197983765323,"connected_time":1730000000000,"state":"active","ping":49},{"user_id":477,"name":"AiRBiscuiT","steam_id":76561198348655114,"connected_time":983000000000,"state":"active","ping":54},{"user_id":481,"name":"medium rare chicken enjoyer","steam_id":76561198050214002,"connected_time":911000000000,"state":"active","ping":62},{"user_id":473,"name":"MrCookie","steam_id":76561198033143735,"connected_time":1255000000000,"state":"active","ping":95},{"user_id":387,"name":"{waffle toaster}","steam_id":76561199233664005,"connected_time":5811000000000,"state":"active","ping":101},{"user_id":463,"name":"enesven","steam_id":76561199466839845,"connected_time":1882000000000,"state":"active","ping":86},{"user_id":489,"name":"Corto","steam_id":76561197970678350,"connected_time":477000000000,"state":"active","ping":70},{"user_id":476,"name":"impossible whopper eater","steam_id":76561198058641805,"connected_time":1066000000000,"state":"active","ping":60},{"user_id":490,"name":"kul","steam_id":76561198065179630,"connected_time":365000000000,"state":"active","ping":62},{"user_id":475,"name":"Juhkuu","steam_id":76561198079326000,"connected_time":1248000000000,"state":"active","ping":85},{"user_id":479,"name":"mangoface","steam_id":76561199028760996,"connected_time":962000000000,"state":"active","ping":75},{"user_id":488,"name":"kallerannar","steam_id":76561199095701143,"connected_time":497000000000,"state":"active","ping":84},{"user_id":485,"name":"fusion","steam_id":76561198059738176,"connected_time":797000000000,"state":"active","ping":49},{"user_id":486,"name":"Rocket","steam_id":76561198041017880,"connected_time":749000000000,"state":"active","ping":105},{"user_id":379,"name":"Joseph Stalin","steam_id":76561198033199746,"connected_time":6540000000000,"state":"active","ping":48},{"user_id":459,"name":"LOBZIK","steam_id":76561198114830120,"connected_time":2307000000000,"state":"active","ping":78},{"user_id":493,"name":"DoesHotter(real)","steam_id":76561198831766743,"connected_time":183000000000,"state":"active","ping":82}]},{"server_id":114,"name":"Uncletopia | London | 2 | All Maps","name_short":"lon-2","host":"lon-1.uk.uncletopia.com","port":27025,"enabled":true,"region":"eu","cc":"gb","latitude":51.509865,"longitude":-0.118092,"reserved":0,"last_update":"0001-01-01T00:00:00Z","name_a2s":"Uncletopia | London | 2 | All Maps","protocol":17,"map":"pl_goldrush","folder":"tf","game":"Team Fortress","app_id":440,"player_count":24,"max_players":24,"Bots":0,"server_type":"Dedicated","server_os":"Linux","password":true,"vac":true,"version":"7757534","steam_id":85568392924470941,"keywords":["nocrits","nodmgspread","payload","uncletopia"],"game_id":440,"stv_port":27026,"stv_name":"Uncletopia | London | 2 | All Maps | STV","players":[{"user_id":247,"name":"Blacksheep","steam_id":76561198019621063,"connected_time":1282000000000,"state":"active","ping":50},{"user_id":260,"name":"mr K","steam_id":76561198120166752,"connected_time":366000000000,"state":"active","ping":78},{"user_id":250,"name":"Jibus Chritz [UA]","steam_id":76561199050751529,"connected_time":958000000000,"state":"active","ping":86},{"user_id":193,"name":"gajo","steam_id":76561199172260370,"connected_time":4573000000000,"state":"active","ping":73},{"user_id":229,"name":"Caliban","steam_id":76561197999696839,"connected_time":2943000000000,"state":"active","ping":115},{"user_id":246,"name":"Firearms","steam_id":76561197989867612,"connected_time":1522000000000,"state":"active","ping":52},{"user_id":252,"name":"no job so i play tf2","steam_id":76561198314358032,"connected_time":897000000000,"state":"active","ping":86},{"user_id":261,"name":"Kaek","steam_id":76561197960283484,"connected_time":357000000000,"state":"active","ping":65},{"user_id":251,"name":"Pingu","steam_id":76561198207966532,"connected_time":957000000000,"state":"active","ping":73},{"user_id":238,"name":"Caro-Kann","steam_id":76561198065506317,"connected_time":2522000000000,"state":"active","ping":63},{"user_id":253,"name":"Tomau5","steam_id":76561198027409468,"connected_time":801000000000,"state":"active","ping":65},{"user_id":207,"name":"Zogg","steam_id":76561198352683491,"connected_time":4342000000000,"state":"active","ping":42},{"user_id":248,"name":"Uncle Owen","steam_id":76561198157999291,"connected_time":1026000000000,"state":"active","ping":87},{"user_id":208,"name":"Mefuu","steam_id":76561198287729818,"connected_time":4340000000000,"state":"active","ping":107},{"user_id":209,"name":"Mayor Wank from Wanker Town","steam_id":76561197998253588,"connected_time":4329000000000,"state":"active","ping":58},{"user_id":254,"name":"Mr. Dick™","steam_id":76561198047309044,"connected_time":800000000000,"state":"active","ping":129},{"user_id":255,"name":"Oxer","steam_id":76561198055942412,"connected_time":762000000000,"state":"active","ping":92},{"user_id":242,"name":"Grillem Dafoe","steam_id":76561198306874574,"connected_time":2326000000000,"state":"active","ping":63},{"user_id":262,"name":"rlty","steam_id":76561198009395055,"connected_time":349000000000,"state":"active","ping":130},{"user_id":244,"name":"Kendo-6","steam_id":76561198318748304,"connected_time":1772000000000,"state":"active","ping":131},{"user_id":227,"name":"Lux","steam_id":76561198060417740,"connected_time":3358000000000,"state":"active","ping":45},{"user_id":237,"name":"goblin","steam_id":76561198151122921,"connected_time":2567000000000,"state":"active","ping":76},{"user_id":258,"name":"☭ybercat","steam_id":76561198014070417,"connected_time":551000000000,"state":"active","ping":65},{"user_id":257,"name":"Benny the Ball","steam_id":76561198043104532,"connected_time":654000000000,"state":"active","ping":46}]},{"server_id":320,"name":"Uncletopia | London | 3 | All Maps","name_short":"lon-3","host":"lon-1.uk.uncletopia.com","port":27035,"enabled":true,"region":"eu","cc":"gb","latitude":51.509865,"longitude":-0.118092,"reserved":0,"last_update":"0001-01-01T00:00:00Z","name_a2s":"Uncletopia | London | 3 | All Maps","protocol":17,"map":"pl_borneo","folder":"tf","game":"Team Fortress","app_id":440,"player_count":24,"max_players":24,"Bots":0,"server_type":"Dedicated","server_os":"Linux","password":true,"vac":true,"version":"7757534","steam_id":85568392924510192,"keywords":["nocrits","nodmgspread","payload","uncletopia"],"game_id":440,"stv_port":27036,"stv_name":"Uncletopia | London | 3 | All Maps | STV","players":[{"user_id":139,"name":"♥ TRANS RIGHTS ♥","steam_id":76561198066258544,"connected_time":651000000000,"state":"active","ping":62},{"user_id":148,"name":"Safe Joint","steam_id":76561198017799687,"connected_time":347000000000,"state":"active","ping":121},{"user_id":121,"name":"Malabar","steam_id":76561198026857959,"connected_time":1473000000000,"state":"active","ping":61},{"user_id":111,"name":"Weenie Hut Jr's","steam_id":76561198050515739,"connected_time":1998000000000,"state":"active","ping":46},{"user_id":149,"name":"Relix18144","steam_id":76561199202454318,"connected_time":20000000000,"state":"spawning","ping":63},{"user_id":112,"name":"Crims0n","steam_id":76561198110735434,"connected_time":1948000000000,"state":"active","ping":59},{"user_id":141,"name":"Thors","steam_id":76561197968739075,"connected_time":626000000000,"state":"active","ping":40},{"user_id":109,"name":"Pablo el Rojo","steam_id":76561198051862530,"connected_time":2118000000000,"state":"active","ping":74},{"user_id":113,"name":"RadialMount","steam_id":76561198063002562,"connected_time":1910000000000,"state":"active","ping":70},{"user_id":127,"name":"KillerQueen (he/they/she)","steam_id":76561199019399725,"connected_time":1236000000000,"state":"active","ping":48},{"user_id":120,"name":"V","steam_id":76561199006462039,"connected_time":1682000000000,"state":"active","ping":67},{"user_id":138,"name":"bussy overload","steam_id":76561198413545609,"connected_time":744000000000,"state":"active","ping":52},{"user_id":123,"name":"Forgetful","steam_id":76561198147445965,"connected_time":1391000000000,"state":"active","ping":53},{"user_id":95,"name":"koca kolahan","steam_id":76561199033153779,"connected_time":3677000000000,"state":"active","ping":92},{"user_id":128,"name":"darktheif54","steam_id":76561198043650119,"connected_time":1218000000000,"state":"active","ping":52},{"user_id":125,"name":"rob","steam_id":76561198122211848,"connected_time":1357000000000,"state":"active","ping":97},{"user_id":142,"name":"Advokat","steam_id":76561198307121174,"connected_time":623000000000,"state":"active","ping":80},{"user_id":129,"name":"bandi598","steam_id":76561198982382743,"connected_time":1170000000000,"state":"active","ping":63},{"user_id":144,"name":"Saihtama","steam_id":76561198067497192,"connected_time":616000000000,"state":"active","ping":79},{"user_id":132,"name":"Pinkchup","steam_id":76561198106802803,"connected_time":1081000000000,"state":"active","ping":75},{"user_id":145,"name":"=PB=","steam_id":76561197999146612,"connected_time":592000000000,"state":"active","ping":43},{"user_id":134,"name":"lambrusco di sorbara","steam_id":76561198066071855,"connected_time":1036000000000,"state":"active","ping":65},{"user_id":146,"name":"Carrot","steam_id":76561198119340863,"connected_time":556000000000,"state":"active","ping":36},{"user_id":147,"name":"G6 sherlock","steam_id":76561198802967796,"connected_time":520000000000,"state":"active","ping":119}]},{"server_id":321,"name":"Uncletopia | London | 4 | All Maps","name_short":"lon-4","host":"lon-1.uk.uncletopia.com","port":27045,"enabled":true,"region":"eu","cc":"gb","latitude":51.509865,"longitude":-0.118092,"reserved":0,"last_update":"0001-01-01T00:00:00Z","name_a2s":"Uncletopia | London | 4 | All Maps","protocol":17,"map":"koth_suijin","folder":"tf","game":"Team Fortress","app_id":440,"player_count":23,"max_players":24,"Bots":0,"server_type":"Dedicated","server_os":"Linux","password":true,"vac":true,"version":"7757534","steam_id":85568392924510193,"keywords":["cp","nocrits","nodmgspread","uncletopia"],"game_id":440,"stv_port":27046,"stv_name":"Uncletopia | London | 4 | All Maps | STV","players":[{"user_id":123,"name":"X-tis","steam_id":76561198043837480,"connected_time":2233000000000,"state":"active","ping":74},{"user_id":135,"name":"guys? guys?","steam_id":76561198157749464,"connected_time":1579000000000,"state":"active","ping":89},{"user_id":125,"name":"Dr. Uberschwein","steam_id":76561198111367431,"connected_time":1997000000000,"state":"active","ping":69},{"user_id":77,"name":"pizza savage","steam_id":76561198097507847,"connected_time":6362000000000,"state":"active","ping":80},{"user_id":116,"name":"๖ۣۜSir Robbiewolf","steam_id":76561198001357988,"connected_time":3044000000000,"state":"active","ping":66},{"user_id":88,"name":"Datenegassie","steam_id":76561198089417032,"connected_time":6074000000000,"state":"active","ping":67},{"user_id":143,"name":"ArikMor","steam_id":76561199124472513,"connected_time":1050000000000,"state":"active","ping":127},{"user_id":145,"name":"wouris","steam_id":76561198876188003,"connected_time":825000000000,"state":"active","ping":61},{"user_id":102,"name":"FoOzTV","steam_id":76561197998636728,"connected_time":5154000000000,"state":"active","ping":67},{"user_id":122,"name":"PizzaPete123","steam_id":76561198089478290,"connected_time":2374000000000,"state":"active","ping":50},{"user_id":147,"name":"dominus.","steam_id":76561199065917088,"connected_time":759000000000,"state":"active","ping":61},{"user_id":151,"name":"Bodhi","steam_id":76561198000606642,"connected_time":218000000000,"state":"active","ping":56},{"user_id":120,"name":"Cheshireycat","steam_id":76561198067204908,"connected_time":3018000000000,"state":"active","ping":59},{"user_id":121,"name":"Blobbaz","steam_id":76561198031076278,"connected_time":2989000000000,"state":"active","ping":55},{"user_id":152,"name":"R!not","steam_id":76561197986328786,"connected_time":7000000000,"state":"spawning","ping":34},{"user_id":144,"name":"multiflex","steam_id":76561198049639319,"connected_time":982000000000,"state":"active","ping":72},{"user_id":148,"name":"No,Why?","steam_id":76561198888755969,"connected_time":528000000000,"state":"active","ping":90},{"user_id":137,"name":"owlsie","steam_id":76561198094883280,"connected_time":1505000000000,"state":"active","ping":61},{"user_id":130,"name":"a fresh pan of lemon squares","steam_id":76561197984071376,"connected_time":1674000000000,"state":"active","ping":68},{"user_id":149,"name":"Sunchouse","steam_id":76561198453479806,"connected_time":445000000000,"state":"active","ping":84},{"user_id":109,"name":"Fat Pigeon","steam_id":76561198817940142,"connected_time":4202000000000,"state":"active","ping":48},{"user_id":119,"name":"Bounter","steam_id":76561198072614188,"connected_time":3031000000000,"state":"active","ping":75},{"user_id":140,"name":"PGAndy","steam_id":76561199218070297,"connected_time":1240000000000,"state":"active","ping":89}]},{"server_id":21,"name":"Uncletopia | London | 5 | All Maps","name_short":"lon-5","host":"lon-1.uk.uncletopia.com","port":27055,"enabled":true,"region":"eu","cc":"gb","latitude":51.509865,"longitude":-0.118092,"reserved":0,"last_update":"0001-01-01T00:00:00Z","name_a2s":"Uncletopia | London | 5 | All Maps","protocol":17,"map":"pl_pier","folder":"tf","game":"Team Fortress","app_id":440,"player_count":0,"max_players":24,"Bots":0,"server_type":"Dedicated","server_os":"Linux","password":true,"vac":true,"version":"7757534","steam_id":85568392924742829,"keywords":["nocrits","nodmgspread","payload","uncletopia"],"game_id":440,"stv_port":27056,"stv_name":"Uncletopia | London | 5 | All Maps | STV","players":null},{"server_id":22,"name":"Uncletopia | London | 6 | All Maps","name_short":"lon-6","host":"lon-1.uk.uncletopia.com","port":27065,"enabled":true,"region":"eu","cc":"gb","latitude":51.509865,"longitude":-0.118092,"reserved":0,"last_update":"0001-01-01T00:00:00Z","name_a2s":"Uncletopia | London | 6 | All Maps","protocol":17,"map":"pl_swiftwater_final1","folder":"tf","game":"Team Fortress","app_id":440,"player_count":23,"max_players":24,"Bots":0,"server_type":"Dedicated","server_os":"Linux","password":true,"vac":true,"version":"7757534","steam_id":85568392924742830,"keywords":["nocrits","nodmgspread","payload","uncletopia"],"game_id":440,"stv_port":27066,"stv_name":"Uncletopia | London | 6 | All Maps | STV","players":[{"user_id":115,"name":"Michael","steam_id":76561198003146906,"connected_time":513000000000,"state":"active","ping":46},{"user_id":89,"name":"Mr. Mundy","steam_id":76561198132008918,"connected_time":2242000000000,"state":"active","ping":85},{"user_id":113,"name":"Walter Hartwell White","steam_id":76561198143441042,"connected_time":764000000000,"state":"active","ping":162},{"user_id":104,"name":"Posture Check","steam_id":76561198053897197,"connected_time":1232000000000,"state":"active","ping":45},{"user_id":63,"name":"LegitACarWithAGun","steam_id":76561198081742337,"connected_time":3159000000000,"state":"active","ping":96},{"user_id":114,"name":"Sigma","steam_id":76561199088506542,"connected_time":752000000000,"state":"active","ping":56},{"user_id":106,"name":"Spajro","steam_id":76561198257383813,"connected_time":1108000000000,"state":"active","ping":60},{"user_id":103,"name":"Redkiller","steam_id":76561199453655288,"connected_time":1255000000000,"state":"active","ping":129},{"user_id":99,"name":"I SMOKE PCP","steam_id":76561198129866997,"connected_time":1533000000000,"state":"active","ping":83},{"user_id":88,"name":"mt","steam_id":76561197961319303,"connected_time":2437000000000,"state":"active","ping":60},{"user_id":107,"name":"MIAM LES PÂTES AU JAMBON ®","steam_id":76561198204821037,"connected_time":1039000000000,"state":"active","ping":66},{"user_id":48,"name":"BlackholeJ_Media","steam_id":76561199031406531,"connected_time":4671000000000,"state":"active","ping":189},{"user_id":117,"name":"f l я n","steam_id":76561198079595755,"connected_time":488000000000,"state":"active","ping":60},{"user_id":109,"name":"Cookies and Bakies","steam_id":76561198017442928,"connected_time":1028000000000,"state":"active","ping":67},{"user_id":120,"name":"Kommmy","steam_id":76561198218922789,"connected_time":328000000000,"state":"active","ping":68},{"user_id":118,"name":"CarrierPigeon","steam_id":76561198143126135,"connected_time":414000000000,"state":"active","ping":56},{"user_id":55,"name":"Hexagon","steam_id":76561198151205758,"connected_time":4043000000000,"state":"active","ping":59},{"user_id":123,"name":"PEPI CIGANCHETO","steam_id":76561198166559566,"connected_time":189000000000,"state":"active","ping":84},{"user_id":91,"name":"Yakko","steam_id":76561198044170177,"connected_time":2144000000000,"state":"active","ping":62},{"user_id":124,"name":"stupid fucking anime girl","steam_id":76561198166773704,"connected_time":130000000000,"state":"active","ping":104},{"user_id":84,"name":"KingTeddy","steam_id":76561198131757499,"connected_time":2742000000000,"state":"active","ping":87},{"user_id":102,"name":"Udinese Dion","steam_id":76561198067931573,"connected_time":1345000000000,"state":"active","ping":58},{"user_id":122,"name":"KFC Enjoyer","steam_id":76561198840259819,"connected_time":310000000000,"state":"active","ping":60}]},{"server_id":40,"name":"Uncletopia | London | 7 | No Payload","name_short":"lon-7","host":"lon-1.uk.uncletopia.com","port":27075,"enabled":true,"region":"eu","cc":"gb","latitude":51.509865,"longitude":-0.118092,"reserved":0,"last_update":"0001-01-01T00:00:00Z","name_a2s":"Uncletopia | London | 7 | No Payload","protocol":17,"map":"koth_highpass","folder":"tf","game":"Team Fortress","app_id":440,"player_count":0,"max_players":24,"Bots":0,"server_type":"Dedicated","server_os":"Linux","password":true,"vac":true,"version":"7757534","steam_id":85568392924964314,"keywords":["cp","nocrits","nodmgspread","uncletopia"],"game_id":440,"stv_port":27076,"stv_name":"Uncletopia | London | 7 | No Payload | STV","players":null},{"server_id":41,"name":"Uncletopia | London | 8 | Community","name_short":"lon-8","host":"lon-1.uk.uncletopia.com","port":27085,"enabled":true,"region":"eu","cc":"gb","latitude":51.509865,"longitude":-0.118092,"reserved":0,"last_update":"0001-01-01T00:00:00Z","name_a2s":"Uncletopia | London | 8 | Community","protocol":17,"map":"cp_altitude","folder":"tf","game":"Team Fortress","app_id":440,"player_count":0,"max_players":24,"Bots":0,"server_type":"Dedicated","server_os":"Linux","password":true,"vac":true,"version":"7757534","steam_id":85568392924964315,"keywords":["cp","nocrits","nodmgspread","uncletopia"],"game_id":440,"stv_port":27086,"stv_name":"Uncletopia | London | 8 | Community | STV","players":null},{"server_id":300,"name":"Uncletopia | Montréal | 1 | All Maps","name_short":"mtl-1","host":"mtl-1.ca.uncletopia.com","port":27015,"enabled":true,"region":"us-east","cc":"ca","latitude":45.50889,"longitude":-73.56167,"reserved":0,"last_update":"0001-01-01T00:00:00Z","name_a2s":"Uncletopia | Montréal | 1 | All Maps","protocol":17,"map":"pl_pier","folder":"tf","game":"Team Fortress","app_id":440,"player_count":0,"max_players":24,"Bots":0,"server_type":"Dedicated","server_os":"Linux","password":true,"vac":true,"version":"7757534","steam_id":85568392924500087,"keywords":["nocrits","nodmgspread","payload","uncletopia"],"game_id":440,"stv_port":27016,"stv_name":"Uncletopia | Montréal | 1 | All Maps | STV","players":null},{"server_id":301,"name":"Uncletopia | Montréal | 2 | All Maps","name_short":"mtl-2","host":"mtl-1.ca.uncletopia.com","port":27025,"enabled":true,"region":"us-east","cc":"ca","latitude":45.50889,"longitude":-73.56167,"reserved":0,"last_update":"0001-01-01T00:00:00Z","name_a2s":"Uncletopia | Montréal | 2 | All Maps","protocol":17,"map":"cp_mountainlab","folder":"tf","game":"Team Fortress","app_id":440,"player_count":4,"max_players":24,"Bots":0,"server_type":"Dedicated","server_os":"Linux","password":true,"vac":true,"version":"7757534","steam_id":85568392924500088,"keywords":["cp","nocrits","nodmgspread","uncletopia"],"game_id":440,"stv_port":27026,"stv_name":"Uncletopia | Montréal | 2 | All Maps | STV","players":[{"user_id":55,"name":"Space bar ©","steam_id":76561199405318831,"connected_time":95000000000,"state":"active","ping":105},{"user_id":42,"name":"DATONA","steam_id":76561198325164208,"connected_time":900000000000,"state":"active","ping":80},{"user_id":48,"name":"Quailey","steam_id":76561198435292841,"connected_time":814000000000,"state":"active","ping":94},{"user_id":34,"name":"zed","steam_id":76561198090531755,"connected_time":1581000000000,"state":"active","ping":76}]},{"server_id":302,"name":"Uncletopia | Montréal | 3 | All Maps","name_short":"mtl-3","host":"mtl-1.ca.uncletopia.com","port":27035,"enabled":true,"region":"us-east","cc":"ca","latitude":45.50889,"longitude":-73.56167,"reserved":0,"last_update":"0001-01-01T00:00:00Z","name_a2s":"Uncletopia | Montréal | 3 | All Maps","protocol":17,"map":"pl_frontier_final","folder":"tf","game":"Team Fortress","app_id":440,"player_count":0,"max_players":24,"Bots":0,"server_type":"Dedicated","server_os":"Linux","password":true,"vac":true,"version":"7757534","steam_id":85568392924500089,"keywords":["nocrits","nodmgspread","payload","uncletopia"],"game_id":440,"stv_port":27036,"stv_name":"Uncletopia | Montréal | 3 | All Maps | STV","players":null},{"server_id":303,"name":"Uncletopia | Montréal | 4 | No Payload","name_short":"mtl-4","host":"mtl-1.ca.uncletopia.com","port":27045,"enabled":true,"region":"us-east","cc":"ca","latitude":45.50889,"longitude":-73.56167,"reserved":0,"last_update":"0001-01-01T00:00:00Z","name_a2s":"Uncletopia | Montréal | 4 | No Payload","protocol":17,"map":"pl_pier","folder":"tf","game":"Team Fortress","app_id":440,"player_count":0,"max_players":24,"Bots":0,"server_type":"Dedicated","server_os":"Linux","password":true,"vac":true,"version":"7757534","steam_id":85568392924500090,"keywords":["nocrits","nodmgspread","payload","uncletopia"],"game_id":440,"stv_port":27046,"stv_name":"Uncletopia | Montréal | 4 | No Payload | STV","players":null},{"server_id":13,"name":"Uncletopia | New York City | 1 | All Maps","name_short":"nyc-1","host":"nyc-1.us.uncletopia.com","port":27015,"enabled":true,"region":"us-east","cc":"us","latitude":40.73061,"longitude":-73.93524,"reserved":0,"last_update":"0001-01-01T00:00:00Z","name_a2s":"Uncletopia | New York City | 1 | All Maps","protocol":17,"map":"pl_borneo","folder":"tf","game":"Team Fortress","app_id":440,"player_count":0,"max_players":24,"Bots":0,"server_type":"Dedicated","server_os":"Linux","password":true,"vac":true,"version":"7757534","steam_id":85568392924469993,"keywords":["nocrits","nodmgspread","payload","uncletopia"],"game_id":440,"stv_port":27016,"stv_name":"Uncletopia | New York City | 1 | All Maps | STV","players":null},{"server_id":14,"name":"Uncletopia | New York City | 2 | All Maps","name_short":"nyc-2","host":"nyc-1.us.uncletopia.com","port":27025,"enabled":true,"region":"us-east","cc":"us","latitude":40.73061,"longitude":-73.93524,"reserved":0,"last_update":"0001-01-01T00:00:00Z","name_a2s":"Uncletopia | New York City | 2 | All Maps","protocol":17,"map":"plr_hightower","folder":"tf","game":"Team Fortress","app_id":440,"player_count":0,"max_players":24,"Bots":0,"server_type":"Dedicated","server_os":"Linux","password":true,"vac":true,"version":"7757534","steam_id":85568392924469994,"keywords":["nocrits","nodmgspread","payload","uncletopia"],"game_id":440,"stv_port":27026,"stv_name":"Uncletopia | New York City | 2 | All Maps | STV","players":null},{"server_id":15,"name":"Uncletopia | New York City | 3 | Stopwatch Beta","name_short":"nyc-3","host":"nyc-1.us.uncletopia.com","port":27035,"enabled":true,"region":"us-east","cc":"us","latitude":40.73061,"longitude":-73.93524,"reserved":0,"last_update":"0001-01-01T00:00:00Z","name_a2s":"Uncletopia | New York City | 3 | Stopwatch Beta","protocol":17,"map":"koth_cascade","folder":"tf","game":"Team Fortress","app_id":440,"player_count":0,"max_players":24,"Bots":0,"server_type":"Dedicated","server_os":"Linux","password":true,"vac":true,"version":"7757534","steam_id":85568392924742820,"keywords":["cp","nocrits","nodmgspread","uncletopia"],"game_id":440,"stv_port":27036,"stv_name":"Uncletopia | New York City | 3 | Stopwatch Beta | STV","players":null},{"server_id":16,"name":"Uncletopia | New York City | 4 | Community","name_short":"nyc-4","host":"nyc-1.us.uncletopia.com","port":27045,"enabled":true,"region":"us-east","cc":"us","latitude":40.73061,"longitude":-73.93524,"reserved":0,"last_update":"0001-01-01T00:00:00Z","name_a2s":"Uncletopia | New York City | 4 | Community","protocol":17,"map":"pl_frontier_final","folder":"tf","game":"Team Fortress","app_id":440,"player_count":0,"max_players":24,"Bots":0,"server_type":"Dedicated","server_os":"Linux","password":true,"vac":true,"version":"7757534","steam_id":85568392924742821,"keywords":["nocrits","nodmgspread","payload","uncletopia"],"game_id":440,"stv_port":27046,"stv_name":"Uncletopia | New York City | 4 | Community | STV","players":null},{"server_id":142,"name":"Uncletopia | São Paulo | 1 | All Maps","name_short":"sao-1","host":"sao-1.br.uncletopia.com","port":27015,"enabled":true,"region":"sa","cc":"br","latitude":-23.533773,"longitude":-46.62529,"reserved":0,"last_update":"0001-01-01T00:00:00Z","name_a2s":"Uncletopia | São Paulo | 1 | All Maps","protocol":17,"map":"pl_badwater","folder":"tf","game":"Team Fortress","app_id":440,"player_count":0,"max_players":24,"Bots":0,"server_type":"Dedicated","server_os":"Linux","password":true,"vac":true,"version":"7757534","steam_id":85568392924469996,"keywords":["nocrits","nodmgspread","payload","uncletopia"],"game_id":440,"stv_port":27016,"stv_name":"Uncletopia | São Paulo | 1 | All Maps | STV","players":null},{"server_id":143,"name":"Uncletopia | São Paulo | 2 | All Maps","name_short":"sao-2","host":"sao-2.br.uncletopia.com","port":27015,"enabled":true,"region":"sa","cc":"br","latitude":-23.533773,"longitude":-46.62529,"reserved":0,"last_update":"0001-01-01T00:00:00Z","name_a2s":"Uncletopia | São Paulo | 2 | All Maps","protocol":17,"map":"koth_viaduct","folder":"tf","game":"Team Fortress","app_id":440,"player_count":0,"max_players":24,"Bots":0,"server_type":"Dedicated","server_os":"Linux","password":true,"vac":true,"version":"7757534","steam_id":85568392924485349,"keywords":["cp","nocrits","nodmgspread","uncletopia"],"game_id":440,"stv_port":27016,"stv_name":"Uncletopia | São Paulo | 2 | All Maps | STV","players":null},{"server_id":7,"name":"Uncletopia | Seattle | 1 | All Maps","name_short":"sea-1","host":"sea-1.us.uncletopia.com","port":27015,"enabled":true,"region":"us-west","cc":"us","latitude":47.608013,"longitude":-122.33517,"reserved":0,"last_update":"0001-01-01T00:00:00Z","name_a2s":"Uncletopia | Seattle | 1 | All Maps","protocol":17,"map":"pl_barnblitz","folder":"tf","game":"Team Fortress","app_id":440,"player_count":23,"max_players":24,"Bots":0,"server_type":"Dedicated","server_os":"Linux","password":true,"vac":true,"version":"7757534","steam_id":85568392924469997,"keywords":["nocrits","nodmgspread","payload","uncletopia"],"game_id":440,"stv_port":27016,"stv_name":"Uncletopia | Seattle | 1 | All Maps | STV","players":[{"user_id":271,"name":"HeisenBurger","steam_id":76561198040632080,"connected_time":3588000000000,"state":"active","ping":108},{"user_id":201,"name":"crumblejon","steam_id":76561198111273302,"connected_time":7883000000000,"state":"active","ping":63},{"user_id":313,"name":"Amish Robot","steam_id":76561198041156065,"connected_time":244000000000,"state":"active","ping":113},{"user_id":236,"name":"Username","steam_id":76561198855586261,"connected_time":5623000000000,"state":"active","ping":64},{"user_id":312,"name":"〣dust〣 -she/it-","steam_id":76561198045218909,"connected_time":271000000000,"state":"active","ping":35},{"user_id":309,"name":"DatFluffyPancake","steam_id":76561198271958697,"connected_time":515000000000,"state":"active","ping":61},{"user_id":310,"name":"Dad 2","steam_id":76561198138546187,"connected_time":444000000000,"state":"active","ping":121},{"user_id":308,"name":"bottom pride burger","steam_id":76561198322247602,"connected_time":716000000000,"state":"active","ping":78},{"user_id":314,"name":"DrummerDiddles","steam_id":76561198327364451,"connected_time":242000000000,"state":"active","ping":129},{"user_id":292,"name":"Dozo","steam_id":76561198011546437,"connected_time":1987000000000,"state":"active","ping":77},{"user_id":297,"name":"Gr8alex #KILLTF2","steam_id":76561198227675960,"connected_time":1616000000000,"state":"active","ping":82},{"user_id":311,"name":"shy guy","steam_id":76561198151246059,"connected_time":277000000000,"state":"active","ping":66},{"user_id":184,"name":"Kit Carson","steam_id":76561198115691546,"connected_time":9314000000000,"state":"active","ping":85},{"user_id":298,"name":"Luca","steam_id":76561198125087140,"connected_time":1592000000000,"state":"active","ping":45},{"user_id":115,"name":"worker","steam_id":76561198039608940,"connected_time":13888000000000,"state":"active","ping":55},{"user_id":316,"name":"Röntgen","steam_id":76561197993492325,"connected_time":189000000000,"state":"active","ping":77},{"user_id":317,"name":"MORE BOUNCE TO THE OUNCE","steam_id":76561198243399336,"connected_time":155000000000,"state":"active","ping":76},{"user_id":181,"name":"LProduct","steam_id":76561199442139670,"connected_time":9657000000000,"state":"active","ping":78},{"user_id":293,"name":"Slippery","steam_id":76561199469441947,"connected_time":1963000000000,"state":"active","ping":114},{"user_id":307,"name":"LazyZealot","steam_id":76561198241505038,"connected_time":986000000000,"state":"active","ping":70},{"user_id":301,"name":"Sweetness","steam_id":76561198299850205,"connected_time":1345000000000,"state":"active","ping":71},{"user_id":318,"name":"SOBRII","steam_id":76561198077438484,"connected_time":95000000000,"state":"active","ping":73},{"user_id":305,"name":"Onion My Ate Dog My","steam_id":76561198155848925,"connected_time":1117000000000,"state":"active","ping":139}]},{"server_id":119,"name":"Uncletopia | Seattle | 2 | All Maps","name_short":"sea-2","host":"sea-1.us.uncletopia.com","port":27025,"enabled":true,"region":"us-west","cc":"us","latitude":47.608013,"longitude":-122.33517,"reserved":0,"last_update":"0001-01-01T00:00:00Z","name_a2s":"Uncletopia | Seattle | 2 | All Maps","protocol":17,"map":"cp_mountainlab","folder":"tf","game":"Team Fortress","app_id":440,"player_count":24,"max_players":24,"Bots":0,"server_type":"Dedicated","server_os":"Linux","password":true,"vac":true,"version":"7757534","steam_id":85568392924469998,"keywords":["cp","nocrits","nodmgspread","uncletopia"],"game_id":440,"stv_port":27026,"stv_name":"Uncletopia | Seattle | 2 | All Maps | STV","players":[{"user_id":11,"name":"WaffleWithNoToppings","steam_id":76561199088280111,"connected_time":5481000000000,"state":"active","ping":53},{"user_id":13,"name":"dubba (•̀_•́ )","steam_id":76561199428471192,"connected_time":4272000000000,"state":"active","ping":63},{"user_id":57,"name":"Firedust19","steam_id":76561198153238631,"connected_time":1389000000000,"state":"active","ping":113},{"user_id":44,"name":"Pardue The Holy Man","steam_id":76561198045231965,"connected_time":1785000000000,"state":"active","ping":137},{"user_id":82,"name":"1994","steam_id":76561198868600487,"connected_time":278000000000,"state":"active","ping":139},{"user_id":79,"name":"walterhwhite","steam_id":76561199433675789,"connected_time":351000000000,"state":"active","ping":90},{"user_id":80,"name":"deus sex","steam_id":76561198048007844,"connected_time":337000000000,"state":"active","ping":74},{"user_id":20,"name":"Oktayey","steam_id":76561198143213426,"connected_time":2658000000000,"state":"active","ping":63},{"user_id":63,"name":"Kontray","steam_id":76561198294948653,"connected_time":1165000000000,"state":"active","ping":84},{"user_id":23,"name":"Metal Head","steam_id":76561198102176850,"connected_time":2466000000000,"state":"active","ping":129},{"user_id":65,"name":"soda","steam_id":76561198105924953,"connected_time":1129000000000,"state":"active","ping":75},{"user_id":55,"name":"Cactus™ ♥","steam_id":76561198036441270,"connected_time":1398000000000,"state":"active","ping":107},{"user_id":66,"name":"LuciDin","steam_id":76561198049690649,"connected_time":1119000000000,"state":"active","ping":122},{"user_id":67,"name":"lag","steam_id":76561197963872739,"connected_time":1066000000000,"state":"active","ping":58},{"user_id":74,"name":"Teebag","steam_id":76561198240550506,"connected_time":784000000000,"state":"active","ping":137},{"user_id":71,"name":"Fish Lambert","steam_id":76561198098279668,"connected_time":929000000000,"state":"active","ping":94},{"user_id":37,"name":"fridge","steam_id":76561198986774696,"connected_time":2015000000000,"state":"active","ping":48},{"user_id":49,"name":"em","steam_id":76561198000208873,"connected_time":1608000000000,"state":"active","ping":56},{"user_id":62,"name":"Peppy","steam_id":76561198866629645,"connected_time":1226000000000,"state":"active","ping":62},{"user_id":81,"name":"A Duck With Socks","steam_id":76561198018844227,"connected_time":327000000000,"state":"active","ping":60},{"user_id":47,"name":"Nekogaming1500","steam_id":76561198979123816,"connected_time":1697000000000,"state":"active","ping":51},{"user_id":76,"name":"Babyyy","steam_id":76561198079592999,"connected_time":737000000000,"state":"active","ping":95},{"user_id":60,"name":"aqua","steam_id":76561199407709552,"connected_time":1302000000000,"state":"active","ping":105},{"user_id":73,"name":"The Pepsi® Superbowl®!","steam_id":76561198080828981,"connected_time":875000000000,"state":"active","ping":75}]},{"server_id":406,"name":"Uncletopia | Seattle | 3 | Stopwatch Beta","name_short":"sea-3","host":"sea-1.us.uncletopia.com","port":27035,"enabled":true,"region":"us-west","cc":"us","latitude":47.608013,"longitude":-122.33517,"reserved":0,"last_update":"0001-01-01T00:00:00Z","name_a2s":"Uncletopia | Seattle | 3 | Stopwatch Beta","protocol":17,"map":"cp_process_final","folder":"tf","game":"Team Fortress","app_id":440,"player_count":0,"max_players":24,"Bots":0,"server_type":"Dedicated","server_os":"Linux","password":true,"vac":true,"version":"7757534","steam_id":85568392924515217,"keywords":["cp","nocrits","nodmgspread","uncletopia"],"game_id":440,"stv_port":27036,"stv_name":"Uncletopia | Seattle | 3 | Stopwatch Beta | STV","players":null},{"server_id":17,"name":"Uncletopia | San Francisco | 1 | All Maps","name_short":"sfo-1","host":"sfo-1.us.uncletopia.com","port":27015,"enabled":true,"region":"us-west","cc":"us","latitude":37.77397,"longitude":-122.4313,"reserved":0,"last_update":"0001-01-01T00:00:00Z","name_a2s":"Uncletopia | San Francisco | 1 | All Maps","protocol":17,"map":"koth_highpass","folder":"tf","game":"Team Fortress","app_id":440,"player_count":0,"max_players":24,"Bots":0,"server_type":"Dedicated","server_os":"Linux","password":true,"vac":true,"version":"7757534","steam_id":85568392924469999,"keywords":["cp","nocrits","nodmgspread","uncletopia"],"game_id":440,"stv_port":27016,"stv_name":"Uncletopia | San Francisco | 1 | All Maps | STV","players":null},{"server_id":18,"name":"Uncletopia | San Francisco | 2 | All Maps","name_short":"sfo-2","host":"sfo-1.us.uncletopia.com","port":27025,"enabled":true,"region":"us-west","cc":"us","latitude":37.77397,"longitude":-122.4313,"reserved":0,"last_update":"0001-01-01T00:00:00Z","name_a2s":"Uncletopia | San Francisco | 2 | All Maps","protocol":17,"map":"koth_viaduct","folder":"tf","game":"Team Fortress","app_id":440,"player_count":0,"max_players":24,"Bots":0,"server_type":"Dedicated","server_os":"Linux","password":true,"vac":true,"version":"7757534","steam_id":85568392924470000,"keywords":["cp","nocrits","nodmgspread","uncletopia"],"game_id":440,"stv_port":27026,"stv_name":"Uncletopia | San Francisco | 2 | All Maps | STV","players":null},{"server_id":19,"name":"Uncletopia | San Francisco | 3 | Stopwatch Beta","name_short":"sfo-3","host":"sfo-1.us.uncletopia.com","port":27035,"enabled":true,"region":"us-west","cc":"us","latitude":37.77397,"longitude":-122.4313,"reserved":0,"last_update":"0001-01-01T00:00:00Z","name_a2s":"Uncletopia | San Francisco | 3 | Stopwatch Beta","protocol":17,"map":"cp_snakewater_final1","folder":"tf","game":"Team Fortress","app_id":440,"player_count":0,"max_players":24,"Bots":0,"server_type":"Dedicated","server_os":"Linux","password":true,"vac":true,"version":"7757534","steam_id":85568392924742824,"keywords":["cp","nocrits","nodmgspread","uncletopia"],"game_id":440,"stv_port":27036,"stv_name":"Uncletopia | San Francisco | 3 | Stopwatch Beta | STV","players":null},{"server_id":20,"name":"Uncletopia | San Francisco | 4 | Community","name_short":"sfo-4","host":"sfo-1.us.uncletopia.com","port":27045,"enabled":true,"region":"us-west","cc":"us","latitude":37.77397,"longitude":-122.4313,"reserved":0,"last_update":"0001-01-01T00:00:00Z","name_a2s":"Uncletopia | San Francisco | 4 | Community","protocol":17,"map":"pl_frontier_final","folder":"tf","game":"Team Fortress","app_id":440,"player_count":0,"max_players":24,"Bots":0,"server_type":"Dedicated","server_os":"Linux","password":true,"vac":true,"version":"7757534","steam_id":85568392924742826,"keywords":["nocrits","nodmgspread","payload","uncletopia"],"game_id":440,"stv_port":27046,"stv_name":"Uncletopia | San Francisco | 4 | Community | STV","players":null},{"server_id":141,"name":"Uncletopia | Sydney | 1 | All Maps","name_short":"syd-1","host":"syd-1.au.uncletopia.com","port":27015,"enabled":true,"region":"au","cc":"au","latitude":-33.865143,"longitude":151.2099,"reserved":0,"last_update":"0001-01-01T00:00:00Z","name_a2s":"Uncletopia | Sydney | 1 | All Maps","protocol":17,"map":"pl_borneo","folder":"tf","game":"Team Fortress","app_id":440,"player_count":0,"max_players":24,"Bots":0,"server_type":"Dedicated","server_os":"Linux","password":true,"vac":true,"version":"7757534","steam_id":85568392924470001,"keywords":["nocrits","nodmgspread","payload","uncletopia"],"game_id":440,"stv_port":27016,"stv_name":"Uncletopia | Sydney | 1 | All Maps | STV","players":null},{"server_id":123,"name":"Uncletopia | Sydney | 2 | All Maps","name_short":"syd-2","host":"syd-1.au.uncletopia.com","port":27025,"enabled":true,"region":"au","cc":"au","latitude":-33.865143,"longitude":151.2099,"reserved":0,"last_update":"0001-01-01T00:00:00Z","name_a2s":"Uncletopia | Sydney | 2 | All Maps","protocol":17,"map":"cp_snakewater_final1","folder":"tf","game":"Team Fortress","app_id":440,"player_count":0,"max_players":24,"Bots":0,"server_type":"Dedicated","server_os":"Linux","password":true,"vac":true,"version":"7757534","steam_id":85568392924470002,"keywords":["cp","nocrits","nodmgspread","uncletopia"],"game_id":440,"stv_port":27026,"stv_name":"Uncletopia | Sydney | 2 | All Maps | STV","players":null},{"server_id":395,"name":"Uncletopia | Sydney | 3 | All Maps","name_short":"syd-3","host":"syd-1.au.uncletopia.com","port":27035,"enabled":true,"region":"au","cc":"au","latitude":-33.865143,"longitude":151.2099,"reserved":0,"last_update":"0001-01-01T00:00:00Z","name_a2s":"Uncletopia | Sydney | 3 | All Maps","protocol":17,"map":"pl_borneo","folder":"tf","game":"Team Fortress","app_id":440,"player_count":0,"max_players":24,"Bots":0,"server_type":"Dedicated","server_os":"Linux","password":true,"vac":true,"version":"7757534","steam_id":85568392925194467,"keywords":["nocrits","nodmgspread","payload","uncletopia"],"game_id":440,"stv_port":27036,"stv_name":"Uncletopia | Sydney | 3 | All Maps | STV","players":null},{"server_id":396,"name":"Uncletopia | Sydney | 4 | All Maps","name_short":"syd-4","host":"syd-1.au.uncletopia.com","port":27045,"enabled":true,"region":"au","cc":"au","latitude":-33.865143,"longitude":151.2099,"reserved":0,"last_update":"0001-01-01T00:00:00Z","name_a2s":"Uncletopia | Sydney | 4 | All Maps","protocol":17,"map":"cp_process_final","folder":"tf","game":"Team Fortress","app_id":440,"player_count":0,"max_players":24,"Bots":0,"server_type":"Dedicated","server_os":"Linux","password":true,"vac":true,"version":"7757534","steam_id":85568392925397958,"keywords":["cp","nocrits","nodmgspread","uncletopia"],"game_id":440,"stv_port":27046,"stv_name":"Uncletopia | Sydney | 4 | All Maps | STV","players":null},{"server_id":58,"name":"Uncletopia | Sydney | 5 | Stopwatch Beta","name_short":"syd-5","host":"syd-1.au.uncletopia.com","port":27055,"enabled":true,"region":"au","cc":"au","latitude":-33.865143,"longitude":151.2099,"reserved":0,"last_update":"0001-01-01T00:00:00Z","name_a2s":"Uncletopia | Sydney | 5 | Stopwatch Beta","protocol":17,"map":"koth_cascade","folder":"tf","game":"Team Fortress","app_id":440,"player_count":0,"max_players":24,"Bots":0,"server_type":"Dedicated","server_os":"Linux","password":true,"vac":true,"version":"7757534","steam_id":85568392925397959,"keywords":["cp","nocrits","nodmgspread","uncletopia"],"game_id":440,"stv_port":27056,"stv_name":"Uncletopia | Sydney | 5 | Stopwatch Beta | STV","players":null},{"server_id":59,"name":"Uncletopia | Sydney | 6 | Community","name_short":"syd-6","host":"syd-1.au.uncletopia.com","port":27065,"enabled":true,"region":"au","cc":"au","latitude":-33.865143,"longitude":151.2099,"reserved":0,"last_update":"0001-01-01T00:00:00Z","name_a2s":"Uncletopia | Sydney | 6 | Community","protocol":17,"map":"pl_badwater","folder":"tf","game":"Team Fortress","app_id":440,"player_count":0,"max_players":24,"Bots":0,"server_type":"Dedicated","server_os":"Linux","password":true,"vac":true,"version":"7757534","steam_id":85568392925397960,"keywords":["nocrits","nodmgspread","payload","uncletopia"],"game_id":440,"stv_port":27066,"stv_name":"Uncletopia | Sydney | 6 | Community | STV","players":null},{"server_id":49,"name":"Uncletopia | Warsaw | 1 | All Maps","name_short":"waw-1","host":"waw-1.pl.uncletopia.com","port":27015,"enabled":true,"region":"eu","cc":"pl","latitude":52.2297,"longitude":21.017532,"reserved":0,"last_update":"0001-01-01T00:00:00Z","name_a2s":"","protocol":0,"map":"","folder":"","game":"","app_id":0,"player_count":0,"max_players":0,"Bots":0,"server_type":"","server_os":"","password":false,"vac":false,"version":"","steam_id":0,"keywords":null,"game_id":0,"stv_port":0,"stv_name":"","players":null},{"server_id":50,"name":"Uncletopia | Warsaw | 2 | All Maps","name_short":"waw-2","host":"waw-1.pl.uncletopia.com","port":27025,"enabled":true,"region":"eu","cc":"pl","latitude":52.2297,"longitude":21.017532,"reserved":0,"last_update":"0001-01-01T00:00:00Z","name_a2s":"Uncletopia | Warsaw | 2 | All Maps","protocol":17,"map":"koth_highpass","folder":"tf","game":"Team Fortress","app_id":440,"player_count":0,"max_players":24,"Bots":0,"server_type":"Dedicated","server_os":"Linux","password":true,"vac":true,"version":"7757534","steam_id":85568392925397851,"keywords":["cp","nocrits","nodmgspread","uncletopia"],"game_id":440,"stv_port":27026,"stv_name":"Uncletopia | Warsaw | 2 | All Maps | STV","players":null},{"server_id":51,"name":"Uncletopia | Warsaw | 3 | All Maps","name_short":"waw-3","host":"waw-1.pl.uncletopia.com","port":27035,"enabled":true,"region":"eu","cc":"pl","latitude":52.2297,"longitude":21.017532,"reserved":0,"last_update":"0001-01-01T00:00:00Z","name_a2s":"Uncletopia | Warsaw | 3 | All Maps","protocol":17,"map":"pl_pier","folder":"tf","game":"Team Fortress","app_id":440,"player_count":0,"max_players":24,"Bots":0,"server_type":"Dedicated","server_os":"Linux","password":true,"vac":true,"version":"7757534","steam_id":85568392925397852,"keywords":["nocrits","nodmgspread","payload","uncletopia"],"game_id":440,"stv_port":27036,"stv_name":"Uncletopia | Warsaw | 3 | All Maps | STV","players":null},{"server_id":52,"name":"Uncletopia | Warsaw | 4 | All Maps","name_short":"waw-4","host":"waw-1.pl.uncletopia.com","port":27045,"enabled":true,"region":"eu","cc":"pl","latitude":52.2297,"longitude":21.017532,"reserved":0,"last_update":"0001-01-01T00:00:00Z","name_a2s":"Uncletopia | Warsaw | 4 | All Maps","protocol":17,"map":"koth_highpass","folder":"tf","game":"Team Fortress","app_id":440,"player_count":3,"max_players":24,"Bots":0,"server_type":"Dedicated","server_os":"Linux","password":true,"vac":true,"version":"7757534","steam_id":85568392925397853,"keywords":["cp","nocrits","nodmgspread","uncletopia"],"game_id":440,"stv_port":27046,"stv_name":"Uncletopia | Warsaw | 4 | All Maps | STV","players":[{"user_id":11,"name":"purpleboi8056","steam_id":76561199386977971,"connected_time":3494000000000,"state":"active","ping":226},{"user_id":14,"name":"Mr. Panny","steam_id":76561198412524704,"connected_time":3089000000000,"state":"active","ping":38},{"user_id":18,"name":"alvinulv","steam_id":76561198024487177,"connected_time":2378000000000,"state":"active","ping":65}]},{"server_id":53,"name":"Uncletopia | Warsaw | 5 | Stopwatch Beta","name_short":"waw-5","host":"waw-1.pl.uncletopia.com","port":27055,"enabled":true,"region":"eu","cc":"pl","latitude":52.2297,"longitude":21.017532,"reserved":0,"last_update":"0001-01-01T00:00:00Z","name_a2s":"Uncletopia | Warsaw | 5 | Stopwatch Beta","protocol":17,"map":"pl_pier","folder":"tf","game":"Team Fortress","app_id":440,"player_count":0,"max_players":24,"Bots":0,"server_type":"Dedicated","server_os":"Linux","password":true,"vac":true,"version":"7757534","steam_id":85568392925397854,"keywords":["nocrits","nodmgspread","payload","uncletopia"],"game_id":440,"stv_port":27056,"stv_name":"Uncletopia | Warsaw | 5 | Stopwatch Beta | STV","players":null},{"server_id":54,"name":"Uncletopia | Warsaw | 6 | Community","name_short":"waw-6","host":"waw-1.pl.uncletopia.com","port":27065,"enabled":true,"region":"eu","cc":"pl","latitude":52.2297,"longitude":21.017532,"reserved":0,"last_update":"0001-01-01T00:00:00Z","name_a2s":"Uncletopia | Warsaw | 6 | Community","protocol":17,"map":"koth_highpass","folder":"tf","game":"Team Fortress","app_id":440,"player_count":0,"max_players":24,"Bots":0,"server_type":"Dedicated","server_os":"Linux","password":true,"vac":true,"version":"7757534","steam_id":85568392925397856,"keywords":["cp","nocrits","nodmgspread","uncletopia"],"game_id":440,"stv_port":27066,"stv_name":"Uncletopia | Warsaw | 6 | Community | STV","players":null}]}