{"status":true,"message":"","result":[{"server_id":9,"name":"Uncletopia | Atlanta | 1 | All Maps","name_short":"atl-1","host":"atl-1.us.uncletopia.com","port":27015,"enabled":true,"region":"us-east","cc":"us","latitude":33.753746,"longitude":-84.38633,"reserved":0,"last_update":"0001-01-01T00:00:00Z","name_a2s":"Uncletopia | Atlanta | 1 | All Maps","protocol":17,"map":"cp_snakewater_final1","folder":"tf","game":"Team Fortress","app_id":440,"player_count":24,"max_players":24,"Bots":0,"server_type":"Dedicated","server_os":"Linux","password":true,"vac":true,"version":"7961495","steam_id":85568392924469982,"keywords":["cp","nocrits","nodmgspread","uncletopia"],"game_id":440,"stv_port":27016,"stv_name":"Uncletopia | Atlanta | 1 | All Maps | STV","players":[{"user_id":149,"name":"chrisd149","steam_id":76561198018710480,"connected_time":1151000000000,"state":"active","ping":67},{"user_id":80,"name":"t.tv/ibbKitty  ∑:3","steam_id":76561198110858518,"connected_time":7796000000000,"state":"active","ping":80},{"user_id":12,"name":"Ashes!","steam_id":76561197998475441,"connected_time":12980000000000,"state":"active","ping":69},{"user_id":144,"name":"Sunny D+","steam_id":76561197999371052,"connected_time":1357000000000,"state":"active","ping":82},{"user_id":132,"name":"TAXFARMER11","steam_id":76561198889579299,"connected_time":2347000000000,"state":"active","ping":61},{"user_id":138,"name":"Shame","steam_id":76561198100490994,"connected_time":1916000000000,"state":"active","ping":71},{"user_id":153,"name":"PhoenixVirus™","steam_id":76561198028064823,"connected_time":840000000000,"state":"active","ping":47},{"user_id":154,"name":"lvl 99 bastard","steam_id":76561198044761617,"connected_time":538000000000,"state":"active","ping":68},{"user_id":151,"name":"wincel hampton","steam_id":76561198083095146,"connected_time":1028000000000,"state":"active","ping":61},{"user_id":150,"name":"Bo-dee (she/they)","steam_id":76561198103230995,"connected_time":1146000000000,"state":"active","ping":66},{"user_id":142,"name":"♂ I R O N ♂ M I K E ♂","steam_id":76561199405378993,"connected_time":1402000000000,"state":"active","ping":87},{"user_id":104,"name":"Λlxium","steam_id":76561198131272900,"connected_time":5366000000000,"state":"active","ping":76},{"user_id":128,"name":"Ace Attorney","steam_id":76561198133011705,"connected_time":2479000000000,"state":"active","ping":59},{"user_id":139,"name":"LOVEDRAGON","steam_id":76561198089908485,"connected_time":1688000000000,"state":"active","ping":76},{"user_id":124,"name":"*‧˚kitsu ʚ♥ɞ","steam_id":76561198091741658,"connected_time":2832000000000,"state":"active","ping":90},{"user_id":113,"name":"fishe","steam_id":76561198406114836,"connected_time":4314000000000,"state":"active","ping":65},{"user_id":152,"name":"Grimprr","steam_id":76561198275816797,"connected_time":955000000000,"state":"active","ping":74},{"user_id":125,"name":"com lag","steam_id":76561198019019392,"connected_time":2832000000000,"state":"active","ping":62},{"user_id":110,"name":"KhorneBread ︻デ 一","steam_id":76561198097069958,"connected_time":4800000000000,"state":"active","ping":79},{"user_id":141,"name":"rat","steam_id":76561198272622003,"connected_time":1408000000000,"state":"active","ping":76},{"user_id":102,"name":"gun slippin under","steam_id":76561198275265806,"connected_time":5432000000000,"state":"active","ping":61},{"user_id":106,"name":"Night time Dan","steam_id":76561199022178492,"connected_time":5116000000000,"state":"active","ping":58},{"user_id":147,"name":"johnny wang","steam_id":76561198969143876,"connected_time":1297000000000,"state":"active","ping":73},{"user_id":148,"name":"trianamarco780","steam_id":76561199084319677,"connected_time":1270000000000,"state":"active","ping":121}]},{"server_id":104,"name":"Uncletopia | Atlanta | 2 | All Maps","name_short":"atl-2","host":"atl-1.us.uncletopia.com","port":27025,"enabled":true,"region":"us-east","cc":"us","latitude":33.753746,"longitude":-84.38633,"reserved":0,"last_update":"0001-01-01T00:00:00Z","name_a2s":"Uncletopia | Atlanta | 2 | All Maps","protocol":17,"map":"pl_upward","folder":"tf","game":"Team Fortress","app_id":440,"player_count":12,"max_players":24,"Bots":0,"server_type":"Dedicated","server_os":"Linux","password":true,"vac":true,"version":"7961495","steam_id":85568392924469983,"keywords":["nocrits","nodmgspread","payload","uncletopia"],"game_id":440,"stv_port":27026,"stv_name":"Uncletopia | Atlanta | 2 | All Maps | STV","players":[{"user_id":18,"name":"MARIOPARTYDSFAN","steam_id":76561198872122117,"connected_time":2551000000000,"state":"active","ping":80},{"user_id":19,"name":"sus bread_stain","steam_id":76561199230268075,"connected_time":2029000000000,"state":"active","ping":61},{"user_id":24,"name":"Rex","steam_id":76561198138365053,"connected_time":738000000000,"state":"active","ping":117},{"user_id":23,"name":"Henry Ota-Clay","steam_id":76561198053232470,"connected_time":1102000000000,"state":"active","ping":56},{"user_id":26,"name":"jorjor wells","steam_id":76561199073429082,"connected_time":397000000000,"state":"active","ping":75},{"user_id":27,"name":"CatGirlPipe","steam_id":76561198042485924,"connected_time":384000000000,"state":"active","ping":97},{"user_id":29,"name":"El Topadora","steam_id":76561198068683174,"connected_time":262000000000,"state":"active","ping":148},{"user_id":30,"name":"ballspider","steam_id":76561198084578847,"connected_time":254000000000,"state":"active","ping":78},{"user_id":31,"name":"Gitgudgame","steam_id":76561198354761942,"connected_time":109000000000,"state":"active","ping":77},{"user_id":32,"name":"Freakker","steam_id":76561198939916907,"connected_time":96000000000,"state":"active","ping":62},{"user_id":33,"name":"SpaceToast","steam_id":76561197987074555,"connected_time":63000000000,"state":"active","ping":73},{"user_id":34,"name":"shadow6","steam_id":76561197979807910,"connected_time":28000000000,"state":"active","ping":174}]},{"server_id":400,"name":"Uncletopia | Atlanta | 3 | Stopwatch","name_short":"atl-3","host":"atl-1.us.uncletopia.com","port":27035,"enabled":true,"region":"us-east","cc":"us","latitude":33.753746,"longitude":-84.38633,"reserved":0,"last_update":"0001-01-01T00:00:00Z","name_a2s":"Uncletopia | Atlanta | 3 | Stopwatch","protocol":17,"map":"workshop/pl_barnblitz_pro7.ugc582280235","folder":"tf","game":"Team Fortress","app_id":440,"player_count":15,"max_players":24,"Bots":0,"server_type":"Dedicated","server_os":"Linux","password":true,"vac":true,"version":"7961495","steam_id":85568392924515187,"keywords":["nocrits","nodmgspread","payload","uncletopia"],"game_id":440,"stv_port":27036,"stv_name":"Uncletopia | Atlanta | 3 | Stopwatch | STV","players":[{"user_id":235,"name":"TacoMan4Life","steam_id":76561198832562728,"connected_time":1586000000000,"state":"active","ping":105},{"user_id":249,"name":"An Engineer","steam_id":76561198110381643,"connected_time":653000000000,"state":"active","ping":57},{"user_id":258,"name":"explosives anonymous","steam_id":76561198141862936,"connected_time":160000000000,"state":"active","ping":95},{"user_id":259,"name":"bigballerbill1137","steam_id":76561199256682338,"connected_time":46000000000,"state":"active","ping":60},{"user_id":244,"name":"TheLonliestThelonius","steam_id":76561198097657243,"connected_time":1154000000000,"state":"active","ping":116},{"user_id":250,"name":"GuyGoom","steam_id":76561198254522178,"connected_time":629000000000,"state":"active","ping":69},{"user_id":233,"name":"Joe","steam_id":76561199001076906,"connected_time":1613000000000,"state":"active","ping":61},{"user_id":251,"name":"barbecuesteve","steam_id":76561198048819671,"connected_time":565000000000,"state":"active","ping":57},{"user_id":257,"name":"pat","steam_id":76561198040595468,"connected_time":416000000000,"state":"active","ping":109},{"user_id":253,"name":"pupper","steam_id":76561198145921847,"connected_time":517000000000,"state":"active","ping":77},{"user_id":254,"name":"Albino Jellyfish","steam_id":76561198208561097,"connected_time":504000000000,"state":"active","ping":51},{"user_id":189,"name":"Heathcliff","steam_id":76561198044288534,"connected_time":4640000000000,"state":"active","ping":75},{"user_id":227,"name":"the keebler","steam_id":76561199486326945,"connected_time":2089000000000,"state":"active","ping":53},{"user_id":255,"name":"ded","steam_id":76561198128780622,"connected_time":482000000000,"state":"active","ping":120},{"user_id":200,"name":"Timmy The Tyrant","steam_id":76561199156409732,"connected_time":4011000000000,"state":"active","ping":62}]},{"server_id":401,"name":"Uncletopia | Atlanta | 4 | Community","name_short":"atl-4","host":"atl-1.us.uncletopia.com","port":27045,"enabled":true,"region":"us-east","cc":"us","latitude":33.753746,"longitude":-84.38633,"reserved":0,"last_update":"0001-01-01T00:00:00Z","name_a2s":"Uncletopia | Atlanta | 4 | Community","protocol":17,"map":"workshop/pl_phoenix_b4a.ugc2969509359","folder":"tf","game":"Team Fortress","app_id":440,"player_count":0,"max_players":24,"Bots":0,"server_type":"Dedicated","server_os":"Linux","password":true,"vac":true,"version":"7961495","steam_id":85568392924515188,"keywords":["nocrits","nodmgspread","payload","uncletopia"],"game_id":440,"stv_port":27046,"stv_name":"Uncletopia | Atlanta | 4 | Community | STV","players":null},{"server_id":2,"name":"Uncletopia | Chicago | 1 | All Maps","name_short":"chi-1","host":"chi-1.us.uncletopia.com","port":27015,"enabled":true,"region":"us-central","cc":"us","latitude":41.881832,"longitude":-87.62318,"reserved":0,"last_update":"0001-01-01T00:00:00Z","name_a2s":"Uncletopia | Chicago | 1 | All Maps","protocol":17,"map":"cp_sunshine","folder":"tf","game":"Team Fortress","app_id":440,"player_count":24,"max_players":24,"Bots":0,"server_type":"Dedicated","server_os":"Linux","password":true,"vac":true,"version":"7961495","steam_id":85568392924469984,"keywords":["cp","nocrits","nodmgspread","uncletopia"],"game_id":440,"stv_port":27016,"stv_name":"Uncletopia | Chicago | 1 | All Maps | STV","players":[{"user_id":81,"name":"biden cart 15 dollars","steam_id":76561198253731826,"connected_time":851000000000,"state":"active","ping":54},{"user_id":61,"name":"b","steam_id":76561198055339968,"connected_time":1993000000000,"state":"active","ping":69},{"user_id":89,"name":"Chromatic Bliss","steam_id":76561198252604816,"connected_time":219000000000,"state":"active","ping":89},{"user_id":90,"name":"Adreeh","steam_id":76561198158492390,"connected_time":214000000000,"state":"active","ping":82},{"user_id":71,"name":"DigitalTheAlchemist","steam_id":76561198380873323,"connected_time":1782000000000,"state":"active","ping":45},{"user_id":82,"name":"Tommy Pickles (Very ____)","steam_id":76561198391261463,"connected_time":848000000000,"state":"active","ping":74},{"user_id":76,"name":"beep","steam_id":76561199096448766,"connected_time":1571000000000,"state":"active","ping":68},{"user_id":63,"name":"Stacks63bs","steam_id":76561198067797130,"connected_time":1988000000000,"state":"active","ping":84},{"user_id":87,"name":"Huntpk","steam_id":76561198340591674,"connected_time":409000000000,"state":"active","ping":81},{"user_id":78,"name":"Your Local Subway Employee","steam_id":76561198811130843,"connected_time":1259000000000,"state":"active","ping":78},{"user_id":25,"name":"NUt","steam_id":76561198031007966,"connected_time":3711000000000,"state":"active","ping":85},{"user_id":68,"name":"Tyler\u0026Fingers","steam_id":76561198085154485,"connected_time":1851000000000,"state":"active","ping":83},{"user_id":88,"name":"-_-","steam_id":76561198302976864,"connected_time":352000000000,"state":"active","ping":74},{"user_id":28,"name":"lordstinkdemon666","steam_id":76561198073914311,"connected_time":3617000000000,"state":"active","ping":92},{"user_id":80,"name":"Kitty","steam_id":76561198123758854,"connected_time":993000000000,"state":"active","ping":84},{"user_id":86,"name":"PowerGem3000","steam_id":76561198944644691,"connected_time":473000000000,"state":"active","ping":97},{"user_id":66,"name":"tasty","steam_id":76561198083839061,"connected_time":1934000000000,"state":"active","ping":47},{"user_id":93,"name":"Skipikip","steam_id":76561198125019458,"connected_time":180000000000,"state":"active","ping":73},{"user_id":38,"name":"Adam9","steam_id":76561198272853331,"connected_time":3388000000000,"state":"active","ping":69},{"user_id":92,"name":"FLiP aSiAN coNneCtioNz+-","steam_id":76561198120757569,"connected_time":201000000000,"state":"active","ping":60},{"user_id":47,"name":"Disqrace","steam_id":76561198147436653,"connected_time":3034000000000,"state":"active","ping":143},{"user_id":70,"name":"Lucy Lou!","steam_id":76561198078209088,"connected_time":1802000000000,"state":"active","ping":45},{"user_id":42,"name":"soup","steam_id":76561198309226058,"connected_time":3303000000000,"state":"active","ping":155},{"user_id":48,"name":"dictator putski","steam_id":76561198118821862,"connected_time":3034000000000,"state":"active","ping":161}]},{"server_id":106,"name":"Uncletopia | Chicago | 2 | All Maps","name_short":"chi-2","host":"chi-1.us.uncletopia.com","port":27025,"enabled":true,"region":"us-central","cc":"us","latitude":41.881832,"longitude":-87.62318,"reserved":0,"last_update":"0001-01-01T00:00:00Z","name_a2s":"Uncletopia | Chicago | 2 | All Maps","protocol":17,"map":"pl_barnblitz","folder":"tf","game":"Team Fortress","app_id":440,"player_count":24,"max_players":24,"Bots":0,"server_type":"Dedicated","server_os":"Linux","password":true,"vac":true,"version":"7961495","steam_id":85568392924469985,"keywords":["nocrits","nodmgspread","payload","uncletopia"],"game_id":440,"stv_port":27026,"stv_name":"Uncletopia | Chicago | 2 | All Maps | STV","players":[{"user_id":362,"name":"Pants","steam_id":76561197966222755,"connected_time":409000000000,"state":"active","ping":49},{"user_id":367,"name":"Prinz","steam_id":76561198175476071,"connected_time":347000000000,"state":"active","ping":96},{"user_id":260,"name":"boykissing? YES PLEASE!","steam_id":76561198063970639,"connected_time":8682000000000,"state":"active","ping":69},{"user_id":318,"name":"Wavecheck#drownsyndrome","steam_id":76561198132068284,"connected_time":3952000000000,"state":"active","ping":71},{"user_id":353,"name":"Rornir","steam_id":76561198081829615,"connected_time":1982000000000,"state":"active","ping":42},{"user_id":356,"name":"Bond","steam_id":76561198089262776,"connected_time":1542000000000,"state":"active","ping":76},{"user_id":346,"name":"Andrew","steam_id":76561198070615190,"connected_time":2256000000000,"state":"active","ping":60},{"user_id":366,"name":"iCarly Lore Expert","steam_id":76561198111902910,"connected_time":371000000000,"state":"active","ping":73},{"user_id":289,"name":"Scooty.","steam_id":76561198138990283,"connected_time":7400000000000,"state":"active","ping":64},{"user_id":361,"name":"Bee","steam_id":76561198074681324,"connected_time":1196000000000,"state":"active","ping":62},{"user_id":368,"name":"Mr. Tickle","steam_id":76561198126684647,"connected_time":152000000000,"state":"active","ping":89},{"user_id":312,"name":"Whoopsy","steam_id":76561198128103529,"connected_time":5569000000000,"state":"active","ping":72},{"user_id":357,"name":"MIJO FRIJOLES ARE READY","steam_id":76561198138221795,"connected_time":1528000000000,"state":"active","ping":76},{"user_id":363,"name":"BigButternater","steam_id":76561199046684880,"connected_time":388000000000,"state":"active","ping":117},{"user_id":355,"name":"Chadmander","steam_id":76561197974136337,"connected_time":1655000000000,"state":"active","ping":47},{"user_id":350,"name":"Blake Belladonna","steam_id":76561198010169911,"connected_time":2119000000000,"state":"active","ping":83},{"user_id":341,"name":"The Washer of Dishes","steam_id":76561198028157625,"connected_time":3254000000000,"state":"active","ping":102},{"user_id":364,"name":"Novu","steam_id":76561198886997024,"connected_time":383000000000,"state":"active","ping":96},{"user_id":310,"name":"kapooya","steam_id":76561198353456379,"connected_time":5641000000000,"state":"active","ping":64},{"user_id":370,"name":"DEP","steam_id":76561198043025221,"connected_time":130000000000,"state":"active","ping":88},{"user_id":365,"name":"Xx_gam3rberg_xX","steam_id":76561199035781025,"connected_time":383000000000,"state":"active","ping":86},{"user_id":277,"name":"Yeti™","steam_id":76561199151545966,"connected_time":7846000000000,"state":"active","ping":85},{"user_id":349,"name":"MackDaddy69","steam_id":76561198060121935,"connected_time":2189000000000,"state":"active","ping":61},{"user_id":360,"name":"cognitiveAfflatus","steam_id":76561198295181426,"connected_time":1229000000000,"state":"active","ping":73}]},{"server_id":402,"name":"Uncletopia | Chicago | 3 | All Maps","name_short":"chi-3","host":"chi-1.us.uncletopia.com","port":27035,"enabled":true,"region":"us-central","cc":"us","latitude":41.881832,"longitude":-87.62318,"reserved":0,"last_update":"0001-01-01T00:00:00Z","name_a2s":"Uncletopia | Chicago | 3 | All Maps","protocol":17,"map":"pl_borneo","folder":"tf","game":"Team Fortress","app_id":440,"player_count":0,"max_players":24,"Bots":0,"server_type":"Dedicated","server_os":"Linux","password":true,"vac":true,"version":"7961495","steam_id":85568392924515191,"keywords":["nocrits","nodmgspread","payload","uncletopia"],"game_id":440,"stv_port":27036,"stv_name":"Uncletopia | Chicago | 3 | All Maps | STV","players":null},{"server_id":403,"name":"Uncletopia | Chicago | 4 | All Maps","name_short":"chi-4","host":"chi-1.us.uncletopia.com","port":27045,"enabled":true,"region":"us-central","cc":"us","latitude":41.881832,"longitude":-87.62318,"reserved":0,"last_update":"0001-01-01T00:00:00Z","name_a2s":"Uncletopia | Chicago | 4 | All Maps","protocol":17,"map":"koth_viaduct","folder":"tf","game":"Team Fortress","app_id":440,"player_count":0,"max_players":24,"Bots":0,"server_type":"Dedicated","server_os":"Linux","password":true,"vac":true,"version":"7961495","steam_id":85568392924515193,"keywords":["cp","nocrits","nodmgspread","uncletopia"],"game_id":440,"stv_port":27046,"stv_name":"Uncletopia | Chicago | 4 | All Maps | STV","players":null},{"server_id":36,"name":"Uncletopia | Chicago | 5 | All Maps","name_short":"chi-5","host":"chi-2.us.uncletopia.com","port":27015,"enabled":true,"region":"us-central","cc":"us","latitude":41.881832,"longitude":-87.62318,"reserved":0,"last_update":"0001-01-01T00:00:00Z","name_a2s":"Uncletopia | Chicago | 5 | All Maps","protocol":17,"map":"cp_mercenarypark","folder":"tf","game":"Team Fortress","app_id":440,"player_count":0,"max_players":24,"Bots":0,"server_type":"Dedicated","server_os":"Linux","password":true,"vac":true,"version":"7961495","steam_id":85568392924866362,"keywords":["cp","nocrits","nodmgspread","uncletopia"],"game_id":440,"stv_port":27016,"stv_name":"Uncletopia | Chicago | 5 | All Maps | STV","players":null},{"server_id":37,"name":"Uncletopia | Chicago | 6 | All Maps","name_short":"chi-6","host":"chi-2.us.uncletopia.com","port":27025,"enabled":true,"region":"us-central","cc":"us","latitude":41.881832,"longitude":-87.62318,"reserved":0,"last_update":"0001-01-01T00:00:00Z","name_a2s":"Uncletopia | Chicago | 6 | All Maps","protocol":17,"map":"cp_sunshine","folder":"tf","game":"Team Fortress","app_id":440,"player_count":1,"max_players":24,"Bots":0,"server_type":"Dedicated","server_os":"Linux","password":true,"vac":true,"version":"7961495","steam_id":85568392924866363,"keywords":["cp","nocrits","nodmgspread","uncletopia"],"game_id":440,"stv_port":27026,"stv_name":"Uncletopia | Chicago | 6 | All Maps | STV","players":[{"user_id":5,"name":"minecraft_2.0","steam_id":76561198391819120,"connected_time":144000000000,"state":"active","ping":80}]},{"server_id":38,"name":"Uncletopia | Chicago | 7 | Stopwatch","name_short":"chi-7","host":"chi-2.us.uncletopia.com","port":27035,"enabled":true,"region":"us-central","cc":"us","latitude":41.881832,"longitude":-87.62318,"reserved":0,"last_update":"0001-01-01T00:00:00Z","name_a2s":"Uncletopia | Chicago | 7 | Stopwatch","protocol":17,"map":"cp_granary","folder":"tf","game":"Team Fortress","app_id":440,"player_count":0,"max_players":24,"Bots":0,"server_type":"Dedicated","server_os":"Linux","password":true,"vac":true,"version":"7961495","steam_id":85568392924866364,"keywords":["cp","nocrits","nodmgspread","uncletopia"],"game_id":440,"stv_port":27036,"stv_name":"Uncletopia | Chicago | 7 | Stopwatch | STV","players":null},{"server_id":39,"name":"Uncletopia | Chicago | 8 | Community","name_short":"chi-8","host":"chi-2.us.uncletopia.com","port":27045,"enabled":true,"region":"us-central","cc":"us","latitude":41.881832,"longitude":-87.62318,"reserved":0,"last_update":"0001-01-01T00:00:00Z","name_a2s":"Uncletopia | Chicago | 8 | Community","protocol":17,"map":"workshop/cp_caldera_rc3.ugc2834196889","folder":"tf","game":"Team Fortress","app_id":440,"player_count":0,"max_players":24,"Bots":0,"server_type":"Dedicated","server_os":"Linux","password":true,"vac":true,"version":"7961495","steam_id":85568392924866365,"keywords":["cp","nocrits","nodmgspread","uncletopia"],"game_id":440,"stv_port":27046,"stv_name":"Uncletopia | Chicago | 8 | Community | STV","players":null},{"server_id":8,"name":"Uncletopia | Dallas | 1 | All Maps","name_short":"dal-1","host":"dal-1.us.uncletopia.com","port":27015,"enabled":true,"region":"us-central","cc":"us","latitude":32.779167,"longitude":-96.80889,"reserved":0,"last_update":"0001-01-01T00:00:00Z","name_a2s":"Uncletopia | Dallas | 1 | All Maps","protocol":17,"map":"koth_lakeside_final","folder":"tf","game":"Team Fortress","app_id":440,"player_count":9,"max_players":24,"Bots":0,"server_type":"Dedicated","server_os":"Linux","password":true,"vac":true,"version":"7961495","steam_id":85568392924469986,"keywords":["cp","nocrits","nodmgspread","uncletopia"],"game_id":440,"stv_port":27016,"stv_name":"Uncletopia | Dallas | 1 | All Maps | STV","players":[{"user_id":9,"name":"StarlightEngineer","steam_id":76561198379333720,"connected_time":346000000000,"state":"active","ping":65},{"user_id":10,"name":"KisaNeve","steam_id":76561198420368779,"connected_time":322000000000,"state":"active","ping":60},{"user_id":11,"name":"DragonHunter994","steam_id":76561199076203907,"connected_time":304000000000,"state":"active","ping":49},{"user_id":12,"name":"Jack Wilson","steam_id":76561199075624650,"connected_time":289000000000,"state":"active","ping":58},{"user_id":13,"name":"Hamfist","steam_id":76561197994333530,"connected_time":252000000000,"state":"active","ping":57},{"user_id":14,"name":"Natsuki the Scunt","steam_id":76561199175922684,"connected_time":83000000000,"state":"active","ping":97},{"user_id":15,"name":"༎","steam_id":76561198161403931,"connected_time":81000000000,"state":"active","ping":31},{"user_id":16,"name":"Fishstall","steam_id":76561198038126034,"connected_time":13000000000,"state":"active","ping":67},{"user_id":17,"name":"Blue","steam_id":76561199135674571,"connected_time":3000000000,"state":"spawning","ping":282}]},{"server_id":108,"name":"Uncletopia | Dallas | 2 | All Maps","name_short":"dal-2","host":"dal-1.us.uncletopia.com","port":27025,"enabled":true,"region":"us-central","cc":"us","latitude":32.779167,"longitude":-96.80889,"reserved":0,"last_update":"0001-01-01T00:00:00Z","name_a2s":"Uncletopia | Dallas | 2 | All Maps","protocol":17,"map":"cp_sunshine","folder":"tf","game":"Team Fortress","app_id":440,"player_count":1,"max_players":24,"Bots":0,"server_type":"Dedicated","server_os":"Linux","password":true,"vac":true,"version":"7961495","steam_id":85568392924469988,"keywords":["cp","nocrits","nodmgspread","uncletopia"],"game_id":440,"stv_port":27026,"stv_name":"Uncletopia | Dallas | 2 | All Maps | STV","players":[{"user_id":6,"name":"Neptune˖⁺｡˚⋆˙♥","steam_id":76561199054203198,"connected_time":91000000000,"state":"active","ping":90}]},{"server_id":404,"name":"Uncletopia | Dallas | 3 | All Maps","name_short":"dal-3","host":"dal-1.us.uncletopia.com","port":27035,"enabled":true,"region":"us-central","cc":"us","latitude":32.779167,"longitude":-96.80889,"reserved":0,"last_update":"0001-01-01T00:00:00Z","name_a2s":"Uncletopia | Dallas | 3 | All Maps","protocol":17,"map":"cp_gorge","folder":"tf","game":"Team Fortress","app_id":440,"player_count":0,"max_players":24,"Bots":0,"server_type":"Dedicated","server_os":"Linux","password":true,"vac":true,"version":"7961495","steam_id":85568392924515219,"keywords":["cp","nocrits","nodmgspread","uncletopia"],"game_id":440,"stv_port":27036,"stv_name":"Uncletopia | Dallas | 3 | All Maps | STV","players":null},{"server_id":405,"name":"Uncletopia | Dallas | 4 | Community","name_short":"dal-4","host":"dal-1.us.uncletopia.com","port":27045,"enabled":true,"region":"us-central","cc":"us","latitude":32.779167,"longitude":-96.80889,"reserved":0,"last_update":"0001-01-01T00:00:00Z","name_a2s":"Uncletopia | Dallas | 4 | Community","protocol":17,"map":"workshop/cp_logjam_rc12.ugc454812035","folder":"tf","game":"Team Fortress","app_id":440,"player_count":20,"max_players":24,"Bots":0,"server_type":"Dedicated","server_os":"Linux","password":true,"vac":true,"version":"7961495","steam_id":85568392924515220,"keywords":["cp","nocrits","nodmgspread","uncletopia"],"game_id":440,"stv_port":27046,"stv_name":"Uncletopia | Dallas | 4 | Community | STV","players":[{"user_id":187,"name":"techdeck","steam_id":76561199022751661,"connected_time":1868000000000,"state":"active","ping":55},{"user_id":200,"name":"ParchedPigeon9","steam_id":76561198257204226,"connected_time":1165000000000,"state":"active","ping":58},{"user_id":194,"name":"AlonelyBard","steam_id":76561198333764079,"connected_time":1467000000000,"state":"active","ping":58},{"user_id":210,"name":"red isnt ready","steam_id":76561199229918142,"connected_time":248000000000,"state":"active","ping":54},{"user_id":106,"name":"Tony","steam_id":76561198169799653,"connected_time":7764000000000,"state":"active","ping":60},{"user_id":197,"name":"SPF420","steam_id":76561198083991705,"connected_time":1381000000000,"state":"active","ping":83},{"user_id":195,"name":"ATL1 | LOFILE","steam_id":76561198083798918,"connected_time":1462000000000,"state":"active","ping":84},{"user_id":202,"name":"Legit_Jaxer","steam_id":76561198172234053,"connected_time":934000000000,"state":"active","ping":107},{"user_id":213,"name":"Squilly","steam_id":76561199014128224,"connected_time":27000000000,"state":"spawning","ping":293},{"user_id":211,"name":"CJspellsfish","steam_id":76561198277342368,"connected_time":222000000000,"state":"active","ping":75},{"user_id":186,"name":"no vc no c","steam_id":76561197989503095,"connected_time":2217000000000,"state":"active","ping":169},{"user_id":207,"name":"SamtheToaster (She/Her)","steam_id":76561198076818163,"connected_time":458000000000,"state":"active","ping":72},{"user_id":163,"name":"pathulhu","steam_id":76561198323941614,"connected_time":3631000000000,"state":"active","ping":43},{"user_id":153,"name":"Drunk Heroism","steam_id":76561198053788253,"connected_time":4341000000000,"state":"active","ping":89},{"user_id":164,"name":"Embie","steam_id":76561198358221011,"connected_time":3579000000000,"state":"active","ping":120},{"user_id":201,"name":"therealdeal680","steam_id":76561199190330316,"connected_time":1150000000000,"state":"active","ping":66},{"user_id":172,"name":"bungus","steam_id":76561198119604836,"connected_time":2968000000000,"state":"active","ping":92},{"user_id":166,"name":"PlatinumBass™","steam_id":76561198267504292,"connected_time":3568000000000,"state":"active","ping":100},{"user_id":199,"name":"dweamy","steam_id":76561198119181880,"connected_time":1347000000000,"state":"active","ping":84},{"user_id":204,"name":"Hater","steam_id":76561198124685704,"connected_time":852000000000,"state":"active","ping":63}]},{"server_id":5,"name":"Uncletopia | Frankfurt | 1 | All Maps","name_short":"frk-1","host":"frk-1.de.uncletopia.com","port":27015,"enabled":true,"region":"eu","cc":"de","latitude":50.110924,"longitude":8.682127,"reserved":0,"last_update":"0001-01-01T00:00:00Z","name_a2s":"Uncletopia | Frankfurt | 1 | All Maps","protocol":17,"map":"pl_frontier_final","folder":"tf","game":"Team Fortress","app_id":440,"player_count":25,"max_players":24,"Bots":0,"server_type":"Dedicated","server_os":"Linux","password":true,"vac":true,"version":"7961495","steam_id":85568392924469989,"keywords":["nocrits","nodmgspread","payload","uncletopia"],"game_id":440,"stv_port":27016,"stv_name":"Uncletopia | Frankfurt | 1 | All Maps | STV","players":[{"user_id":454,"name":"SeaKane","steam_id":76561198165453318,"connected_time":888000000000,"state":"active","ping":57},{"user_id":457,"name":"KrAk3rs","steam_id":76561198298179344,"connected_time":818000000000,"state":"active","ping":63},{"user_id":436,"name":"housing crisis#savetf2","steam_id":76561198119984382,"connected_time":1318000000000,"state":"active","ping":58},{"user_id":455,"name":"HANoi","steam_id":76561198144300192,"connected_time":867000000000,"state":"active","ping":75},{"user_id":466,"name":"dog?","steam_id":76561199232839385,"connected_time":221000000000,"state":"active","ping":93},{"user_id":441,"name":"tete","steam_id":76561198045222850,"connected_time":1075000000000,"state":"active","ping":67},{"user_id":416,"name":"giclure :;","steam_id":76561197986362828,"connected_time":1896000000000,"state":"active","ping":89},{"user_id":420,"name":"typicalcrimson","steam_id":76561198295439747,"connected_time":1814000000000,"state":"active","ping":63},{"user_id":444,"name":"anabolic steroids","steam_id":76561199470147761,"connected_time":1064000000000,"state":"active","ping":148},{"user_id":471,"name":"Artificial.Ignorance","steam_id":76561198453090180,"connected_time":78000000000,"state":"active","ping":155},{"user_id":461,"name":"орк  бунтовщик","steam_id":76561199026743222,"connected_time":595000000000,"state":"active","ping":84},{"user_id":468,"name":"warforge3","steam_id":76561199276024310,"connected_time":187000000000,"state":"active","ping":89},{"user_id":460,"name":"That hamster has been dead for ","steam_id":76561198346638308,"connected_time":730000000000,"state":"active","ping":58},{"user_id":456,"name":"13","steam_id":76561198394345037,"connected_time":852000000000,"state":"active","ping":81},{"user_id":381,"name":"LivEssense","steam_id":76561198052476979,"connected_time":3916000000000,"state":"active","ping":78},{"user_id":426,"name":"I use Vim btw","steam_id":76561198016042113,"connected_time":1672000000000,"state":"active","ping":69},{"user_id":452,"name":"Javier dorsaless","steam_id":76561198179324075,"connected_time":977000000000,"state":"active","ping":75},{"user_id":415,"name":"Jedunahoru","steam_id":76561199508744635,"connected_time":1908000000000,"state":"active","ping":96},{"user_id":462,"name":"tort","steam_id":76561198147246166,"connected_time":569000000000,"state":"active","ping":75},{"user_id":474,"name":"Fatmagic Mukbang ASMR","steam_id":76561198063492110,"connected_time":4000000000,"state":"spawning","ping":70},{"user_id":465,"name":"HayLeX","steam_id":76561198130997343,"connected_time":309000000000,"state":"active","ping":90},{"user_id":464,"name":"Heisenberg","steam_id":76561199447222229,"connected_time":407000000000,"state":"active","ping":86},{"user_id":475,"name":"LOBZIK","steam_id":76561198114830120,"connected_time":2000000000,"state":"spawning","ping":69},{"user_id":439,"name":"pradabloodclot","steam_id":76561199211933195,"connected_time":1185000000000,"state":"active","ping":59},{"user_id":392,"name":"purpul bastard","steam_id":76561198214429607,"connected_time":3086000000000,"state":"active","ping":84}]},{"server_id":110,"name":"Uncletopia | Frankfurt | 2 | All Maps","name_short":"frk-2","host":"frk-1.de.uncletopia.com","port":27025,"enabled":true,"region":"eu","cc":"de","latitude":50.110924,"longitude":8.682127,"reserved":0,"last_update":"0001-01-01T00:00:00Z","name_a2s":"Uncletopia | Frankfurt | 2 | All Maps","protocol":17,"map":"pl_thundermountain","folder":"tf","game":"Team Fortress","app_id":440,"player_count":22,"max_players":24,"Bots":0,"server_type":"Dedicated","server_os":"Linux","password":true,"vac":true,"version":"7961495","steam_id":85568392924469990,"keywords":["nocrits","nodmgspread","payload","uncletopia"],"game_id":440,"stv_port":27026,"stv_name":"Uncletopia | Frankfurt | 2 | All Maps | STV","players":[{"user_id":265,"name":"camperboy","steam_id":76561198138410890,"connected_time":533000000000,"state":"active","ping":63},{"user_id":241,"name":"New_SteFano_","steam_id":76561198448642353,"connected_time":1707000000000,"state":"active","ping":75},{"user_id":242,"name":"$799 Sak of Cheese","steam_id":76561198066642220,"connected_time":1562000000000,"state":"active","ping":56},{"user_id":261,"name":"KajaStorm","steam_id":76561199215842872,"connected_time":765000000000,"state":"active","ping":123},{"user_id":254,"name":"eep","steam_id":76561198111134021,"connected_time":953000000000,"state":"active","ping":76},{"user_id":235,"name":"CV70","steam_id":76561198122440175,"connected_time":2014000000000,"state":"active","ping":64},{"user_id":269,"name":"CarBombEnthusiast","steam_id":76561199448185434,"connected_time":326000000000,"state":"active","ping":56},{"user_id":271,"name":"Storm's Foreshadow","steam_id":76561198098462526,"connected_time":160000000000,"state":"active","ping":60},{"user_id":251,"name":"Tyren","steam_id":76561198993747516,"connected_time":1108000000000,"state":"active","ping":63},{"user_id":229,"name":"Strix","steam_id":76561198015322735,"connected_time":2226000000000,"state":"active","ping":72},{"user_id":223,"name":"cl_skinnyboi 1","steam_id":76561198042864708,"connected_time":2316000000000,"state":"active","ping":61},{"user_id":258,"name":"envy","steam_id":76561198247411118,"connected_time":854000000000,"state":"active","ping":77},{"user_id":243,"name":"Danger_665","steam_id":76561199075064273,"connected_time":1326000000000,"state":"active","ping":95},{"user_id":267,"name":"god gamer","steam_id":76561198876259318,"connected_time":458000000000,"state":"active","ping":47},{"user_id":212,"name":"jeff","steam_id":76561198272815746,"connected_time":3390000000000,"state":"active","ping":54},{"user_id":257,"name":"finbar","steam_id":76561198056812396,"connected_time":912000000000,"state":"active","ping":68},{"user_id":232,"name":"mfw0071","steam_id":76561198111713446,"connected_time":2174000000000,"state":"active","ping":63},{"user_id":275,"name":"askulap","steam_id":76561197992018795,"connected_time":47000000000,"state":"active","ping":74},{"user_id":230,"name":",","steam_id":76561198347020945,"connected_time":2214000000000,"state":"active","ping":82},{"user_id":231,"name":"PeskyPlumber","steam_id":76561198241999094,"connected_time":2190000000000,"state":"active","ping":56},{"user_id":260,"name":"Fart Real","steam_id":76561199141771835,"connected_time":813000000000,"state":"active","ping":169},{"user_id":250,"name":"Alyx","steam_id":76561198064654326,"connected_time":1190000000000,"state":"active","ping":63}]},{"server_id":308,"name":"Uncletopia | Frankfurt | 3 | All Maps","name_short":"frk-3","host":"frk-1.de.uncletopia.com","port":27035,"enabled":true,"region":"eu","cc":"de","latitude":50.110924,"longitude":8.682127,"reserved":0,"last_update":"0001-01-01T00:00:00Z","name_a2s":"Uncletopia | Frankfurt | 3 | All Maps","protocol":17,"map":"pl_pier","folder":"tf","game":"Team Fortress","app_id":440,"player_count":24,"max_players":24,"Bots":0,"server_type":"Dedicated","server_os":"Linux","password":true,"vac":true,"version":"7961495","steam_id":85568392924504274,"keywords":["nocrits","nodmgspread","payload","uncletopia"],"game_id":440,"stv_port":27036,"stv_name":"Uncletopia | Frankfurt | 3 | All Maps | STV","players":[{"user_id":255,"name":"gunter_funnyman","steam_id":76561198298432099,"connected_time":2327000000000,"state":"active","ping":79},{"user_id":236,"name":"Milfshake","steam_id":76561198208740557,"connected_time":3584000000000,"state":"active","ping":50},{"user_id":210,"name":"breadbear \u003c3","steam_id":76561198036895007,"connected_time":6823000000000,"state":"active","ping":77},{"user_id":223,"name":"TKN_Paps997","steam_id":76561198419868465,"connected_time":5443000000000,"state":"active","ping":77},{"user_id":269,"name":"Blar","steam_id":76561198042438229,"connected_time":1289000000000,"state":"active","ping":71},{"user_id":228,"name":"Eric Catman","steam_id":76561198802117294,"connected_time":5097000000000,"state":"active","ping":78},{"user_id":162,"name":"yush","steam_id":76561198121688934,"connected_time":9414000000000,"state":"active","ping":83},{"user_id":275,"name":"Pighead_08","steam_id":76561199060466647,"connected_time":703000000000,"state":"active","ping":92},{"user_id":235,"name":"Monkey","steam_id":76561199008411791,"connected_time":3612000000000,"state":"active","ping":60},{"user_id":277,"name":"Mr. Hunts","steam_id":76561197981910397,"connected_time":614000000000,"state":"active","ping":62},{"user_id":271,"name":"tombouctou","steam_id":76561198065132197,"connected_time":1099000000000,"state":"active","ping":121},{"user_id":276,"name":"Jesus","steam_id":76561199106262610,"connected_time":650000000000,"state":"active","ping":51},{"user_id":185,"name":"Garolt_Knight","steam_id":76561198957445537,"connected_time":7734000000000,"state":"active","ping":93},{"user_id":208,"name":"MHE_HOPM","steam_id":76561199073846518,"connected_time":7092000000000,"state":"active","ping":57},{"user_id":266,"name":"VIN WEASEL","steam_id":76561198014387066,"connected_time":1495000000000,"state":"active","ping":45},{"user_id":254,"name":"Powki #TF2Center","steam_id":76561198974462268,"connected_time":2336000000000,"state":"active","ping":83},{"user_id":267,"name":"The economy","steam_id":76561198358275344,"connected_time":1334000000000,"state":"active","ping":71},{"user_id":257,"name":"Qdarks","steam_id":76561198013391340,"connected_time":2306000000000,"state":"active","ping":140},{"user_id":241,"name":"Windows Vista Cruiser","steam_id":76561198064102233,"connected_time":3527000000000,"state":"active","ping":67},{"user_id":273,"name":"luma","steam_id":76561198081649669,"connected_time":821000000000,"state":"active","ping":66},{"user_id":245,"name":"Brown Tank","steam_id":76561198168067738,"connected_time":3481000000000,"state":"active","ping":72},{"user_id":264,"name":"тукку ирма","steam_id":76561197998715016,"connected_time":1899000000000,"state":"active","ping":62},{"user_id":246,"name":"Dave The Sloth","steam_id":76561199135831355,"connected_time":3467000000000,"state":"active","ping":63},{"user_id":260,"name":"Pabs :D","steam_id":76561198000016962,"connected_time":2072000000000,"state":"active","ping":54}]},{"server_id":309,"name":"Uncletopia | Frankfurt | 4 | All Maps","name_short":"frk-4","host":"frk-1.de.uncletopia.com","port":27045,"enabled":true,"region":"eu","cc":"de","latitude":50.110924,"longitude":8.682127,"reserved":0,"last_update":"0001-01-01T00:00:00Z","name_a2s":"Uncletopia | Frankfurt | 4 | All Maps","protocol":17,"map":"pl_upward","folder":"tf","game":"Team Fortress","app_id":440,"player_count":24,"max_players":24,"Bots":0,"server_type":"Dedicated","server_os":"Linux","password":true,"vac":true,"version":"7961495","steam_id":85568392924504275,"keywords":["nocrits","nodmgspread","payload","uncletopia"],"game_id":440,"stv_port":27046,"stv_name":"Uncletopia | Frankfurt | 4 | All Maps | STV","players":[{"user_id":120,"name":"Kekka","steam_id":76561198068667960,"connected_time":269000000000,"state":"active","ping":59},{"user_id":121,"name":"QuackRick","steam_id":76561198005514341,"connected_time":214000000000,"state":"active","ping":148},{"user_id":88,"name":"Transgender Girl Kisser","steam_id":76561198263263692,"connected_time":1413000000000,"state":"active","ping":64},{"user_id":84,"name":"Bhast","steam_id":76561198071620021,"connected_time":1582000000000,"state":"active","ping":79},{"user_id":38,"name":"Zoro (Hun)","steam_id":76561199367182571,"connected_time":3161000000000,"state":"active","ping":57},{"user_id":90,"name":"mago","steam_id":76561199473122342,"connected_time":1203000000000,"state":"active","ping":67},{"user_id":122,"name":"NOne","steam_id":76561198002359947,"connected_time":196000000000,"state":"active","ping":74},{"user_id":93,"name":"bigeon","steam_id":76561198078601337,"connected_time":1058000000000,"state":"active","ping":82},{"user_id":98,"name":"BrigglePits McGee","steam_id":76561199216969306,"connected_time":847000000000,"state":"active","ping":155},{"user_id":96,"name":"rabbit","steam_id":76561199466718294,"connected_time":959000000000,"state":"active","ping":68},{"user_id":125,"name":"Chambersite the Wizard","steam_id":76561198197022399,"connected_time":40000000000,"state":"spawning","ping":272},{"user_id":117,"name":"GrosFumiste","steam_id":76561198850134909,"connected_time":525000000000,"state":"active","ping":59},{"user_id":64,"name":"I have no enemies","steam_id":76561198983730384,"connected_time":2568000000000,"state":"active","ping":102},{"user_id":100,"name":"Vlad","steam_id":76561198048605526,"connected_time":813000000000,"state":"active","ping":77},{"user_id":101,"name":"Skyrider of Spaceways","steam_id":76561197991678236,"connected_time":812000000000,"state":"active","ping":131},{"user_id":103,"name":"rrm#4395","steam_id":76561199225339381,"connected_time":695000000000,"state":"active","ping":60},{"user_id":118,"name":"Kornel","steam_id":76561199000320652,"connected_time":498000000000,"state":"active","ping":122},{"user_id":111,"name":"Giblob","steam_id":76561198261277204,"connected_time":612000000000,"state":"active","ping":79},{"user_id":106,"name":"Pelaxisツ","steam_id":76561198180030121,"connected_time":653000000000,"state":"active","ping":73},{"user_id":114,"name":"Tomatron","steam_id":76561197981248976,"connected_time":586000000000,"state":"active","ping":82},{"user_id":108,"name":"Marabosha","steam_id":76561198137599173,"connected_time":646000000000,"state":"active","ping":98},{"user_id":124,"name":"natinoot","steam_id":76561198212005117,"connected_time":123000000000,"state":"active","ping":69},{"user_id":112,"name":"Subterranean","steam_id":76561198106684566,"connected_time":605000000000,"state":"active","ping":77},{"user_id":113,"name":"Tenshi","steam_id":76561197964915322,"connected_time":602000000000,"state":"active","ping":91}]},{"server_id":310,"name":"Uncletopia | Frankfurt | 5 | All Maps","name_short":"frk-5","host":"frk-1.de.uncletopia.com","port":27055,"enabled":true,"region":"eu","cc":"de","latitude":50.110924,"longitude":8.682127,"reserved":0,"last_update":"0001-01-01T00:00:00Z","name_a2s":"Uncletopia | Frankfurt | 5 | All Maps","protocol":17,"map":"koth_harvest_final","folder":"tf","game":"Team Fortress","app_id":440,"player_count":24,"max_players":24,"Bots":0,"server_type":"Dedicated","server_os":"Linux","password":true,"vac":true,"version":"7961495","steam_id":85568392924504277,"keywords":["cp","nocrits","nodmgspread","uncletopia"],"game_id":440,"stv_port":27056,"stv_name":"Uncletopia | Frankfurt | 5 | All Maps | STV","players":[{"user_id":721,"name":"Whät","steam_id":76561197999285844,"connected_time":2043000000000,"state":"active","ping":91},{"user_id":724,"name":"cicada_brood","steam_id":76561199012543444,"connected_time":1759000000000,"state":"active","ping":43},{"user_id":689,"name":"Sunduchek","steam_id":76561198067934157,"connected_time":4087000000000,"state":"active","ping":121},{"user_id":727,"name":"Fish","steam_id":76561198306177608,"connected_time":1590000000000,"state":"active","ping":65},{"user_id":742,"name":"engineer drip","steam_id":76561198991032570,"connected_time":48000000000,"state":"spawning","ping":105},{"user_id":690,"name":"KALACH","steam_id":76561198028664460,"connected_time":4086000000000,"state":"active","ping":76},{"user_id":725,"name":"Micmaq1","steam_id":76561198257900140,"connected_time":1660000000000,"state":"active","ping":98},{"user_id":735,"name":"MeBandae","steam_id":76561198910770432,"connected_time":1074000000000,"state":"active","ping":74},{"user_id":740,"name":"Jeremy265","steam_id":76561199004316549,"connected_time":304000000000,"state":"active","ping":120},{"user_id":620,"name":"papa Sloath","steam_id":76561198046382160,"connected_time":8427000000000,"state":"active","ping":56},{"user_id":694,"name":"Peat","steam_id":76561197992168067,"connected_time":4049000000000,"state":"active","ping":75},{"user_id":722,"name":"camo","steam_id":76561198116388552,"connected_time":2037000000000,"state":"active","ping":60},{"user_id":739,"name":"Carry Krypl","steam_id":76561198136938121,"connected_time":639000000000,"state":"active","ping":51},{"user_id":728,"name":"Mr.Shpee","steam_id":76561198158701474,"connected_time":1551000000000,"state":"active","ping":75},{"user_id":743,"name":"IHaveConsumed50KmofMeth","steam_id":76561199221172552,"connected_time":29000000000,"state":"spawning","ping":80},{"user_id":707,"name":"disposablesuperbread","steam_id":76561199074703607,"connected_time":3268000000000,"state":"active","ping":70},{"user_id":719,"name":"WrytXander","steam_id":76561198067856323,"connected_time":2122000000000,"state":"active","ping":76},{"user_id":733,"name":"Ecin","steam_id":76561198816655769,"connected_time":1447000000000,"state":"active","ping":56},{"user_id":730,"name":"Пригожин","steam_id":76561198358431840,"connected_time":1510000000000,"state":"active","ping":75},{"user_id":731,"name":"Günther","steam_id":76561198333417038,"connected_time":1493000000000,"state":"active","ping":75},{"user_id":667,"name":"Woad Raider","steam_id":76561198215485788,"connected_time":5605000000000,"state":"active","ping":71},{"user_id":720,"name":"HawkBear","steam_id":76561198046062963,"connected_time":2114000000000,"state":"active","ping":152},{"user_id":741,"name":"brazil number 1 fan","steam_id":76561198799519725,"connected_time":235000000000,"state":"active","ping":75},{"user_id":679,"name":"Doecheldorf","steam_id":76561198291628630,"connected_time":5283000000000,"state":"active","ping":74}]},{"server_id":311,"name":"Uncletopia | Frankfurt | 6 | All Maps","name_short":"frk-6","host":"frk-1.de.uncletopia.com","port":27065,"enabled":true,"region":"eu","cc":"de","latitude":50.110924,"longitude":8.682127,"reserved":0,"last_update":"0001-01-01T00:00:00Z","name_a2s":"Uncletopia | Frankfurt | 6 | All Maps","protocol":17,"map":"ctf_landfall","folder":"tf","game":"Team Fortress","app_id":440,"player_count":15,"max_players":24,"Bots":0,"server_type":"Dedicated","server_os":"Linux","password":true,"vac":true,"version":"7961495","steam_id":85568392924504278,"keywords":["ctf","nocrits","nodmgspread","uncletopia"],"game_id":440,"stv_port":27066,"stv_name":"Uncletopia | Frankfurt | 6 | All Maps | STV","players":[{"user_id":28,"name":"dank pank","steam_id":76561198995052713,"connected_time":2077000000000,"state":"active","ping":57},{"user_id":35,"name":"LlamaCrazy","steam_id":76561198803427474,"connected_time":1332000000000,"state":"active","ping":156},{"user_id":41,"name":"Goatmilk_Enjoyer","steam_id":76561198285410318,"connected_time":739000000000,"state":"active","ping":67},{"user_id":54,"name":"may0NESY","steam_id":76561198976727244,"connected_time":121000000000,"state":"active","ping":72},{"user_id":43,"name":"Edd Ward","steam_id":76561198323451780,"connected_time":693000000000,"state":"active","ping":53},{"user_id":53,"name":"Omni","steam_id":76561197964320557,"connected_time":151000000000,"state":"active","ping":47},{"user_id":45,"name":"duleduldule295","steam_id":76561199476131758,"connected_time":507000000000,"state":"active","ping":62},{"user_id":40,"name":"Corn Readyx","steam_id":76561198192185825,"connected_time":815000000000,"state":"active","ping":59},{"user_id":39,"name":"Archiem","steam_id":76561199466437586,"connected_time":886000000000,"state":"active","ping":61},{"user_id":52,"name":"PAN MAN","steam_id":76561199086525293,"connected_time":256000000000,"state":"active","ping":67},{"user_id":30,"name":"orangegoat72","steam_id":76561198928595949,"connected_time":1978000000000,"state":"active","ping":66},{"user_id":44,"name":"[HADES]Dr.Seven","steam_id":76561198206439440,"connected_time":689000000000,"state":"active","ping":55},{"user_id":46,"name":"Amon Gus","steam_id":76561199094540960,"connected_time":478000000000,"state":"active","ping":53},{"user_id":47,"name":"Prawo Jazdy","steam_id":76561198121589024,"connected_time":435000000000,"state":"active","ping":73},{"user_id":55,"name":"heavy sings (real)","steam_id":76561199023804405,"connected_time":97000000000,"state":"active","ping":64}]},{"server_id":23,"name":"Uncletopia | Frankfurt | 7 | Stopwatch","name_short":"frk-7","host":"frk-1.de.uncletopia.com","port":27075,"enabled":true,"region":"eu","cc":"de","latitude":50.110924,"longitude":8.682127,"reserved":0,"last_update":"0001-01-01T00:00:00Z","name_a2s":"Uncletopia | Frankfurt | 7 | Stopwatch","protocol":17,"map":"cp_gullywash_final1","folder":"tf","game":"Team Fortress","app_id":440,"player_count":1,"max_players":24,"Bots":0,"server_type":"Dedicated","server_os":"Linux","password":true,"vac":true,"version":"7961495","steam_id":85568392924742827,"keywords":["cp","nocrits","nodmgspread","uncletopia"],"game_id":440,"stv_port":27076,"stv_name":"Uncletopia | Frankfurt | 7 | Stopwatch | STV","players":[{"user_id":9,"name":"Denialman (Muted)","steam_id":76561198309182092,"connected_time":172000000000,"state":"active","ping":56}]},{"server_id":24,"name":"Uncletopia | Frankfurt | 8 | Community","name_short":"frk-8","host":"frk-1.de.uncletopia.com","port":27085,"enabled":true,"region":"eu","cc":"de","latitude":50.110924,"longitude":8.682127,"reserved":0,"last_update":"0001-01-01T00:00:00Z","name_a2s":"Uncletopia | Frankfurt | 8 | Community","protocol":17,"map":"workshop/koth_relic_rc3.ugc2965301326","folder":"tf","game":"Team Fortress","app_id":440,"player_count":0,"max_players":24,"Bots":0,"server_type":"Dedicated","server_os":"Linux","password":true,"vac":true,"version":"7961495","steam_id":85568392924742828,"keywords":["cp","nocrits","nodmgspread","uncletopia"],"game_id":440,"stv_port":27086,"stv_name":"Uncletopia | Frankfurt | 8 | Community | STV","players":null},{"server_id":202,"name":"Uncletopia | Hong Kong | 1 | All Maps","name_short":"hgk-1","host":"hgk-1.hk.uncletopia.com","port":27015,"enabled":true,"region":"asia","cc":"hk","latitude":22.302711,"longitude":114.177216,"reserved":0,"last_update":"0001-01-01T00:00:00Z","name_a2s":"Uncletopia | Hong Kong | 1 | All Maps","protocol":17,"map":"cp_sunshine","folder":"tf","game":"Team Fortress","app_id":440,"player_count":0,"max_players":24,"Bots":0,"server_type":"Dedicated","server_os":"Linux","password":true,"vac":true,"version":"7961495","steam_id":85568392924494504,"keywords":["cp","nocrits","nodmgspread","uncletopia"],"game_id":440,"stv_port":27016,"stv_name":"Uncletopia | Hong Kong | 1 | All Maps | STV","players":null},{"server_id":1,"name":"Uncletopia | Los Angeles | 1 | All Maps","name_short":"lax-1","host":"lax-1.us.uncletopia.com","port":27015,"enabled":true,"region":"us-west","cc":"us","latitude":33.94279,"longitude":-118.41004,"reserved":0,"last_update":"0001-01-01T00:00:00Z","name_a2s":"Uncletopia | Los Angeles | 1 | All Maps","protocol":17,"map":"koth_lakeside_final","folder":"tf","game":"Team Fortress","app_id":440,"player_count":0,"max_players":24,"Bots":0,"server_type":"Dedicated","server_os":"Linux","password":true,"vac":true,"version":"7961495","steam_id":85568392924469991,"keywords":["cp","nocrits","nodmgspread","uncletopia"],"game_id":440,"stv_port":27016,"stv_name":"Uncletopia | Los Angeles | 1 | All Maps | STV","players":null},{"server_id":112,"name":"Uncletopia | Los Angeles | 2 | All Maps","name_short":"lax-2","host":"lax-1.us.uncletopia.com","port":27025,"enabled":true,"region":"us-west","cc":"us","latitude":33.94279,"longitude":-118.41004,"reserved":0,"last_update":"0001-01-01T00:00:00Z","name_a2s":"Uncletopia | Los Angeles | 2 | All Maps","protocol":17,"map":"koth_lazarus","folder":"tf","game":"Team Fortress","app_id":440,"player_count":0,"max_players":24,"Bots":0,"server_type":"Dedicated","server_os":"Linux","password":true,"vac":true,"version":"7961495","steam_id":85568392924469992,"keywords":["cp","nocrits","nodmgspread","uncletopia"],"game_id":440,"stv_port":27026,"stv_name":"Uncletopia | Los Angeles | 2 | All Maps | STV","players":null},{"server_id":324,"name":"Uncletopia | Los Angeles | 3 | All Maps","name_short":"lax-3","host":"lax-1.us.uncletopia.com","port":27035,"enabled":true,"region":"us-west","cc":"us","latitude":33.94279,"longitude":-118.41004,"reserved":0,"last_update":"0001-01-01T00:00:00Z","name_a2s":"Uncletopia | Los Angeles | 3 | All Maps","protocol":17,"map":"pl_frontier_final","folder":"tf","game":"Team Fortress","app_id":440,"player_count":1,"max_players":24,"Bots":0,"server_type":"Dedicated","server_os":"Linux","password":true,"vac":true,"version":"7961495","steam_id":85568392924510198,"keywords":["nocrits","nodmgspread","payload","uncletopia"],"game_id":440,"stv_port":27036,"stv_name":"Uncletopia | Los Angeles | 3 | All Maps | STV","players":[{"user_id":3,"name":"goobiestgoober","steam_id":76561199487899460,"connected_time":349000000000,"state":"active","ping":192}]},{"server_id":25,"name":"Uncletopia | Los Angeles | 4 | Stopwatch","name_short":"lax-4","host":"lax-1.us.uncletopia.com","port":27045,"enabled":true,"region":"us-west","cc":"us","latitude":33.94279,"longitude":-118.41004,"reserved":0,"last_update":"0001-01-01T00:00:00Z","name_a2s":"Uncletopia | Los Angeles | 4 | Stopwatch","protocol":17,"map":"pl_upward","folder":"tf","game":"Team Fortress","app_id":440,"player_count":0,"max_players":24,"Bots":0,"server_type":"Dedicated","server_os":"Linux","password":true,"vac":true,"version":"7961495","steam_id":85568392924510199,"keywords":["nocrits","nodmgspread","payload","uncletopia"],"game_id":440,"stv_port":27046,"stv_name":"Uncletopia | Los Angeles | 4 | Stopwatch | STV","players":null},{"server_id":11,"name":"Uncletopia | London | 1 | All Maps","name_short":"lon-1","host":"lon-1.uk.uncletopia.com","port":27015,"enabled":true,"region":"eu","cc":"gb","latitude":51.509865,"longitude":-0.118092,"reserved":0,"last_update":"0001-01-01T00:00:00Z","name_a2s":"Uncletopia | London | 1 | All Maps","protocol":17,"map":"pl_frontier_final","folder":"tf","game":"Team Fortress","app_id":440,"player_count":24,"max_players":24,"Bots":0,"server_type":"Dedicated","server_os":"Linux","password":true,"vac":true,"version":"7961495","steam_id":85568392924367362,"keywords":["nocrits","nodmgspread","payload","uncletopia"],"game_id":440,"stv_port":27016,"stv_name":"Uncletopia | London | 1 | All Maps | STV","players":[{"user_id":504,"name":"Supercoxylac","steam_id":76561198376300138,"connected_time":165000000000,"state":"active","ping":55},{"user_id":501,"name":"The Boss","steam_id":76561198426522902,"connected_time":366000000000,"state":"active","ping":46},{"user_id":500,"name":"hitbox criminal","steam_id":76561198079277466,"connected_time":436000000000,"state":"active","ping":74},{"user_id":474,"name":"itransition UKRAINE","steam_id":76561198080912087,"connected_time":3796000000000,"state":"active","ping":72},{"user_id":476,"name":"Aaron","steam_id":76561197990046953,"connected_time":3619000000000,"state":"active","ping":60},{"user_id":370,"name":"Watch The Matrix 1999 HD online","steam_id":76561198168207306,"connected_time":11438000000000,"state":"active","ping":90},{"user_id":443,"name":"ʰᵘᵉ","steam_id":76561198446852844,"connected_time":4819000000000,"state":"active","ping":77},{"user_id":488,"name":"Edsuedi","steam_id":76561198074722832,"connected_time":2047000000000,"state":"active","ping":60},{"user_id":502,"name":"Rammtrait","steam_id":76561198016436610,"connected_time":362000000000,"state":"active","ping":82},{"user_id":467,"name":"Lyra","steam_id":76561198043601838,"connected_time":4011000000000,"state":"active","ping":60},{"user_id":479,"name":"wk ohw","steam_id":76561198106049954,"connected_time":3359000000000,"state":"active","ping":76},{"user_id":486,"name":"Umme","steam_id":76561198053809566,"connected_time":2180000000000,"state":"active","ping":90},{"user_id":482,"name":"Minimi","steam_id":76561198873850443,"connected_time":2695000000000,"state":"active","ping":47},{"user_id":497,"name":"Cúspide","steam_id":76561197984928034,"connected_time":575000000000,"state":"active","ping":79},{"user_id":490,"name":"Hermitcrack","steam_id":76561198149216441,"connected_time":1975000000000,"state":"active","ping":75},{"user_id":493,"name":"medick","steam_id":76561199380849468,"connected_time":1774000000000,"state":"active","ping":60},{"user_id":262,"name":"Pride moth","steam_id":76561198799133372,"connected_time":20796000000000,"state":"active","ping":91},{"user_id":498,"name":"tWIn","steam_id":76561197989544103,"connected_time":521000000000,"state":"active","ping":60},{"user_id":427,"name":"Venwood","steam_id":76561198126973175,"connected_time":5713000000000,"state":"active","ping":52},{"user_id":495,"name":"Mioumiou","steam_id":76561198056858364,"connected_time":696000000000,"state":"active","ping":68},{"user_id":499,"name":"Sandshee","steam_id":76561198088574666,"connected_time":443000000000,"state":"active","ping":45},{"user_id":484,"name":"breakfast burrito","steam_id":76561198148606969,"connected_time":2402000000000,"state":"active","ping":80},{"user_id":503,"name":"Yrjö Koskinen Yrjö-Koskinen","steam_id":76561198368181145,"connected_time":358000000000,"state":"active","ping":90},{"user_id":462,"name":"jüri","steam_id":76561198107460765,"connected_time":4592000000000,"state":"active","ping":48}]},{"server_id":114,"name":"Uncletopia | London | 2 | All Maps","name_short":"lon-2","host":"lon-1.uk.uncletopia.com","port":27025,"enabled":true,"region":"eu","cc":"gb","latitude":51.509865,"longitude":-0.118092,"reserved":0,"last_update":"0001-01-01T00:00:00Z","name_a2s":"Uncletopia | London | 2 | All Maps","protocol":17,"map":"pl_barnblitz","folder":"tf","game":"Team Fortress","app_id":440,"player_count":24,"max_players":24,"Bots":0,"server_type":"Dedicated","server_os":"Linux","password":true,"vac":true,"version":"7961495","steam_id":85568392924470941,"keywords":["nocrits","nodmgspread","payload","uncletopia"],"game_id":440,"stv_port":27026,"stv_name":"Uncletopia | London | 2 | All Maps | STV","players":[{"user_id":89,"name":"H the Creator","steam_id":76561198335971475,"connected_time":2706000000000,"state":"active","ping":51},{"user_id":117,"name":"Kamikrazy","steam_id":76561198044254918,"connected_time":911000000000,"state":"active","ping":54},{"user_id":123,"name":"cisgender clown","steam_id":76561199469909295,"connected_time":363000000000,"state":"active","ping":62},{"user_id":97,"name":"Reimu","steam_id":76561198101532240,"connected_time":2192000000000,"state":"active","ping":57},{"user_id":96,"name":"Akira","steam_id":76561198323636432,"connected_time":2466000000000,"state":"active","ping":54},{"user_id":125,"name":"Warrior555MainsGanon","steam_id":76561198388627786,"connected_time":194000000000,"state":"active","ping":69},{"user_id":126,"name":"Jørn","steam_id":76561199073257952,"connected_time":150000000000,"state":"active","ping":59},{"user_id":99,"name":"Kebab","steam_id":76561198194449091,"connected_time":2037000000000,"state":"active","ping":142},{"user_id":119,"name":"Rad","steam_id":76561199001560866,"connected_time":616000000000,"state":"active","ping":72},{"user_id":100,"name":"Little Rascal","steam_id":76561197969825907,"connected_time":2035000000000,"state":"active","ping":42},{"user_id":105,"name":"Gilbert Figglebottom","steam_id":76561198269902507,"connected_time":1889000000000,"state":"active","ping":145},{"user_id":33,"name":"cister0","steam_id":76561198130195469,"connected_time":5806000000000,"state":"active","ping":72},{"user_id":106,"name":"0","steam_id":76561199293036742,"connected_time":1651000000000,"state":"active","ping":55},{"user_id":98,"name":"greg","steam_id":76561198088253779,"connected_time":2131000000000,"state":"active","ping":43},{"user_id":116,"name":"ABSOLUTE UNIT","steam_id":76561197972287320,"connected_time":983000000000,"state":"active","ping":78},{"user_id":114,"name":"Rifle Mole","steam_id":76561198018571286,"connected_time":1394000000000,"state":"active","ping":57},{"user_id":127,"name":"polar","steam_id":76561198041487930,"connected_time":146000000000,"state":"active","ping":75},{"user_id":121,"name":"SSAAMMII","steam_id":76561199168609647,"connected_time":524000000000,"state":"active","ping":54},{"user_id":85,"name":"Zamorocian","steam_id":76561198076604017,"connected_time":3374000000000,"state":"active","ping":45},{"user_id":115,"name":"das boot","steam_id":76561198953844914,"connected_time":1002000000000,"state":"active","ping":73},{"user_id":104,"name":"LILY-CHAN","steam_id":76561198035085893,"connected_time":1945000000000,"state":"active","ping":108},{"user_id":95,"name":"Endi","steam_id":76561198914938199,"connected_time":2639000000000,"state":"active","ping":103},{"user_id":111,"name":"fy","steam_id":76561198315371425,"connected_time":1562000000000,"state":"active","ping":53},{"user_id":122,"name":"Jeff","steam_id":76561198034774994,"connected_time":523000000000,"state":"active","ping":139}]},{"server_id":320,"name":"Uncletopia | London | 3 | All Maps","name_short":"lon-3","host":"lon-1.uk.uncletopia.com","port":27035,"enabled":true,"region":"eu","cc":"gb","latitude":51.509865,"longitude":-0.118092,"reserved":0,"last_update":"0001-01-01T00:00:00Z","name_a2s":"Uncletopia | London | 3 | All Maps","protocol":17,"map":"pl_badwater","folder":"tf","game":"Team Fortress","app_id":440,"player_count":24,"max_players":24,"Bots":0,"server_type":"Dedicated","server_os":"Linux","password":true,"vac":true,"version":"7961495","steam_id":85568392924510192,"keywords":["nocrits","nodmgspread","payload","uncletopia"],"game_id":440,"stv_port":27036,"stv_name":"Uncletopia | London | 3 | All Maps | STV","players":[{"user_id":389,"name":"Egor Pomidor","steam_id":76561199175688390,"connected_time":1148000000000,"state":"active","ping":89},{"user_id":338,"name":"marvi444","steam_id":76561198431534139,"connected_time":5452000000000,"state":"active","ping":59},{"user_id":280,"name":"Fat Pigeon","steam_id":76561198817940142,"connected_time":7227000000000,"state":"active","ping":46},{"user_id":396,"name":"CrypticSymbiont","steam_id":76561198063096357,"connected_time":888000000000,"state":"active","ping":66},{"user_id":366,"name":"aapeli","steam_id":76561198800149689,"connected_time":2335000000000,"state":"active","ping":99},{"user_id":403,"name":"TonyGappa","steam_id":76561197969011707,"connected_time":411000000000,"state":"active","ping":43},{"user_id":400,"name":"etc","steam_id":76561197998394797,"connected_time":625000000000,"state":"active","ping":55},{"user_id":361,"name":"AI | Davidoscki","steam_id":76561198129166046,"connected_time":3043000000000,"state":"active","ping":106},{"user_id":405,"name":"Gorgeous George","steam_id":76561198144256544,"connected_time":290000000000,"state":"active","ping":50},{"user_id":401,"name":"Mlanky","steam_id":76561198047796778,"connected_time":498000000000,"state":"active","ping":33},{"user_id":399,"name":"alcovenant","steam_id":76561198066247487,"connected_time":692000000000,"state":"active","ping":113},{"user_id":391,"name":"Emerald","steam_id":76561199141384216,"connected_time":1138000000000,"state":"active","ping":50},{"user_id":402,"name":"Adam","steam_id":76561198083655265,"connected_time":485000000000,"state":"active","ping":49},{"user_id":374,"name":"akakez","steam_id":76561198095432821,"connected_time":1921000000000,"state":"active","ping":108},{"user_id":375,"name":"Kahvi","steam_id":76561198723244199,"connected_time":1909000000000,"state":"active","ping":84},{"user_id":365,"name":"Udinese Dion","steam_id":76561198067931573,"connected_time":2653000000000,"state":"active","ping":61},{"user_id":404,"name":"STANISLAV","steam_id":76561198007394937,"connected_time":356000000000,"state":"active","ping":93},{"user_id":385,"name":"\u003e\u003c\u003e","steam_id":76561198152392309,"connected_time":1352000000000,"state":"active","ping":46},{"user_id":367,"name":"snayke","steam_id":76561198077822932,"connected_time":2167000000000,"state":"active","ping":67},{"user_id":392,"name":"Andreus","steam_id":76561199403926001,"connected_time":1134000000000,"state":"active","ping":76},{"user_id":352,"name":"UpsetPuppy11","steam_id":76561199060288033,"connected_time":3848000000000,"state":"active","ping":113},{"user_id":343,"name":"wtabs","steam_id":76561198831766743,"connected_time":4904000000000,"state":"active","ping":85},{"user_id":398,"name":"Pjuske","steam_id":76561198013943953,"connected_time":795000000000,"state":"active","ping":68},{"user_id":379,"name":"Alice","steam_id":76561198052410860,"connected_time":1753000000000,"state":"active","ping":150}]},{"server_id":321,"name":"Uncletopia | London | 4 | All Maps","name_short":"lon-4","host":"lon-1.uk.uncletopia.com","port":27045,"enabled":true,"region":"eu","cc":"gb","latitude":51.509865,"longitude":-0.118092,"reserved":0,"last_update":"0001-01-01T00:00:00Z","name_a2s":"Uncletopia | London | 4 | All Maps","protocol":17,"map":"koth_cascade","folder":"tf","game":"Team Fortress","app_id":440,"player_count":22,"max_players":24,"Bots":0,"server_type":"Dedicated","server_os":"Linux","password":true,"vac":true,"version":"7961495","steam_id":85568392924510193,"keywords":["cp","nocrits","nodmgspread","uncletopia"],"game_id":440,"stv_port":27046,"stv_name":"Uncletopia | London | 4 | All Maps | STV","players":[{"user_id":337,"name":"✦ Xayira ✦","steam_id":76561198079566786,"connected_time":15000000000,"state":"spawning","ping":55},{"user_id":300,"name":"Sir Cauterize","steam_id":76561198047079422,"connected_time":3176000000000,"state":"active","ping":53},{"user_id":308,"name":"2006 Mitsubishi Lancer","steam_id":76561198036632498,"connected_time":2343000000000,"state":"active","ping":45},{"user_id":237,"name":"Michał","steam_id":76561198320346362,"connected_time":7239000000000,"state":"active","ping":66},{"user_id":338,"name":"Neyika","steam_id":76561199075639138,"connected_time":8000000000,"state":"spawning","ping":82},{"user_id":267,"name":"JkauxxHQ","steam_id":76561198135428304,"connected_time":5131000000000,"state":"active","ping":100},{"user_id":258,"name":"Backstreet Badger","steam_id":76561199024411975,"connected_time":5573000000000,"state":"active","ping":109},{"user_id":331,"name":"Menimaru","steam_id":76561198090197240,"connected_time":480000000000,"state":"active","ping":75},{"user_id":336,"name":"gun spy","steam_id":76561199389926609,"connected_time":247000000000,"state":"active","ping":106},{"user_id":280,"name":"ｄｅｓｋｒａｙ","steam_id":76561198805536170,"connected_time":4534000000000,"state":"active","ping":82},{"user_id":323,"name":"Theskillmaster32734","steam_id":76561198845682486,"connected_time":611000000000,"state":"active","ping":89},{"user_id":324,"name":"LEGEND FUMO.","steam_id":76561198061033903,"connected_time":603000000000,"state":"active","ping":59},{"user_id":332,"name":"Michael","steam_id":76561198003146906,"connected_time":474000000000,"state":"active","ping":42},{"user_id":317,"name":"FOONSH","steam_id":76561199013239517,"connected_time":1150000000000,"state":"active","ping":42},{"user_id":326,"name":"Grzegorz.exe","steam_id":76561198093756481,"connected_time":591000000000,"state":"active","ping":74},{"user_id":320,"name":"dopamine overdose","steam_id":76561199032511302,"connected_time":960000000000,"state":"active","ping":110},{"user_id":327,"name":"Cum Crusader","steam_id":76561198173218318,"connected_time":590000000000,"state":"active","ping":51},{"user_id":281,"name":"Egg123","steam_id":76561198854045058,"connected_time":4531000000000,"state":"active","ping":68},{"user_id":246,"name":"Decadence","steam_id":76561198206829379,"connected_time":6892000000000,"state":"active","ping":84},{"user_id":334,"name":"my fault og","steam_id":76561198256811438,"connected_time":472000000000,"state":"active","ping":98},{"user_id":335,"name":"Sir nutz the 4th","steam_id":76561199094009174,"connected_time":445000000000,"state":"active","ping":82},{"user_id":321,"name":"Theodore Argesh","steam_id":76561198122028307,"connected_time":668000000000,"state":"active","ping":64}]},{"server_id":21,"name":"Uncletopia | London | 5 | All Maps","name_short":"lon-5","host":"lon-1.uk.uncletopia.com","port":27055,"enabled":true,"region":"eu","cc":"gb","latitude":51.509865,"longitude":-0.118092,"reserved":0,"last_update":"0001-01-01T00:00:00Z","name_a2s":"Uncletopia | London | 5 | All Maps","protocol":17,"map":"koth_viaduct","folder":"tf","game":"Team Fortress","app_id":440,"player_count":0,"max_players":24,"Bots":0,"server_type":"Dedicated","server_os":"Linux","password":true,"vac":true,"version":"7961495","steam_id":85568392924742829,"keywords":["cp","nocrits","nodmgspread","uncletopia"],"game_id":440,"stv_port":27056,"stv_name":"Uncletopia | London | 5 | All Maps | STV","players":null},{"server_id":22,"name":"Uncletopia | London | 6 | All Maps","name_short":"lon-6","host":"lon-1.uk.uncletopia.com","port":27065,"enabled":true,"region":"eu","cc":"gb","latitude":51.509865,"longitude":-0.118092,"reserved":0,"last_update":"0001-01-01T00:00:00Z","name_a2s":"Uncletopia | London | 6 | All Maps","protocol":17,"map":"koth_viaduct","folder":"tf","game":"Team Fortress","app_id":440,"player_count":0,"max_players":24,"Bots":0,"server_type":"Dedicated","server_os":"Linux","password":true,"vac":true,"version":"7961495","steam_id":85568392924742830,"keywords":["cp","nocrits","nodmgspread","uncletopia"],"game_id":440,"stv_port":27066,"stv_name":"Uncletopia | London | 6 | All Maps | STV","players":null},{"server_id":40,"name":"Uncletopia | London | 7 | Stopwatch","name_short":"lon-7","host":"lon-1.uk.uncletopia.com","port":27075,"enabled":true,"region":"eu","cc":"gb","latitude":51.509865,"longitude":-0.118092,"reserved":0,"last_update":"0001-01-01T00:00:00Z","name_a2s":"Uncletopia | London | 7 | Stopwatch","protocol":17,"map":"workshop/cp_reckoner_rc6.ugc674719999","folder":"tf","game":"Team Fortress","app_id":440,"player_count":0,"max_players":24,"Bots":0,"server_type":"Dedicated","server_os":"Linux","password":true,"vac":true,"version":"7961495","steam_id":85568392924964314,"keywords":["cp","nocrits","nodmgspread","uncletopia"],"game_id":440,"stv_port":27076,"stv_name":"Uncletopia | London | 7 | Stopwatch | STV","players":null},{"server_id":41,"name":"Uncletopia | London | 8 | Community","name_short":"lon-8","host":"lon-1.uk.uncletopia.com","port":27085,"enabled":true,"region":"eu","cc":"gb","latitude":51.509865,"longitude":-0.118092,"reserved":0,"last_update":"0001-01-01T00:00:00Z","name_a2s":"Uncletopia | London | 8 | Community","protocol":17,"map":"workshop/pl_jinn_rc2.ugc2964570577","folder":"tf","game":"Team Fortress","app_id":440,"player_count":0,"max_players":24,"Bots":0,"server_type":"Dedicated","server_os":"Linux","password":true,"vac":true,"version":"7961495","steam_id":85568392924964315,"keywords":["nocrits","nodmgspread","payload","uncletopia"],"game_id":440,"stv_port":27086,"stv_name":"Uncletopia | London | 8 | Community | STV","players":null},{"server_id":300,"name":"Uncletopia | Montréal | 1 | One Thousand Uncles","name_short":"mtl-1","host":"mtl-1.ca.uncletopia.com","port":27015,"enabled":true,"region":"us-east","cc":"ca","latitude":45.50889,"longitude":-73.56167,"reserved":0,"last_update":"0001-01-01T00:00:00Z","name_a2s":"Uncletopia | Montréal | 1 | One Thousand Uncles","protocol":17,"map":"pl_swiftwater_final1","folder":"tf","game":"Team Fortress","app_id":440,"player_count":24,"max_players":32,"Bots":20,"server_type":"Dedicated","server_os":"Linux","password":true,"vac":true,"version":"7961495","steam_id":85568392924500087,"keywords":["alltalk","bots","danepve","increased_maxplayers","norespawntime","payload","uncletopia"],"game_id":440,"stv_port":0,"stv_name":"","players":[{"user_id":124,"name":"patronshito","steam_id":76561198266063209,"connected_time":1087000000000,"state":"active","ping":116},{"user_id":149,"name":"Very Small Giant","steam_id":76561199187337967,"connected_time":410000000000,"state":"active","ping":78},{"user_id":117,"name":"chiswola","steam_id":76561198046920142,"connected_time":2983000000000,"state":"active","ping":88},{"user_id":125,"name":"swooce","steam_id":76561198156232484,"connected_time":914000000000,"state":"active","ping":66}]},{"server_id":301,"name":"Uncletopia | Montréal | 2 | One Thousand Uncles","name_short":"mtl-2","host":"mtl-1.ca.uncletopia.com","port":27025,"enabled":true,"region":"us-east","cc":"ca","latitude":45.50889,"longitude":-73.56167,"reserved":0,"last_update":"0001-01-01T00:00:00Z","name_a2s":"Uncletopia | Montréal | 2 | One Thousand Uncles","protocol":17,"map":"cp_mossrock","folder":"tf","game":"Team Fortress","app_id":440,"player_count":0,"max_players":32,"Bots":0,"server_type":"Dedicated","server_os":"Linux","password":true,"vac":true,"version":"7961495","steam_id":85568392924500088,"keywords":["alltalk","cp","danepve","increased_maxplayers","norespawntime","uncletopia"],"game_id":440,"stv_port":0,"stv_name":"","players":null},{"server_id":302,"name":"Uncletopia | Montréal | 3 | One Thousand Uncles","name_short":"mtl-3","host":"mtl-1.ca.uncletopia.com","port":27035,"enabled":true,"region":"us-east","cc":"ca","latitude":45.50889,"longitude":-73.56167,"reserved":0,"last_update":"0001-01-01T00:00:00Z","name_a2s":"Uncletopia | Montréal | 3 | One Thousand Uncles","protocol":17,"map":"pl_pier","folder":"tf","game":"Team Fortress","app_id":440,"player_count":0,"max_players":32,"Bots":0,"server_type":"Dedicated","server_os":"Linux","password":true,"vac":true,"version":"7961495","steam_id":85568392924500089,"keywords":["alltalk","danepve","increased_maxplayers","norespawntime","payload","uncletopia"],"game_id":440,"stv_port":0,"stv_name":"","players":null},{"server_id":13,"name":"Uncletopia | New York City | 1 | All Maps","name_short":"nyc-1","host":"nyc-1.us.uncletopia.com","port":27015,"enabled":true,"region":"us-east","cc":"us","latitude":40.73061,"longitude":-73.93524,"reserved":0,"last_update":"0001-01-01T00:00:00Z","name_a2s":"Uncletopia | New York City | 1 | All Maps","protocol":17,"map":"koth_cascade","folder":"tf","game":"Team Fortress","app_id":440,"player_count":23,"max_players":24,"Bots":0,"server_type":"Dedicated","server_os":"Linux","password":true,"vac":true,"version":"7961495","steam_id":85568392924469993,"keywords":["cp","nocrits","nodmgspread","uncletopia"],"game_id":440,"stv_port":27016,"stv_name":"Uncletopia | New York City | 1 | All Maps | STV","players":[{"user_id":99,"name":"asheton225","steam_id":76561199290497029,"connected_time":828000000000,"state":"active","ping":100},{"user_id":87,"name":"Strike Force Lightning","steam_id":76561198271519776,"connected_time":1538000000000,"state":"active","ping":63},{"user_id":18,"name":"Markus Velafi","steam_id":76561198063193924,"connected_time":6102000000000,"state":"active","ping":55},{"user_id":89,"name":"fapasaurusrex","steam_id":76561197994951255,"connected_time":1433000000000,"state":"active","ping":55},{"user_id":96,"name":"Senator Armstrong","steam_id":76561198141479053,"connected_time":921000000000,"state":"active","ping":47},{"user_id":47,"name":"Sprucelass","steam_id":76561197998391724,"connected_time":4586000000000,"state":"active","ping":60},{"user_id":51,"name":"wool","steam_id":76561198869689933,"connected_time":4426000000000,"state":"active","ping":49},{"user_id":83,"name":"Raine","steam_id":76561198055761141,"connected_time":1884000000000,"state":"active","ping":71},{"user_id":68,"name":"Solid 16","steam_id":76561198956823243,"connected_time":3173000000000,"state":"active","ping":59},{"user_id":109,"name":"HippieOfWar","steam_id":76561198079776257,"connected_time":139000000000,"state":"active","ping":114},{"user_id":108,"name":"Super Stupid","steam_id":76561198040665081,"connected_time":185000000000,"state":"active","ping":147},{"user_id":100,"name":"Harry S. Truman","steam_id":76561197993339757,"connected_time":783000000000,"state":"active","ping":58},{"user_id":101,"name":"Windup Monkey in a Human Suit","steam_id":76561198119501444,"connected_time":779000000000,"state":"active","ping":92},{"user_id":70,"name":"Search117","steam_id":76561198021696780,"connected_time":3031000000000,"state":"active","ping":55},{"user_id":102,"name":"PapaRicka","steam_id":76561198156474931,"connected_time":735000000000,"state":"active","ping":85},{"user_id":103,"name":"Scarecrow","steam_id":76561198045870511,"connected_time":712000000000,"state":"active","ping":77},{"user_id":106,"name":"Always Here for You","steam_id":76561198219252313,"connected_time":523000000000,"state":"active","ping":70},{"user_id":104,"name":"dantheman","steam_id":76561199486390813,"connected_time":673000000000,"state":"active","ping":80},{"user_id":105,"name":"chickenenthusiast427","steam_id":76561198909415646,"connected_time":626000000000,"state":"active","ping":106},{"user_id":82,"name":"Acid trip through time","steam_id":76561198322448472,"connected_time":2164000000000,"state":"active","ping":58},{"user_id":66,"name":"ThatGamingKiwi","steam_id":76561199170522237,"connected_time":3263000000000,"state":"active","ping":78},{"user_id":107,"name":"Femboy Dracula","steam_id":76561198090606686,"connected_time":462000000000,"state":"active","ping":59},{"user_id":45,"name":"Renegaiden","steam_id":76561198060179109,"connected_time":4992000000000,"state":"active","ping":89}]},{"server_id":14,"name":"Uncletopia | New York City | 2 | All Maps","name_short":"nyc-2","host":"nyc-1.us.uncletopia.com","port":27025,"enabled":true,"region":"us-east","cc":"us","latitude":40.73061,"longitude":-73.93524,"reserved":0,"last_update":"0001-01-01T00:00:00Z","name_a2s":"Uncletopia | New York City | 2 | All Maps","protocol":17,"map":"pl_upward","folder":"tf","game":"Team Fortress","app_id":440,"player_count":0,"max_players":24,"Bots":0,"server_type":"Dedicated","server_os":"Linux","password":true,"vac":true,"version":"7961495","steam_id":85568392924469994,"keywords":["nocrits","nodmgspread","payload","uncletopia"],"game_id":440,"stv_port":27026,"stv_name":"Uncletopia | New York City | 2 | All Maps | STV","players":null},{"server_id":15,"name":"Uncletopia | New York City | 3 | Stopwatch","name_short":"nyc-3","host":"nyc-1.us.uncletopia.com","port":27035,"enabled":true,"region":"us-east","cc":"us","latitude":40.73061,"longitude":-73.93524,"reserved":0,"last_update":"0001-01-01T00:00:00Z","name_a2s":"Uncletopia | New York City | 3 | Stopwatch","protocol":17,"map":"workshop/koth_bagel_rc6.ugc2514036946","folder":"tf","game":"Team Fortress","app_id":440,"player_count":0,"max_players":24,"Bots":0,"server_type":"Dedicated","server_os":"Linux","password":true,"vac":true,"version":"7961495","steam_id":85568392924742820,"keywords":["cp","nocrits","nodmgspread","uncletopia"],"game_id":440,"stv_port":27036,"stv_name":"Uncletopia | New York City | 3 | Stopwatch | STV","players":null},{"server_id":16,"name":"Uncletopia | New York City | 4 | Community","name_short":"nyc-4","host":"nyc-1.us.uncletopia.com","port":27045,"enabled":true,"region":"us-east","cc":"us","latitude":40.73061,"longitude":-73.93524,"reserved":0,"last_update":"0001-01-01T00:00:00Z","name_a2s":"Uncletopia | New York City | 4 | Community","protocol":17,"map":"workshop/cp_reckoner_rc6.ugc674719999","folder":"tf","game":"Team Fortress","app_id":440,"player_count":0,"max_players":24,"Bots":0,"server_type":"Dedicated","server_os":"Linux","password":true,"vac":true,"version":"7961495","steam_id":85568392924742821,"keywords":["cp","nocrits","nodmgspread","uncletopia"],"game_id":440,"stv_port":27046,"stv_name":"Uncletopia | New York City | 4 | Community | STV","players":null},{"server_id":142,"name":"Uncletopia | São Paulo | 1 | All Maps","name_short":"sao-1","host":"sao-1.br.uncletopia.com","port":27015,"enabled":true,"region":"sa","cc":"br","latitude":-23.533773,"longitude":-46.62529,"reserved":0,"last_update":"0001-01-01T00:00:00Z","name_a2s":"Uncletopia | São Paulo | 1 | All Maps","protocol":17,"map":"cp_mountainlab","folder":"tf","game":"Team Fortress","app_id":440,"player_count":0,"max_players":24,"Bots":0,"server_type":"Dedicated","server_os":"Linux","password":true,"vac":true,"version":"7961495","steam_id":85568392924469996,"keywords":["cp","nocrits","nodmgspread","uncletopia"],"game_id":440,"stv_port":27016,"stv_name":"Uncletopia | São Paulo | 1 | All Maps | STV","players":null},{"server_id":143,"name":"Uncletopia | São Paulo | 2 | Community","name_short":"sao-2","host":"sao-2.br.uncletopia.com","port":27015,"enabled":true,"region":"sa","cc":"br","latitude":-23.533773,"longitude":-46.62529,"reserved":0,"last_update":"0001-01-01T00:00:00Z","name_a2s":"Uncletopia | São Paulo | 2 | Community","protocol":17,"map":"workshop/koth_slaughter_rc1.ugc1712845210","folder":"tf","game":"Team Fortress","app_id":440,"player_count":0,"max_players":24,"Bots":0,"server_type":"Dedicated","server_os":"Linux","password":true,"vac":true,"version":"7961495","steam_id":85568392924485349,"keywords":["cp","nocrits","nodmgspread","uncletopia"],"game_id":440,"stv_port":27016,"stv_name":"Uncletopia | São Paulo | 2 | Community | STV","players":null},{"server_id":7,"name":"Uncletopia | Seattle | 1 | All Maps","name_short":"sea-1","host":"sea-1.us.uncletopia.com","port":27015,"enabled":true,"region":"us-west","cc":"us","latitude":47.608013,"longitude":-122.33517,"reserved":0,"last_update":"0001-01-01T00:00:00Z","name_a2s":"Uncletopia | Seattle | 1 | All Maps","protocol":17,"map":"pl_upward","folder":"tf","game":"Team Fortress","app_id":440,"player_count":24,"max_players":24,"Bots":0,"server_type":"Dedicated","server_os":"Linux","password":true,"vac":true,"version":"7961495","steam_id":85568392924469997,"keywords":["nocrits","nodmgspread","payload","uncletopia"],"game_id":440,"stv_port":27016,"stv_name":"Uncletopia | Seattle | 1 | All Maps | STV","players":[{"user_id":272,"name":"KlassicLoL","steam_id":76561198081815303,"connected_time":486000000000,"state":"active","ping":75},{"user_id":239,"name":"soda","steam_id":76561198105924953,"connected_time":2408000000000,"state":"active","ping":68},{"user_id":228,"name":"Hazel :3","steam_id":76561199247095754,"connected_time":2938000000000,"state":"active","ping":59},{"user_id":268,"name":"lorient","steam_id":76561198150831438,"connected_time":822000000000,"state":"active","ping":80},{"user_id":246,"name":"Biggus Wiiggus","steam_id":76561198078379719,"connected_time":1869000000000,"state":"active","ping":90},{"user_id":147,"name":"Late Night Vaporwave","steam_id":76561198090419068,"connected_time":9865000000000,"state":"active","ping":59},{"user_id":199,"name":"DaddyGalaxy","steam_id":76561198139697796,"connected_time":5769000000000,"state":"active","ping":57},{"user_id":276,"name":"Gold","steam_id":76561198170592539,"connected_time":54000000000,"state":"active","ping":119},{"user_id":267,"name":"TinyGayGuitar","steam_id":76561198130737316,"connected_time":856000000000,"state":"active","ping":65},{"user_id":269,"name":"Scorpianswag","steam_id":76561198260651036,"connected_time":800000000000,"state":"active","ping":62},{"user_id":212,"name":"James","steam_id":76561198098325427,"connected_time":4130000000000,"state":"active","ping":76},{"user_id":264,"name":"Bolbi","steam_id":76561198051811597,"connected_time":1046000000000,"state":"active","ping":85},{"user_id":266,"name":"rmbl","steam_id":76561198150137369,"connected_time":898000000000,"state":"active","ping":78},{"user_id":222,"name":"Brain Magic","steam_id":76561198010201477,"connected_time":3117000000000,"state":"active","ping":81},{"user_id":251,"name":"ForAPessimistImPrettyOptimistic","steam_id":76561198170128009,"connected_time":1674000000000,"state":"active","ping":73},{"user_id":275,"name":"Lé Mon","steam_id":76561198078626283,"connected_time":184000000000,"state":"active","ping":31},{"user_id":236,"name":"SalsaSpirit","steam_id":76561199230979747,"connected_time":2531000000000,"state":"active","ping":115},{"user_id":265,"name":"UltimaA","steam_id":76561198083618022,"connected_time":904000000000,"state":"active","ping":78},{"user_id":249,"name":"crouch2004","steam_id":76561198085429828,"connected_time":1742000000000,"state":"active","ping":92},{"user_id":270,"name":"milk","steam_id":76561198053410877,"connected_time":757000000000,"state":"active","ping":83},{"user_id":262,"name":"Daddy Topps","steam_id":76561198203594332,"connected_time":1166000000000,"state":"active","ping":45},{"user_id":271,"name":"Hamlindigo Blue™","steam_id":76561198116337540,"connected_time":711000000000,"state":"active","ping":82},{"user_id":257,"name":"-_-","steam_id":76561199190800520,"connected_time":1510000000000,"state":"active","ping":42},{"user_id":259,"name":"Perfume Department","steam_id":76561198128299594,"connected_time":1492000000000,"state":"active","ping":79}]},{"server_id":119,"name":"Uncletopia | Seattle | 2 | All Maps","name_short":"sea-2","host":"sea-1.us.uncletopia.com","port":27025,"enabled":true,"region":"us-west","cc":"us","latitude":47.608013,"longitude":-122.33517,"reserved":0,"last_update":"0001-01-01T00:00:00Z","name_a2s":"Uncletopia | Seattle | 2 | All Maps","protocol":17,"map":"cp_mountainlab","folder":"tf","game":"Team Fortress","app_id":440,"player_count":0,"max_players":24,"Bots":0,"server_type":"Dedicated","server_os":"Linux","password":true,"vac":true,"version":"7961495","steam_id":85568392924469998,"keywords":["cp","nocrits","nodmgspread","uncletopia"],"game_id":440,"stv_port":27026,"stv_name":"Uncletopia | Seattle | 2 | All Maps | STV","players":null},{"server_id":406,"name":"Uncletopia | Seattle | 3 | Stopwatch","name_short":"sea-3","host":"sea-1.us.uncletopia.com","port":27035,"enabled":true,"region":"us-west","cc":"us","latitude":47.608013,"longitude":-122.33517,"reserved":0,"last_update":"0001-01-01T00:00:00Z","name_a2s":"Uncletopia | Seattle | 3 | Stopwatch","protocol":17,"map":"cp_gullywash_final1","folder":"tf","game":"Team Fortress","app_id":440,"player_count":0,"max_players":24,"Bots":0,"server_type":"Dedicated","server_os":"Linux","password":true,"vac":true,"version":"7961495","steam_id":85568392924515217,"keywords":["cp","nocrits","nodmgspread","uncletopia"],"game_id":440,"stv_port":27036,"stv_name":"Uncletopia | Seattle | 3 | Stopwatch | STV","players":null},{"server_id":17,"name":"Uncletopia | San Francisco | 1 | All Maps","name_short":"sfo-1","host":"sfo-1.us.uncletopia.com","port":27015,"enabled":true,"region":"us-west","cc":"us","latitude":37.77397,"longitude":-122.4313,"reserved":0,"last_update":"0001-01-01T00:00:00Z","name_a2s":"Uncletopia | San Francisco | 1 | All Maps","protocol":17,"map":"cp_gullywash_final1","folder":"tf","game":"Team Fortress","app_id":440,"player_count":0,"max_players":24,"Bots":0,"server_type":"Dedicated","server_os":"Linux","password":true,"vac":true,"version":"7961495","steam_id":85568392924469999,"keywords":["cp","nocrits","nodmgspread","uncletopia"],"game_id":440,"stv_port":27016,"stv_name":"Uncletopia | San Francisco | 1 | All Maps | STV","players":null},{"server_id":18,"name":"Uncletopia | San Francisco | 2 | All Maps","name_short":"sfo-2","host":"sfo-1.us.uncletopia.com","port":27025,"enabled":true,"region":"us-west","cc":"us","latitude":37.77397,"longitude":-122.4313,"reserved":0,"last_update":"0001-01-01T00:00:00Z","name_a2s":"Uncletopia | San Francisco | 2 | All Maps","protocol":17,"map":"cp_sunshine","folder":"tf","game":"Team Fortress","app_id":440,"player_count":0,"max_players":24,"Bots":0,"server_type":"Dedicated","server_os":"Linux","password":true,"vac":true,"version":"7961495","steam_id":85568392924470000,"keywords":["cp","nocrits","nodmgspread","uncletopia"],"game_id":440,"stv_port":27026,"stv_name":"Uncletopia | San Francisco | 2 | All Maps | STV","players":null},{"server_id":19,"name":"Uncletopia | San Francisco | 3 | Stopwatch","name_short":"sfo-3","host":"sfo-1.us.uncletopia.com","port":27035,"enabled":true,"region":"us-west","cc":"us","latitude":37.77397,"longitude":-122.4313,"reserved":0,"last_update":"0001-01-01T00:00:00Z","name_a2s":"Uncletopia | San Francisco | 3 | Stopwatch","protocol":17,"map":"workshop/koth_clearcut_b15.ugc2107050255","folder":"tf","game":"Team Fortress","app_id":440,"player_count":0,"max_players":24,"Bots":0,"server_type":"Dedicated","server_os":"Linux","password":true,"vac":true,"version":"7961495","steam_id":85568392924742824,"keywords":["cp","nocrits","nodmgspread","uncletopia"],"game_id":440,"stv_port":27036,"stv_name":"Uncletopia | San Francisco | 3 | Stopwatch | STV","players":null},{"server_id":20,"name":"Uncletopia | San Francisco | 4 | Community","name_short":"sfo-4","host":"sfo-1.us.uncletopia.com","port":27045,"enabled":true,"region":"us-west","cc":"us","latitude":37.77397,"longitude":-122.4313,"reserved":0,"last_update":"0001-01-01T00:00:00Z","name_a2s":"Uncletopia | San Francisco | 4 | Community","protocol":17,"map":"workshop/cp_reckoner_rc6.ugc674719999","folder":"tf","game":"Team Fortress","app_id":440,"player_count":0,"max_players":24,"Bots":0,"server_type":"Dedicated","server_os":"Linux","password":true,"vac":true,"version":"7961495","steam_id":85568392924742826,"keywords":["cp","nocrits","nodmgspread","uncletopia"],"game_id":440,"stv_port":27046,"stv_name":"Uncletopia | San Francisco | 4 | Community | STV","players":null},{"server_id":141,"name":"Uncletopia | Sydney | 1 | All Maps","name_short":"syd-1","host":"syd-1.au.uncletopia.com","port":27015,"enabled":true,"region":"au","cc":"au","latitude":-33.865143,"longitude":151.2099,"reserved":0,"last_update":"0001-01-01T00:00:00Z","name_a2s":"Uncletopia | Sydney | 1 | All Maps","protocol":17,"map":"cp_dustbowl","folder":"tf","game":"Team Fortress","app_id":440,"player_count":0,"max_players":24,"Bots":0,"server_type":"Dedicated","server_os":"Linux","password":true,"vac":true,"version":"7961495","steam_id":85568392924470001,"keywords":["cp","nocrits","nodmgspread","uncletopia"],"game_id":440,"stv_port":27016,"stv_name":"Uncletopia | Sydney | 1 | All Maps | STV","players":null},{"server_id":123,"name":"Uncletopia | Sydney | 2 | All Maps","name_short":"syd-2","host":"syd-1.au.uncletopia.com","port":27025,"enabled":true,"region":"au","cc":"au","latitude":-33.865143,"longitude":151.2099,"reserved":0,"last_update":"0001-01-01T00:00:00Z","name_a2s":"Uncletopia | Sydney | 2 | All Maps","protocol":17,"map":"koth_highpass","folder":"tf","game":"Team Fortress","app_id":440,"player_count":0,"max_players":24,"Bots":0,"server_type":"Dedicated","server_os":"Linux","password":true,"vac":true,"version":"7961495","steam_id":85568392924470002,"keywords":["cp","nocrits","nodmgspread","uncletopia"],"game_id":440,"stv_port":27026,"stv_name":"Uncletopia | Sydney | 2 | All Maps | STV","players":null},{"server_id":395,"name":"Uncletopia | Sydney | 3 | All Maps","name_short":"syd-3","host":"syd-1.au.uncletopia.com","port":27035,"enabled":true,"region":"au","cc":"au","latitude":-33.865143,"longitude":151.2099,"reserved":0,"last_update":"0001-01-01T00:00:00Z","name_a2s":"Uncletopia | Sydney | 3 | All Maps","protocol":17,"map":"cp_process_final","folder":"tf","game":"Team Fortress","app_id":440,"player_count":0,"max_players":24,"Bots":0,"server_type":"Dedicated","server_os":"Linux","password":true,"vac":true,"version":"7961495","steam_id":85568392925194467,"keywords":["cp","nocrits","nodmgspread","uncletopia"],"game_id":440,"stv_port":27036,"stv_name":"Uncletopia | Sydney | 3 | All Maps | STV","players":null},{"server_id":396,"name":"Uncletopia | Sydney | 4 | All Maps","name_short":"syd-4","host":"syd-1.au.uncletopia.com","port":27045,"enabled":true,"region":"au","cc":"au","latitude":-33.865143,"longitude":151.2099,"reserved":0,"last_update":"0001-01-01T00:00:00Z","name_a2s":"Uncletopia | Sydney | 4 | All Maps","protocol":17,"map":"plr_bananabay","folder":"tf","game":"Team Fortress","app_id":440,"player_count":0,"max_players":24,"Bots":0,"server_type":"Dedicated","server_os":"Linux","password":true,"vac":true,"version":"7961495","steam_id":85568392925397958,"keywords":["nocrits","nodmgspread","payload","uncletopia"],"game_id":440,"stv_port":27046,"stv_name":"Uncletopia | Sydney | 4 | All Maps | STV","players":null},{"server_id":58,"name":"Uncletopia | Sydney | 5 | Stopwatch","name_short":"syd-5","host":"syd-1.au.uncletopia.com","port":27055,"enabled":true,"region":"au","cc":"au","latitude":-33.865143,"longitude":151.2099,"reserved":0,"last_update":"0001-01-01T00:00:00Z","name_a2s":"Uncletopia | Sydney | 5 | Stopwatch","protocol":17,"map":"workshop/pl_barnblitz_pro7.ugc582280235","folder":"tf","game":"Team Fortress","app_id":440,"player_count":0,"max_players":24,"Bots":0,"server_type":"Dedicated","server_os":"Linux","password":true,"vac":true,"version":"7961495","steam_id":85568392925397959,"keywords":["nocrits","nodmgspread","payload","uncletopia"],"game_id":440,"stv_port":27056,"stv_name":"Uncletopia | Sydney | 5 | Stopwatch | STV","players":null},{"server_id":59,"name":"Uncletopia | Sydney | 6 | Community","name_short":"syd-6","host":"syd-1.au.uncletopia.com","port":27065,"enabled":true,"region":"au","cc":"au","latitude":-33.865143,"longitude":151.2099,"reserved":0,"last_update":"0001-01-01T00:00:00Z","name_a2s":"Uncletopia | Sydney | 6 | Community","protocol":17,"map":"workshop/koth_soot_final1.ugc2969540689","folder":"tf","game":"Team Fortress","app_id":440,"player_count":0,"max_players":24,"Bots":0,"server_type":"Dedicated","server_os":"Linux","password":true,"vac":true,"version":"7961495","steam_id":85568392925397960,"keywords":["cp","nocrits","nodmgspread","uncletopia"],"game_id":440,"stv_port":27066,"stv_name":"Uncletopia | Sydney | 6 | Community | STV","players":null},{"server_id":49,"name":"Uncletopia | Warsaw | 1 | One Thousand Uncles","name_short":"waw-1","host":"waw-1.pl.uncletopia.com","port":27015,"enabled":true,"region":"eu","cc":"pl","latitude":52.2297,"longitude":21.017532,"reserved":0,"last_update":"0001-01-01T00:00:00Z","name_a2s":"Uncletopia | Warsaw | 1 | One Thousand Uncles","protocol":17,"map":"pl_badwater","folder":"tf","game":"Team Fortress","app_id":440,"player_count":28,"max_players":32,"Bots":20,"server_type":"Dedicated","server_os":"Linux","password":true,"vac":true,"version":"7961495","steam_id":85568392925397850,"keywords":["alltalk","bots","danepve","increased_maxplayers","norespawntime","payload","uncletopia"],"game_id":440,"stv_port":0,"stv_name":"","players":[{"user_id":3,"name":"The Fire Pyro","steam_id":76561198300296457,"connected_time":6372000000000,"state":"active","ping":75},{"user_id":55,"name":"Hoff","steam_id":76561198138540938,"connected_time":2639000000000,"state":"active","ping":91},{"user_id":90,"name":"cheesecake hunter","steam_id":76561198097769060,"connected_time":533000000000,"state":"active","ping":83},{"user_id":95,"name":"DarthDanny","steam_id":76561197997718926,"connected_time":244000000000,"state":"active","ping":123},{"user_id":94,"name":"SWG","steam_id":76561199106685853,"connected_time":364000000000,"state":"active","ping":81},{"user_id":66,"name":"GAYPORN69","steam_id":76561199473267237,"connected_time":1431000000000,"state":"active","ping":61},{"user_id":68,"name":"Uncle Moomin","steam_id":76561198011628656,"connected_time":1001000000000,"state":"active","ping":94},{"user_id":59,"name":"Dripizdon","steam_id":76561198052913431,"connected_time":2572000000000,"state":"active","ping":116}]},{"server_id":50,"name":"Uncletopia | Warsaw | 2 | One Thousand Uncles","name_short":"waw-2","host":"waw-1.pl.uncletopia.com","port":27025,"enabled":true,"region":"eu","cc":"pl","latitude":52.2297,"longitude":21.017532,"reserved":0,"last_update":"0001-01-01T00:00:00Z","name_a2s":"Uncletopia | Warsaw | 2 | One Thousand Uncles","protocol":17,"map":"cp_egypt_final","folder":"tf","game":"Team Fortress","app_id":440,"player_count":12,"max_players":32,"Bots":0,"server_type":"Dedicated","server_os":"Linux","password":true,"vac":true,"version":"7961495","steam_id":85568392925397851,"keywords":["alltalk","cp","danepve","increased_maxplayers","norespawntime","uncletopia"],"game_id":440,"stv_port":0,"stv_name":"","players":[{"user_id":325,"name":"Eradical","steam_id":76561199035578645,"connected_time":3682000000000,"state":"spawning","ping":127},{"user_id":327,"name":"Hotdogs","steam_id":76561199112737347,"connected_time":3081000000000,"state":"spawning","ping":79},{"user_id":264,"name":"sad bruh","steam_id":76561198150640861,"connected_time":7680000000000,"state":"spawning","ping":218},{"user_id":351,"name":"Nebula","steam_id":76561198138975583,"connected_time":92000000000,"state":"spawning","ping":80},{"user_id":294,"name":"adv6","steam_id":76561198029789989,"connected_time":5587000000000,"state":"active","ping":135},{"user_id":259,"name":"momo","steam_id":76561198132750021,"connected_time":9414000000000,"state":"active","ping":65},{"user_id":326,"name":"lungdung","steam_id":76561199041919130,"connected_time":3649000000000,"state":"active","ping":185},{"user_id":328,"name":"Sir Crust","steam_id":76561199122077146,"connected_time":3080000000000,"state":"active","ping":73},{"user_id":340,"name":"pomidorpomidorowy7","steam_id":76561199042101260,"connected_time":1736000000000,"state":"spawning","ping":79},{"user_id":346,"name":"mark.pridalko","steam_id":76561199178348857,"connected_time":665000000000,"state":"spawning","ping":108},{"user_id":349,"name":"caramel❤","steam_id":76561198819353867,"connected_time":398000000000,"state":"active","ping":67},{"user_id":350,"name":"facetious dog","steam_id":76561198095289436,"connected_time":281000000000,"state":"active","ping":57}]},{"server_id":51,"name":"Uncletopia | Warsaw | 3 | All Maps","name_short":"waw-3","host":"waw-1.pl.uncletopia.com","port":27035,"enabled":true,"region":"eu","cc":"pl","latitude":52.2297,"longitude":21.017532,"reserved":0,"last_update":"0001-01-01T00:00:00Z","name_a2s":"Uncletopia | Warsaw | 3 | All Maps","protocol":17,"map":"koth_viaduct","folder":"tf","game":"Team Fortress","app_id":440,"player_count":0,"max_players":24,"Bots":0,"server_type":"Dedicated","server_os":"Linux","password":true,"vac":true,"version":"7961495","steam_id":85568392925397852,"keywords":["cp","nocrits","nodmgspread","uncletopia"],"game_id":440,"stv_port":27036,"stv_name":"Uncletopia | Warsaw | 3 | All Maps | STV","players":null},{"server_id":52,"name":"Uncletopia | Warsaw | 4 | All Maps","name_short":"waw-4","host":"waw-1.pl.uncletopia.com","port":27045,"enabled":true,"region":"eu","cc":"pl","latitude":52.2297,"longitude":21.017532,"reserved":0,"last_update":"0001-01-01T00:00:00Z","name_a2s":"Uncletopia | Warsaw | 4 | All Maps","protocol":17,"map":"cp_mountainlab","folder":"tf","game":"Team Fortress","app_id":440,"player_count":18,"max_players":24,"Bots":0,"server_type":"Dedicated","server_os":"Linux","password":true,"vac":true,"version":"7961495","steam_id":85568392925397853,"keywords":["cp","nocrits","nodmgspread","uncletopia"],"game_id":440,"stv_port":27046,"stv_name":"Uncletopia | Warsaw | 4 | All Maps | STV","players":[{"user_id":116,"name":"soney","steam_id":76561198121177512,"connected_time":5723000000000,"state":"active","ping":75},{"user_id":196,"name":"Keani_Who_Hid_In_Dumpster","steam_id":76561198849855476,"connected_time":379000000000,"state":"active","ping":183},{"user_id":175,"name":"anni","steam_id":76561198017686306,"connected_time":1542000000000,"state":"active","ping":70},{"user_id":181,"name":"Ham","steam_id":76561198866730509,"connected_time":1133000000000,"state":"active","ping":103},{"user_id":197,"name":"Reimu Hakurei","steam_id":76561198038078831,"connected_time":339000000000,"state":"active","ping":72},{"user_id":138,"name":"greggs #1 customer","steam_id":76561198046873337,"connected_time":4872000000000,"state":"active","ping":86},{"user_id":182,"name":"Mischail","steam_id":76561198016127010,"connected_time":1088000000000,"state":"active","ping":89},{"user_id":112,"name":"shlongy bongy","steam_id":76561198015876799,"connected_time":6006000000000,"state":"active","ping":43},{"user_id":198,"name":"wndmll","steam_id":76561198094238199,"connected_time":312000000000,"state":"active","ping":69},{"user_id":191,"name":"BELADIT","steam_id":76561198011911501,"connected_time":570000000000,"state":"active","ping":79},{"user_id":199,"name":"Catgamplay","steam_id":76561199386405227,"connected_time":177000000000,"state":"active","ping":50},{"user_id":171,"name":"Hatador","steam_id":76561198074501986,"connected_time":1708000000000,"state":"active","ping":59},{"user_id":200,"name":"slayer","steam_id":76561198438519124,"connected_time":126000000000,"state":"active","ping":77},{"user_id":185,"name":"tafelpoot","steam_id":76561198080036024,"connected_time":1044000000000,"state":"active","ping":61},{"user_id":189,"name":"1 NIGHT IN PUSSYHACKNEY","steam_id":76561198023211417,"connected_time":872000000000,"state":"active","ping":85},{"user_id":173,"name":"noot","steam_id":76561198148074472,"connected_time":1705000000000,"state":"active","ping":59},{"user_id":106,"name":"popeyes employee of the month","steam_id":76561198076219289,"connected_time":6655000000000,"state":"active","ping":63},{"user_id":192,"name":"kilany","steam_id":76561198322366556,"connected_time":529000000000,"state":"active","ping":127}]},{"server_id":53,"name":"Uncletopia | Warsaw | 5 | Stopwatch","name_short":"waw-5","host":"waw-1.pl.uncletopia.com","port":27055,"enabled":true,"region":"eu","cc":"pl","latitude":52.2297,"longitude":21.017532,"reserved":0,"last_update":"0001-01-01T00:00:00Z","name_a2s":"Uncletopia | Warsaw | 5 | Stopwatch","protocol":17,"map":"koth_lakeside_final","folder":"tf","game":"Team Fortress","app_id":440,"player_count":0,"max_players":24,"Bots":0,"server_type":"Dedicated","server_os":"Linux","password":true,"vac":true,"version":"7961495","steam_id":85568392925397854,"keywords":["cp","nocrits","nodmgspread","uncletopia"],"game_id":440,"stv_port":27056,"stv_name":"Uncletopia | Warsaw | 5 | Stopwatch | STV","players":null},{"server_id":54,"name":"Uncletopia | Warsaw | 6 | Community","name_short":"waw-6","host":"waw-1.pl.uncletopia.com","port":27065,"enabled":true,"region":"eu","cc":"pl","latitude":52.2297,"longitude":21.017532,"reserved":0,"last_update":"0001-01-01T00:00:00Z","name_a2s":"Uncletopia | Warsaw | 6 | Community","protocol":17,"map":"workshop/pl_highwood_b19.ugc1769496557","folder":"tf","game":"Team Fortress","app_id":440,"player_count":0,"max_players":24,"Bots":0,"server_type":"Dedicated","server_os":"Linux","password":true,"vac":true,"version":"7961495","steam_id":85568392925397856,"keywords":["nocrits","nodmgspread","payload","uncletopia"],"game_id":440,"stv_port":27066,"stv_name":"Uncletopia | Warsaw | 6 | Community | STV","players":null}]}