{"status":true,"message":"","result":[{"server_id":9,"name":"Uncletopia | Atlanta | 1 | All Maps","name_short":"atl-1","host":"atl-1.us.uncletopia.com","port":27015,"enabled":true,"region":"us-east","cc":"us","latitude":33.753746,"longitude":-84.38633,"reserved":0,"last_update":"0001-01-01T00:00:00Z","name_a2s":"Uncletopia | Atlanta | 1 | All Maps","protocol":17,"map":"cp_sunshine","folder":"tf","game":"Team Fortress","app_id":440,"player_count":24,"max_players":24,"Bots":0,"server_type":"Dedicated","server_os":"Linux","password":true,"vac":true,"version":"7961495","steam_id":85568392924469982,"keywords":["cp","nocrits","nodmgspread","uncletopia"],"game_id":440,"stv_port":27016,"stv_name":"Uncletopia | Atlanta | 1 | All Maps | STV","players":[{"user_id":239,"name":"Snitzman","steam_id":76561198068303272,"connected_time":1259000000000,"state":"active","ping":88},{"user_id":247,"name":"sansa musa","steam_id":76561198163723555,"connected_time":989000000000,"state":"active","ping":61},{"user_id":253,"name":"yourlocalforecast","steam_id":76561198042243083,"connected_time":462000000000,"state":"active","ping":57},{"user_id":183,"name":"Mantis Toboggan","steam_id":76561197996309419,"connected_time":4696000000000,"state":"active","ping":45},{"user_id":234,"name":"Scita","steam_id":76561198066861559,"connected_time":1368000000000,"state":"active","ping":57},{"user_id":230,"name":"Ian","steam_id":76561199078852180,"connected_time":1536000000000,"state":"active","ping":88},{"user_id":224,"name":"Obelisk","steam_id":76561198049416866,"connected_time":2210000000000,"state":"active","ping":45},{"user_id":204,"name":"Xavibite","steam_id":76561198209380493,"connected_time":3567000000000,"state":"active","ping":61},{"user_id":220,"name":"Atlas","steam_id":76561198127975050,"connected_time":2270000000000,"state":"active","ping":40},{"user_id":203,"name":"Monkey Mode","steam_id":76561197961267543,"connected_time":3762000000000,"state":"active","ping":60},{"user_id":221,"name":"Ostrich","steam_id":76561198068553779,"connected_time":2260000000000,"state":"active","ping":49},{"user_id":232,"name":"Joe","steam_id":76561199246334910,"connected_time":1486000000000,"state":"active","ping":59},{"user_id":222,"name":"Chillin Turt","steam_id":76561198025796849,"connected_time":2239000000000,"state":"active","ping":50},{"user_id":237,"name":"NightVeil","steam_id":76561198086054875,"connected_time":1278000000000,"state":"active","ping":76},{"user_id":254,"name":"DeezNoodlez","steam_id":76561198246700372,"connected_time":249000000000,"state":"active","ping":55},{"user_id":196,"name":"Pancakes","steam_id":76561198097983190,"connected_time":3922000000000,"state":"active","ping":63},{"user_id":210,"name":"zonc","steam_id":76561198322104962,"connected_time":2768000000000,"state":"active","ping":116},{"user_id":243,"name":"Chuina","steam_id":76561198056871257,"connected_time":1228000000000,"state":"active","ping":73},{"user_id":249,"name":"Frost ‚ô•","steam_id":76561198168870617,"connected_time":902000000000,"state":"active","ping":80},{"user_id":238,"name":"Systrami","steam_id":76561198120732789,"connected_time":1273000000000,"state":"active","ping":175},{"user_id":250,"name":"cardsfish","steam_id":76561199195316687,"connected_time":895000000000,"state":"active","ping":64},{"user_id":195,"name":"FLiP aSiAN coNneCtioNz+-","steam_id":76561198120757569,"connected_time":3972000000000,"state":"active","ping":66},{"user_id":251,"name":"Le4n!!!","steam_id":76561198045522596,"connected_time":657000000000,"state":"active","ping":73},{"user_id":256,"name":"Bunt","steam_id":76561198124477567,"connected_time":52000000000,"state":"active","ping":45}]},{"server_id":104,"name":"Uncletopia | Atlanta | 2 | All Maps","name_short":"atl-2","host":"atl-1.us.uncletopia.com","port":27025,"enabled":true,"region":"us-east","cc":"us","latitude":33.753746,"longitude":-84.38633,"reserved":0,"last_update":"0001-01-01T00:00:00Z","name_a2s":"Uncletopia | Atlanta | 2 | All Maps","protocol":17,"map":"koth_cascade","folder":"tf","game":"Team Fortress","app_id":440,"player_count":0,"max_players":24,"Bots":0,"server_type":"Dedicated","server_os":"Linux","password":true,"vac":true,"version":"7961495","steam_id":85568392924469983,"keywords":["cp","nocrits","nodmgspread","uncletopia"],"game_id":440,"stv_port":27026,"stv_name":"Uncletopia | Atlanta | 2 | All Maps | STV","players":null},{"server_id":400,"name":"Uncletopia | Atlanta | 3 | Stopwatch","name_short":"atl-3","host":"atl-1.us.uncletopia.com","port":27035,"enabled":true,"region":"us-east","cc":"us","latitude":33.753746,"longitude":-84.38633,"reserved":0,"last_update":"0001-01-01T00:00:00Z","name_a2s":"Uncletopia | Atlanta | 3 | Stopwatch","protocol":17,"map":"cp_metalworks","folder":"tf","game":"Team Fortress","app_id":440,"player_count":0,"max_players":24,"Bots":0,"server_type":"Dedicated","server_os":"Linux","password":true,"vac":true,"version":"7961495","steam_id":85568392924515187,"keywords":["cp","nocrits","nodmgspread","uncletopia"],"game_id":440,"stv_port":27036,"stv_name":"Uncletopia | Atlanta | 3 | Stopwatch | STV","players":null},{"server_id":401,"name":"Uncletopia | Atlanta | 4 | Community","name_short":"atl-4","host":"atl-1.us.uncletopia.com","port":27045,"enabled":true,"region":"us-east","cc":"us","latitude":33.753746,"longitude":-84.38633,"reserved":0,"last_update":"0001-01-01T00:00:00Z","name_a2s":"Uncletopia | Atlanta | 4 | Community","protocol":17,"map":"workshop/cp_coilblaze_rc7.ugc1272700588","folder":"tf","game":"Team Fortress","app_id":440,"player_count":24,"max_players":24,"Bots":0,"server_type":"Dedicated","server_os":"Linux","password":true,"vac":true,"version":"7961495","steam_id":85568392924515188,"keywords":["cp","nocrits","nodmgspread","uncletopia"],"game_id":440,"stv_port":27046,"stv_name":"Uncletopia | Atlanta | 4 | Community | STV","players":[{"user_id":198,"name":"bumrusherz","steam_id":76561198440658195,"connected_time":485000000000,"state":"active","ping":82},{"user_id":140,"name":"TerracottaP","steam_id":76561199402983168,"connected_time":4293000000000,"state":"active","ping":55},{"user_id":186,"name":"5-MeO-DMT","steam_id":76561198089527768,"connected_time":1056000000000,"state":"active","ping":68},{"user_id":187,"name":"MEATBALL","steam_id":76561198028499312,"connected_time":1054000000000,"state":"active","ping":48},{"user_id":204,"name":"Koala Bear","steam_id":76561198118025990,"connected_time":24000000000,"state":"active","ping":63},{"user_id":185,"name":"terance","steam_id":76561199163372180,"connected_time":1201000000000,"state":"active","ping":61},{"user_id":179,"name":"Momo","steam_id":76561198815067088,"connected_time":1717000000000,"state":"active","ping":39},{"user_id":192,"name":"üö¨üêõSphericalDoritoüö¨üêõ","steam_id":76561199436479228,"connected_time":895000000000,"state":"active","ping":61},{"user_id":197,"name":"Alchemist84","steam_id":76561198166625404,"connected_time":616000000000,"state":"active","ping":55},{"user_id":190,"name":"my mom","steam_id":76561199225201569,"connected_time":946000000000,"state":"active","ping":63},{"user_id":191,"name":"Hard Soap","steam_id":76561198267905614,"connected_time":945000000000,"state":"active","ping":71},{"user_id":193,"name":"Supa Dupt","steam_id":76561198166666289,"connected_time":851000000000,"state":"active","ping":55},{"user_id":194,"name":"Scrux","steam_id":76561198129763115,"connected_time":795000000000,"state":"active","ping":92},{"user_id":199,"name":"The Potato Romancer","steam_id":76561198204197648,"connected_time":402000000000,"state":"active","ping":103},{"user_id":195,"name":"Garfield","steam_id":76561199251237007,"connected_time":789000000000,"state":"active","ping":55},{"user_id":183,"name":"45 Naked Cowboys","steam_id":76561198089467968,"connected_time":1388000000000,"state":"active","ping":74},{"user_id":200,"name":"BriLLz","steam_id":76561198142440806,"connected_time":371000000000,"state":"active","ping":163},{"user_id":203,"name":"raldite","steam_id":76561198074152931,"connected_time":115000000000,"state":"active","ping":177},{"user_id":170,"name":"chikin.sauce","steam_id":76561198042464635,"connected_time":2239000000000,"state":"active","ping":85},{"user_id":201,"name":"A Random Guy","steam_id":76561198282519457,"connected_time":367000000000,"state":"active","ping":115},{"user_id":149,"name":"james_bondage","steam_id":76561199476062624,"connected_time":3398000000000,"state":"active","ping":77},{"user_id":184,"name":"Huntpk","steam_id":76561198340591674,"connected_time":1360000000000,"state":"active","ping":60},{"user_id":167,"name":"Warlock With a Glock","steam_id":76561198271415834,"connected_time":2372000000000,"state":"active","ping":77},{"user_id":177,"name":"Blaze","steam_id":76561198043797702,"connected_time":1995000000000,"state":"active","ping":76}]},{"server_id":2,"name":"Uncletopia | Chicago | 1 | All Maps","name_short":"chi-1","host":"chi-1.us.uncletopia.com","port":27015,"enabled":true,"region":"us-central","cc":"us","latitude":41.881832,"longitude":-87.62318,"reserved":0,"last_update":"0001-01-01T00:00:00Z","name_a2s":"Uncletopia | Chicago | 1 | All Maps","protocol":17,"map":"cp_altitude","folder":"tf","game":"Team Fortress","app_id":440,"player_count":24,"max_players":24,"Bots":0,"server_type":"Dedicated","server_os":"Linux","password":true,"vac":true,"version":"7961495","steam_id":85568392924469984,"keywords":["cp","nocrits","nodmgspread","uncletopia"],"game_id":440,"stv_port":27016,"stv_name":"Uncletopia | Chicago | 1 | All Maps | STV","players":[{"user_id":354,"name":"Young-OG","steam_id":76561198058800479,"connected_time":1695000000000,"state":"active","ping":74},{"user_id":363,"name":"PickleHater13","steam_id":76561198259380127,"connected_time":1142000000000,"state":"active","ping":53},{"user_id":303,"name":"Lord_Manship","steam_id":76561198045168765,"connected_time":5762000000000,"state":"active","ping":70},{"user_id":382,"name":"Cornelius Vanderbelt Jr The 3rd","steam_id":76561199083115222,"connected_time":142000000000,"state":"active","ping":81},{"user_id":352,"name":"Ratlympics Gold Medalist","steam_id":76561198064981004,"connected_time":2130000000000,"state":"active","ping":49},{"user_id":344,"name":"Black Rose Oncore","steam_id":76561198040489960,"connected_time":2857000000000,"state":"active","ping":75},{"user_id":386,"name":"klevmeister","steam_id":76561198799106535,"connected_time":9000000000,"state":"spawning","ping":256},{"user_id":365,"name":"Cheeseball","steam_id":76561198996855146,"connected_time":875000000000,"state":"active","ping":90},{"user_id":383,"name":"jan kili","steam_id":76561198289894834,"connected_time":79000000000,"state":"active","ping":64},{"user_id":358,"name":"Dwanor","steam_id":76561198039571887,"connected_time":1456000000000,"state":"active","ping":74},{"user_id":377,"name":"Le Meilleur","steam_id":76561198054581325,"connected_time":509000000000,"state":"active","ping":45},{"user_id":375,"name":"Dr.StrangeGlove","steam_id":76561198286114229,"connected_time":542000000000,"state":"active","ping":60},{"user_id":353,"name":"Steak-Pocketer","steam_id":76561198277651410,"connected_time":2108000000000,"state":"active","ping":60},{"user_id":338,"name":"The Great Eagle Scourge of 1822","steam_id":76561198325086209,"connected_time":3433000000000,"state":"active","ping":103},{"user_id":378,"name":"SandHanitizer","steam_id":76561198234676500,"connected_time":493000000000,"state":"active","ping":53},{"user_id":381,"name":"m.a.d.","steam_id":76561198040553982,"connected_time":354000000000,"state":"active","ping":58},{"user_id":368,"name":"Raven","steam_id":76561198869880402,"connected_time":826000000000,"state":"active","ping":76},{"user_id":357,"name":"poopybutt420","steam_id":76561199000805315,"connected_time":1549000000000,"state":"active","ping":90},{"user_id":380,"name":"Satoshi","steam_id":76561198107857715,"connected_time":426000000000,"state":"active","ping":81},{"user_id":355,"name":"Jango","steam_id":76561198084589742,"connected_time":1686000000000,"state":"active","ping":83},{"user_id":337,"name":"Ganondorf","steam_id":76561198010421059,"connected_time":3513000000000,"state":"active","ping":54},{"user_id":369,"name":"john34689@gmail.com","steam_id":76561199508419472,"connected_time":825000000000,"state":"active","ping":75},{"user_id":370,"name":"Aztea","steam_id":76561198982089893,"connected_time":798000000000,"state":"active","ping":85},{"user_id":385,"name":"B.","steam_id":76561198040445907,"connected_time":47000000000,"state":"active","ping":94}]},{"server_id":106,"name":"Uncletopia | Chicago | 2 | All Maps","name_short":"chi-2","host":"chi-1.us.uncletopia.com","port":27025,"enabled":true,"region":"us-central","cc":"us","latitude":41.881832,"longitude":-87.62318,"reserved":0,"last_update":"0001-01-01T00:00:00Z","name_a2s":"Uncletopia | Chicago | 2 | All Maps","protocol":17,"map":"pl_badwater","folder":"tf","game":"Team Fortress","app_id":440,"player_count":24,"max_players":24,"Bots":0,"server_type":"Dedicated","server_os":"Linux","password":true,"vac":true,"version":"7961495","steam_id":85568392924469985,"keywords":["nocrits","nodmgspread","payload","uncletopia"],"game_id":440,"stv_port":27026,"stv_name":"Uncletopia | Chicago | 2 | All Maps | STV","players":[{"user_id":475,"name":"Temujin","steam_id":76561198030936583,"connected_time":572000000000,"state":"active","ping":46},{"user_id":425,"name":"solar controller","steam_id":76561198838282369,"connected_time":3036000000000,"state":"active","ping":70},{"user_id":456,"name":"Sebhann","steam_id":76561199033464900,"connected_time":1514000000000,"state":"active","ping":67},{"user_id":438,"name":"SantaMuerte","steam_id":76561198039898148,"connected_time":2277000000000,"state":"active","ping":61},{"user_id":445,"name":"cfamadas","steam_id":76561199055881965,"connected_time":2057000000000,"state":"active","ping":76},{"user_id":468,"name":"beep","steam_id":76561199096448766,"connected_time":738000000000,"state":"active","ping":92},{"user_id":449,"name":"Lex","steam_id":76561198069948353,"connected_time":1892000000000,"state":"active","ping":84},{"user_id":469,"name":"Yate","steam_id":76561198304924040,"connected_time":720000000000,"state":"active","ping":78},{"user_id":470,"name":"Gardangle","steam_id":76561198394173831,"connected_time":717000000000,"state":"active","ping":104},{"user_id":471,"name":"Amari","steam_id":76561198272446730,"connected_time":709000000000,"state":"active","ping":77},{"user_id":474,"name":"‡∂û.BAT","steam_id":76561198049800120,"connected_time":643000000000,"state":"active","ping":91},{"user_id":467,"name":"Karrot","steam_id":76561198058970903,"connected_time":800000000000,"state":"active","ping":62},{"user_id":453,"name":"Lennu","steam_id":76561198060730154,"connected_time":1718000000000,"state":"active","ping":75},{"user_id":304,"name":"TheGreythreat","steam_id":76561198021995538,"connected_time":13282000000000,"state":"active","ping":57},{"user_id":455,"name":"PotatoTheCarrot","steam_id":76561198014089484,"connected_time":1551000000000,"state":"active","ping":61},{"user_id":452,"name":"AkimboAoki","steam_id":76561198158323058,"connected_time":1774000000000,"state":"active","ping":98},{"user_id":434,"name":"Swamp-Cap","steam_id":76561199045984851,"connected_time":2646000000000,"state":"active","ping":64},{"user_id":410,"name":"Obama Gaming","steam_id":76561198165829024,"connected_time":3733000000000,"state":"active","ping":108},{"user_id":479,"name":"smk","steam_id":76561198068027379,"connected_time":55000000000,"state":"active","ping":170},{"user_id":429,"name":"Shrebbie","steam_id":76561198875230824,"connected_time":2859000000000,"state":"active","ping":59},{"user_id":478,"name":"ApertureB","steam_id":76561198019141379,"connected_time":118000000000,"state":"active","ping":58},{"user_id":477,"name":"Aureolin","steam_id":76561198210274835,"connected_time":555000000000,"state":"active","ping":78},{"user_id":460,"name":".                          .","steam_id":76561198047555945,"connected_time":1432000000000,"state":"active","ping":77},{"user_id":465,"name":"QweX_","steam_id":76561198051250642,"connected_time":882000000000,"state":"active","ping":96}]},{"server_id":402,"name":"Uncletopia | Chicago | 3 | All Maps","name_short":"chi-3","host":"chi-1.us.uncletopia.com","port":27035,"enabled":true,"region":"us-central","cc":"us","latitude":41.881832,"longitude":-87.62318,"reserved":0,"last_update":"0001-01-01T00:00:00Z","name_a2s":"Uncletopia | Chicago | 3 | All Maps","protocol":17,"map":"koth_viaduct","folder":"tf","game":"Team Fortress","app_id":440,"player_count":24,"max_players":24,"Bots":0,"server_type":"Dedicated","server_os":"Linux","password":true,"vac":true,"version":"7961495","steam_id":85568392924515191,"keywords":["cp","nocrits","nodmgspread","uncletopia"],"game_id":440,"stv_port":27036,"stv_name":"Uncletopia | Chicago | 3 | All Maps | STV","players":[{"user_id":326,"name":"Reiner","steam_id":76561199201762178,"connected_time":257000000000,"state":"active","ping":62},{"user_id":251,"name":"El Bondin","steam_id":76561198820792434,"connected_time":5691000000000,"state":"active","ping":98},{"user_id":282,"name":"Mega_Man23","steam_id":76561198138341391,"connected_time":3537000000000,"state":"active","ping":62},{"user_id":305,"name":"Bones0010","steam_id":76561198096186958,"connected_time":1774000000000,"state":"active","ping":75},{"user_id":328,"name":"Santa Klaus (real)","steam_id":76561198351313234,"connected_time":237000000000,"state":"active","ping":80},{"user_id":285,"name":"QueenCity","steam_id":76561199228037385,"connected_time":2856000000000,"state":"active","ping":64},{"user_id":312,"name":"Joshy","steam_id":76561198061405421,"connected_time":1702000000000,"state":"active","ping":81},{"user_id":303,"name":"vinny6","steam_id":76561198386735728,"connected_time":1945000000000,"state":"active","ping":67},{"user_id":339,"name":"Neotron","steam_id":76561198135271566,"connected_time":20000000000,"state":"spawning","ping":2861},{"user_id":330,"name":"Renota","steam_id":76561198058224488,"connected_time":183000000000,"state":"active","ping":78},{"user_id":332,"name":"jorjor wells","steam_id":76561199073429082,"connected_time":133000000000,"state":"active","ping":73},{"user_id":325,"name":"TheSausageSwiper","steam_id":76561198972869845,"connected_time":285000000000,"state":"active","ping":107},{"user_id":333,"name":"boykissing? YES PLEASE!","steam_id":76561198063970639,"connected_time":112000000000,"state":"active","ping":67},{"user_id":293,"name":"get scrongled, idiot","steam_id":76561198115874625,"connected_time":2568000000000,"state":"active","ping":70},{"user_id":334,"name":"Aleagen","steam_id":76561199427597036,"connected_time":99000000000,"state":"active","ping":98},{"user_id":309,"name":"jimmyfnaf172198yay","steam_id":76561198311446636,"connected_time":1743000000000,"state":"active","ping":60},{"user_id":295,"name":"Cobalt","steam_id":76561198353896624,"connected_time":2565000000000,"state":"active","ping":120},{"user_id":321,"name":"Kasane","steam_id":76561198209006780,"connected_time":1011000000000,"state":"active","ping":66},{"user_id":335,"name":"Glanderson booper","steam_id":76561198021223747,"connected_time":98000000000,"state":"active","ping":92},{"user_id":297,"name":"I. C. Wiener","steam_id":76561198062777610,"connected_time":2534000000000,"state":"active","ping":102},{"user_id":336,"name":"germa986","steam_id":76561198837177273,"connected_time":81000000000,"state":"active","ping":73},{"user_id":337,"name":"opossum","steam_id":76561198148905570,"connected_time":39000000000,"state":"spawning","ping":83},{"user_id":323,"name":"Valuez_THS","steam_id":76561199055291822,"connected_time":892000000000,"state":"active","ping":89},{"user_id":338,"name":"appy","steam_id":76561198074357676,"connected_time":26000000000,"state":"spawning","ping":59}]},{"server_id":403,"name":"Uncletopia | Chicago | 4 | All Maps","name_short":"chi-4","host":"chi-1.us.uncletopia.com","port":27045,"enabled":true,"region":"us-central","cc":"us","latitude":41.881832,"longitude":-87.62318,"reserved":0,"last_update":"0001-01-01T00:00:00Z","name_a2s":"Uncletopia | Chicago | 4 | All Maps","protocol":17,"map":"pl_badwater","folder":"tf","game":"Team Fortress","app_id":440,"player_count":24,"max_players":24,"Bots":0,"server_type":"Dedicated","server_os":"Linux","password":true,"vac":true,"version":"7961495","steam_id":85568392924515193,"keywords":["nocrits","nodmgspread","payload","uncletopia"],"game_id":440,"stv_port":27046,"stv_name":"Uncletopia | Chicago | 4 | All Maps | STV","players":[{"user_id":101,"name":"locked cathode tube","steam_id":76561198085044565,"connected_time":17000000000,"state":"active","ping":77},{"user_id":94,"name":"Pierre Bourne","steam_id":76561199500265332,"connected_time":184000000000,"state":"active","ping":64},{"user_id":74,"name":"I\u003c3RockMusic","steam_id":76561198158543955,"connected_time":719000000000,"state":"active","ping":52},{"user_id":96,"name":"Shark Sandwich","steam_id":76561198025007938,"connected_time":58000000000,"state":"active","ping":87},{"user_id":71,"name":"elwen","steam_id":76561198025282054,"connected_time":837000000000,"state":"active","ping":186},{"user_id":20,"name":"twitch.tv/firepow10","steam_id":76561198111259720,"connected_time":4294000000000,"state":"active","ping":71},{"user_id":58,"name":"Just a BLU Toon","steam_id":76561198273199771,"connected_time":2443000000000,"state":"active","ping":75},{"user_id":62,"name":"Mister36","steam_id":76561198019132100,"connected_time":2091000000000,"state":"active","ping":50},{"user_id":67,"name":"Pussy Slambasket","steam_id":76561198093694322,"connected_time":1195000000000,"state":"active","ping":51},{"user_id":77,"name":"..!","steam_id":76561198882483441,"connected_time":641000000000,"state":"active","ping":75},{"user_id":99,"name":"iCarly Lore Expert","steam_id":76561198111902910,"connected_time":33000000000,"state":"active","ping":73},{"user_id":87,"name":"corntent","steam_id":76561198824847948,"connected_time":350000000000,"state":"active","ping":62},{"user_id":80,"name":"El G√ºey","steam_id":76561197970450546,"connected_time":622000000000,"state":"active","ping":96},{"user_id":83,"name":"bigboybrown","steam_id":76561199159928133,"connected_time":500000000000,"state":"active","ping":66},{"user_id":81,"name":"thecal","steam_id":76561198307893384,"connected_time":570000000000,"state":"active","ping":52},{"user_id":32,"name":"Soy King","steam_id":76561198263025614,"connected_time":3491000000000,"state":"active","ping":89},{"user_id":49,"name":"SpongedSocks","steam_id":76561198374009086,"connected_time":3167000000000,"state":"active","ping":58},{"user_id":102,"name":"Stoopnagle","steam_id":76561198011942560,"connected_time":10000000000,"state":"active","ping":113},{"user_id":68,"name":"fuzzymanboob12321","steam_id":76561199043933182,"connected_time":1111000000000,"state":"active","ping":59},{"user_id":56,"name":"Anomalous Materials Scientist","steam_id":76561198092542997,"connected_time":2645000000000,"state":"active","ping":60},{"user_id":92,"name":"biden cart 15 dollars","steam_id":76561198253731826,"connected_time":228000000000,"state":"active","ping":68},{"user_id":100,"name":"Wounded","steam_id":76561199440954924,"connected_time":29000000000,"state":"spawning","ping":137},{"user_id":98,"name":"moon","steam_id":76561199187008629,"connected_time":46000000000,"state":"active","ping":64},{"user_id":42,"name":"the keebler","steam_id":76561199486326945,"connected_time":3340000000000,"state":"active","ping":80}]},{"server_id":36,"name":"Uncletopia | Chicago | 5 | All Maps","name_short":"chi-5","host":"chi-2.us.uncletopia.com","port":27015,"enabled":true,"region":"us-central","cc":"us","latitude":41.881832,"longitude":-87.62318,"reserved":0,"last_update":"0001-01-01T00:00:00Z","name_a2s":"Uncletopia | Chicago | 5 | All Maps","protocol":17,"map":"pl_badwater","folder":"tf","game":"Team Fortress","app_id":440,"player_count":0,"max_players":24,"Bots":0,"server_type":"Dedicated","server_os":"Linux","password":true,"vac":true,"version":"7961495","steam_id":85568392924866362,"keywords":["nocrits","nodmgspread","payload","uncletopia"],"game_id":440,"stv_port":27016,"stv_name":"Uncletopia | Chicago | 5 | All Maps | STV","players":null},{"server_id":37,"name":"Uncletopia | Chicago | 6 | All Maps","name_short":"chi-6","host":"chi-2.us.uncletopia.com","port":27025,"enabled":true,"region":"us-central","cc":"us","latitude":41.881832,"longitude":-87.62318,"reserved":0,"last_update":"0001-01-01T00:00:00Z","name_a2s":"Uncletopia | Chicago | 6 | All Maps","protocol":17,"map":"koth_highpass","folder":"tf","game":"Team Fortress","app_id":440,"player_count":0,"max_players":24,"Bots":0,"server_type":"Dedicated","server_os":"Linux","password":true,"vac":true,"version":"7961495","steam_id":85568392924866363,"keywords":["cp","nocrits","nodmgspread","uncletopia"],"game_id":440,"stv_port":27026,"stv_name":"Uncletopia | Chicago | 6 | All Maps | STV","players":null},{"server_id":38,"name":"Uncletopia | Chicago | 7 | Stopwatch","name_short":"chi-7","host":"chi-2.us.uncletopia.com","port":27035,"enabled":true,"region":"us-central","cc":"us","latitude":41.881832,"longitude":-87.62318,"reserved":0,"last_update":"0001-01-01T00:00:00Z","name_a2s":"Uncletopia | Chicago | 7 | Stopwatch","protocol":17,"map":"pl_borneo","folder":"tf","game":"Team Fortress","app_id":440,"player_count":0,"max_players":24,"Bots":0,"server_type":"Dedicated","server_os":"Linux","password":true,"vac":true,"version":"7961495","steam_id":85568392924866364,"keywords":["nocrits","nodmgspread","payload","uncletopia"],"game_id":440,"stv_port":27036,"stv_name":"Uncletopia | Chicago | 7 | Stopwatch | STV","players":null},{"server_id":39,"name":"Uncletopia | Chicago | 8 | Community","name_short":"chi-8","host":"chi-2.us.uncletopia.com","port":27045,"enabled":true,"region":"us-central","cc":"us","latitude":41.881832,"longitude":-87.62318,"reserved":0,"last_update":"0001-01-01T00:00:00Z","name_a2s":"Uncletopia | Chicago | 8 | Community","protocol":17,"map":"workshop/koth_slaughter_rc1.ugc1712845210","folder":"tf","game":"Team Fortress","app_id":440,"player_count":0,"max_players":24,"Bots":0,"server_type":"Dedicated","server_os":"Linux","password":true,"vac":true,"version":"7961495","steam_id":85568392924866365,"keywords":["cp","nocrits","nodmgspread","uncletopia"],"game_id":440,"stv_port":27046,"stv_name":"Uncletopia | Chicago | 8 | Community | STV","players":null},{"server_id":8,"name":"Uncletopia | Dallas | 1 | All Maps","name_short":"dal-1","host":"dal-1.us.uncletopia.com","port":27015,"enabled":true,"region":"us-central","cc":"us","latitude":32.779167,"longitude":-96.80889,"reserved":0,"last_update":"0001-01-01T00:00:00Z","name_a2s":"Uncletopia | Dallas | 1 | All Maps","protocol":17,"map":"cp_gorge","folder":"tf","game":"Team Fortress","app_id":440,"player_count":24,"max_players":24,"Bots":0,"server_type":"Dedicated","server_os":"Linux","password":true,"vac":true,"version":"7961495","steam_id":85568392924469986,"keywords":["cp","nocrits","nodmgspread","uncletopia"],"game_id":440,"stv_port":27016,"stv_name":"Uncletopia | Dallas | 1 | All Maps | STV","players":[{"user_id":263,"name":"Gibby","steam_id":76561199044322783,"connected_time":275000000000,"state":"active","ping":104},{"user_id":260,"name":"Seskova","steam_id":76561198090207032,"connected_time":291000000000,"state":"active","ping":99},{"user_id":255,"name":"pupper","steam_id":76561198145921847,"connected_time":467000000000,"state":"active","ping":73},{"user_id":247,"name":"THE DARKNESS","steam_id":76561198311004039,"connected_time":753000000000,"state":"active","ping":90},{"user_id":264,"name":"Echo","steam_id":76561199165491231,"connected_time":268000000000,"state":"active","ping":59},{"user_id":222,"name":"MeMyBongusAndTheGreatOutdoors","steam_id":76561198097708978,"connected_time":2492000000000,"state":"active","ping":59},{"user_id":261,"name":"Honasou","steam_id":76561198009778926,"connected_time":289000000000,"state":"active","ping":105},{"user_id":265,"name":"MoreRaptor360","steam_id":76561198318219638,"connected_time":248000000000,"state":"active","ping":71},{"user_id":256,"name":"iluvtoust","steam_id":76561198869269207,"connected_time":390000000000,"state":"active","ping":53},{"user_id":269,"name":"PK","steam_id":76561198368722500,"connected_time":89000000000,"state":"active","ping":79},{"user_id":216,"name":"ihave80hp","steam_id":76561199251621911,"connected_time":2993000000000,"state":"active","ping":54},{"user_id":266,"name":"Salt Baron","steam_id":76561198073417386,"connected_time":225000000000,"state":"active","ping":91},{"user_id":267,"name":"Greatcascade","steam_id":76561198161218812,"connected_time":209000000000,"state":"active","ping":79},{"user_id":252,"name":"soapboxracer360","steam_id":76561198316394688,"connected_time":697000000000,"state":"active","ping":75},{"user_id":270,"name":"Tlaloc","steam_id":76561198375215983,"connected_time":54000000000,"state":"active","ping":126},{"user_id":244,"name":"freesia","steam_id":76561198127525888,"connected_time":992000000000,"state":"active","ping":53},{"user_id":259,"name":"Arrluk","steam_id":76561198396679452,"connected_time":317000000000,"state":"active","ping":60},{"user_id":246,"name":"9/11 Airlines","steam_id":76561198096306325,"connected_time":921000000000,"state":"active","ping":78},{"user_id":268,"name":"GreemBeans","steam_id":76561198069648014,"connected_time":137000000000,"state":"active","ping":91},{"user_id":253,"name":"milk.","steam_id":76561198475060900,"connected_time":682000000000,"state":"active","ping":105},{"user_id":233,"name":"breakfast kitty","steam_id":76561199001918194,"connected_time":2228000000000,"state":"active","ping":87},{"user_id":241,"name":"Walmart Security","steam_id":76561198970357141,"connected_time":1928000000000,"state":"active","ping":86},{"user_id":238,"name":"stuffedidiot","steam_id":76561199181513019,"connected_time":2091000000000,"state":"active","ping":120},{"user_id":243,"name":"SAGE(‡§∏‡§ó‡•á*)","steam_id":76561198811114074,"connected_time":1376000000000,"state":"active","ping":49}]},{"server_id":108,"name":"Uncletopia | Dallas | 2 | All Maps","name_short":"dal-2","host":"dal-1.us.uncletopia.com","port":27025,"enabled":true,"region":"us-central","cc":"us","latitude":32.779167,"longitude":-96.80889,"reserved":0,"last_update":"0001-01-01T00:00:00Z","name_a2s":"Uncletopia | Dallas | 2 | All Maps","protocol":17,"map":"pl_borneo","folder":"tf","game":"Team Fortress","app_id":440,"player_count":1,"max_players":24,"Bots":0,"server_type":"Dedicated","server_os":"Linux","password":true,"vac":true,"version":"7961495","steam_id":85568392924469988,"keywords":["nocrits","nodmgspread","payload","uncletopia"],"game_id":440,"stv_port":27026,"stv_name":"Uncletopia | Dallas | 2 | All Maps | STV","players":[{"user_id":16,"name":"cris patt (real)","steam_id":76561199362872879,"connected_time":76000000000,"state":"active","ping":52}]},{"server_id":404,"name":"Uncletopia | Dallas | 3 | All Maps","name_short":"dal-3","host":"dal-1.us.uncletopia.com","port":27035,"enabled":true,"region":"us-central","cc":"us","latitude":32.779167,"longitude":-96.80889,"reserved":0,"last_update":"0001-01-01T00:00:00Z","name_a2s":"Uncletopia | Dallas | 3 | All Maps","protocol":17,"map":"pl_barnblitz","folder":"tf","game":"Team Fortress","app_id":440,"player_count":21,"max_players":24,"Bots":0,"server_type":"Dedicated","server_os":"Linux","password":true,"vac":true,"version":"7961495","steam_id":85568392924515219,"keywords":["nocrits","nodmgspread","payload","uncletopia"],"game_id":440,"stv_port":27036,"stv_name":"Uncletopia | Dallas | 3 | All Maps | STV","players":[{"user_id":258,"name":"Novu","steam_id":76561198886997024,"connected_time":2412000000000,"state":"active","ping":109},{"user_id":236,"name":"astrobob911","steam_id":76561199099110654,"connected_time":4259000000000,"state":"active","ping":97},{"user_id":292,"name":"jayham","steam_id":76561199076196126,"connected_time":123000000000,"state":"active","ping":49},{"user_id":260,"name":"[SAW] Lost Darkrai","steam_id":76561198021034873,"connected_time":2272000000000,"state":"active","ping":50},{"user_id":283,"name":"Neutral Kaiser","steam_id":76561198190200054,"connected_time":1228000000000,"state":"active","ping":49},{"user_id":298,"name":"JUMPYMONSTERRRR","steam_id":76561198173296047,"connected_time":22000000000,"state":"active","ping":87},{"user_id":265,"name":"ItsAChadKing","steam_id":76561199499464350,"connected_time":2009000000000,"state":"active","ping":78},{"user_id":288,"name":"Jovyel","steam_id":76561198118777065,"connected_time":821000000000,"state":"active","ping":45},{"user_id":294,"name":"ambatukam","steam_id":76561198981135699,"connected_time":84000000000,"state":"active","ping":84},{"user_id":259,"name":"Cerebral","steam_id":76561198408258313,"connected_time":2376000000000,"state":"active","ping":51},{"user_id":296,"name":"ugh","steam_id":76561198150803812,"connected_time":77000000000,"state":"active","ping":75},{"user_id":295,"name":"Portal2Player","steam_id":76561198062870114,"connected_time":79000000000,"state":"active","ping":88},{"user_id":271,"name":"LLLFarm2012","steam_id":76561199199786915,"connected_time":1640000000000,"state":"active","ping":79},{"user_id":239,"name":"SanitysEdge","steam_id":76561198130732813,"connected_time":4229000000000,"state":"active","ping":71},{"user_id":273,"name":"CheeseCake","steam_id":76561199095242138,"connected_time":1591000000000,"state":"active","ping":90},{"user_id":291,"name":"Freyja","steam_id":76561198207412177,"connected_time":370000000000,"state":"active","ping":61},{"user_id":276,"name":"del","steam_id":76561199497603020,"connected_time":1545000000000,"state":"active","ping":75},{"user_id":285,"name":"AFunkyPigeon","steam_id":76561199350099870,"connected_time":1205000000000,"state":"active","ping":76},{"user_id":278,"name":"Joe From Progressive","steam_id":76561198336597038,"connected_time":1500000000000,"state":"active","ping":61},{"user_id":256,"name":"Shyki","steam_id":76561199146984256,"connected_time":2496000000000,"state":"active","ping":76},{"user_id":280,"name":"tau0976","steam_id":76561199149015168,"connected_time":1449000000000,"state":"active","ping":97}]},{"server_id":405,"name":"Uncletopia | Dallas | 4 | Community","name_short":"dal-4","host":"dal-1.us.uncletopia.com","port":27045,"enabled":true,"region":"us-central","cc":"us","latitude":32.779167,"longitude":-96.80889,"reserved":0,"last_update":"0001-01-01T00:00:00Z","name_a2s":"Uncletopia | Dallas | 4 | Community","protocol":17,"map":"workshop/koth_synthetic_rc6a.ugc1549817316","folder":"tf","game":"Team Fortress","app_id":440,"player_count":0,"max_players":24,"Bots":0,"server_type":"Dedicated","server_os":"Linux","password":true,"vac":true,"version":"7961495","steam_id":85568392924515220,"keywords":["cp","nocrits","nodmgspread","uncletopia"],"game_id":440,"stv_port":27046,"stv_name":"Uncletopia | Dallas | 4 | Community | STV","players":null},{"server_id":5,"name":"Uncletopia | Frankfurt | 1 | All Maps","name_short":"frk-1","host":"frk-1.de.uncletopia.com","port":27015,"enabled":true,"region":"eu","cc":"de","latitude":50.110924,"longitude":8.682127,"reserved":0,"last_update":"0001-01-01T00:00:00Z","name_a2s":"Uncletopia | Frankfurt | 1 | All Maps","protocol":17,"map":"cp_mountainlab","folder":"tf","game":"Team Fortress","app_id":440,"player_count":24,"max_players":24,"Bots":0,"server_type":"Dedicated","server_os":"Linux","password":true,"vac":true,"version":"7961495","steam_id":85568392924469989,"keywords":["cp","nocrits","nodmgspread","uncletopia"],"game_id":440,"stv_port":27016,"stv_name":"Uncletopia | Frankfurt | 1 | All Maps | STV","players":[{"user_id":977,"name":"Groose","steam_id":76561198261094295,"connected_time":375000000000,"state":"active","ping":63},{"user_id":978,"name":"MaximusTheFish-H21","steam_id":76561199025652089,"connected_time":353000000000,"state":"active","ping":54},{"user_id":972,"name":"The Lady","steam_id":76561198029895809,"connected_time":406000000000,"state":"active","ping":76},{"user_id":897,"name":"Kildon","steam_id":76561198134661558,"connected_time":4001000000000,"state":"active","ping":90},{"user_id":961,"name":"Gen","steam_id":76561198021775885,"connected_time":1860000000000,"state":"active","ping":55},{"user_id":944,"name":"Wild_Xray26","steam_id":76561198059386050,"connected_time":2870000000000,"state":"active","ping":74},{"user_id":967,"name":"Waazard","steam_id":76561198383923159,"connected_time":1466000000000,"state":"active","ping":76},{"user_id":956,"name":"Arizona Ranger","steam_id":76561198982674420,"connected_time":1970000000000,"state":"active","ping":54},{"user_id":979,"name":"Hegyi tah√≥ F2P","steam_id":76561199219150356,"connected_time":349000000000,"state":"active","ping":78},{"user_id":962,"name":"goop","steam_id":76561198190073005,"connected_time":1852000000000,"state":"active","ping":54},{"user_id":982,"name":"Garrett0121","steam_id":76561198150273158,"connected_time":317000000000,"state":"active","ping":160},{"user_id":975,"name":"H√≥≈àa","steam_id":76561198096006081,"connected_time":387000000000,"state":"active","ping":51},{"user_id":965,"name":"xavier","steam_id":76561198076494034,"connected_time":1718000000000,"state":"active","ping":58},{"user_id":980,"name":"blickaroni and gun grease","steam_id":76561198074807915,"connected_time":339000000000,"state":"active","ping":58},{"user_id":969,"name":"pfaff","steam_id":76561199502583278,"connected_time":1429000000000,"state":"active","ping":55},{"user_id":986,"name":"Sup","steam_id":76561198959835348,"connected_time":55000000000,"state":"active","ping":69},{"user_id":973,"name":"max","steam_id":76561198039534890,"connected_time":404000000000,"state":"active","ping":58},{"user_id":960,"name":"D_Ink","steam_id":76561198267716662,"connected_time":1917000000000,"state":"active","ping":54},{"user_id":983,"name":"awesome gaming","steam_id":76561198119495513,"connected_time":301000000000,"state":"active","ping":50},{"user_id":910,"name":"Leviticus Cornwall","steam_id":76561197993702685,"connected_time":3724000000000,"state":"active","ping":72},{"user_id":968,"name":"Bloody","steam_id":76561198013249229,"connected_time":1460000000000,"state":"active","ping":53},{"user_id":951,"name":"Mati [EST]","steam_id":76561197994743813,"connected_time":2389000000000,"state":"active","ping":91},{"user_id":985,"name":"Haha?","steam_id":76561198056882245,"connected_time":196000000000,"state":"active","ping":46},{"user_id":952,"name":"realness","steam_id":76561199129226935,"connected_time":2321000000000,"state":"active","ping":97}]},{"server_id":110,"name":"Uncletopia | Frankfurt | 2 | All Maps","name_short":"frk-2","host":"frk-1.de.uncletopia.com","port":27025,"enabled":true,"region":"eu","cc":"de","latitude":50.110924,"longitude":8.682127,"reserved":0,"last_update":"0001-01-01T00:00:00Z","name_a2s":"Uncletopia | Frankfurt | 2 | All Maps","protocol":17,"map":"pl_pier","folder":"tf","game":"Team Fortress","app_id":440,"player_count":23,"max_players":24,"Bots":0,"server_type":"Dedicated","server_os":"Linux","password":true,"vac":true,"version":"7961495","steam_id":85568392924469990,"keywords":["nocrits","nodmgspread","payload","uncletopia"],"game_id":440,"stv_port":27026,"stv_name":"Uncletopia | Frankfurt | 2 | All Maps | STV","players":[{"user_id":634,"name":"CONAH","steam_id":76561198227685876,"connected_time":872000000000,"state":"active","ping":68},{"user_id":628,"name":"pingwinski","steam_id":76561199156218796,"connected_time":1455000000000,"state":"active","ping":70},{"user_id":620,"name":"Paci√πg remover","steam_id":76561198035928111,"connected_time":1609000000000,"state":"active","ping":68},{"user_id":609,"name":"lulu","steam_id":76561199147764133,"connected_time":2278000000000,"state":"active","ping":64},{"user_id":635,"name":"hawkblob","steam_id":76561198803720565,"connected_time":864000000000,"state":"active","ping":76},{"user_id":641,"name":"Bing Bop Boop","steam_id":76561198344190563,"connected_time":47000000000,"state":"spawning","ping":45},{"user_id":636,"name":"Hundehunde (137)","steam_id":76561198028683991,"connected_time":818000000000,"state":"active","ping":50},{"user_id":576,"name":"Monkey","steam_id":76561198048385029,"connected_time":4442000000000,"state":"active","ping":56},{"user_id":582,"name":"ashley","steam_id":76561198448551449,"connected_time":4164000000000,"state":"active","ping":43},{"user_id":606,"name":"‚òÖpoyo‚òÖ","steam_id":76561198150078959,"connected_time":2545000000000,"state":"active","ping":79},{"user_id":583,"name":"_Shkoot","steam_id":76561198318170398,"connected_time":4156000000000,"state":"active","ping":47},{"user_id":637,"name":"Desnot","steam_id":76561198862581894,"connected_time":806000000000,"state":"active","ping":75},{"user_id":585,"name":"Key Lyor Selph","steam_id":76561198256704286,"connected_time":4124000000000,"state":"active","ping":66},{"user_id":631,"name":"OPEL","steam_id":76561199191390558,"connected_time":1289000000000,"state":"active","ping":83},{"user_id":638,"name":"rockBustaz","steam_id":76561198088290698,"connected_time":803000000000,"state":"active","ping":56},{"user_id":618,"name":"Steve Jobs","steam_id":76561198119489795,"connected_time":1674000000000,"state":"active","ping":60},{"user_id":633,"name":"Skepingawich","steam_id":76561198038736553,"connected_time":1222000000000,"state":"active","ping":61},{"user_id":601,"name":"giogg155","steam_id":76561198963892339,"connected_time":3066000000000,"state":"active","ping":96},{"user_id":640,"name":"Charles Darwin","steam_id":76561197973496139,"connected_time":343000000000,"state":"active","ping":73},{"user_id":639,"name":"slogar","steam_id":76561198046191991,"connected_time":800000000000,"state":"active","ping":49},{"user_id":632,"name":"Jeƒçmen","steam_id":76561198051617968,"connected_time":1282000000000,"state":"active","ping":58},{"user_id":626,"name":"Pelvis Elsey","steam_id":76561198134378108,"connected_time":1537000000000,"state":"active","ping":73}]},{"server_id":308,"name":"Uncletopia | Frankfurt | 3 | All Maps","name_short":"frk-3","host":"frk-1.de.uncletopia.com","port":27035,"enabled":true,"region":"eu","cc":"de","latitude":50.110924,"longitude":8.682127,"reserved":0,"last_update":"0001-01-01T00:00:00Z","name_a2s":"Uncletopia | Frankfurt | 3 | All Maps","protocol":17,"map":"koth_harvest_final","folder":"tf","game":"Team Fortress","app_id":440,"player_count":17,"max_players":24,"Bots":0,"server_type":"Dedicated","server_os":"Linux","password":true,"vac":true,"version":"7961495","steam_id":85568392924504274,"keywords":["cp","nocrits","nodmgspread","uncletopia"],"game_id":440,"stv_port":27036,"stv_name":"Uncletopia | Frankfurt | 3 | All Maps | STV","players":[{"user_id":524,"name":"Aftiks","steam_id":76561198875182686,"connected_time":304000000000,"state":"active","ping":85},{"user_id":521,"name":"J√°cint","steam_id":76561198118501005,"connected_time":443000000000,"state":"active","ping":52},{"user_id":525,"name":"MeBandae","steam_id":76561198910770432,"connected_time":243000000000,"state":"active","ping":71},{"user_id":534,"name":"goku „Éî„ÉÉ„Éó„Éª„Éö„Çø„É´","steam_id":76561198147668373,"connected_time":19000000000,"state":"spawning","ping":65},{"user_id":425,"name":"Sch","steam_id":76561198071341689,"connected_time":4739000000000,"state":"active","ping":54},{"user_id":526,"name":"Rocket¬≤","steam_id":76561198305856721,"connected_time":229000000000,"state":"active","ping":60},{"user_id":527,"name":"Na'vi Misato (by popular demand","steam_id":76561198130860698,"connected_time":225000000000,"state":"active","ping":66},{"user_id":535,"name":"Tispy","steam_id":76561199207410049,"connected_time":8000000000,"state":"spawning","ping":92},{"user_id":519,"name":"Max, Mighty Pirate‚Ñ¢","steam_id":76561198077677744,"connected_time":572000000000,"state":"active","ping":30},{"user_id":530,"name":"mario","steam_id":76561198443632133,"connected_time":149000000000,"state":"active","ping":120},{"user_id":531,"name":"Water","steam_id":76561198154851729,"connected_time":105000000000,"state":"active","ping":71},{"user_id":487,"name":"the grongle","steam_id":76561198989398023,"connected_time":1825000000000,"state":"active","ping":102},{"user_id":532,"name":"Kysh","steam_id":76561198307287379,"connected_time":103000000000,"state":"active","ping":59},{"user_id":533,"name":"Macro","steam_id":76561199442846226,"connected_time":76000000000,"state":"active","ping":170},{"user_id":465,"name":"ant753","steam_id":76561198103458889,"connected_time":2660000000000,"state":"active","ping":61},{"user_id":382,"name":"breadbear \u003c3","steam_id":76561198036895007,"connected_time":7751000000000,"state":"active","ping":77},{"user_id":496,"name":"Prox","steam_id":76561198351490981,"connected_time":1629000000000,"state":"active","ping":44}]},{"server_id":309,"name":"Uncletopia | Frankfurt | 4 | All Maps","name_short":"frk-4","host":"frk-1.de.uncletopia.com","port":27045,"enabled":true,"region":"eu","cc":"de","latitude":50.110924,"longitude":8.682127,"reserved":0,"last_update":"0001-01-01T00:00:00Z","name_a2s":"Uncletopia | Frankfurt | 4 | All Maps","protocol":17,"map":"cp_standin_final","folder":"tf","game":"Team Fortress","app_id":440,"player_count":0,"max_players":24,"Bots":0,"server_type":"Dedicated","server_os":"Linux","password":true,"vac":true,"version":"7961495","steam_id":85568392924504275,"keywords":["cp","nocrits","nodmgspread","uncletopia"],"game_id":440,"stv_port":27046,"stv_name":"Uncletopia | Frankfurt | 4 | All Maps | STV","players":null},{"server_id":310,"name":"Uncletopia | Frankfurt | 5 | All Maps","name_short":"frk-5","host":"frk-1.de.uncletopia.com","port":27055,"enabled":true,"region":"eu","cc":"de","latitude":50.110924,"longitude":8.682127,"reserved":0,"last_update":"0001-01-01T00:00:00Z","name_a2s":"Uncletopia | Frankfurt | 5 | All Maps","protocol":17,"map":"cp_process_final","folder":"tf","game":"Team Fortress","app_id":440,"player_count":24,"max_players":24,"Bots":0,"server_type":"Dedicated","server_os":"Linux","password":true,"vac":true,"version":"7961495","steam_id":85568392924504277,"keywords":["cp","nocrits","nodmgspread","uncletopia"],"game_id":440,"stv_port":27056,"stv_name":"Uncletopia | Frankfurt | 5 | All Maps | STV","players":[{"user_id":552,"name":"Chucky.","steam_id":76561197969361063,"connected_time":1703000000000,"state":"active","ping":90},{"user_id":553,"name":"Eric Catman","steam_id":76561198802117294,"connected_time":1686000000000,"state":"active","ping":70},{"user_id":554,"name":"Cardamine","steam_id":76561198100619314,"connected_time":1671000000000,"state":"active","ping":73},{"user_id":558,"name":"Bobirulez","steam_id":76561198009125458,"connected_time":1454000000000,"state":"active","ping":69},{"user_id":534,"name":"R A S M U S","steam_id":76561198279799226,"connected_time":3139000000000,"state":"active","ping":74},{"user_id":572,"name":"Umbro","steam_id":76561198087930438,"connected_time":2000000000,"state":"spawning","ping":65},{"user_id":538,"name":"RoastedPotato","steam_id":76561199031811033,"connected_time":2738000000000,"state":"active","ping":60},{"user_id":563,"name":"Loby","steam_id":76561198168361056,"connected_time":1239000000000,"state":"active","ping":89},{"user_id":523,"name":"doomer","steam_id":76561198977420882,"connected_time":3545000000000,"state":"active","ping":50},{"user_id":568,"name":"simeswipe","steam_id":76561198188471097,"connected_time":835000000000,"state":"active","ping":60},{"user_id":508,"name":"igvanhoute","steam_id":76561199509386378,"connected_time":4784000000000,"state":"active","ping":59},{"user_id":569,"name":"Magnock","steam_id":76561198035839745,"connected_time":834000000000,"state":"active","ping":51},{"user_id":564,"name":"sussy baka","steam_id":76561198368758532,"connected_time":1184000000000,"state":"active","ping":88},{"user_id":481,"name":"Supercoxylac","steam_id":76561198376300138,"connected_time":6903000000000,"state":"active","ping":54},{"user_id":530,"name":"MISTER SIUUU","steam_id":76561198018330092,"connected_time":3189000000000,"state":"active","ping":60},{"user_id":490,"name":"jeff","steam_id":76561198272815746,"connected_time":6179000000000,"state":"active","ping":52},{"user_id":555,"name":"Nithle","steam_id":76561198025372740,"connected_time":1655000000000,"state":"active","ping":45},{"user_id":545,"name":"Mr.Shpee","steam_id":76561198158701474,"connected_time":2383000000000,"state":"active","ping":81},{"user_id":567,"name":"TidB","steam_id":76561198055342304,"connected_time":919000000000,"state":"active","ping":45},{"user_id":561,"name":"‚ìÖ‚ìÅ‚ìà | Pink Panther","steam_id":76561198046434381,"connected_time":1278000000000,"state":"active","ping":55},{"user_id":571,"name":"mespe","steam_id":76561198121530649,"connected_time":683000000000,"state":"active","ping":61},{"user_id":535,"name":"Udinese Dion","steam_id":76561198067931573,"connected_time":3020000000000,"state":"active","ping":63},{"user_id":557,"name":"KLAMA  ‚ù§","steam_id":76561198351549661,"connected_time":1500000000000,"state":"active","ping":61},{"user_id":566,"name":"Sabour","steam_id":76561197963965445,"connected_time":1130000000000,"state":"active","ping":50}]},{"server_id":311,"name":"Uncletopia | Frankfurt | 6 | All Maps","name_short":"frk-6","host":"frk-1.de.uncletopia.com","port":27065,"enabled":true,"region":"eu","cc":"de","latitude":50.110924,"longitude":8.682127,"reserved":0,"last_update":"0001-01-01T00:00:00Z","name_a2s":"Uncletopia | Frankfurt | 6 | All Maps","protocol":17,"map":"pl_badwater","folder":"tf","game":"Team Fortress","app_id":440,"player_count":24,"max_players":24,"Bots":0,"server_type":"Dedicated","server_os":"Linux","password":true,"vac":true,"version":"7961495","steam_id":85568392924504278,"keywords":["nocrits","nodmgspread","payload","uncletopia"],"game_id":440,"stv_port":27066,"stv_name":"Uncletopia | Frankfurt | 6 | All Maps | STV","players":[{"user_id":426,"name":"DEFENDOR62","steam_id":76561199386703896,"connected_time":2512000000000,"state":"active","ping":51},{"user_id":457,"name":"Qbe","steam_id":76561198009654837,"connected_time":217000000000,"state":"active","ping":83},{"user_id":356,"name":"Estamie","steam_id":76561198058527691,"connected_time":7485000000000,"state":"active","ping":64},{"user_id":439,"name":"Bmo","steam_id":76561198158818775,"connected_time":1497000000000,"state":"active","ping":58},{"user_id":458,"name":"Googlemaps","steam_id":76561198098135409,"connected_time":173000000000,"state":"active","ping":50},{"user_id":452,"name":"taffer","steam_id":76561199480942903,"connected_time":987000000000,"state":"active","ping":61},{"user_id":459,"name":"LJ","steam_id":76561198026723805,"connected_time":134000000000,"state":"active","ping":74},{"user_id":422,"name":"√áodar","steam_id":76561198235518444,"connected_time":3451000000000,"state":"active","ping":50},{"user_id":442,"name":"shr1mple","steam_id":76561198173537027,"connected_time":1079000000000,"state":"active","ping":45},{"user_id":435,"name":"DoctorDrew","steam_id":76561197962400538,"connected_time":2128000000000,"state":"active","ping":148},{"user_id":450,"name":"paguro","steam_id":76561198119560871,"connected_time":1004000000000,"state":"active","ping":64},{"user_id":453,"name":"Bonedrip","steam_id":76561198082502910,"connected_time":980000000000,"state":"active","ping":50},{"user_id":447,"name":"Hann√º","steam_id":76561197969886128,"connected_time":1051000000000,"state":"active","ping":51},{"user_id":438,"name":"swagmeester","steam_id":76561198045828392,"connected_time":1920000000000,"state":"active","ping":60},{"user_id":400,"name":"Stoneley","steam_id":76561199182443625,"connected_time":5251000000000,"state":"active","ping":56},{"user_id":419,"name":"randem_","steam_id":76561198338793755,"connected_time":4088000000000,"state":"active","ping":57},{"user_id":433,"name":"Dr Bondus Bolongus Dongus","steam_id":76561198378657692,"connected_time":2337000000000,"state":"active","ping":57},{"user_id":368,"name":"LadyMissfit","steam_id":76561198042236349,"connected_time":7288000000000,"state":"active","ping":65},{"user_id":441,"name":"Lauchboiz | Bannic","steam_id":76561198060362129,"connected_time":1336000000000,"state":"active","ping":45},{"user_id":446,"name":"Saucisse","steam_id":76561198119955969,"connected_time":1051000000000,"state":"active","ping":47},{"user_id":432,"name":"minx","steam_id":76561198075551260,"connected_time":2366000000000,"state":"active","ping":92},{"user_id":423,"name":"Gugu gaga","steam_id":76561198161822358,"connected_time":3443000000000,"state":"active","ping":65},{"user_id":448,"name":"themythtruth","steam_id":76561199484810745,"connected_time":1050000000000,"state":"active","ping":152},{"user_id":456,"name":"‚úö–ß—ã–∂‚úö","steam_id":76561198273074492,"connected_time":924000000000,"state":"active","ping":92}]},{"server_id":23,"name":"Uncletopia | Frankfurt | 7 | Stopwatch","name_short":"frk-7","host":"frk-1.de.uncletopia.com","port":27075,"enabled":true,"region":"eu","cc":"de","latitude":50.110924,"longitude":8.682127,"reserved":0,"last_update":"0001-01-01T00:00:00Z","name_a2s":"Uncletopia | Frankfurt | 7 | Stopwatch","protocol":17,"map":"workshop/koth_product_final.ugc454272353","folder":"tf","game":"Team Fortress","app_id":440,"player_count":1,"max_players":24,"Bots":0,"server_type":"Dedicated","server_os":"Linux","password":true,"vac":true,"version":"7961495","steam_id":85568392924742827,"keywords":["cp","nocrits","nodmgspread","uncletopia"],"game_id":440,"stv_port":27076,"stv_name":"Uncletopia | Frankfurt | 7 | Stopwatch | STV","players":[{"user_id":20,"name":"Domosed","steam_id":76561198929234687,"connected_time":471000000000,"state":"active","ping":82}]},{"server_id":24,"name":"Uncletopia | Frankfurt | 8 | Community","name_short":"frk-8","host":"frk-1.de.uncletopia.com","port":27085,"enabled":true,"region":"eu","cc":"de","latitude":50.110924,"longitude":8.682127,"reserved":0,"last_update":"0001-01-01T00:00:00Z","name_a2s":"Uncletopia | Frankfurt | 8 | Community","protocol":17,"map":"workshop/rd_asteroid_redux_b1.ugc2154902912","folder":"tf","game":"Team Fortress","app_id":440,"player_count":0,"max_players":24,"Bots":0,"server_type":"Dedicated","server_os":"Linux","password":true,"vac":true,"version":"7961495","steam_id":85568392924742828,"keywords":["beta","nocrits","nodmgspread","rd","uncletopia"],"game_id":440,"stv_port":27086,"stv_name":"Uncletopia | Frankfurt | 8 | Community | STV","players":null},{"server_id":202,"name":"Uncletopia | Hong Kong | 1 | All Maps","name_short":"hgk-1","host":"hgk-1.hk.uncletopia.com","port":27015,"enabled":true,"region":"asia","cc":"hk","latitude":22.302711,"longitude":114.177216,"reserved":0,"last_update":"0001-01-01T00:00:00Z","name_a2s":"Uncletopia | Hong Kong | 1 | All Maps","protocol":17,"map":"koth_cascade","folder":"tf","game":"Team Fortress","app_id":440,"player_count":0,"max_players":24,"Bots":0,"server_type":"Dedicated","server_os":"Linux","password":true,"vac":true,"version":"7961495","steam_id":85568392924494504,"keywords":["cp","nocrits","nodmgspread","uncletopia"],"game_id":440,"stv_port":27016,"stv_name":"Uncletopia | Hong Kong | 1 | All Maps | STV","players":null},{"server_id":1,"name":"Uncletopia | Los Angeles | 1 | All Maps","name_short":"lax-1","host":"lax-1.us.uncletopia.com","port":27015,"enabled":true,"region":"us-west","cc":"us","latitude":33.94279,"longitude":-118.41004,"reserved":0,"last_update":"0001-01-01T00:00:00Z","name_a2s":"Uncletopia | Los Angeles | 1 | All Maps","protocol":17,"map":"pl_upward","folder":"tf","game":"Team Fortress","app_id":440,"player_count":0,"max_players":24,"Bots":0,"server_type":"Dedicated","server_os":"Linux","password":true,"vac":true,"version":"7961495","steam_id":85568392924469991,"keywords":["nocrits","nodmgspread","payload","uncletopia"],"game_id":440,"stv_port":27016,"stv_name":"Uncletopia | Los Angeles | 1 | All Maps | STV","players":null},{"server_id":112,"name":"Uncletopia | Los Angeles | 2 | All Maps","name_short":"lax-2","host":"lax-1.us.uncletopia.com","port":27025,"enabled":true,"region":"us-west","cc":"us","latitude":33.94279,"longitude":-118.41004,"reserved":0,"last_update":"0001-01-01T00:00:00Z","name_a2s":"Uncletopia | Los Angeles | 2 | All Maps","protocol":17,"map":"pl_pier","folder":"tf","game":"Team Fortress","app_id":440,"player_count":24,"max_players":24,"Bots":0,"server_type":"Dedicated","server_os":"Linux","password":true,"vac":true,"version":"7961495","steam_id":85568392924469992,"keywords":["nocrits","nodmgspread","payload","uncletopia"],"game_id":440,"stv_port":27026,"stv_name":"Uncletopia | Los Angeles | 2 | All Maps | STV","players":[{"user_id":108,"name":"edgebug b-roll","steam_id":76561198043558709,"connected_time":521000000000,"state":"active","ping":76},{"user_id":112,"name":"El Duderino","steam_id":76561198084404539,"connected_time":258000000000,"state":"active","ping":117},{"user_id":114,"name":"Magik","steam_id":76561198099726660,"connected_time":230000000000,"state":"active","ping":68},{"user_id":77,"name":"Goofball","steam_id":76561198443776706,"connected_time":1907000000000,"state":"active","ping":61},{"user_id":92,"name":"wrist game dumbin","steam_id":76561198247984828,"connected_time":1488000000000,"state":"active","ping":54},{"user_id":115,"name":"Clagger","steam_id":76561198066701092,"connected_time":196000000000,"state":"active","ping":70},{"user_id":101,"name":"Nate","steam_id":76561198045186954,"connected_time":985000000000,"state":"active","ping":54},{"user_id":104,"name":"The Demoman from Team Fortress ","steam_id":76561199031241776,"connected_time":757000000000,"state":"active","ping":84},{"user_id":79,"name":"elephant thumb","steam_id":76561198118859752,"connected_time":1759000000000,"state":"active","ping":46},{"user_id":116,"name":"CravenMaple","steam_id":76561198171278534,"connected_time":182000000000,"state":"active","ping":65},{"user_id":107,"name":"werg","steam_id":76561198335242836,"connected_time":561000000000,"state":"active","ping":87},{"user_id":80,"name":"Hakuyer","steam_id":76561198098618247,"connected_time":1707000000000,"state":"active","ping":67},{"user_id":64,"name":"X0X2","steam_id":76561198418503762,"connected_time":2993000000000,"state":"active","ping":142},{"user_id":103,"name":"HumbDoe","steam_id":76561198065556553,"connected_time":789000000000,"state":"active","ping":47},{"user_id":82,"name":"Dom","steam_id":76561198103550291,"connected_time":1701000000000,"state":"active","ping":71},{"user_id":66,"name":"WhoWee!","steam_id":76561198269471732,"connected_time":2827000000000,"state":"active","ping":79},{"user_id":83,"name":"orangePulp","steam_id":76561198038373636,"connected_time":1684000000000,"state":"active","ping":53},{"user_id":84,"name":"Canned Lobster","steam_id":76561198110847328,"connected_time":1673000000000,"state":"active","ping":58},{"user_id":95,"name":"Insomniac","steam_id":76561199180653046,"connected_time":1285000000000,"state":"active","ping":171},{"user_id":111,"name":"Firedust19","steam_id":76561198153238631,"connected_time":315000000000,"state":"active","ping":63},{"user_id":88,"name":"Silverman_Cam","steam_id":76561198936168937,"connected_time":1595000000000,"state":"active","ping":60},{"user_id":89,"name":"Noire","steam_id":76561198149370109,"connected_time":1584000000000,"state":"active","ping":60},{"user_id":90,"name":"the pizza he-man","steam_id":76561199166474769,"connected_time":1574000000000,"state":"active","ping":63},{"user_id":94,"name":"goon refinery","steam_id":76561198166781089,"connected_time":1409000000000,"state":"active","ping":80}]},{"server_id":324,"name":"Uncletopia | Los Angeles | 3 | All Maps","name_short":"lax-3","host":"lax-1.us.uncletopia.com","port":27035,"enabled":true,"region":"us-west","cc":"us","latitude":33.94279,"longitude":-118.41004,"reserved":0,"last_update":"0001-01-01T00:00:00Z","name_a2s":"Uncletopia | Los Angeles | 3 | All Maps","protocol":17,"map":"pl_hoodoo_final","folder":"tf","game":"Team Fortress","app_id":440,"player_count":0,"max_players":24,"Bots":0,"server_type":"Dedicated","server_os":"Linux","password":true,"vac":true,"version":"7961495","steam_id":85568392924510198,"keywords":["nocrits","nodmgspread","payload","uncletopia"],"game_id":440,"stv_port":27036,"stv_name":"Uncletopia | Los Angeles | 3 | All Maps | STV","players":null},{"server_id":25,"name":"Uncletopia | Los Angeles | 4 | Stopwatch","name_short":"lax-4","host":"lax-1.us.uncletopia.com","port":27045,"enabled":true,"region":"us-west","cc":"us","latitude":33.94279,"longitude":-118.41004,"reserved":0,"last_update":"0001-01-01T00:00:00Z","name_a2s":"Uncletopia | Los Angeles | 4 | Stopwatch","protocol":17,"map":"pl_upward","folder":"tf","game":"Team Fortress","app_id":440,"player_count":0,"max_players":24,"Bots":0,"server_type":"Dedicated","server_os":"Linux","password":true,"vac":true,"version":"7961495","steam_id":85568392924510199,"keywords":["nocrits","nodmgspread","payload","uncletopia"],"game_id":440,"stv_port":27046,"stv_name":"Uncletopia | Los Angeles | 4 | Stopwatch | STV","players":null},{"server_id":11,"name":"Uncletopia | London | 1 | All Maps","name_short":"lon-1","host":"lon-1.uk.uncletopia.com","port":27015,"enabled":true,"region":"eu","cc":"gb","latitude":51.509865,"longitude":-0.118092,"reserved":0,"last_update":"0001-01-01T00:00:00Z","name_a2s":"Uncletopia | London | 1 | All Maps","protocol":17,"map":"pl_swiftwater_final1","folder":"tf","game":"Team Fortress","app_id":440,"player_count":23,"max_players":24,"Bots":0,"server_type":"Dedicated","server_os":"Linux","password":true,"vac":true,"version":"7961495","steam_id":85568392924367362,"keywords":["nocrits","nodmgspread","payload","uncletopia"],"game_id":440,"stv_port":27016,"stv_name":"Uncletopia | London | 1 | All Maps | STV","players":[{"user_id":701,"name":"ber.","steam_id":76561197993892057,"connected_time":2436000000000,"state":"active","ping":100},{"user_id":718,"name":"Leon S. Kennedy (B4DA$$)","steam_id":76561198168207306,"connected_time":910000000000,"state":"active","ping":89},{"user_id":726,"name":"anaphylaxis","steam_id":76561198097396447,"connected_time":171000000000,"state":"active","ping":60},{"user_id":694,"name":"Laru","steam_id":76561197998838438,"connected_time":3120000000000,"state":"active","ping":89},{"user_id":711,"name":"Speed-Dial","steam_id":76561198012428315,"connected_time":1466000000000,"state":"active","ping":44},{"user_id":636,"name":"‚ô° Birdy ‚ô°","steam_id":76561198139632682,"connected_time":6219000000000,"state":"active","ping":90},{"user_id":712,"name":"Silverbolt","steam_id":76561198153165763,"connected_time":1398000000000,"state":"active","ping":53},{"user_id":602,"name":"whimsy.","steam_id":76561198878171763,"connected_time":7362000000000,"state":"active","ping":50},{"user_id":637,"name":"‚∏∏aura‚∏∏","steam_id":76561198066258544,"connected_time":6218000000000,"state":"active","ping":62},{"user_id":686,"name":"Healix","steam_id":76561198130270161,"connected_time":4090000000000,"state":"active","ping":59},{"user_id":722,"name":"alternative","steam_id":76561199089684702,"connected_time":390000000000,"state":"active","ping":56},{"user_id":713,"name":"Spike","steam_id":76561197994537515,"connected_time":1154000000000,"state":"active","ping":59},{"user_id":629,"name":"Lyra","steam_id":76561198043601838,"connected_time":6231000000000,"state":"active","ping":61},{"user_id":727,"name":"Czechmated","steam_id":76561198075648001,"connected_time":141000000000,"state":"active","ping":57},{"user_id":724,"name":"Aaron","steam_id":76561197990046953,"connected_time":203000000000,"state":"active","ping":59},{"user_id":687,"name":"itransition UKRAINE","steam_id":76561198080912087,"connected_time":4057000000000,"state":"active","ping":61},{"user_id":695,"name":"Kahvi","steam_id":76561198723244199,"connected_time":3120000000000,"state":"active","ping":85},{"user_id":725,"name":"impossible whopper eater","steam_id":76561198058641805,"connected_time":200000000000,"state":"active","ping":47},{"user_id":702,"name":"Bonca","steam_id":76561198137503531,"connected_time":2315000000000,"state":"active","ping":67},{"user_id":719,"name":"Christmas Ham","steam_id":76561198119601623,"connected_time":805000000000,"state":"active","ping":54},{"user_id":729,"name":"stepbro","steam_id":76561198119607160,"connected_time":70000000000,"state":"active","ping":72},{"user_id":728,"name":"New York Rat","steam_id":76561198436817109,"connected_time":119000000000,"state":"active","ping":58},{"user_id":575,"name":"rigel_","steam_id":76561198148640847,"connected_time":9626000000000,"state":"active","ping":75}]},{"server_id":114,"name":"Uncletopia | London | 2 | All Maps","name_short":"lon-2","host":"lon-1.uk.uncletopia.com","port":27025,"enabled":true,"region":"eu","cc":"gb","latitude":51.509865,"longitude":-0.118092,"reserved":0,"last_update":"0001-01-01T00:00:00Z","name_a2s":"Uncletopia | London | 2 | All Maps","protocol":17,"map":"pl_barnblitz","folder":"tf","game":"Team Fortress","app_id":440,"player_count":19,"max_players":24,"Bots":0,"server_type":"Dedicated","server_os":"Linux","password":true,"vac":true,"version":"7961495","steam_id":85568392924470941,"keywords":["nocrits","nodmgspread","payload","uncletopia"],"game_id":440,"stv_port":27026,"stv_name":"Uncletopia | London | 2 | All Maps | STV","players":[{"user_id":230,"name":"hoe","steam_id":76561198078902326,"connected_time":361000000000,"state":"active","ping":45},{"user_id":225,"name":"Mouseyy","steam_id":76561198206840840,"connected_time":825000000000,"state":"active","ping":50},{"user_id":180,"name":"Bopper","steam_id":76561198171409190,"connected_time":2322000000000,"state":"active","ping":67},{"user_id":235,"name":"fichey S","steam_id":76561198035380064,"connected_time":21000000000,"state":"active","ping":51},{"user_id":233,"name":":|","steam_id":76561198145232617,"connected_time":37000000000,"state":"active","ping":40},{"user_id":185,"name":"mr.resetti","steam_id":76561198974520642,"connected_time":2154000000000,"state":"active","ping":63},{"user_id":171,"name":"choob303","steam_id":76561198206375860,"connected_time":2975000000000,"state":"active","ping":45},{"user_id":101,"name":"exo","steam_id":76561197961154694,"connected_time":8779000000000,"state":"active","ping":40},{"user_id":172,"name":"888888888","steam_id":76561198163081194,"connected_time":2952000000000,"state":"active","ping":45},{"user_id":217,"name":"begging for frags","steam_id":76561198044210844,"connected_time":1062000000000,"state":"spawning","ping":63},{"user_id":167,"name":"flamingosaurus","steam_id":76561198051455397,"connected_time":3197000000000,"state":"active","ping":42},{"user_id":162,"name":"‚ù§ [HoneyBe_] ‚ù§","steam_id":76561198288930154,"connected_time":3361000000000,"state":"active","ping":56},{"user_id":234,"name":"Ethee05","steam_id":76561198221013980,"connected_time":33000000000,"state":"active","ping":45},{"user_id":226,"name":"Crisps","steam_id":76561198088973774,"connected_time":778000000000,"state":"spawning","ping":71},{"user_id":229,"name":"zak","steam_id":76561197998895428,"connected_time":432000000000,"state":"active","ping":67},{"user_id":224,"name":"Asmodeus","steam_id":76561198283156425,"connected_time":852000000000,"state":"active","ping":81},{"user_id":210,"name":"Sang","steam_id":76561198008510868,"connected_time":1208000000000,"state":"active","ping":65},{"user_id":232,"name":"60hz laptop","steam_id":76561198111229919,"connected_time":56000000000,"state":"active","ping":69},{"user_id":199,"name":"wano","steam_id":76561198127657906,"connected_time":1435000000000,"state":"active","ping":48}]},{"server_id":320,"name":"Uncletopia | London | 3 | All Maps","name_short":"lon-3","host":"lon-1.uk.uncletopia.com","port":27035,"enabled":true,"region":"eu","cc":"gb","latitude":51.509865,"longitude":-0.118092,"reserved":0,"last_update":"0001-01-01T00:00:00Z","name_a2s":"Uncletopia | London | 3 | All Maps","protocol":17,"map":"pl_upward","folder":"tf","game":"Team Fortress","app_id":440,"player_count":24,"max_players":24,"Bots":0,"server_type":"Dedicated","server_os":"Linux","password":true,"vac":true,"version":"7961495","steam_id":85568392924510192,"keywords":["nocrits","nodmgspread","payload","uncletopia"],"game_id":440,"stv_port":27036,"stv_name":"Uncletopia | London | 3 | All Maps | STV","players":[{"user_id":472,"name":"cazador","steam_id":76561198123096922,"connected_time":641000000000,"state":"active","ping":92},{"user_id":422,"name":"Blar","steam_id":76561198042438229,"connected_time":3320000000000,"state":"active","ping":44},{"user_id":420,"name":"DankDuck","steam_id":76561198160086418,"connected_time":3335000000000,"state":"active","ping":97},{"user_id":458,"name":"niandits","steam_id":76561198419798900,"connected_time":1546000000000,"state":"active","ping":108},{"user_id":469,"name":"√áanak yalayƒ±cƒ±","steam_id":76561198113677852,"connected_time":1198000000000,"state":"active","ping":90},{"user_id":467,"name":"sam_","steam_id":76561198814734120,"connected_time":1248000000000,"state":"active","ping":106},{"user_id":423,"name":"Henry","steam_id":76561198108018305,"connected_time":3309000000000,"state":"active","ping":88},{"user_id":464,"name":"Ryan Gosling (Literally me)","steam_id":76561198438150893,"connected_time":1329000000000,"state":"active","ping":104},{"user_id":448,"name":"Monke","steam_id":76561198138073646,"connected_time":1763000000000,"state":"active","ping":31},{"user_id":453,"name":"JicK","steam_id":76561198150094539,"connected_time":1651000000000,"state":"active","ping":31},{"user_id":474,"name":"[Sheep] Tomco","steam_id":76561198388549261,"connected_time":588000000000,"state":"active","ping":48},{"user_id":473,"name":"gosi","steam_id":76561198084111532,"connected_time":626000000000,"state":"active","ping":73},{"user_id":438,"name":"the quotient rule","steam_id":76561198188642265,"connected_time":2597000000000,"state":"active","ping":50},{"user_id":439,"name":"Kaza","steam_id":76561198033509686,"connected_time":2569000000000,"state":"active","ping":45},{"user_id":410,"name":"I.C. Wiener","steam_id":76561197999912254,"connected_time":4230000000000,"state":"active","ping":77},{"user_id":466,"name":"Bzd","steam_id":76561198204521956,"connected_time":1283000000000,"state":"active","ping":77},{"user_id":479,"name":"Pedro‚ú†","steam_id":76561198138531974,"connected_time":281000000000,"state":"active","ping":90},{"user_id":426,"name":"Liza–Ødl–ß","steam_id":76561198176750238,"connected_time":3249000000000,"state":"active","ping":71},{"user_id":454,"name":"Sun Man","steam_id":76561198080247208,"connected_time":1649000000000,"state":"active","ping":38},{"user_id":471,"name":"LiterallyRyanGosling","steam_id":76561199017856691,"connected_time":963000000000,"state":"active","ping":49},{"user_id":478,"name":"CptAlex","steam_id":76561198059722457,"connected_time":353000000000,"state":"active","ping":60},{"user_id":455,"name":"gitlitwitit","steam_id":76561197980019054,"connected_time":1642000000000,"state":"active","ping":70},{"user_id":476,"name":"Cencut","steam_id":76561198989449047,"connected_time":545000000000,"state":"active","ping":126},{"user_id":477,"name":"Hildreth","steam_id":76561197995254867,"connected_time":535000000000,"state":"active","ping":56}]},{"server_id":321,"name":"Uncletopia | London | 4 | All Maps","name_short":"lon-4","host":"lon-1.uk.uncletopia.com","port":27045,"enabled":true,"region":"eu","cc":"gb","latitude":51.509865,"longitude":-0.118092,"reserved":0,"last_update":"0001-01-01T00:00:00Z","name_a2s":"Uncletopia | London | 4 | All Maps","protocol":17,"map":"cp_dustbowl","folder":"tf","game":"Team Fortress","app_id":440,"player_count":24,"max_players":24,"Bots":0,"server_type":"Dedicated","server_os":"Linux","password":true,"vac":true,"version":"7961495","steam_id":85568392924510193,"keywords":["cp","nocrits","nodmgspread","uncletopia"],"game_id":440,"stv_port":27046,"stv_name":"Uncletopia | London | 4 | All Maps | STV","players":[{"user_id":458,"name":"Bobo","steam_id":76561198052308399,"connected_time":974000000000,"state":"active","ping":52},{"user_id":418,"name":"yush","steam_id":76561198121688934,"connected_time":3501000000000,"state":"active","ping":86},{"user_id":406,"name":"Random Bagel","steam_id":76561198047213821,"connected_time":4221000000000,"state":"active","ping":69},{"user_id":457,"name":"Skatnaset","steam_id":76561198298457353,"connected_time":986000000000,"state":"active","ping":60},{"user_id":442,"name":"StormyRice","steam_id":76561198129971386,"connected_time":1301000000000,"state":"active","ping":42},{"user_id":429,"name":"lillunya ‚ô°","steam_id":76561198330418866,"connected_time":2424000000000,"state":"active","ping":59},{"user_id":478,"name":"dog?","steam_id":76561199232839385,"connected_time":164000000000,"state":"active","ping":95},{"user_id":459,"name":"A Table","steam_id":76561198056456470,"connected_time":972000000000,"state":"active","ping":63},{"user_id":474,"name":"big bug buttz","steam_id":76561198115106008,"connected_time":579000000000,"state":"active","ping":62},{"user_id":462,"name":"pierogi","steam_id":76561198718760200,"connected_time":931000000000,"state":"active","ping":46},{"user_id":450,"name":"HazZe","steam_id":76561198129359787,"connected_time":1201000000000,"state":"active","ping":116},{"user_id":469,"name":"louisblue2805","steam_id":76561199487364750,"connected_time":774000000000,"state":"active","ping":56},{"user_id":480,"name":"rach9411","steam_id":76561198256535721,"connected_time":0,"state":"spawning","ping":90},{"user_id":461,"name":"Kiers","steam_id":76561198834266801,"connected_time":950000000000,"state":"active","ping":61},{"user_id":471,"name":"GeniousPancake","steam_id":76561198170015638,"connected_time":624000000000,"state":"active","ping":43},{"user_id":476,"name":"FacinusChip","steam_id":76561198404703816,"connected_time":378000000000,"state":"active","ping":116},{"user_id":475,"name":"ROX","steam_id":76561198272289320,"connected_time":422000000000,"state":"active","ping":48},{"user_id":464,"name":"oil rig","steam_id":76561198868220002,"connected_time":899000000000,"state":"active","ping":41},{"user_id":446,"name":"Tavish","steam_id":76561197971486686,"connected_time":1255000000000,"state":"active","ping":49},{"user_id":468,"name":"Sirzen","steam_id":76561198170155434,"connected_time":848000000000,"state":"active","ping":50},{"user_id":439,"name":"GazerBazer","steam_id":76561198879107565,"connected_time":1812000000000,"state":"active","ping":50},{"user_id":466,"name":"moki","steam_id":76561198314358032,"connected_time":874000000000,"state":"active","ping":75},{"user_id":467,"name":"BrowncoatOfArms","steam_id":76561198190419622,"connected_time":873000000000,"state":"active","ping":64},{"user_id":473,"name":"Cg Studios","steam_id":76561198286908002,"connected_time":594000000000,"state":"active","ping":50}]},{"server_id":21,"name":"Uncletopia | London | 5 | All Maps","name_short":"lon-5","host":"lon-1.uk.uncletopia.com","port":27055,"enabled":true,"region":"eu","cc":"gb","latitude":51.509865,"longitude":-0.118092,"reserved":0,"last_update":"0001-01-01T00:00:00Z","name_a2s":"Uncletopia | London | 5 | All Maps","protocol":17,"map":"cp_dustbowl","folder":"tf","game":"Team Fortress","app_id":440,"player_count":15,"max_players":24,"Bots":0,"server_type":"Dedicated","server_os":"Linux","password":true,"vac":true,"version":"7961495","steam_id":85568392924742829,"keywords":["cp","nocrits","nodmgspread","uncletopia"],"game_id":440,"stv_port":27056,"stv_name":"Uncletopia | London | 5 | All Maps | STV","players":[{"user_id":375,"name":"RisepticeyeYT","steam_id":76561198092063447,"connected_time":1357000000000,"state":"active","ping":46},{"user_id":376,"name":"BabyGhast4","steam_id":76561198990172561,"connected_time":1221000000000,"state":"active","ping":38},{"user_id":384,"name":"novo:DDD","steam_id":76561198051096323,"connected_time":217000000000,"state":"active","ping":35},{"user_id":386,"name":"Carrot","steam_id":76561198119340863,"connected_time":181000000000,"state":"active","ping":38},{"user_id":382,"name":"Your honor Freebird was playing","steam_id":76561198017513012,"connected_time":718000000000,"state":"active","ping":49},{"user_id":383,"name":"8onJour","steam_id":76561198995725491,"connected_time":655000000000,"state":"active","ping":82},{"user_id":387,"name":"abipinch","steam_id":76561199104348040,"connected_time":176000000000,"state":"active","ping":51},{"user_id":388,"name":"mh","steam_id":76561198442932674,"connected_time":174000000000,"state":"active","ping":32},{"user_id":389,"name":"shniper","steam_id":76561199023476841,"connected_time":171000000000,"state":"active","ping":132},{"user_id":390,"name":"lollyformolly","steam_id":76561199017868205,"connected_time":169000000000,"state":"active","ping":41},{"user_id":391,"name":"Jnet","steam_id":76561198001282720,"connected_time":148000000000,"state":"active","ping":82},{"user_id":392,"name":"olsolsols12","steam_id":76561198089444052,"connected_time":137000000000,"state":"active","ping":43},{"user_id":393,"name":"niallmrl","steam_id":76561198324221284,"connected_time":112000000000,"state":"active","ping":35},{"user_id":394,"name":"Sad Potato","steam_id":76561198239654762,"connected_time":5000000000,"state":"spawning","ping":44},{"user_id":395,"name":"SpicyBoi","steam_id":76561198137845321,"connected_time":0,"state":"spawning","ping":26}]},{"server_id":22,"name":"Uncletopia | London | 6 | All Maps","name_short":"lon-6","host":"lon-1.uk.uncletopia.com","port":27065,"enabled":true,"region":"eu","cc":"gb","latitude":51.509865,"longitude":-0.118092,"reserved":0,"last_update":"0001-01-01T00:00:00Z","name_a2s":"Uncletopia | London | 6 | All Maps","protocol":17,"map":"pl_barnblitz","folder":"tf","game":"Team Fortress","app_id":440,"player_count":24,"max_players":24,"Bots":0,"server_type":"Dedicated","server_os":"Linux","password":true,"vac":true,"version":"7961495","steam_id":85568392924742830,"keywords":["nocrits","nodmgspread","payload","uncletopia"],"game_id":440,"stv_port":27066,"stv_name":"Uncletopia | London | 6 | All Maps | STV","players":[{"user_id":163,"name":"literallyjasonx","steam_id":76561198835895387,"connected_time":2252000000000,"state":"active","ping":66},{"user_id":164,"name":"mhib","steam_id":76561198048037379,"connected_time":2212000000000,"state":"active","ping":85},{"user_id":189,"name":"Mr. Hunts","steam_id":76561197981910397,"connected_time":554000000000,"state":"active","ping":66},{"user_id":165,"name":"GrzMik","steam_id":76561198061951968,"connected_time":2181000000000,"state":"active","ping":81},{"user_id":187,"name":"mumbler","steam_id":76561197970641239,"connected_time":657000000000,"state":"active","ping":55},{"user_id":146,"name":"medick","steam_id":76561199380849468,"connected_time":3163000000000,"state":"active","ping":70},{"user_id":199,"name":"tralalaOuiOui","steam_id":76561197963471507,"connected_time":324000000000,"state":"active","ping":46},{"user_id":188,"name":"flave","steam_id":76561198056372101,"connected_time":612000000000,"state":"active","ping":74},{"user_id":147,"name":"Spurt","steam_id":76561198078523852,"connected_time":3095000000000,"state":"active","ping":57},{"user_id":200,"name":"Mirage","steam_id":76561199013190566,"connected_time":320000000000,"state":"active","ping":36},{"user_id":185,"name":"angry russian man","steam_id":76561198386712795,"connected_time":682000000000,"state":"active","ping":52},{"user_id":184,"name":"Fnif","steam_id":76561197987988100,"connected_time":688000000000,"state":"active","ping":61},{"user_id":170,"name":"Tort","steam_id":76561198329646769,"connected_time":2069000000000,"state":"active","ping":45},{"user_id":190,"name":"Goliac","steam_id":76561198165205268,"connected_time":552000000000,"state":"active","ping":85},{"user_id":176,"name":"VIN WEASEL","steam_id":76561198014387066,"connected_time":1828000000000,"state":"active","ping":58},{"user_id":191,"name":"konstt","steam_id":76561198168270939,"connected_time":524000000000,"state":"active","ping":70},{"user_id":201,"name":"jjvthou(NOtdRuNkMeswEaRss)","steam_id":76561199403071554,"connected_time":317000000000,"state":"active","ping":120},{"user_id":193,"name":"Nerdy","steam_id":76561198113844379,"connected_time":477000000000,"state":"active","ping":98},{"user_id":178,"name":"HazelForest","steam_id":76561198171827033,"connected_time":1750000000000,"state":"active","ping":43},{"user_id":194,"name":"emer","steam_id":76561198001420975,"connected_time":452000000000,"state":"active","ping":104},{"user_id":161,"name":"sword machine","steam_id":76561198895235231,"connected_time":2552000000000,"state":"active","ping":60},{"user_id":195,"name":"ThatSiegeKid","steam_id":76561198368037656,"connected_time":425000000000,"state":"active","ping":51},{"user_id":196,"name":"khamba","steam_id":76561198054783240,"connected_time":386000000000,"state":"active","ping":124},{"user_id":197,"name":"Nesster","steam_id":76561198071688242,"connected_time":381000000000,"state":"active","ping":120}]},{"server_id":40,"name":"Uncletopia | London | 7 | Stopwatch","name_short":"lon-7","host":"lon-1.uk.uncletopia.com","port":27075,"enabled":true,"region":"eu","cc":"gb","latitude":51.509865,"longitude":-0.118092,"reserved":0,"last_update":"0001-01-01T00:00:00Z","name_a2s":"Uncletopia | London | 7 | Stopwatch","protocol":17,"map":"koth_highpass","folder":"tf","game":"Team Fortress","app_id":440,"player_count":0,"max_players":24,"Bots":0,"server_type":"Dedicated","server_os":"Linux","password":true,"vac":true,"version":"7961495","steam_id":85568392924964314,"keywords":["cp","nocrits","nodmgspread","uncletopia"],"game_id":440,"stv_port":27076,"stv_name":"Uncletopia | London | 7 | Stopwatch | STV","players":null},{"server_id":41,"name":"Uncletopia | London | 8 | Community","name_short":"lon-8","host":"lon-1.uk.uncletopia.com","port":27085,"enabled":true,"region":"eu","cc":"gb","latitude":51.509865,"longitude":-0.118092,"reserved":0,"last_update":"0001-01-01T00:00:00Z","name_a2s":"Uncletopia | London | 8 | Community","protocol":17,"map":"workshop/pl_divulgence_b4b.ugc2884808746","folder":"tf","game":"Team Fortress","app_id":440,"player_count":0,"max_players":24,"Bots":0,"server_type":"Dedicated","server_os":"Linux","password":true,"vac":true,"version":"7961495","steam_id":85568392924964315,"keywords":["nocrits","nodmgspread","payload","uncletopia"],"game_id":440,"stv_port":27086,"stv_name":"Uncletopia | London | 8 | Community | STV","players":null},{"server_id":300,"name":"Uncletopia | Montr√©al | 1 | One Thousand Uncles","name_short":"mtl-1","host":"mtl-1.ca.uncletopia.com","port":27015,"enabled":true,"region":"us-east","cc":"ca","latitude":45.50889,"longitude":-73.56167,"reserved":0,"last_update":"0001-01-01T00:00:00Z","name_a2s":"Uncletopia | Montr√©al | 1 | One Thousand Uncles","protocol":17,"map":"pl_chilly","folder":"tf","game":"Team Fortress","app_id":440,"player_count":26,"max_players":32,"Bots":16,"server_type":"Dedicated","server_os":"Linux","password":true,"vac":true,"version":"7961495","steam_id":85568392924500087,"keywords":["alltalk","bots","danepve","increased_maxplayers","norespawntime","payload","uncletopia"],"game_id":440,"stv_port":0,"stv_name":"","players":[{"user_id":103,"name":"Mig_Chungus","steam_id":76561198053410265,"connected_time":309000000000,"state":"active","ping":147},{"user_id":83,"name":"MagikarpEX","steam_id":76561198166172279,"connected_time":3145000000000,"state":"active","ping":52},{"user_id":99,"name":"Cervid√©","steam_id":76561198098579497,"connected_time":1314000000000,"state":"active","ping":30},{"user_id":102,"name":"CuSO4","steam_id":76561199278147589,"connected_time":696000000000,"state":"active","ping":75},{"user_id":86,"name":"Monkey Mafia Thug 1","steam_id":76561199096241116,"connected_time":2158000000000,"state":"active","ping":71},{"user_id":87,"name":"Monkey Mafia Thug 4","steam_id":76561198376752965,"connected_time":2157000000000,"state":"active","ping":55},{"user_id":88,"name":"Monkey Mafia Thug 2","steam_id":76561199239446808,"connected_time":2131000000000,"state":"active","ping":94},{"user_id":92,"name":"Bigfin_squid","steam_id":76561199232340071,"connected_time":1699000000000,"state":"active","ping":45},{"user_id":100,"name":"Dracula, King of All Vampires","steam_id":76561198026930160,"connected_time":1169000000000,"state":"active","ping":47},{"user_id":104,"name":"Why not Zoidberg?","steam_id":76561197982207556,"connected_time":180000000000,"state":"active","ping":76}]},{"server_id":301,"name":"Uncletopia | Montr√©al | 2 | One Thousand Uncles","name_short":"mtl-2","host":"mtl-1.ca.uncletopia.com","port":27025,"enabled":true,"region":"us-east","cc":"ca","latitude":45.50889,"longitude":-73.56167,"reserved":0,"last_update":"0001-01-01T00:00:00Z","name_a2s":"Uncletopia | Montr√©al | 2 | One Thousand Uncles","protocol":17,"map":"pl_chilly","folder":"tf","game":"Team Fortress","app_id":440,"player_count":0,"max_players":32,"Bots":0,"server_type":"Dedicated","server_os":"Linux","password":true,"vac":true,"version":"7961495","steam_id":85568392924500088,"keywords":["alltalk","danepve","increased_maxplayers","norespawntime","payload","uncletopia"],"game_id":440,"stv_port":0,"stv_name":"","players":null},{"server_id":302,"name":"Uncletopia | Montr√©al | 3 | One Thousand Uncles","name_short":"mtl-3","host":"mtl-1.ca.uncletopia.com","port":27035,"enabled":true,"region":"us-east","cc":"ca","latitude":45.50889,"longitude":-73.56167,"reserved":0,"last_update":"0001-01-01T00:00:00Z","name_a2s":"Uncletopia | Montr√©al | 3 | One Thousand Uncles","protocol":17,"map":"pl_hoodoo_final","folder":"tf","game":"Team Fortress","app_id":440,"player_count":0,"max_players":32,"Bots":0,"server_type":"Dedicated","server_os":"Linux","password":true,"vac":true,"version":"7961495","steam_id":85568392924500089,"keywords":["alltalk","danepve","increased_maxplayers","norespawntime","payload","uncletopia"],"game_id":440,"stv_port":0,"stv_name":"","players":null},{"server_id":13,"name":"Uncletopia | New York City | 1 | All Maps","name_short":"nyc-1","host":"nyc-1.us.uncletopia.com","port":27015,"enabled":true,"region":"us-east","cc":"us","latitude":40.73061,"longitude":-73.93524,"reserved":0,"last_update":"0001-01-01T00:00:00Z","name_a2s":"Uncletopia | New York City | 1 | All Maps","protocol":17,"map":"pl_badwater","folder":"tf","game":"Team Fortress","app_id":440,"player_count":23,"max_players":24,"Bots":0,"server_type":"Dedicated","server_os":"Linux","password":true,"vac":true,"version":"7961495","steam_id":85568392924469993,"keywords":["nocrits","nodmgspread","payload","uncletopia"],"game_id":440,"stv_port":27016,"stv_name":"Uncletopia | New York City | 1 | All Maps | STV","players":[{"user_id":111,"name":"monkey_Are_cool_509","steam_id":76561199472285443,"connected_time":613000000000,"state":"active","ping":71},{"user_id":109,"name":"Spiro Agnew","steam_id":76561198047195799,"connected_time":786000000000,"state":"active","ping":30},{"user_id":112,"name":"Bamboozler","steam_id":76561198010860383,"connected_time":579000000000,"state":"active","ping":75},{"user_id":21,"name":"menonamed","steam_id":76561198199564382,"connected_time":7290000000000,"state":"active","ping":45},{"user_id":116,"name":"Thelonious Prime, King of Jazz","steam_id":76561198077785482,"connected_time":369000000000,"state":"active","ping":55},{"user_id":93,"name":"Chicken Nugget","steam_id":76561198082601232,"connected_time":2615000000000,"state":"active","ping":60},{"user_id":118,"name":"0","steam_id":76561198864353110,"connected_time":309000000000,"state":"active","ping":60},{"user_id":117,"name":"D","steam_id":76561198292908619,"connected_time":351000000000,"state":"active","ping":80},{"user_id":52,"name":"marshmellowguy","steam_id":76561199008710694,"connected_time":5600000000000,"state":"active","ping":155},{"user_id":56,"name":"Larry Ca√±onga","steam_id":76561198081053203,"connected_time":5224000000000,"state":"active","ping":126},{"user_id":95,"name":"BeefClapper420","steam_id":76561198080892634,"connected_time":2456000000000,"state":"active","ping":41},{"user_id":103,"name":"chen","steam_id":76561198064872330,"connected_time":1405000000000,"state":"active","ping":53},{"user_id":114,"name":"scrotal recall","steam_id":76561198135945598,"connected_time":454000000000,"state":"active","ping":80},{"user_id":59,"name":"your very own pocket medic","steam_id":76561199489320369,"connected_time":5081000000000,"state":"active","ping":51},{"user_id":107,"name":"Godmode","steam_id":76561198076240365,"connected_time":1059000000000,"state":"active","ping":64},{"user_id":62,"name":"baunter","steam_id":76561198024311871,"connected_time":4734000000000,"state":"active","ping":109},{"user_id":101,"name":"dangergirl99","steam_id":76561198121651564,"connected_time":1477000000000,"state":"active","ping":42},{"user_id":104,"name":"Officer Chef","steam_id":76561198310658990,"connected_time":1392000000000,"state":"active","ping":66},{"user_id":92,"name":"DanDog","steam_id":76561198274722633,"connected_time":2681000000000,"state":"active","ping":146},{"user_id":74,"name":"Jason","steam_id":76561198107058140,"connected_time":3854000000000,"state":"active","ping":45},{"user_id":108,"name":"Banebox","steam_id":76561198267463063,"connected_time":923000000000,"state":"active","ping":148},{"user_id":106,"name":"MillerWhite","steam_id":76561198076060357,"connected_time":1087000000000,"state":"active","ping":60},{"user_id":110,"name":"Paddy","steam_id":76561198037001457,"connected_time":741000000000,"state":"active","ping":46}]},{"server_id":14,"name":"Uncletopia | New York City | 2 | All Maps","name_short":"nyc-2","host":"nyc-1.us.uncletopia.com","port":27025,"enabled":true,"region":"us-east","cc":"us","latitude":40.73061,"longitude":-73.93524,"reserved":0,"last_update":"0001-01-01T00:00:00Z","name_a2s":"Uncletopia | New York City | 2 | All Maps","protocol":17,"map":"cp_mountainlab","folder":"tf","game":"Team Fortress","app_id":440,"player_count":23,"max_players":24,"Bots":0,"server_type":"Dedicated","server_os":"Linux","password":true,"vac":true,"version":"7961495","steam_id":85568392924469994,"keywords":["cp","nocrits","nodmgspread","uncletopia"],"game_id":440,"stv_port":27026,"stv_name":"Uncletopia | New York City | 2 | All Maps | STV","players":[{"user_id":259,"name":"vastrobotmax","steam_id":76561198417110724,"connected_time":1035000000000,"state":"active","ping":60},{"user_id":260,"name":"iiamiizzyy","steam_id":76561198355030751,"connected_time":910000000000,"state":"active","ping":58},{"user_id":253,"name":"TheHopeBunny","steam_id":76561198804861687,"connected_time":1538000000000,"state":"active","ping":89},{"user_id":206,"name":"The Undead Knight","steam_id":76561198010654500,"connected_time":5296000000000,"state":"active","ping":76},{"user_id":244,"name":"corbenis","steam_id":76561199012442511,"connected_time":2365000000000,"state":"active","ping":75},{"user_id":179,"name":"brisky","steam_id":76561198869675719,"connected_time":7358000000000,"state":"active","ping":57},{"user_id":95,"name":"Harry S. Truman","steam_id":76561197993339757,"connected_time":12240000000000,"state":"active","ping":58},{"user_id":233,"name":"big ol' buford","steam_id":76561198290675957,"connected_time":3075000000000,"state":"active","ping":75},{"user_id":266,"name":"OrangeShoes","steam_id":76561197971249940,"connected_time":227000000000,"state":"active","ping":80},{"user_id":247,"name":"Linguine Alfredo","steam_id":76561198022045816,"connected_time":2302000000000,"state":"active","ping":51},{"user_id":185,"name":"ndvr (femboy (REAL))","steam_id":76561199379200102,"connected_time":6747000000000,"state":"active","ping":42},{"user_id":265,"name":"celestia ludenberg","steam_id":76561199196437823,"connected_time":254000000000,"state":"active","ping":209},{"user_id":251,"name":"Fishybros","steam_id":76561198182045699,"connected_time":1863000000000,"state":"active","ping":52},{"user_id":223,"name":"A_Malebolgia","steam_id":76561198097722818,"connected_time":3636000000000,"state":"active","ping":71},{"user_id":268,"name":"Cooldog","steam_id":76561198080548713,"connected_time":208000000000,"state":"active","ping":53},{"user_id":269,"name":"Jackx232","steam_id":76561198055126332,"connected_time":198000000000,"state":"active","ping":40},{"user_id":217,"name":"EL Matador","steam_id":76561197971206879,"connected_time":4529000000000,"state":"active","ping":47},{"user_id":237,"name":"Just a Baby","steam_id":76561198018660838,"connected_time":2905000000000,"state":"active","ping":55},{"user_id":227,"name":"Dokkibai","steam_id":76561198355935693,"connected_time":3526000000000,"state":"active","ping":73},{"user_id":222,"name":"Bother","steam_id":76561198336750909,"connected_time":3822000000000,"state":"active","ping":47},{"user_id":264,"name":"BumpofNight","steam_id":76561198011581312,"connected_time":261000000000,"state":"active","ping":73},{"user_id":270,"name":"breathingtrees","steam_id":76561198118931690,"connected_time":171000000000,"state":"active","ping":49},{"user_id":243,"name":"you forgot the sauce","steam_id":76561198387016713,"connected_time":2431000000000,"state":"active","ping":45}]},{"server_id":15,"name":"Uncletopia | New York City | 3 | Stopwatch","name_short":"nyc-3","host":"nyc-1.us.uncletopia.com","port":27035,"enabled":true,"region":"us-east","cc":"us","latitude":40.73061,"longitude":-73.93524,"reserved":0,"last_update":"0001-01-01T00:00:00Z","name_a2s":"Uncletopia | New York City | 3 | Stopwatch","protocol":17,"map":"workshop/koth_ashville_final.ugc2130459942","folder":"tf","game":"Team Fortress","app_id":440,"player_count":0,"max_players":24,"Bots":0,"server_type":"Dedicated","server_os":"Linux","password":true,"vac":true,"version":"7961495","steam_id":85568392924742820,"keywords":["cp","nocrits","nodmgspread","uncletopia"],"game_id":440,"stv_port":27036,"stv_name":"Uncletopia | New York City | 3 | Stopwatch | STV","players":null},{"server_id":16,"name":"Uncletopia | New York City | 4 | Community","name_short":"nyc-4","host":"nyc-1.us.uncletopia.com","port":27045,"enabled":true,"region":"us-east","cc":"us","latitude":40.73061,"longitude":-73.93524,"reserved":0,"last_update":"0001-01-01T00:00:00Z","name_a2s":"Uncletopia | New York City | 4 | Community","protocol":17,"map":"workshop/cp_overgrown_rc8.ugc503939302","folder":"tf","game":"Team Fortress","app_id":440,"player_count":0,"max_players":24,"Bots":0,"server_type":"Dedicated","server_os":"Linux","password":true,"vac":true,"version":"7961495","steam_id":85568392924742821,"keywords":["cp","nocrits","nodmgspread","uncletopia"],"game_id":440,"stv_port":27046,"stv_name":"Uncletopia | New York City | 4 | Community | STV","players":null},{"server_id":142,"name":"Uncletopia | S√£o Paulo | 1 | All Maps","name_short":"sao-1","host":"sao-1.br.uncletopia.com","port":27015,"enabled":true,"region":"sa","cc":"br","latitude":-23.533773,"longitude":-46.62529,"reserved":0,"last_update":"0001-01-01T00:00:00Z","name_a2s":"Uncletopia | S√£o Paulo | 1 | All Maps","protocol":17,"map":"pl_borneo","folder":"tf","game":"Team Fortress","app_id":440,"player_count":0,"max_players":24,"Bots":0,"server_type":"Dedicated","server_os":"Linux","password":true,"vac":true,"version":"7961495","steam_id":85568392924469996,"keywords":["nocrits","nodmgspread","payload","uncletopia"],"game_id":440,"stv_port":27016,"stv_name":"Uncletopia | S√£o Paulo | 1 | All Maps | STV","players":null},{"server_id":143,"name":"Uncletopia | S√£o Paulo | 2 | Community","name_short":"sao-2","host":"sao-2.br.uncletopia.com","port":27015,"enabled":true,"region":"sa","cc":"br","latitude":-23.533773,"longitude":-46.62529,"reserved":0,"last_update":"0001-01-01T00:00:00Z","name_a2s":"Uncletopia | S√£o Paulo | 2 | Community","protocol":17,"map":"workshop/cp_croissant_final.ugc458840209","folder":"tf","game":"Team Fortress","app_id":440,"player_count":0,"max_players":24,"Bots":0,"server_type":"Dedicated","server_os":"Linux","password":true,"vac":true,"version":"7961495","steam_id":85568392924485349,"keywords":["cp","nocrits","nodmgspread","uncletopia"],"game_id":440,"stv_port":27016,"stv_name":"Uncletopia | S√£o Paulo | 2 | Community | STV","players":null},{"server_id":7,"name":"Uncletopia | Seattle | 1 | All Maps","name_short":"sea-1","host":"sea-1.us.uncletopia.com","port":27015,"enabled":true,"region":"us-west","cc":"us","latitude":47.608013,"longitude":-122.33517,"reserved":0,"last_update":"0001-01-01T00:00:00Z","name_a2s":"Uncletopia | Seattle | 1 | All Maps","protocol":17,"map":"pl_upward","folder":"tf","game":"Team Fortress","app_id":440,"player_count":24,"max_players":24,"Bots":0,"server_type":"Dedicated","server_os":"Linux","password":true,"vac":true,"version":"7961495","steam_id":85568392924469997,"keywords":["nocrits","nodmgspread","payload","uncletopia"],"game_id":440,"stv_port":27016,"stv_name":"Uncletopia | Seattle | 1 | All Maps | STV","players":[{"user_id":434,"name":"L√© Mon","steam_id":76561198078626283,"connected_time":1039000000000,"state":"active","ping":31},{"user_id":445,"name":"bind e explode","steam_id":76561198054914055,"connected_time":237000000000,"state":"active","ping":102},{"user_id":410,"name":"JohnFMX","steam_id":76561198175608097,"connected_time":2110000000000,"state":"active","ping":110},{"user_id":444,"name":"psi","steam_id":76561198061497429,"connected_time":293000000000,"state":"active","ping":98},{"user_id":392,"name":"gungon","steam_id":76561198099843841,"connected_time":3885000000000,"state":"active","ping":77},{"user_id":424,"name":"Bandit","steam_id":76561198008344745,"connected_time":1277000000000,"state":"active","ping":80},{"user_id":435,"name":"think before you believe","steam_id":76561198857358730,"connected_time":964000000000,"state":"active","ping":89},{"user_id":396,"name":"Petrivus","steam_id":76561198202152453,"connected_time":3792000000000,"state":"active","ping":45},{"user_id":436,"name":"Joseph Stalin","steam_id":76561198126234142,"connected_time":895000000000,"state":"active","ping":92},{"user_id":439,"name":"trackpad gaming | f2p","steam_id":76561198840414371,"connected_time":563000000000,"state":"active","ping":74},{"user_id":442,"name":"Pneumo.","steam_id":76561197987911883,"connected_time":349000000000,"state":"active","ping":55},{"user_id":408,"name":"Lily Thorn","steam_id":76561198305488625,"connected_time":2680000000000,"state":"active","ping":52},{"user_id":409,"name":"DubiousDodo","steam_id":76561198828172686,"connected_time":2115000000000,"state":"active","ping":74},{"user_id":437,"name":"ATHEIST TIL I REALIZED I AM GOD","steam_id":76561199190800520,"connected_time":893000000000,"state":"active","ping":42},{"user_id":400,"name":"William Lovett","steam_id":76561197991063996,"connected_time":3149000000000,"state":"active","ping":105},{"user_id":281,"name":"CheeseCake488","steam_id":76561199407617942,"connected_time":10279000000000,"state":"active","ping":93},{"user_id":446,"name":"Stimming","steam_id":76561199127423378,"connected_time":160000000000,"state":"active","ping":81},{"user_id":440,"name":"gloobern","steam_id":76561198341190679,"connected_time":561000000000,"state":"active","ping":52},{"user_id":430,"name":"ZombieSlayer77","steam_id":76561199023974356,"connected_time":1085000000000,"state":"active","ping":123},{"user_id":428,"name":"Fred","steam_id":76561198114281255,"connected_time":1196000000000,"state":"active","ping":113},{"user_id":433,"name":"Average Engineer","steam_id":76561198981106464,"connected_time":1052000000000,"state":"active","ping":76},{"user_id":438,"name":":^1 Hekken","steam_id":76561198109933577,"connected_time":840000000000,"state":"active","ping":45},{"user_id":413,"name":"Dogg wader","steam_id":76561199090314340,"connected_time":2020000000000,"state":"active","ping":49},{"user_id":416,"name":"Mr8bittripper","steam_id":76561198133894229,"connected_time":1611000000000,"state":"active","ping":41}]},{"server_id":119,"name":"Uncletopia | Seattle | 2 | All Maps","name_short":"sea-2","host":"sea-1.us.uncletopia.com","port":27025,"enabled":true,"region":"us-west","cc":"us","latitude":47.608013,"longitude":-122.33517,"reserved":0,"last_update":"0001-01-01T00:00:00Z","name_a2s":"Uncletopia | Seattle | 2 | All Maps","protocol":17,"map":"koth_cascade","folder":"tf","game":"Team Fortress","app_id":440,"player_count":0,"max_players":24,"Bots":0,"server_type":"Dedicated","server_os":"Linux","password":true,"vac":true,"version":"7961495","steam_id":85568392924469998,"keywords":["cp","nocrits","nodmgspread","uncletopia"],"game_id":440,"stv_port":27026,"stv_name":"Uncletopia | Seattle | 2 | All Maps | STV","players":null},{"server_id":406,"name":"Uncletopia | Seattle | 3 | Stopwatch","name_short":"sea-3","host":"sea-1.us.uncletopia.com","port":27035,"enabled":true,"region":"us-west","cc":"us","latitude":47.608013,"longitude":-122.33517,"reserved":0,"last_update":"0001-01-01T00:00:00Z","name_a2s":"Uncletopia | Seattle | 3 | Stopwatch","protocol":17,"map":"koth_highpass","folder":"tf","game":"Team Fortress","app_id":440,"player_count":0,"max_players":24,"Bots":0,"server_type":"Dedicated","server_os":"Linux","password":true,"vac":true,"version":"7961495","steam_id":85568392924515217,"keywords":["cp","nocrits","nodmgspread","uncletopia"],"game_id":440,"stv_port":27036,"stv_name":"Uncletopia | Seattle | 3 | Stopwatch | STV","players":null},{"server_id":17,"name":"Uncletopia | San Francisco | 1 | All Maps","name_short":"sfo-1","host":"sfo-1.us.uncletopia.com","port":27015,"enabled":true,"region":"us-west","cc":"us","latitude":37.77397,"longitude":-122.4313,"reserved":0,"last_update":"0001-01-01T00:00:00Z","name_a2s":"Uncletopia | San Francisco | 1 | All Maps","protocol":17,"map":"koth_highpass","folder":"tf","game":"Team Fortress","app_id":440,"player_count":0,"max_players":24,"Bots":0,"server_type":"Dedicated","server_os":"Linux","password":true,"vac":true,"version":"7961495","steam_id":85568392924469999,"keywords":["cp","nocrits","nodmgspread","uncletopia"],"game_id":440,"stv_port":27016,"stv_name":"Uncletopia | San Francisco | 1 | All Maps | STV","players":null},{"server_id":18,"name":"Uncletopia | San Francisco | 2 | All Maps","name_short":"sfo-2","host":"sfo-1.us.uncletopia.com","port":27025,"enabled":true,"region":"us-west","cc":"us","latitude":37.77397,"longitude":-122.4313,"reserved":0,"last_update":"0001-01-01T00:00:00Z","name_a2s":"Uncletopia | San Francisco | 2 | All Maps","protocol":17,"map":"koth_viaduct","folder":"tf","game":"Team Fortress","app_id":440,"player_count":0,"max_players":24,"Bots":0,"server_type":"Dedicated","server_os":"Linux","password":true,"vac":true,"version":"7961495","steam_id":85568392924470000,"keywords":["cp","nocrits","nodmgspread","uncletopia"],"game_id":440,"stv_port":27026,"stv_name":"Uncletopia | San Francisco | 2 | All Maps | STV","players":null},{"server_id":19,"name":"Uncletopia | San Francisco | 3 | Stopwatch","name_short":"sfo-3","host":"sfo-1.us.uncletopia.com","port":27035,"enabled":true,"region":"us-west","cc":"us","latitude":37.77397,"longitude":-122.4313,"reserved":0,"last_update":"0001-01-01T00:00:00Z","name_a2s":"Uncletopia | San Francisco | 3 | Stopwatch","protocol":17,"map":"workshop/koth_product_final.ugc454272353","folder":"tf","game":"Team Fortress","app_id":440,"player_count":0,"max_players":24,"Bots":0,"server_type":"Dedicated","server_os":"Linux","password":true,"vac":true,"version":"7961495","steam_id":85568392924742824,"keywords":["cp","nocrits","nodmgspread","uncletopia"],"game_id":440,"stv_port":27036,"stv_name":"Uncletopia | San Francisco | 3 | Stopwatch | STV","players":null},{"server_id":20,"name":"Uncletopia | San Francisco | 4 | Community","name_short":"sfo-4","host":"sfo-1.us.uncletopia.com","port":27045,"enabled":true,"region":"us-west","cc":"us","latitude":37.77397,"longitude":-122.4313,"reserved":0,"last_update":"0001-01-01T00:00:00Z","name_a2s":"Uncletopia | San Francisco | 4 | Community","protocol":17,"map":"workshop/pl_cactuscanyon_redux_final2.ugc2579644293","folder":"tf","game":"Team Fortress","app_id":440,"player_count":0,"max_players":24,"Bots":0,"server_type":"Dedicated","server_os":"Linux","password":true,"vac":true,"version":"7961495","steam_id":85568392924742826,"keywords":["nocrits","nodmgspread","payload","uncletopia"],"game_id":440,"stv_port":27046,"stv_name":"Uncletopia | San Francisco | 4 | Community | STV","players":null},{"server_id":141,"name":"Uncletopia | Sydney | 1 | All Maps","name_short":"syd-1","host":"syd-1.au.uncletopia.com","port":27015,"enabled":true,"region":"au","cc":"au","latitude":-33.865143,"longitude":151.2099,"reserved":0,"last_update":"0001-01-01T00:00:00Z","name_a2s":"Uncletopia | Sydney | 1 | All Maps","protocol":17,"map":"koth_nucleus","folder":"tf","game":"Team Fortress","app_id":440,"player_count":0,"max_players":24,"Bots":0,"server_type":"Dedicated","server_os":"Linux","password":true,"vac":true,"version":"7961495","steam_id":85568392924470001,"keywords":["cp","nocrits","nodmgspread","uncletopia"],"game_id":440,"stv_port":27016,"stv_name":"Uncletopia | Sydney | 1 | All Maps | STV","players":null},{"server_id":123,"name":"Uncletopia | Sydney | 2 | All Maps","name_short":"syd-2","host":"syd-1.au.uncletopia.com","port":27025,"enabled":true,"region":"au","cc":"au","latitude":-33.865143,"longitude":151.2099,"reserved":0,"last_update":"0001-01-01T00:00:00Z","name_a2s":"Uncletopia | Sydney | 2 | All Maps","protocol":17,"map":"cp_fastlane","folder":"tf","game":"Team Fortress","app_id":440,"player_count":0,"max_players":24,"Bots":0,"server_type":"Dedicated","server_os":"Linux","password":true,"vac":true,"version":"7961495","steam_id":85568392924470002,"keywords":["cp","nocrits","nodmgspread","uncletopia"],"game_id":440,"stv_port":27026,"stv_name":"Uncletopia | Sydney | 2 | All Maps | STV","players":null},{"server_id":395,"name":"Uncletopia | Sydney | 3 | All Maps","name_short":"syd-3","host":"syd-1.au.uncletopia.com","port":27035,"enabled":true,"region":"au","cc":"au","latitude":-33.865143,"longitude":151.2099,"reserved":0,"last_update":"0001-01-01T00:00:00Z","name_a2s":"Uncletopia | Sydney | 3 | All Maps","protocol":17,"map":"cp_metalworks","folder":"tf","game":"Team Fortress","app_id":440,"player_count":0,"max_players":24,"Bots":0,"server_type":"Dedicated","server_os":"Linux","password":true,"vac":true,"version":"7961495","steam_id":85568392925194467,"keywords":["cp","nocrits","nodmgspread","uncletopia"],"game_id":440,"stv_port":27036,"stv_name":"Uncletopia | Sydney | 3 | All Maps | STV","players":null},{"server_id":396,"name":"Uncletopia | Sydney | 4 | All Maps","name_short":"syd-4","host":"syd-1.au.uncletopia.com","port":27045,"enabled":true,"region":"au","cc":"au","latitude":-33.865143,"longitude":151.2099,"reserved":0,"last_update":"0001-01-01T00:00:00Z","name_a2s":"Uncletopia | Sydney | 4 | All Maps","protocol":17,"map":"koth_cascade","folder":"tf","game":"Team Fortress","app_id":440,"player_count":0,"max_players":24,"Bots":0,"server_type":"Dedicated","server_os":"Linux","password":true,"vac":true,"version":"7961495","steam_id":85568392925397958,"keywords":["cp","nocrits","nodmgspread","uncletopia"],"game_id":440,"stv_port":27046,"stv_name":"Uncletopia | Sydney | 4 | All Maps | STV","players":null},{"server_id":58,"name":"Uncletopia | Sydney | 5 | Stopwatch","name_short":"syd-5","host":"syd-1.au.uncletopia.com","port":27055,"enabled":true,"region":"au","cc":"au","latitude":-33.865143,"longitude":151.2099,"reserved":0,"last_update":"0001-01-01T00:00:00Z","name_a2s":"Uncletopia | Sydney | 5 | Stopwatch","protocol":17,"map":"workshop/koth_product_final.ugc454272353","folder":"tf","game":"Team Fortress","app_id":440,"player_count":0,"max_players":24,"Bots":0,"server_type":"Dedicated","server_os":"Linux","password":true,"vac":true,"version":"7961495","steam_id":85568392925397959,"keywords":["cp","nocrits","nodmgspread","uncletopia"],"game_id":440,"stv_port":27056,"stv_name":"Uncletopia | Sydney | 5 | Stopwatch | STV","players":null},{"server_id":59,"name":"Uncletopia | Sydney | 6 | Community","name_short":"syd-6","host":"syd-1.au.uncletopia.com","port":27065,"enabled":true,"region":"au","cc":"au","latitude":-33.865143,"longitude":151.2099,"reserved":0,"last_update":"0001-01-01T00:00:00Z","name_a2s":"Uncletopia | Sydney | 6 | Community","protocol":17,"map":"workshop/koth_trenchfoot_ab1.ugc731436616","folder":"tf","game":"Team Fortress","app_id":440,"player_count":0,"max_players":24,"Bots":0,"server_type":"Dedicated","server_os":"Linux","password":true,"vac":true,"version":"7961495","steam_id":85568392925397960,"keywords":["cp","nocrits","nodmgspread","uncletopia"],"game_id":440,"stv_port":27066,"stv_name":"Uncletopia | Sydney | 6 | Community | STV","players":null},{"server_id":49,"name":"Uncletopia | Warsaw | 1 | One Thousand Uncles","name_short":"waw-1","host":"waw-1.pl.uncletopia.com","port":27015,"enabled":true,"region":"eu","cc":"pl","latitude":52.2297,"longitude":21.017532,"reserved":0,"last_update":"0001-01-01T00:00:00Z","name_a2s":"Uncletopia | Warsaw | 1 | One Thousand Uncles","protocol":17,"map":"pl_pier","folder":"tf","game":"Team Fortress","app_id":440,"player_count":24,"max_players":32,"Bots":16,"server_type":"Dedicated","server_os":"Linux","password":true,"vac":true,"version":"7961495","steam_id":85568392925397850,"keywords":["alltalk","bots","danepve","increased_maxplayers","norespawntime","payload","uncletopia"],"game_id":440,"stv_port":0,"stv_name":"","players":[{"user_id":641,"name":"[HK]Êàë‰øÇÈ¶ôÊ∏Ø‰∫∫","steam_id":76561198165376815,"connected_time":2341000000000,"state":"active","ping":72},{"user_id":662,"name":"Voks_","steam_id":76561198159687785,"connected_time":1587000000000,"state":"active","ping":71},{"user_id":631,"name":"Junkie","steam_id":76561199435573349,"connected_time":3738000000000,"state":"active","ping":101},{"user_id":638,"name":"nigngll","steam_id":76561199084680369,"connected_time":2734000000000,"state":"active","ping":32},{"user_id":665,"name":"Shezza","steam_id":76561198903969123,"connected_time":1222000000000,"state":"active","ping":46},{"user_id":640,"name":"weed master","steam_id":76561199485369397,"connected_time":2441000000000,"state":"active","ping":119},{"user_id":667,"name":"APGE","steam_id":76561198037063136,"connected_time":891000000000,"state":"active","ping":75},{"user_id":668,"name":"CurlyPaty - [YouTube]","steam_id":76561198125025171,"connected_time":1000000000,"state":"spawning","ping":17}]},{"server_id":50,"name":"Uncletopia | Warsaw | 2 | One Thousand Uncles","name_short":"waw-2","host":"waw-1.pl.uncletopia.com","port":27025,"enabled":true,"region":"eu","cc":"pl","latitude":52.2297,"longitude":21.017532,"reserved":0,"last_update":"0001-01-01T00:00:00Z","name_a2s":"Uncletopia | Warsaw | 2 | One Thousand Uncles","protocol":17,"map":"cp_mossrock","folder":"tf","game":"Team Fortress","app_id":440,"player_count":17,"max_players":32,"Bots":16,"server_type":"Dedicated","server_os":"Linux","password":true,"vac":true,"version":"7961495","steam_id":85568392925397851,"keywords":["alltalk","bots","cp","danepve","increased_maxplayers","norespawntime","uncletopia"],"game_id":440,"stv_port":0,"stv_name":"","players":[{"user_id":247,"name":"poon","steam_id":76561198049740395,"connected_time":8133000000000,"state":"active","ping":154}]},{"server_id":51,"name":"Uncletopia | Warsaw | 3 | All Maps","name_short":"waw-3","host":"waw-1.pl.uncletopia.com","port":27035,"enabled":true,"region":"eu","cc":"pl","latitude":52.2297,"longitude":21.017532,"reserved":0,"last_update":"0001-01-01T00:00:00Z","name_a2s":"Uncletopia | Warsaw | 3 | All Maps","protocol":17,"map":"koth_lakeside_final","folder":"tf","game":"Team Fortress","app_id":440,"player_count":4,"max_players":24,"Bots":0,"server_type":"Dedicated","server_os":"Linux","password":true,"vac":true,"version":"7961495","steam_id":85568392925397852,"keywords":["cp","nocrits","nodmgspread","uncletopia"],"game_id":440,"stv_port":27036,"stv_name":"Uncletopia | Warsaw | 3 | All Maps | STV","players":[{"user_id":27,"name":"Ursyn","steam_id":76561198287800213,"connected_time":1280000000000,"state":"active","ping":55},{"user_id":16,"name":"Guthlaf","steam_id":76561198153564078,"connected_time":4245000000000,"state":"active","ping":50},{"user_id":17,"name":"Hrabia","steam_id":76561198164608139,"connected_time":4192000000000,"state":"active","ping":42},{"user_id":30,"name":"wojzlo01","steam_id":76561199508575910,"connected_time":560000000000,"state":"active","ping":60}]},{"server_id":52,"name":"Uncletopia | Warsaw | 4 | All Maps","name_short":"waw-4","host":"waw-1.pl.uncletopia.com","port":27045,"enabled":true,"region":"eu","cc":"pl","latitude":52.2297,"longitude":21.017532,"reserved":0,"last_update":"0001-01-01T00:00:00Z","name_a2s":"Uncletopia | Warsaw | 4 | All Maps","protocol":17,"map":"pl_frontier_final","folder":"tf","game":"Team Fortress","app_id":440,"player_count":23,"max_players":24,"Bots":0,"server_type":"Dedicated","server_os":"Linux","password":true,"vac":true,"version":"7961495","steam_id":85568392925397853,"keywords":["nocrits","nodmgspread","payload","uncletopia"],"game_id":440,"stv_port":27046,"stv_name":"Uncletopia | Warsaw | 4 | All Maps | STV","players":[{"user_id":87,"name":"MGE King","steam_id":76561198099259340,"connected_time":713000000000,"state":"active","ping":54},{"user_id":86,"name":"but secks","steam_id":76561199470147761,"connected_time":758000000000,"state":"active","ping":157},{"user_id":54,"name":"General Dummkopfs","steam_id":76561198071315425,"connected_time":3363000000000,"state":"active","ping":59},{"user_id":88,"name":"Kolodziej","steam_id":76561198088672385,"connected_time":700000000000,"state":"active","ping":47},{"user_id":89,"name":"dgz","steam_id":76561197979345019,"connected_time":495000000000,"state":"active","ping":75},{"user_id":16,"name":"Captain Puddleboat","steam_id":76561198053913970,"connected_time":5132000000000,"state":"active","ping":69},{"user_id":17,"name":"Dylans","steam_id":76561198018544554,"connected_time":5124000000000,"state":"active","ping":67},{"user_id":19,"name":"Olipie","steam_id":76561198058481343,"connected_time":5049000000000,"state":"active","ping":61},{"user_id":91,"name":"Gruf√¶ldig","steam_id":76561197962444696,"connected_time":369000000000,"state":"active","ping":62},{"user_id":97,"name":"SLR_Eclipse","steam_id":76561199121786812,"connected_time":115000000000,"state":"active","ping":71},{"user_id":47,"name":"yer_nerd","steam_id":76561199435454093,"connected_time":3598000000000,"state":"active","ping":149},{"user_id":77,"name":"NEURO REAPER","steam_id":76561198125923001,"connected_time":1334000000000,"state":"active","ping":75},{"user_id":64,"name":"d","steam_id":76561198114847909,"connected_time":2487000000000,"state":"active","ping":64},{"user_id":50,"name":"Ev","steam_id":76561198311186832,"connected_time":3429000000000,"state":"active","ping":105},{"user_id":96,"name":"Step back","steam_id":76561198063855616,"connected_time":269000000000,"state":"active","ping":84},{"user_id":51,"name":"TheEngieCat","steam_id":76561198133442247,"connected_time":3425000000000,"state":"active","ping":84},{"user_id":94,"name":"–°–µ–º—å","steam_id":76561199072741842,"connected_time":333000000000,"state":"active","ping":88},{"user_id":95,"name":"Wild Meep","steam_id":76561198199271438,"connected_time":278000000000,"state":"active","ping":159},{"user_id":34,"name":"mata","steam_id":76561198129526578,"connected_time":4181000000000,"state":"active","ping":35},{"user_id":65,"name":"Tacticalman","steam_id":76561199208263809,"connected_time":2409000000000,"state":"active","ping":145},{"user_id":36,"name":"mekintoch","steam_id":76561198122525383,"connected_time":4171000000000,"state":"active","ping":44},{"user_id":70,"name":"mimek","steam_id":76561198072690572,"connected_time":1784000000000,"state":"active","ping":58},{"user_id":71,"name":"Avangarde","steam_id":76561198046286755,"connected_time":1783000000000,"state":"active","ping":73}]},{"server_id":53,"name":"Uncletopia | Warsaw | 5 | Stopwatch","name_short":"waw-5","host":"waw-1.pl.uncletopia.com","port":27055,"enabled":true,"region":"eu","cc":"pl","latitude":52.2297,"longitude":21.017532,"reserved":0,"last_update":"0001-01-01T00:00:00Z","name_a2s":"Uncletopia | Warsaw | 5 | Stopwatch","protocol":17,"map":"workshop/koth_ashville_final.ugc2130459942","folder":"tf","game":"Team Fortress","app_id":440,"player_count":0,"max_players":24,"Bots":0,"server_type":"Dedicated","server_os":"Linux","password":true,"vac":true,"version":"7961495","steam_id":85568392925397854,"keywords":["cp","nocrits","nodmgspread","uncletopia"],"game_id":440,"stv_port":27056,"stv_name":"Uncletopia | Warsaw | 5 | Stopwatch | STV","players":null},{"server_id":54,"name":"Uncletopia | Warsaw | 6 | Community","name_short":"waw-6","host":"waw-1.pl.uncletopia.com","port":27065,"enabled":true,"region":"eu","cc":"pl","latitude":52.2297,"longitude":21.017532,"reserved":0,"last_update":"0001-01-01T00:00:00Z","name_a2s":"Uncletopia | Warsaw | 6 | Community","protocol":17,"map":"workshop/koth_jamram_rc1a.ugc2964065613","folder":"tf","game":"Team Fortress","app_id":440,"player_count":0,"max_players":24,"Bots":0,"server_type":"Dedicated","server_os":"Linux","password":true,"vac":true,"version":"7961495","steam_id":85568392925397856,"keywords":["cp","nocrits","nodmgspread","uncletopia"],"game_id":440,"stv_port":27066,"stv_name":"Uncletopia | Warsaw | 6 | Community | STV","players":null}]}