{"status":true,"message":"","result":[{"server_id":9,"name":"Uncletopia | Atlanta | 1 | All Maps","name_short":"atl-1","host":"atl-1.us.uncletopia.com","port":27015,"enabled":true,"region":"us-east","cc":"us","latitude":33.753746,"longitude":-84.38633,"reserved":0,"last_update":"0001-01-01T00:00:00Z","name_a2s":"Uncletopia | Atlanta | 1 | All Maps","protocol":17,"map":"pl_borneo","folder":"tf","game":"Team Fortress","app_id":440,"player_count":24,"max_players":24,"Bots":0,"server_type":"Dedicated","server_os":"Linux","password":true,"vac":true,"version":"7742253","steam_id":85568392924469982,"keywords":["nocrits","nodmgspread","payload","uncletopia"],"game_id":440,"stv_port":27016,"stv_name":"Uncletopia | Atlanta | 1 | All Maps | STV","players":[{"user_id":460,"name":"--_Cook_--","steam_id":76561198080855748,"connected_time":2334000000000,"state":"active","ping":71},{"user_id":420,"name":"ShiYor","steam_id":76561199117260032,"connected_time":8062000000000,"state":"active","ping":137},{"user_id":369,"name":"ATL1 | eish","steam_id":76561198089463603,"connected_time":13512000000000,"state":"active","ping":134},{"user_id":433,"name":"atlas","steam_id":76561198184893754,"connected_time":6485000000000,"state":"active","ping":71},{"user_id":464,"name":"ATL1 | Lancer Fan Club","steam_id":76561198355495948,"connected_time":1628000000000,"state":"active","ping":95},{"user_id":390,"name":"lker","steam_id":76561197976975075,"connected_time":11301000000000,"state":"active","ping":51},{"user_id":457,"name":"Abbashea","steam_id":76561199182136969,"connected_time":3230000000000,"state":"active","ping":104},{"user_id":472,"name":"Epifiny","steam_id":76561198027958086,"connected_time":782000000000,"state":"active","ping":92},{"user_id":455,"name":"newyears.jimmy.2014","steam_id":76561199177672325,"connected_time":3245000000000,"state":"active","ping":51},{"user_id":471,"name":"ATL6 Le4n!!!","steam_id":76561198045522596,"connected_time":1006000000000,"state":"active","ping":83},{"user_id":466,"name":"ATL1 | Kramer","steam_id":76561198083595936,"connected_time":1584000000000,"state":"active","ping":90},{"user_id":468,"name":"EVIL CHRISTMAS Cherry Coke","steam_id":76561198178233006,"connected_time":1364000000000,"state":"active","ping":80},{"user_id":473,"name":"scrambledeggs3","steam_id":76561198066112579,"connected_time":766000000000,"state":"active","ping":92},{"user_id":470,"name":"Huntiairi","steam_id":76561198065935917,"connected_time":1310000000000,"state":"active","ping":65},{"user_id":475,"name":"Pharaxer","steam_id":76561198051236069,"connected_time":519000000000,"state":"active","ping":164},{"user_id":458,"name":"Flint","steam_id":76561198066547582,"connected_time":3151000000000,"state":"active","ping":126},{"user_id":327,"name":"ATL1 | to4st","steam_id":76561198981009008,"connected_time":16701000000000,"state":"active","ping":76},{"user_id":446,"name":"ATL1 | ash","steam_id":76561198127890645,"connected_time":5057000000000,"state":"active","ping":85},{"user_id":454,"name":"Im High","steam_id":76561198049954886,"connected_time":3257000000000,"state":"active","ping":88},{"user_id":474,"name":"DREW PEACOCK","steam_id":76561198065057392,"connected_time":751000000000,"state":"active","ping":90},{"user_id":447,"name":"Merchants of Misery","steam_id":76561199188142396,"connected_time":5018000000000,"state":"active","ping":109},{"user_id":425,"name":"SlimPorkchops","steam_id":76561198958586069,"connected_time":7480000000000,"state":"active","ping":84},{"user_id":366,"name":"schizo","steam_id":76561198016121536,"connected_time":13765000000000,"state":"active","ping":114},{"user_id":427,"name":"Intro Bonito","steam_id":76561198119478838,"connected_time":7468000000000,"state":"active","ping":72}]},{"server_id":400,"name":"Uncletopia | Atlanta | 3 | Stopwatch Beta","name_short":"atl-3","host":"atl-1.us.uncletopia.com","port":27035,"enabled":true,"region":"us-east","cc":"us","latitude":33.753746,"longitude":-84.38633,"reserved":0,"last_update":"0001-01-01T00:00:00Z","name_a2s":"Uncletopia | Atlanta | 3 | Stopwatch Beta","protocol":17,"map":"pl_pier","folder":"tf","game":"Team Fortress","app_id":440,"player_count":0,"max_players":24,"Bots":0,"server_type":"Dedicated","server_os":"Linux","password":true,"vac":true,"version":"7742253","steam_id":85568392924515187,"keywords":["nocrits","nodmgspread","payload","uncletopia"],"game_id":440,"stv_port":27036,"stv_name":"Uncletopia | Atlanta | 3 | Stopwatch Beta | STV","players":null},{"server_id":401,"name":"Uncletopia | Atlanta | 4 | No Payload","name_short":"atl-4","host":"atl-1.us.uncletopia.com","port":27045,"enabled":true,"region":"us-east","cc":"us","latitude":33.753746,"longitude":-84.38633,"reserved":0,"last_update":"0001-01-01T00:00:00Z","name_a2s":"Uncletopia | Atlanta | 4 | No Payload","protocol":17,"map":"pl_pier","folder":"tf","game":"Team Fortress","app_id":440,"player_count":0,"max_players":24,"Bots":0,"server_type":"Dedicated","server_os":"Linux","password":true,"vac":true,"version":"7723704","steam_id":85568392924515188,"keywords":["nocrits","nodmgspread","payload","uncletopia"],"game_id":440,"stv_port":27046,"stv_name":"Uncletopia | Atlanta | 4 | No Payload | STV","players":null},{"server_id":2,"name":"Uncletopia | Chicago | 1 | All Maps","name_short":"chi-1","host":"chi-1.us.uncletopia.com","port":27015,"enabled":true,"region":"us-central","cc":"us","latitude":41.881832,"longitude":-87.62318,"reserved":0,"last_update":"0001-01-01T00:00:00Z","name_a2s":"Uncletopia | Chicago | 1 | All Maps","protocol":17,"map":"pl_frontier_final","folder":"tf","game":"Team Fortress","app_id":440,"player_count":24,"max_players":24,"Bots":0,"server_type":"Dedicated","server_os":"Linux","password":true,"vac":true,"version":"7742253","steam_id":85568392924469984,"keywords":["nocrits","nodmgspread","payload","uncletopia"],"game_id":440,"stv_port":27016,"stv_name":"Uncletopia | Chicago | 1 | All Maps | STV","players":[{"user_id":483,"name":"your colonoscopy results","steam_id":76561198017705248,"connected_time":292000000000,"state":"active","ping":51},{"user_id":460,"name":"Pan-Demonica","steam_id":76561198294350105,"connected_time":1809000000000,"state":"active","ping":75},{"user_id":363,"name":"blob","steam_id":76561198122375328,"connected_time":9180000000000,"state":"active","ping":62},{"user_id":478,"name":"Jazz","steam_id":76561198281069210,"connected_time":1032000000000,"state":"active","ping":67},{"user_id":455,"name":"RaddahRaddah","steam_id":76561198194462829,"connected_time":1995000000000,"state":"active","ping":58},{"user_id":482,"name":"Crap","steam_id":76561198877229175,"connected_time":307000000000,"state":"active","ping":124},{"user_id":427,"name":"aphexjh","steam_id":76561197985854658,"connected_time":3652000000000,"state":"active","ping":49},{"user_id":453,"name":"DoctorBodacious","steam_id":76561198258784171,"connected_time":2064000000000,"state":"active","ping":74},{"user_id":471,"name":"PKBEAST_7","steam_id":76561198177136537,"connected_time":1488000000000,"state":"active","ping":82},{"user_id":449,"name":"Your Local Queer Librarian","steam_id":76561198013077080,"connected_time":2593000000000,"state":"active","ping":50},{"user_id":439,"name":"0xFUL","steam_id":76561198081684676,"connected_time":3016000000000,"state":"active","ping":115},{"user_id":469,"name":"TheGhostThatWas","steam_id":76561198055836483,"connected_time":1579000000000,"state":"active","ping":60},{"user_id":396,"name":"Undertime Slopper","steam_id":76561198396789061,"connected_time":6104000000000,"state":"active","ping":83},{"user_id":470,"name":"peepeeroni","steam_id":76561198382877812,"connected_time":1578000000000,"state":"active","ping":72},{"user_id":484,"name":"Uberawp","steam_id":76561198022359959,"connected_time":58000000000,"state":"active","ping":47},{"user_id":456,"name":"Alt","steam_id":76561197992591984,"connected_time":1978000000000,"state":"active","ping":60},{"user_id":473,"name":"bobdragon27","steam_id":76561198065833387,"connected_time":1441000000000,"state":"active","ping":59},{"user_id":463,"name":"Mimic","steam_id":76561198060164147,"connected_time":1679000000000,"state":"active","ping":69},{"user_id":480,"name":"Snom","steam_id":76561198333827920,"connected_time":591000000000,"state":"active","ping":136},{"user_id":472,"name":"goonaguunagleet","steam_id":76561198081556584,"connected_time":1446000000000,"state":"active","ping":63},{"user_id":481,"name":"Bunt","steam_id":76561198124477567,"connected_time":477000000000,"state":"active","ping":59},{"user_id":429,"name":"Rex","steam_id":76561198138365053,"connected_time":3625000000000,"state":"active","ping":130},{"user_id":477,"name":"KingCrawful","steam_id":76561198104291657,"connected_time":1074000000000,"state":"active","ping":65},{"user_id":479,"name":"Bee","steam_id":76561198074681324,"connected_time":894000000000,"state":"active","ping":67}]},{"server_id":106,"name":"Uncletopia | Chicago | 2 | All Maps","name_short":"chi-2","host":"chi-1.us.uncletopia.com","port":27025,"enabled":true,"region":"us-central","cc":"us","latitude":41.881832,"longitude":-87.62318,"reserved":0,"last_update":"0001-01-01T00:00:00Z","name_a2s":"Uncletopia | Chicago | 2 | All Maps","protocol":17,"map":"ctf_turbine","folder":"tf","game":"Team Fortress","app_id":440,"player_count":23,"max_players":24,"Bots":0,"server_type":"Dedicated","server_os":"Linux","password":true,"vac":true,"version":"7742253","steam_id":85568392924469985,"keywords":["ctf","nocrits","nodmgspread","uncletopia"],"game_id":440,"stv_port":27026,"stv_name":"Uncletopia | Chicago | 2 | All Maps | STV","players":[{"user_id":497,"name":"Yo, merry Christmas!","steam_id":76561198421913648,"connected_time":2309000000000,"state":"active","ping":91},{"user_id":514,"name":"SHARK0!","steam_id":76561199391489466,"connected_time":1371000000000,"state":"active","ping":55},{"user_id":529,"name":"WX-78","steam_id":76561199117263527,"connected_time":867000000000,"state":"active","ping":51},{"user_id":535,"name":"iry","steam_id":76561199409264244,"connected_time":555000000000,"state":"active","ping":69},{"user_id":521,"name":"Munk","steam_id":76561198134629193,"connected_time":1329000000000,"state":"active","ping":65},{"user_id":479,"name":"no","steam_id":76561198248853140,"connected_time":3319000000000,"state":"active","ping":41},{"user_id":488,"name":"butterbean","steam_id":76561198152090448,"connected_time":2881000000000,"state":"active","ping":60},{"user_id":541,"name":"I-die-often","steam_id":76561197996780327,"connected_time":330000000000,"state":"active","ping":65},{"user_id":397,"name":"[LINUX] F2P=S*(M/B)+H || Spy!","steam_id":76561198093538786,"connected_time":10123000000000,"state":"active","ping":73},{"user_id":344,"name":"Dominion","steam_id":76561198005853062,"connected_time":12187000000000,"state":"active","ping":60},{"user_id":346,"name":"A Puppy","steam_id":76561198828184456,"connected_time":11937000000000,"state":"active","ping":57},{"user_id":515,"name":"Dr Spaceman","steam_id":76561197969755657,"connected_time":1362000000000,"state":"active","ping":46},{"user_id":516,"name":"Got Hat?","steam_id":76561197998486431,"connected_time":1361000000000,"state":"active","ping":63},{"user_id":496,"name":"颈项上挂满goldchains","steam_id":76561198032871139,"connected_time":2357000000000,"state":"active","ping":154},{"user_id":489,"name":"KingEgamer_03","steam_id":76561199283258364,"connected_time":2720000000000,"state":"active","ping":64},{"user_id":531,"name":"trubbabubba","steam_id":76561198095118127,"connected_time":838000000000,"state":"active","ping":75},{"user_id":494,"name":"who ate the cheese","steam_id":76561198275408467,"connected_time":2385000000000,"state":"active","ping":46},{"user_id":538,"name":"Kailen","steam_id":76561197960393604,"connected_time":525000000000,"state":"active","ping":64},{"user_id":525,"name":"superx","steam_id":76561198044976613,"connected_time":1196000000000,"state":"active","ping":162},{"user_id":528,"name":"peachy","steam_id":76561198026664629,"connected_time":913000000000,"state":"active","ping":55},{"user_id":534,"name":"fishfin","steam_id":76561198255819115,"connected_time":663000000000,"state":"active","ping":61},{"user_id":456,"name":"cardboard","steam_id":76561198193855346,"connected_time":5308000000000,"state":"active","ping":114},{"user_id":540,"name":"Vem","steam_id":76561198117273112,"connected_time":438000000000,"state":"active","ping":64}]},{"server_id":402,"name":"Uncletopia | Chicago | 3 | All Maps","name_short":"chi-3","host":"chi-1.us.uncletopia.com","port":27035,"enabled":true,"region":"us-central","cc":"us","latitude":41.881832,"longitude":-87.62318,"reserved":0,"last_update":"0001-01-01T00:00:00Z","name_a2s":"Uncletopia | Chicago | 3 | All Maps","protocol":17,"map":"pl_frontier_final","folder":"tf","game":"Team Fortress","app_id":440,"player_count":24,"max_players":24,"Bots":0,"server_type":"Dedicated","server_os":"Linux","password":true,"vac":true,"version":"7742253","steam_id":85568392924515191,"keywords":["nocrits","nodmgspread","payload","uncletopia"],"game_id":440,"stv_port":27036,"stv_name":"Uncletopia | Chicago | 3 | All Maps | STV","players":[{"user_id":554,"name":"SussusAmogus","steam_id":76561198870275051,"connected_time":284000000000,"state":"active","ping":80},{"user_id":555,"name":"ethan","steam_id":76561198132637556,"connected_time":283000000000,"state":"active","ping":66},{"user_id":545,"name":"Kapitan Bomba","steam_id":76561199102087660,"connected_time":905000000000,"state":"active","ping":62},{"user_id":558,"name":"Tsuchinoko","steam_id":76561198083175190,"connected_time":270000000000,"state":"active","ping":80},{"user_id":516,"name":"mr falls down the stairs","steam_id":76561199156428309,"connected_time":2112000000000,"state":"active","ping":57},{"user_id":514,"name":"Cruisin'","steam_id":76561199245457119,"connected_time":2151000000000,"state":"active","ping":79},{"user_id":530,"name":"craZend","steam_id":76561198848063795,"connected_time":1850000000000,"state":"active","ping":63},{"user_id":519,"name":"Walter White","steam_id":76561198870018009,"connected_time":2089000000000,"state":"active","ping":59},{"user_id":525,"name":"EvilMrPotoo ｡◕‿◕｡","steam_id":76561198012566870,"connected_time":1981000000000,"state":"active","ping":60},{"user_id":551,"name":"Splinto","steam_id":76561198111260488,"connected_time":675000000000,"state":"active","ping":49},{"user_id":563,"name":"Burlington Cum Factory","steam_id":76561197992239645,"connected_time":100000000000,"state":"active","ping":58},{"user_id":497,"name":"The Lonely Croc","steam_id":76561198123241396,"connected_time":3581000000000,"state":"active","ping":77},{"user_id":520,"name":"Kawflynn","steam_id":76561198029885678,"connected_time":2087000000000,"state":"active","ping":78},{"user_id":531,"name":"nnoby","steam_id":76561198878729277,"connected_time":1843000000000,"state":"active","ping":75},{"user_id":522,"name":"The One True Pineapple #SaveTF2","steam_id":76561198083157236,"connected_time":2041000000000,"state":"active","ping":74},{"user_id":561,"name":"three three","steam_id":76561198177354155,"connected_time":240000000000,"state":"active","ping":45},{"user_id":562,"name":"Rum and Death","steam_id":76561198095245223,"connected_time":220000000000,"state":"active","ping":64},{"user_id":553,"name":"Final_MarioXD","steam_id":76561199184862419,"connected_time":300000000000,"state":"active","ping":81},{"user_id":552,"name":"stungoperation","steam_id":76561199162409918,"connected_time":382000000000,"state":"active","ping":56},{"user_id":541,"name":"stage 4 classic brain damage","steam_id":76561198046826031,"connected_time":1375000000000,"state":"active","ping":160},{"user_id":559,"name":"Apetometrist","steam_id":76561198045391635,"connected_time":254000000000,"state":"active","ping":65},{"user_id":527,"name":"bobby peanstalk","steam_id":76561198040495463,"connected_time":1978000000000,"state":"active","ping":71},{"user_id":528,"name":"Ka Xin Yu","steam_id":76561198057116531,"connected_time":1975000000000,"state":"active","ping":59},{"user_id":560,"name":"huckleberri","steam_id":76561199466557662,"connected_time":254000000000,"state":"active","ping":86}]},{"server_id":403,"name":"Uncletopia | Chicago | 4 | All Maps","name_short":"chi-4","host":"chi-1.us.uncletopia.com","port":27045,"enabled":true,"region":"us-central","cc":"us","latitude":41.881832,"longitude":-87.62318,"reserved":0,"last_update":"0001-01-01T00:00:00Z","name_a2s":"Uncletopia | Chicago | 4 | All Maps","protocol":17,"map":"pl_frontier_final","folder":"tf","game":"Team Fortress","app_id":440,"player_count":24,"max_players":24,"Bots":0,"server_type":"Dedicated","server_os":"Linux","password":true,"vac":true,"version":"7742253","steam_id":85568392924515193,"keywords":["nocrits","nodmgspread","payload","uncletopia"],"game_id":440,"stv_port":27046,"stv_name":"Uncletopia | Chicago | 4 | All Maps | STV","players":[{"user_id":321,"name":"Jupiter","steam_id":76561198181315681,"connected_time":2544000000000,"state":"active","ping":58},{"user_id":341,"name":"TwizzlerNips","steam_id":76561198082853513,"connected_time":828000000000,"state":"active","ping":82},{"user_id":322,"name":"Ginger Powder","steam_id":76561198082650449,"connected_time":2517000000000,"state":"active","ping":56},{"user_id":355,"name":"GooniOoni","steam_id":76561198102154561,"connected_time":330000000000,"state":"active","ping":47},{"user_id":354,"name":"cheesefieldgamer","steam_id":76561198996563979,"connected_time":598000000000,"state":"active","ping":81},{"user_id":348,"name":"THORNFIELDGAMER","steam_id":76561199087167473,"connected_time":720000000000,"state":"active","ping":77},{"user_id":343,"name":"Jolly Old Asshat","steam_id":76561198004584315,"connected_time":757000000000,"state":"active","ping":71},{"user_id":347,"name":"Alexidoodles","steam_id":76561198414487405,"connected_time":738000000000,"state":"active","ping":73},{"user_id":350,"name":"Furry Saul Goodman","steam_id":76561198069580305,"connected_time":705000000000,"state":"active","ping":48},{"user_id":345,"name":"caption cool","steam_id":76561197990612056,"connected_time":750000000000,"state":"active","ping":45},{"user_id":332,"name":"Proudaazz","steam_id":76561199015525980,"connected_time":2029000000000,"state":"active","ping":78},{"user_id":346,"name":"Just Another Stoned Eevee","steam_id":76561198262852705,"connected_time":741000000000,"state":"active","ping":86},{"user_id":312,"name":"Sticky","steam_id":76561198851536991,"connected_time":3289000000000,"state":"active","ping":120},{"user_id":305,"name":"❤ Ashley ❤","steam_id":76561198056428303,"connected_time":4030000000000,"state":"active","ping":104},{"user_id":356,"name":"Owl Pacino","steam_id":76561197979970666,"connected_time":10000000000,"state":"spawning","ping":151},{"user_id":349,"name":"nelly modelo","steam_id":76561198044875206,"connected_time":718000000000,"state":"active","ping":81},{"user_id":326,"name":"Bazowick","steam_id":76561198055318418,"connected_time":2459000000000,"state":"active","ping":61},{"user_id":316,"name":"Tay1Qr","steam_id":76561198082809935,"connected_time":3134000000000,"state":"active","ping":72},{"user_id":277,"name":"moodi catgirl","steam_id":76561198124028045,"connected_time":5679000000000,"state":"active","ping":63},{"user_id":351,"name":"Money Collector","steam_id":76561198046249467,"connected_time":684000000000,"state":"active","ping":54},{"user_id":352,"name":"Neoplix","steam_id":76561199012756422,"connected_time":669000000000,"state":"active","ping":69},{"user_id":353,"name":"ArcticTone","steam_id":76561199454215024,"connected_time":669000000000,"state":"active","ping":60},{"user_id":327,"name":"Razz","steam_id":76561198158027533,"connected_time":2453000000000,"state":"active","ping":49},{"user_id":337,"name":"trilobita","steam_id":76561198428215606,"connected_time":1361000000000,"state":"active","ping":63}]},{"server_id":36,"name":"Uncletopia | Chicago | 5 | All Maps","name_short":"chi-5","host":"chi-2.us.uncletopia.com","port":27015,"enabled":true,"region":"us-central","cc":"us","latitude":41.881832,"longitude":-87.62318,"reserved":0,"last_update":"0001-01-01T00:00:00Z","name_a2s":"Uncletopia | Chicago | 5 | All Maps","protocol":17,"map":"pl_barnblitz","folder":"tf","game":"Team Fortress","app_id":440,"player_count":20,"max_players":24,"Bots":0,"server_type":"Dedicated","server_os":"Linux","password":true,"vac":true,"version":"7742253","steam_id":85568392924866362,"keywords":["nocrits","nodmgspread","payload","uncletopia"],"game_id":440,"stv_port":27016,"stv_name":"Uncletopia | Chicago | 5 | All Maps | STV","players":[{"user_id":771,"name":"Nexusuxen","steam_id":76561198117547131,"connected_time":3040000000000,"state":"active","ping":58},{"user_id":676,"name":"dicksnip","steam_id":76561198356515396,"connected_time":8487000000000,"state":"active","ping":93},{"user_id":804,"name":"MY BLOOD IS MADE OF SALT AND I ","steam_id":76561198354741493,"connected_time":20000000000,"state":"spawning","ping":91},{"user_id":795,"name":"KhorneBread ︻デ 一","steam_id":76561198097069958,"connected_time":2033000000000,"state":"active","ping":59},{"user_id":774,"name":"Vefti","steam_id":76561198178172809,"connected_time":3001000000000,"state":"active","ping":82},{"user_id":802,"name":"[ £Ÿ,Đ ] Not AirmanBlueJay","steam_id":76561198030901346,"connected_time":1150000000000,"state":"active","ping":69},{"user_id":777,"name":"Caoticaos","steam_id":76561198114800227,"connected_time":2866000000000,"state":"active","ping":144},{"user_id":792,"name":"SE X","steam_id":76561198094525829,"connected_time":2231000000000,"state":"active","ping":65},{"user_id":778,"name":"King Cotton","steam_id":76561198292444376,"connected_time":2767000000000,"state":"active","ping":72},{"user_id":793,"name":"parsee","steam_id":76561198095139889,"connected_time":2225000000000,"state":"active","ping":65},{"user_id":805,"name":"Round King","steam_id":76561198273185290,"connected_time":19000000000,"state":"active","ping":99},{"user_id":761,"name":"froggy","steam_id":76561198079485096,"connected_time":3731000000000,"state":"active","ping":92},{"user_id":794,"name":"Baphy","steam_id":76561199088719865,"connected_time":2100000000000,"state":"active","ping":155},{"user_id":803,"name":"Jill the Owl","steam_id":76561197999210583,"connected_time":590000000000,"state":"active","ping":65},{"user_id":782,"name":"Certainly_Luke","steam_id":76561198180891187,"connected_time":2674000000000,"state":"active","ping":74},{"user_id":786,"name":"delusional schizophrenic","steam_id":76561198323435040,"connected_time":2423000000000,"state":"active","ping":60},{"user_id":787,"name":"holden ford","steam_id":76561198124810219,"connected_time":2413000000000,"state":"active","ping":72},{"user_id":800,"name":"The Minister of Party City","steam_id":76561199219790713,"connected_time":1176000000000,"state":"active","ping":51},{"user_id":799,"name":"Baka!⑨⑨⑨⑨","steam_id":76561198152948254,"connected_time":1278000000000,"state":"active","ping":56},{"user_id":801,"name":"JFK Gamer","steam_id":76561199229169396,"connected_time":1176000000000,"state":"active","ping":63}]},{"server_id":37,"name":"Uncletopia | Chicago | 6 | All Maps","name_short":"chi-6","host":"chi-2.us.uncletopia.com","port":27025,"enabled":true,"region":"us-central","cc":"us","latitude":41.881832,"longitude":-87.62318,"reserved":0,"last_update":"0001-01-01T00:00:00Z","name_a2s":"Uncletopia | Chicago | 6 | All Maps","protocol":17,"map":"koth_cascade","folder":"tf","game":"Team Fortress","app_id":440,"player_count":0,"max_players":24,"Bots":0,"server_type":"Dedicated","server_os":"Linux","password":true,"vac":true,"version":"7742253","steam_id":85568392924866363,"keywords":["cp","nocrits","nodmgspread","uncletopia"],"game_id":440,"stv_port":27026,"stv_name":"Uncletopia | Chicago | 6 | All Maps | STV","players":null},{"server_id":38,"name":"Uncletopia | Chicago | 7 | Stopwatch Beta","name_short":"chi-7","host":"chi-2.us.uncletopia.com","port":27035,"enabled":true,"region":"us-central","cc":"us","latitude":41.881832,"longitude":-87.62318,"reserved":0,"last_update":"0001-01-01T00:00:00Z","name_a2s":"Uncletopia | Chicago | 7 | Stopwatch Beta","protocol":17,"map":"workshop/pl_barnblitz_pro7.ugc582280235","folder":"tf","game":"Team Fortress","app_id":440,"player_count":0,"max_players":24,"Bots":0,"server_type":"Dedicated","server_os":"Linux","password":true,"vac":true,"version":"7742253","steam_id":85568392924866364,"keywords":["nocrits","nodmgspread","payload","uncletopia"],"game_id":440,"stv_port":27036,"stv_name":"Uncletopia | Chicago | 7 | Stopwatch Beta | STV","players":null},{"server_id":39,"name":"Uncletopia | Chicago | 8 | Community","name_short":"chi-8","host":"chi-2.us.uncletopia.com","port":27045,"enabled":true,"region":"us-central","cc":"us","latitude":41.881832,"longitude":-87.62318,"reserved":0,"last_update":"0001-01-01T00:00:00Z","name_a2s":"Uncletopia | Chicago | 8 | Community","protocol":17,"map":"workshop/koth_ramjam_rc1.ugc459778887","folder":"tf","game":"Team Fortress","app_id":440,"player_count":0,"max_players":24,"Bots":0,"server_type":"Dedicated","server_os":"Linux","password":true,"vac":true,"version":"7742253","steam_id":85568392924866365,"keywords":["cp","nocrits","nodmgspread","uncletopia"],"game_id":440,"stv_port":27046,"stv_name":"Uncletopia | Chicago | 8 | Community | STV","players":null},{"server_id":8,"name":"Uncletopia | Dallas | 1 | All Maps","name_short":"dal-1","host":"dal-1.us.uncletopia.com","port":27015,"enabled":true,"region":"us-central","cc":"us","latitude":32.779167,"longitude":-96.80889,"reserved":0,"last_update":"0001-01-01T00:00:00Z","name_a2s":"Uncletopia | Dallas | 1 | All Maps","protocol":17,"map":"ctf_2fort","folder":"tf","game":"Team Fortress","app_id":440,"player_count":23,"max_players":24,"Bots":0,"server_type":"Dedicated","server_os":"Linux","password":true,"vac":true,"version":"7742253","steam_id":85568392924469986,"keywords":["ctf","nocrits","nodmgspread","uncletopia"],"game_id":440,"stv_port":27016,"stv_name":"Uncletopia | Dallas | 1 | All Maps | STV","players":[{"user_id":700,"name":"The Krinkler","steam_id":76561198020308956,"connected_time":3025000000000,"state":"active","ping":92},{"user_id":732,"name":"Axelfreeze14","steam_id":76561198436383913,"connected_time":685000000000,"state":"active","ping":74},{"user_id":734,"name":"Fancyassasin","steam_id":76561198331864258,"connected_time":577000000000,"state":"active","ping":55},{"user_id":702,"name":"Yoru","steam_id":76561198119698950,"connected_time":2822000000000,"state":"active","ping":127},{"user_id":737,"name":"BuhByeFalecia","steam_id":76561198364710587,"connected_time":291000000000,"state":"active","ping":54},{"user_id":693,"name":"Muse","steam_id":76561198177715869,"connected_time":3744000000000,"state":"active","ping":63},{"user_id":689,"name":"A Gamer [F2P]","steam_id":76561198138712892,"connected_time":3790000000000,"state":"active","ping":41},{"user_id":720,"name":"please be happy","steam_id":76561198864941566,"connected_time":1586000000000,"state":"active","ping":82},{"user_id":725,"name":"indec","steam_id":76561198978404397,"connected_time":807000000000,"state":"active","ping":112},{"user_id":738,"name":"Nugakku","steam_id":76561198082346219,"connected_time":285000000000,"state":"active","ping":89},{"user_id":715,"name":"Kallen Lamar","steam_id":76561197999530478,"connected_time":2096000000000,"state":"active","ping":73},{"user_id":680,"name":"GLG.Liz","steam_id":76561198021957956,"connected_time":4488000000000,"state":"active","ping":53},{"user_id":722,"name":"Timbs!!","steam_id":76561198156215344,"connected_time":1065000000000,"state":"active","ping":54},{"user_id":719,"name":"Reyloko","steam_id":76561198172480913,"connected_time":1875000000000,"state":"active","ping":70},{"user_id":676,"name":"Drakon","steam_id":76561198078210822,"connected_time":5175000000000,"state":"active","ping":80},{"user_id":735,"name":"Jello","steam_id":76561198890633732,"connected_time":447000000000,"state":"active","ping":67},{"user_id":683,"name":"GLG MUTT","steam_id":76561198147785541,"connected_time":4260000000000,"state":"active","ping":67},{"user_id":728,"name":"Super Splint","steam_id":76561199465781208,"connected_time":768000000000,"state":"active","ping":62},{"user_id":659,"name":"Tesco Glizzy","steam_id":76561198153085632,"connected_time":6386000000000,"state":"active","ping":60},{"user_id":733,"name":"Henby","steam_id":76561199119343016,"connected_time":657000000000,"state":"active","ping":105},{"user_id":731,"name":"Phantom_03","steam_id":76561198217929829,"connected_time":751000000000,"state":"active","ping":92},{"user_id":740,"name":"AJones97","steam_id":76561198028973438,"connected_time":126000000000,"state":"active","ping":107},{"user_id":672,"name":"{ST} Oxythemoron","steam_id":76561198060089965,"connected_time":5511000000000,"state":"active","ping":56}]},{"server_id":108,"name":"Uncletopia | Dallas | 2 | All Maps","name_short":"dal-2","host":"dal-1.us.uncletopia.com","port":27025,"enabled":true,"region":"us-central","cc":"us","latitude":32.779167,"longitude":-96.80889,"reserved":0,"last_update":"0001-01-01T00:00:00Z","name_a2s":"Uncletopia | Dallas | 2 | All Maps","protocol":17,"map":"pl_swiftwater_final1","folder":"tf","game":"Team Fortress","app_id":440,"player_count":23,"max_players":24,"Bots":0,"server_type":"Dedicated","server_os":"Linux","password":true,"vac":true,"version":"7742253","steam_id":85568392924469988,"keywords":["nocrits","nodmgspread","payload","uncletopia"],"game_id":440,"stv_port":27026,"stv_name":"Uncletopia | Dallas | 2 | All Maps | STV","players":[{"user_id":250,"name":"My controller broke","steam_id":76561198157280577,"connected_time":1416000000000,"state":"active","ping":43},{"user_id":216,"name":"Yadoking","steam_id":76561198057156436,"connected_time":2809000000000,"state":"active","ping":91},{"user_id":214,"name":"Zoro01","steam_id":76561198407989540,"connected_time":2871000000000,"state":"active","ping":83},{"user_id":253,"name":"happy man!!! :D!!!!","steam_id":76561198128468316,"connected_time":1210000000000,"state":"active","ping":61},{"user_id":215,"name":"SKIN IS WHERE THE FLAVOR IS","steam_id":76561198115842661,"connected_time":2817000000000,"state":"active","ping":89},{"user_id":205,"name":"todd","steam_id":76561198140689842,"connected_time":3281000000000,"state":"active","ping":54},{"user_id":259,"name":"Susan","steam_id":76561198045705049,"connected_time":424000000000,"state":"active","ping":86},{"user_id":224,"name":"sora","steam_id":76561198094256973,"connected_time":2603000000000,"state":"active","ping":86},{"user_id":244,"name":"ASP","steam_id":76561198062642183,"connected_time":2043000000000,"state":"active","ping":47},{"user_id":217,"name":"GTAD","steam_id":76561198071159505,"connected_time":2805000000000,"state":"active","ping":84},{"user_id":248,"name":"Bonesala","steam_id":76561199052450127,"connected_time":1687000000000,"state":"active","ping":70},{"user_id":260,"name":"trobort","steam_id":76561198027150357,"connected_time":412000000000,"state":"active","ping":58},{"user_id":245,"name":"I hate weezer","steam_id":76561198202195792,"connected_time":1994000000000,"state":"active","ping":91},{"user_id":263,"name":"danny screamo","steam_id":76561198064312388,"connected_time":182000000000,"state":"active","ping":77},{"user_id":228,"name":"Matches_                       ","steam_id":76561198048925904,"connected_time":2425000000000,"state":"active","ping":88},{"user_id":247,"name":"juala de grillos","steam_id":76561197987025017,"connected_time":1936000000000,"state":"active","ping":72},{"user_id":262,"name":"scruffer","steam_id":76561198044095460,"connected_time":406000000000,"state":"active","ping":54},{"user_id":235,"name":"Hogan's Castle","steam_id":76561199158397833,"connected_time":2293000000000,"state":"active","ping":72},{"user_id":239,"name":"[SAW] Lost Darkrai","steam_id":76561198021034873,"connected_time":2120000000000,"state":"active","ping":56},{"user_id":240,"name":"Zeeze","steam_id":76561197998153057,"connected_time":2112000000000,"state":"active","ping":77},{"user_id":242,"name":"Cosmosis Jones","steam_id":76561198970097093,"connected_time":2096000000000,"state":"active","ping":69},{"user_id":243,"name":"alexwasherefirst","steam_id":76561198846755124,"connected_time":2092000000000,"state":"active","ping":87},{"user_id":258,"name":"Dr Pepper To The Moon","steam_id":76561199121320640,"connected_time":709000000000,"state":"active","ping":89}]},{"server_id":5,"name":"Uncletopia | Frankfurt | 1 | All Maps","name_short":"frk-1","host":"frk-1.de.uncletopia.com","port":27015,"enabled":true,"region":"eu","cc":"de","latitude":50.110924,"longitude":8.682127,"reserved":0,"last_update":"0001-01-01T00:00:00Z","name_a2s":"Uncletopia | Frankfurt | 1 | All Maps","protocol":17,"map":"cp_dustbowl","folder":"tf","game":"Team Fortress","app_id":440,"player_count":0,"max_players":24,"Bots":0,"server_type":"Dedicated","server_os":"Linux","password":true,"vac":true,"version":"7742253","steam_id":85568392924469989,"keywords":["cp","nocrits","nodmgspread","uncletopia"],"game_id":440,"stv_port":27016,"stv_name":"Uncletopia | Frankfurt | 1 | All Maps | STV","players":null},{"server_id":110,"name":"Uncletopia | Frankfurt | 2 | All Maps","name_short":"frk-2","host":"frk-1.de.uncletopia.com","port":27025,"enabled":true,"region":"eu","cc":"de","latitude":50.110924,"longitude":8.682127,"reserved":0,"last_update":"0001-01-01T00:00:00Z","name_a2s":"Uncletopia | Frankfurt | 2 | All Maps","protocol":17,"map":"pl_swiftwater_final1","folder":"tf","game":"Team Fortress","app_id":440,"player_count":0,"max_players":24,"Bots":0,"server_type":"Dedicated","server_os":"Linux","password":true,"vac":true,"version":"7742253","steam_id":85568392924469990,"keywords":["nocrits","nodmgspread","payload","uncletopia"],"game_id":440,"stv_port":27026,"stv_name":"Uncletopia | Frankfurt | 2 | All Maps | STV","players":null},{"server_id":308,"name":"Uncletopia | Frankfurt | 3 | All Maps","name_short":"frk-3","host":"frk-1.de.uncletopia.com","port":27035,"enabled":true,"region":"eu","cc":"de","latitude":50.110924,"longitude":8.682127,"reserved":0,"last_update":"0001-01-01T00:00:00Z","name_a2s":"Uncletopia | Frankfurt | 3 | All Maps","protocol":17,"map":"koth_cascade","folder":"tf","game":"Team Fortress","app_id":440,"player_count":0,"max_players":24,"Bots":0,"server_type":"Dedicated","server_os":"Linux","password":true,"vac":true,"version":"7742253","steam_id":85568392924504274,"keywords":["cp","nocrits","nodmgspread","uncletopia"],"game_id":440,"stv_port":27036,"stv_name":"Uncletopia | Frankfurt | 3 | All Maps | STV","players":null},{"server_id":309,"name":"Uncletopia | Frankfurt | 4 | All Maps","name_short":"frk-4","host":"frk-1.de.uncletopia.com","port":27045,"enabled":true,"region":"eu","cc":"de","latitude":50.110924,"longitude":8.682127,"reserved":0,"last_update":"0001-01-01T00:00:00Z","name_a2s":"Uncletopia | Frankfurt | 4 | All Maps","protocol":17,"map":"cp_snakewater_final1","folder":"tf","game":"Team Fortress","app_id":440,"player_count":0,"max_players":24,"Bots":0,"server_type":"Dedicated","server_os":"Linux","password":true,"vac":true,"version":"7742253","steam_id":85568392924504275,"keywords":["cp","nocrits","nodmgspread","uncletopia"],"game_id":440,"stv_port":27046,"stv_name":"Uncletopia | Frankfurt | 4 | All Maps | STV","players":null},{"server_id":310,"name":"Uncletopia | Frankfurt | 5 | All Maps","name_short":"frk-5","host":"frk-1.de.uncletopia.com","port":27055,"enabled":true,"region":"eu","cc":"de","latitude":50.110924,"longitude":8.682127,"reserved":0,"last_update":"0001-01-01T00:00:00Z","name_a2s":"Uncletopia | Frankfurt | 5 | All Maps","protocol":17,"map":"pl_borneo","folder":"tf","game":"Team Fortress","app_id":440,"player_count":0,"max_players":24,"Bots":0,"server_type":"Dedicated","server_os":"Linux","password":true,"vac":true,"version":"7742253","steam_id":85568392924504277,"keywords":["nocrits","nodmgspread","payload","uncletopia"],"game_id":440,"stv_port":27056,"stv_name":"Uncletopia | Frankfurt | 5 | All Maps | STV","players":null},{"server_id":311,"name":"Uncletopia | Frankfurt | 6 | All Maps","name_short":"frk-6","host":"frk-1.de.uncletopia.com","port":27065,"enabled":true,"region":"eu","cc":"de","latitude":50.110924,"longitude":8.682127,"reserved":0,"last_update":"0001-01-01T00:00:00Z","name_a2s":"Uncletopia | Frankfurt | 6 | All Maps","protocol":17,"map":"koth_viaduct","folder":"tf","game":"Team Fortress","app_id":440,"player_count":0,"max_players":24,"Bots":0,"server_type":"Dedicated","server_os":"Linux","password":true,"vac":true,"version":"7742253","steam_id":85568392924504278,"keywords":["cp","nocrits","nodmgspread","uncletopia"],"game_id":440,"stv_port":27066,"stv_name":"Uncletopia | Frankfurt | 6 | All Maps | STV","players":null},{"server_id":23,"name":"Uncletopia | Frankfurt | 7 | Stopwatch Beta","name_short":"frk-7","host":"frk-1.de.uncletopia.com","port":27075,"enabled":true,"region":"eu","cc":"de","latitude":50.110924,"longitude":8.682127,"reserved":0,"last_update":"0001-01-01T00:00:00Z","name_a2s":"Uncletopia | Frankfurt | 7 | Stopwatch Beta","protocol":17,"map":"pl_upward","folder":"tf","game":"Team Fortress","app_id":440,"player_count":0,"max_players":24,"Bots":0,"server_type":"Dedicated","server_os":"Linux","password":true,"vac":true,"version":"7742253","steam_id":85568392924742827,"keywords":["nocrits","nodmgspread","payload","uncletopia"],"game_id":440,"stv_port":27076,"stv_name":"Uncletopia | Frankfurt | 7 | Stopwatch Beta | STV","players":null},{"server_id":24,"name":"Uncletopia | Frankfurt | 8 | Community","name_short":"frk-8","host":"frk-1.de.uncletopia.com","port":27085,"enabled":true,"region":"eu","cc":"de","latitude":50.110924,"longitude":8.682127,"reserved":0,"last_update":"0001-01-01T00:00:00Z","name_a2s":"Uncletopia | Frankfurt | 8 | Community","protocol":17,"map":"workshop/pl_eruption_b9a.ugc2807898013","folder":"tf","game":"Team Fortress","app_id":440,"player_count":0,"max_players":24,"Bots":0,"server_type":"Dedicated","server_os":"Linux","password":true,"vac":true,"version":"7742253","steam_id":85568392924742828,"keywords":["nocrits","nodmgspread","payload","uncletopia"],"game_id":440,"stv_port":27086,"stv_name":"Uncletopia | Frankfurt | 8 | Community | STV","players":null},{"server_id":202,"name":"Uncletopia | Hong Kong | 1 | All Maps","name_short":"hgk-1","host":"hgk-1.hk.uncletopia.com","port":27015,"enabled":true,"region":"asia","cc":"hk","latitude":22.302711,"longitude":114.177216,"reserved":0,"last_update":"0001-01-01T00:00:00Z","name_a2s":"Uncletopia | Hong Kong | 1 | All Maps","protocol":17,"map":"pl_frontier_final","folder":"tf","game":"Team Fortress","app_id":440,"player_count":15,"max_players":24,"Bots":0,"server_type":"Dedicated","server_os":"Linux","password":true,"vac":true,"version":"7742253","steam_id":85568392924494504,"keywords":["nocrits","nodmgspread","payload","uncletopia"],"game_id":440,"stv_port":27016,"stv_name":"Uncletopia | Hong Kong | 1 | All Maps | STV","players":[{"user_id":160,"name":"stunnurn_m","steam_id":76561199092505140,"connected_time":483000000000,"state":"active","ping":83},{"user_id":157,"name":"neri","steam_id":76561198220095913,"connected_time":681000000000,"state":"active","ping":69},{"user_id":158,"name":"Idk what to name myself","steam_id":76561199266187527,"connected_time":604000000000,"state":"active","ping":69},{"user_id":159,"name":"exi","steam_id":76561199171636601,"connected_time":603000000000,"state":"active","ping":53},{"user_id":161,"name":"Totally a real lvl 3 sentry","steam_id":76561198979802944,"connected_time":462000000000,"state":"active","ping":64},{"user_id":150,"name":"Photoshop","steam_id":76561199168965951,"connected_time":1478000000000,"state":"active","ping":74},{"user_id":162,"name":"Average Gamer Boi","steam_id":76561199136852908,"connected_time":443000000000,"state":"active","ping":107},{"user_id":163,"name":"ALBUQUIRKY","steam_id":76561198066031454,"connected_time":364000000000,"state":"active","ping":60},{"user_id":164,"name":"neth","steam_id":76561198217995369,"connected_time":317000000000,"state":"active","ping":66},{"user_id":18,"name":"lillalune","steam_id":76561198230213828,"connected_time":4802000000000,"state":"active","ping":60},{"user_id":165,"name":"MigBac","steam_id":76561199063505872,"connected_time":290000000000,"state":"active","ping":88},{"user_id":166,"name":"JEO","steam_id":76561199100409165,"connected_time":152000000000,"state":"active","ping":91},{"user_id":167,"name":"qb","steam_id":76561198412329672,"connected_time":121000000000,"state":"active","ping":90},{"user_id":168,"name":"vikush","steam_id":76561199032468162,"connected_time":114000000000,"state":"active","ping":78},{"user_id":169,"name":"Windmill","steam_id":76561199230997986,"connected_time":111000000000,"state":"active","ping":71}]},{"server_id":1,"name":"Uncletopia | Los Angeles | 1 | All Maps","name_short":"lax-1","host":"lax-1.us.uncletopia.com","port":27015,"enabled":true,"region":"us-west","cc":"us","latitude":33.94279,"longitude":-118.41004,"reserved":0,"last_update":"0001-01-01T00:00:00Z","name_a2s":"Uncletopia | Los Angeles | 1 | All Maps","protocol":17,"map":"koth_lakeside_final","folder":"tf","game":"Team Fortress","app_id":440,"player_count":0,"max_players":24,"Bots":0,"server_type":"Dedicated","server_os":"Linux","password":true,"vac":true,"version":"7742253","steam_id":85568392924469991,"keywords":["cp","nocrits","nodmgspread","uncletopia"],"game_id":440,"stv_port":27016,"stv_name":"Uncletopia | Los Angeles | 1 | All Maps | STV","players":null},{"server_id":112,"name":"Uncletopia | Los Angeles | 2 | All Maps","name_short":"lax-2","host":"lax-1.us.uncletopia.com","port":27025,"enabled":true,"region":"us-west","cc":"us","latitude":33.94279,"longitude":-118.41004,"reserved":0,"last_update":"0001-01-01T00:00:00Z","name_a2s":"Uncletopia | Los Angeles | 2 | All Maps","protocol":17,"map":"pl_barnblitz","folder":"tf","game":"Team Fortress","app_id":440,"player_count":4,"max_players":24,"Bots":0,"server_type":"Dedicated","server_os":"Linux","password":true,"vac":true,"version":"7742253","steam_id":85568392924469992,"keywords":["nocrits","nodmgspread","payload","uncletopia"],"game_id":440,"stv_port":27026,"stv_name":"Uncletopia | Los Angeles | 2 | All Maps | STV","players":[{"user_id":5,"name":"dingus","steam_id":76561198966767200,"connected_time":482000000000,"state":"active","ping":106},{"user_id":12,"name":"far1ne","steam_id":76561198418853168,"connected_time":205000000000,"state":"active","ping":50},{"user_id":10,"name":"Thing","steam_id":76561199261081812,"connected_time":315000000000,"state":"active","ping":49},{"user_id":9,"name":"Super Tenshi","steam_id":76561199002080334,"connected_time":330000000000,"state":"active","ping":222}]},{"server_id":324,"name":"Uncletopia | Los Angeles | 3 | All Maps","name_short":"lax-3","host":"lax-1.us.uncletopia.com","port":27035,"enabled":true,"region":"us-west","cc":"us","latitude":33.94279,"longitude":-118.41004,"reserved":0,"last_update":"0001-01-01T00:00:00Z","name_a2s":"Uncletopia | Los Angeles | 3 | All Maps","protocol":17,"map":"koth_lakeside_final","folder":"tf","game":"Team Fortress","app_id":440,"player_count":0,"max_players":24,"Bots":0,"server_type":"Dedicated","server_os":"Linux","password":true,"vac":true,"version":"7742253","steam_id":85568392924510198,"keywords":["cp","nocrits","nodmgspread","uncletopia"],"game_id":440,"stv_port":27036,"stv_name":"Uncletopia | Los Angeles | 3 | All Maps | STV","players":null},{"server_id":25,"name":"Uncletopia | Los Angeles | 4 | Stopwatch Beta","name_short":"lax-4","host":"lax-1.us.uncletopia.com","port":27045,"enabled":true,"region":"us-west","cc":"us","latitude":33.94279,"longitude":-118.41004,"reserved":0,"last_update":"0001-01-01T00:00:00Z","name_a2s":"Uncletopia | Los Angeles | 4 | Stopwatch Beta","protocol":17,"map":"koth_lakeside_final","folder":"tf","game":"Team Fortress","app_id":440,"player_count":0,"max_players":24,"Bots":0,"server_type":"Dedicated","server_os":"Linux","password":true,"vac":true,"version":"7742253","steam_id":85568392924510199,"keywords":["cp","nocrits","nodmgspread","uncletopia"],"game_id":440,"stv_port":27046,"stv_name":"Uncletopia | Los Angeles | 4 | Stopwatch Beta | STV","players":null},{"server_id":11,"name":"Uncletopia | London | 1 | All Maps","name_short":"lon-1","host":"lon-1.uk.uncletopia.com","port":27015,"enabled":true,"region":"eu","cc":"gb","latitude":51.509865,"longitude":-0.118092,"reserved":0,"last_update":"0001-01-01T00:00:00Z","name_a2s":"Uncletopia | London | 1 | All Maps","protocol":17,"map":"cp_5gorge","folder":"tf","game":"Team Fortress","app_id":440,"player_count":21,"max_players":24,"Bots":0,"server_type":"Dedicated","server_os":"Linux","password":true,"vac":true,"version":"7742253","steam_id":85568392924367362,"keywords":["cp","nocrits","nodmgspread","uncletopia"],"game_id":440,"stv_port":27016,"stv_name":"Uncletopia | London | 1 | All Maps | STV","players":[{"user_id":991,"name":"Critz!","steam_id":76561197998110417,"connected_time":1974000000000,"state":"active","ping":76},{"user_id":1006,"name":"etc","steam_id":76561197998394797,"connected_time":330000000000,"state":"active","ping":46},{"user_id":977,"name":"Milk","steam_id":76561198125876588,"connected_time":2891000000000,"state":"active","ping":39},{"user_id":1002,"name":"Cranbury","steam_id":76561198079170457,"connected_time":487000000000,"state":"active","ping":44},{"user_id":1003,"name":"Cr1pS","steam_id":76561199207168649,"connected_time":478000000000,"state":"active","ping":154},{"user_id":1005,"name":"FeminineAtom","steam_id":76561198311208470,"connected_time":359000000000,"state":"active","ping":54},{"user_id":1007,"name":"K.V. #RemoveRandomCrits","steam_id":76561197994832993,"connected_time":311000000000,"state":"active","ping":76},{"user_id":954,"name":"sokige","steam_id":76561198167112371,"connected_time":5741000000000,"state":"active","ping":100},{"user_id":992,"name":"bANji","steam_id":76561198108898161,"connected_time":1894000000000,"state":"active","ping":48},{"user_id":994,"name":"O. Wilson","steam_id":76561198090751331,"connected_time":1691000000000,"state":"active","ping":59},{"user_id":983,"name":"Aera","steam_id":76561198113324486,"connected_time":2569000000000,"state":"active","ping":45},{"user_id":979,"name":"Qwerty","steam_id":76561198023525894,"connected_time":2651000000000,"state":"active","ping":88},{"user_id":962,"name":"Yata","steam_id":76561198195284171,"connected_time":4656000000000,"state":"active","ping":134},{"user_id":916,"name":"teddy","steam_id":76561198007436837,"connected_time":10378000000000,"state":"active","ping":37},{"user_id":984,"name":"Lewylow","steam_id":76561198005425686,"connected_time":2567000000000,"state":"active","ping":59},{"user_id":990,"name":"zigg","steam_id":76561198149501776,"connected_time":2104000000000,"state":"active","ping":56},{"user_id":912,"name":"CiVillain","steam_id":76561198059617732,"connected_time":10661000000000,"state":"active","ping":67},{"user_id":875,"name":"Pinkchup","steam_id":76561198106802803,"connected_time":15191000000000,"state":"active","ping":75},{"user_id":973,"name":"Fran","steam_id":76561198339019518,"connected_time":3992000000000,"state":"active","ping":64},{"user_id":948,"name":"R A S M U S","steam_id":76561198279799226,"connected_time":6537000000000,"state":"active","ping":61},{"user_id":965,"name":"Poor Fucking Infantry","steam_id":76561198055978522,"connected_time":4208000000000,"state":"active","ping":46}]},{"server_id":114,"name":"Uncletopia | London | 2 | All Maps","name_short":"lon-2","host":"lon-1.uk.uncletopia.com","port":27025,"enabled":true,"region":"eu","cc":"gb","latitude":51.509865,"longitude":-0.118092,"reserved":0,"last_update":"0001-01-01T00:00:00Z","name_a2s":"Uncletopia | London | 2 | All Maps","protocol":17,"map":"pl_badwater","folder":"tf","game":"Team Fortress","app_id":440,"player_count":21,"max_players":24,"Bots":0,"server_type":"Dedicated","server_os":"Linux","password":true,"vac":true,"version":"7742253","steam_id":85568392924470941,"keywords":["nocrits","nodmgspread","payload","uncletopia"],"game_id":440,"stv_port":27026,"stv_name":"Uncletopia | London | 2 | All Maps | STV","players":[{"user_id":783,"name":"pardner","steam_id":76561198451471161,"connected_time":942000000000,"state":"active","ping":55},{"user_id":715,"name":"Spooky Doggo","steam_id":76561198119630335,"connected_time":6277000000000,"state":"active","ping":50},{"user_id":802,"name":"kitten","steam_id":76561198004572519,"connected_time":345000000000,"state":"active","ping":33},{"user_id":801,"name":"zoro","steam_id":76561198083657017,"connected_time":436000000000,"state":"active","ping":84},{"user_id":805,"name":"mark101","steam_id":76561198083505031,"connected_time":130000000000,"state":"active","ping":29},{"user_id":782,"name":"b_a1Ln","steam_id":76561198135213739,"connected_time":1027000000000,"state":"active","ping":90},{"user_id":772,"name":"sadie","steam_id":76561198831381780,"connected_time":1377000000000,"state":"active","ping":37},{"user_id":779,"name":"Talent","steam_id":76561198153880354,"connected_time":1151000000000,"state":"active","ping":42},{"user_id":597,"name":"Borat","steam_id":76561198122226417,"connected_time":15496000000000,"state":"active","ping":44},{"user_id":719,"name":"Руинер","steam_id":76561198166980992,"connected_time":6177000000000,"state":"active","ping":107},{"user_id":771,"name":"End","steam_id":76561198332429328,"connected_time":1487000000000,"state":"active","ping":36},{"user_id":765,"name":"Erior","steam_id":76561198039462080,"connected_time":2116000000000,"state":"active","ping":103},{"user_id":688,"name":"nes","steam_id":76561198037938833,"connected_time":7890000000000,"state":"active","ping":52},{"user_id":735,"name":"akciq ⁧⁧respect","steam_id":76561198390963456,"connected_time":4991000000000,"state":"active","ping":78},{"user_id":773,"name":"Eleren","steam_id":76561198123361225,"connected_time":1346000000000,"state":"active","ping":45},{"user_id":739,"name":"Boycie","steam_id":76561198179116027,"connected_time":4387000000000,"state":"active","ping":49},{"user_id":758,"name":"Loading","steam_id":76561198201981190,"connected_time":2715000000000,"state":"active","ping":83},{"user_id":726,"name":"Faust","steam_id":76561198020120181,"connected_time":5781000000000,"state":"active","ping":90},{"user_id":768,"name":"Luigi Gaming (real and official","steam_id":76561198082502910,"connected_time":2001000000000,"state":"active","ping":62},{"user_id":760,"name":"duster cat","steam_id":76561198832231975,"connected_time":2614000000000,"state":"active","ping":98},{"user_id":770,"name":"soulja boy face reveal","steam_id":76561198097820508,"connected_time":1970000000000,"state":"active","ping":57}]},{"server_id":320,"name":"Uncletopia | London | 3 | All Maps","name_short":"lon-3","host":"lon-1.uk.uncletopia.com","port":27035,"enabled":true,"region":"eu","cc":"gb","latitude":51.509865,"longitude":-0.118092,"reserved":0,"last_update":"0001-01-01T00:00:00Z","name_a2s":"Uncletopia | London | 3 | All Maps","protocol":17,"map":"pl_barnblitz","folder":"tf","game":"Team Fortress","app_id":440,"player_count":0,"max_players":24,"Bots":0,"server_type":"Dedicated","server_os":"Linux","password":true,"vac":true,"version":"7742253","steam_id":85568392924510192,"keywords":["nocrits","nodmgspread","payload","uncletopia"],"game_id":440,"stv_port":27036,"stv_name":"Uncletopia | London | 3 | All Maps | STV","players":null},{"server_id":321,"name":"Uncletopia | London | 4 | All Maps","name_short":"lon-4","host":"lon-1.uk.uncletopia.com","port":27045,"enabled":true,"region":"eu","cc":"gb","latitude":51.509865,"longitude":-0.118092,"reserved":0,"last_update":"0001-01-01T00:00:00Z","name_a2s":"Uncletopia | London | 4 | All Maps","protocol":17,"map":"pl_swiftwater_final1","folder":"tf","game":"Team Fortress","app_id":440,"player_count":0,"max_players":24,"Bots":0,"server_type":"Dedicated","server_os":"Linux","password":true,"vac":true,"version":"7742253","steam_id":85568392924510193,"keywords":["nocrits","nodmgspread","payload","uncletopia"],"game_id":440,"stv_port":27046,"stv_name":"Uncletopia | London | 4 | All Maps | STV","players":null},{"server_id":21,"name":"Uncletopia | London | 5 | All Maps","name_short":"lon-5","host":"lon-1.uk.uncletopia.com","port":27055,"enabled":true,"region":"eu","cc":"gb","latitude":51.509865,"longitude":-0.118092,"reserved":0,"last_update":"0001-01-01T00:00:00Z","name_a2s":"Uncletopia | London | 5 | All Maps","protocol":17,"map":"cp_snakewater_final1","folder":"tf","game":"Team Fortress","app_id":440,"player_count":0,"max_players":24,"Bots":0,"server_type":"Dedicated","server_os":"Linux","password":true,"vac":true,"version":"7742253","steam_id":85568392924742829,"keywords":["cp","nocrits","nodmgspread","uncletopia"],"game_id":440,"stv_port":27056,"stv_name":"Uncletopia | London | 5 | All Maps | STV","players":null},{"server_id":22,"name":"Uncletopia | London | 6 | All Maps","name_short":"lon-6","host":"lon-1.uk.uncletopia.com","port":27065,"enabled":true,"region":"eu","cc":"gb","latitude":51.509865,"longitude":-0.118092,"reserved":0,"last_update":"0001-01-01T00:00:00Z","name_a2s":"Uncletopia | London | 6 | All Maps","protocol":17,"map":"pl_frontier_final","folder":"tf","game":"Team Fortress","app_id":440,"player_count":0,"max_players":24,"Bots":0,"server_type":"Dedicated","server_os":"Linux","password":true,"vac":true,"version":"7742253","steam_id":85568392924742830,"keywords":["nocrits","nodmgspread","payload","uncletopia"],"game_id":440,"stv_port":27066,"stv_name":"Uncletopia | London | 6 | All Maps | STV","players":null},{"server_id":40,"name":"Uncletopia | London | 7 | No Payload","name_short":"lon-7","host":"lon-1.uk.uncletopia.com","port":27075,"enabled":true,"region":"eu","cc":"gb","latitude":51.509865,"longitude":-0.118092,"reserved":0,"last_update":"0001-01-01T00:00:00Z","name_a2s":"Uncletopia | London | 7 | No Payload","protocol":17,"map":"plr_bananabay","folder":"tf","game":"Team Fortress","app_id":440,"player_count":0,"max_players":24,"Bots":0,"server_type":"Dedicated","server_os":"Linux","password":true,"vac":true,"version":"7742253","steam_id":85568392924964314,"keywords":["nocrits","nodmgspread","payload","uncletopia"],"game_id":440,"stv_port":27076,"stv_name":"Uncletopia | London | 7 | No Payload | STV","players":null},{"server_id":41,"name":"Uncletopia | London | 8 | Community","name_short":"lon-8","host":"lon-1.uk.uncletopia.com","port":27085,"enabled":true,"region":"eu","cc":"gb","latitude":51.509865,"longitude":-0.118092,"reserved":0,"last_update":"0001-01-01T00:00:00Z","name_a2s":"Uncletopia | London | 8 | Community","protocol":17,"map":"workshop/koth_ashville_final.ugc2130459942","folder":"tf","game":"Team Fortress","app_id":440,"player_count":0,"max_players":24,"Bots":0,"server_type":"Dedicated","server_os":"Linux","password":true,"vac":true,"version":"7742253","steam_id":85568392924964315,"keywords":["cp","nocrits","nodmgspread","uncletopia"],"game_id":440,"stv_port":27086,"stv_name":"Uncletopia | London | 8 | Community | STV","players":null},{"server_id":300,"name":"Uncletopia | Montréal | 1 | All Maps","name_short":"mtl-1","host":"mtl-1.ca.uncletopia.com","port":27015,"enabled":true,"region":"us-east","cc":"ca","latitude":45.50889,"longitude":-73.56167,"reserved":0,"last_update":"0001-01-01T00:00:00Z","name_a2s":"Uncletopia | Montréal | 1 | All Maps","protocol":17,"map":"koth_cascade","folder":"tf","game":"Team Fortress","app_id":440,"player_count":0,"max_players":24,"Bots":0,"server_type":"Dedicated","server_os":"Linux","password":true,"vac":true,"version":"7742253","steam_id":85568392924500087,"keywords":["cp","nocrits","nodmgspread","uncletopia"],"game_id":440,"stv_port":27016,"stv_name":"Uncletopia | Montréal | 1 | All Maps | STV","players":null},{"server_id":301,"name":"Uncletopia | Montréal | 2 | All Maps","name_short":"mtl-2","host":"mtl-1.ca.uncletopia.com","port":27025,"enabled":true,"region":"us-east","cc":"ca","latitude":45.50889,"longitude":-73.56167,"reserved":0,"last_update":"0001-01-01T00:00:00Z","name_a2s":"Uncletopia | Montréal | 2 | All Maps","protocol":17,"map":"pl_borneo","folder":"tf","game":"Team Fortress","app_id":440,"player_count":23,"max_players":24,"Bots":0,"server_type":"Dedicated","server_os":"Linux","password":true,"vac":true,"version":"7742253","steam_id":85568392924500088,"keywords":["nocrits","nodmgspread","payload","uncletopia"],"game_id":440,"stv_port":27026,"stv_name":"Uncletopia | Montréal | 2 | All Maps | STV","players":[{"user_id":499,"name":"Rudy","steam_id":76561198013456828,"connected_time":303000000000,"state":"active","ping":59},{"user_id":375,"name":"Luis wid a mic","steam_id":76561198349570006,"connected_time":6394000000000,"state":"active","ping":45},{"user_id":468,"name":"an inebriated newt fancier","steam_id":76561197985428155,"connected_time":1603000000000,"state":"active","ping":59},{"user_id":478,"name":"Epha","steam_id":76561198079379951,"connected_time":1199000000000,"state":"active","ping":64},{"user_id":471,"name":"WitheredReaper","steam_id":76561198411394589,"connected_time":1424000000000,"state":"active","ping":127},{"user_id":483,"name":"FightyPNW","steam_id":76561198981808810,"connected_time":794000000000,"state":"active","ping":114},{"user_id":480,"name":"Athaz","steam_id":76561198296557673,"connected_time":905000000000,"state":"active","ping":58},{"user_id":474,"name":"roy","steam_id":76561198032579971,"connected_time":1382000000000,"state":"active","ping":70},{"user_id":481,"name":"Carpicious","steam_id":76561198426619665,"connected_time":880000000000,"state":"active","ping":135},{"user_id":504,"name":"Patisserie","steam_id":76561198239169752,"connected_time":100000000000,"state":"active","ping":60},{"user_id":461,"name":"All Hail Revolvers","steam_id":76561198088996732,"connected_time":1961000000000,"state":"active","ping":61},{"user_id":500,"name":"Wso1123","steam_id":76561198048040111,"connected_time":303000000000,"state":"active","ping":104},{"user_id":486,"name":"Buttface McPoopstain","steam_id":76561199144640325,"connected_time":713000000000,"state":"active","ping":73},{"user_id":484,"name":"BigBubble42","steam_id":76561198136286123,"connected_time":777000000000,"state":"active","ping":158},{"user_id":505,"name":"Inevitable","steam_id":76561198210050169,"connected_time":34000000000,"state":"active","ping":48},{"user_id":502,"name":"SkiesRed","steam_id":76561199389262041,"connected_time":292000000000,"state":"active","ping":84},{"user_id":492,"name":"Ostin","steam_id":76561197993726444,"connected_time":499000000000,"state":"active","ping":88},{"user_id":493,"name":"Loops","steam_id":76561198869085259,"connected_time":467000000000,"state":"active","ping":69},{"user_id":494,"name":"ZekeThePlumber","steam_id":76561197995016724,"connected_time":455000000000,"state":"active","ping":61},{"user_id":503,"name":"SKINGRAPH","steam_id":76561198082933650,"connected_time":252000000000,"state":"active","ping":96},{"user_id":496,"name":"heavy jumpscare","steam_id":76561198376752965,"connected_time":388000000000,"state":"active","ping":57},{"user_id":497,"name":"Brass beast heavy","steam_id":76561198274197623,"connected_time":379000000000,"state":"active","ping":160},{"user_id":498,"name":"Duncan Idaho","steam_id":76561197988963861,"connected_time":352000000000,"state":"active","ping":49}]},{"server_id":302,"name":"Uncletopia | Montréal | 3 | All Maps","name_short":"mtl-3","host":"mtl-1.ca.uncletopia.com","port":27035,"enabled":true,"region":"us-east","cc":"ca","latitude":45.50889,"longitude":-73.56167,"reserved":0,"last_update":"0001-01-01T00:00:00Z","name_a2s":"Uncletopia | Montréal | 3 | All Maps","protocol":17,"map":"pl_frontier_final","folder":"tf","game":"Team Fortress","app_id":440,"player_count":0,"max_players":24,"Bots":0,"server_type":"Dedicated","server_os":"Linux","password":true,"vac":true,"version":"7742253","steam_id":85568392924500089,"keywords":["nocrits","nodmgspread","payload","uncletopia"],"game_id":440,"stv_port":27036,"stv_name":"Uncletopia | Montréal | 3 | All Maps | STV","players":null},{"server_id":303,"name":"Uncletopia | Montréal | 4 | No Payload","name_short":"mtl-4","host":"mtl-1.ca.uncletopia.com","port":27045,"enabled":true,"region":"us-east","cc":"ca","latitude":45.50889,"longitude":-73.56167,"reserved":0,"last_update":"0001-01-01T00:00:00Z","name_a2s":"Uncletopia | Montréal | 4 | No Payload","protocol":17,"map":"cp_mountainlab","folder":"tf","game":"Team Fortress","app_id":440,"player_count":0,"max_players":24,"Bots":0,"server_type":"Dedicated","server_os":"Linux","password":true,"vac":true,"version":"7742253","steam_id":85568392924500090,"keywords":["cp","nocrits","nodmgspread","uncletopia"],"game_id":440,"stv_port":27046,"stv_name":"Uncletopia | Montréal | 4 | No Payload | STV","players":null},{"server_id":13,"name":"Uncletopia | New York City | 1 | All Maps","name_short":"nyc-1","host":"nyc-1.us.uncletopia.com","port":27015,"enabled":true,"region":"us-east","cc":"us","latitude":40.73061,"longitude":-73.93524,"reserved":0,"last_update":"0001-01-01T00:00:00Z","name_a2s":"Uncletopia | New York City | 1 | All Maps","protocol":17,"map":"pl_barnblitz","folder":"tf","game":"Team Fortress","app_id":440,"player_count":24,"max_players":24,"Bots":0,"server_type":"Dedicated","server_os":"Linux","password":true,"vac":true,"version":"7742253","steam_id":85568392924469993,"keywords":["nocrits","nodmgspread","payload","uncletopia"],"game_id":440,"stv_port":27016,"stv_name":"Uncletopia | New York City | 1 | All Maps | STV","players":[{"user_id":146,"name":"Bulk","steam_id":76561199009814535,"connected_time":211000000000,"state":"active","ping":46},{"user_id":125,"name":"matchstick","steam_id":76561198190100027,"connected_time":1412000000000,"state":"active","ping":45},{"user_id":132,"name":"Shh","steam_id":76561198075865231,"connected_time":399000000000,"state":"active","ping":49},{"user_id":130,"name":"Gian","steam_id":76561198041434512,"connected_time":1318000000000,"state":"active","ping":107},{"user_id":143,"name":"Octovaitor","steam_id":76561198004658451,"connected_time":304000000000,"state":"active","ping":44},{"user_id":89,"name":"SalamenceFury","steam_id":76561198054585848,"connected_time":3732000000000,"state":"active","ping":136},{"user_id":121,"name":"Ballin \u0026 Can't Get Up","steam_id":76561198047394013,"connected_time":1933000000000,"state":"active","ping":62},{"user_id":124,"name":"FattSucc","steam_id":76561198009500503,"connected_time":1563000000000,"state":"active","ping":92},{"user_id":149,"name":"Cosme Fulanito","steam_id":76561198825253188,"connected_time":70000000000,"state":"active","ping":122},{"user_id":136,"name":"sorestburrito7","steam_id":76561198329065767,"connected_time":377000000000,"state":"active","ping":98},{"user_id":113,"name":"paul daneo","steam_id":76561198069065342,"connected_time":2626000000000,"state":"active","ping":61},{"user_id":137,"name":"Spud","steam_id":76561197998053634,"connected_time":357000000000,"state":"active","ping":80},{"user_id":145,"name":"Sir Quacksalot","steam_id":76561198048942777,"connected_time":237000000000,"state":"active","ping":92},{"user_id":114,"name":"acxeu","steam_id":76561198394435000,"connected_time":2617000000000,"state":"active","ping":53},{"user_id":147,"name":"Menlymen","steam_id":76561198046508051,"connected_time":165000000000,"state":"active","ping":100},{"user_id":139,"name":"Steven_Stevens","steam_id":76561199138193525,"connected_time":334000000000,"state":"active","ping":104},{"user_id":131,"name":"True American Hero","steam_id":76561198025473302,"connected_time":1209000000000,"state":"active","ping":87},{"user_id":75,"name":"TheBoxWizard","steam_id":76561198447992832,"connected_time":4267000000000,"state":"active","ping":43},{"user_id":107,"name":"jnv1013","steam_id":76561198965549228,"connected_time":2964000000000,"state":"active","ping":55},{"user_id":120,"name":"Silverio","steam_id":76561197999425381,"connected_time":2017000000000,"state":"active","ping":58},{"user_id":140,"name":"Braamklauw","steam_id":76561198283287697,"connected_time":326000000000,"state":"active","ping":150},{"user_id":141,"name":"Anxiety","steam_id":76561198365627687,"connected_time":323000000000,"state":"active","ping":124},{"user_id":133,"name":"Ronin Grinch","steam_id":76561198041439581,"connected_time":394000000000,"state":"active","ping":60},{"user_id":105,"name":"C0SMIC PLAGU3","steam_id":76561198051958643,"connected_time":3154000000000,"state":"active","ping":65}]},{"server_id":14,"name":"Uncletopia | New York City | 2 | All Maps","name_short":"nyc-2","host":"nyc-1.us.uncletopia.com","port":27025,"enabled":true,"region":"us-east","cc":"us","latitude":40.73061,"longitude":-73.93524,"reserved":0,"last_update":"0001-01-01T00:00:00Z","name_a2s":"Uncletopia | New York City | 2 | All Maps","protocol":17,"map":"pl_frontier_final","folder":"tf","game":"Team Fortress","app_id":440,"player_count":23,"max_players":24,"Bots":0,"server_type":"Dedicated","server_os":"Linux","password":true,"vac":true,"version":"7742253","steam_id":85568392924469994,"keywords":["nocrits","nodmgspread","payload","uncletopia"],"game_id":440,"stv_port":27026,"stv_name":"Uncletopia | New York City | 2 | All Maps | STV","players":[{"user_id":53,"name":"anaphylaxis","steam_id":76561198097396447,"connected_time":1371000000000,"state":"active","ping":124},{"user_id":69,"name":"toona","steam_id":76561198065005612,"connected_time":980000000000,"state":"active","ping":86},{"user_id":55,"name":"Hey Kid","steam_id":76561198087089023,"connected_time":1367000000000,"state":"active","ping":62},{"user_id":41,"name":"Elegant Ejaculation","steam_id":76561198014190878,"connected_time":1666000000000,"state":"active","ping":113},{"user_id":71,"name":"Thamahawk76","steam_id":76561198061986360,"connected_time":936000000000,"state":"active","ping":64},{"user_id":35,"name":"watchfull","steam_id":76561198433266742,"connected_time":1949000000000,"state":"active","ping":107},{"user_id":72,"name":"Zoombini16","steam_id":76561198324428992,"connected_time":595000000000,"state":"active","ping":60},{"user_id":40,"name":"nba","steam_id":76561198853309666,"connected_time":1721000000000,"state":"active","ping":91},{"user_id":82,"name":"Roxy Kinnie","steam_id":76561198078496426,"connected_time":152000000000,"state":"active","ping":62},{"user_id":60,"name":"RedBatman","steam_id":76561198064252016,"connected_time":1337000000000,"state":"active","ping":61},{"user_id":73,"name":"rainwarden","steam_id":76561198085183458,"connected_time":576000000000,"state":"active","ping":48},{"user_id":78,"name":"oran joos","steam_id":76561199368016027,"connected_time":483000000000,"state":"active","ping":102},{"user_id":56,"name":"sithreis","steam_id":76561198000564263,"connected_time":1363000000000,"state":"active","ping":74},{"user_id":74,"name":"AlecTheNefarious","steam_id":76561198035291230,"connected_time":573000000000,"state":"active","ping":87},{"user_id":81,"name":"Stinko McGee","steam_id":76561198139525031,"connected_time":163000000000,"state":"active","ping":66},{"user_id":80,"name":"meghan trainor's bass","steam_id":76561198075858067,"connected_time":233000000000,"state":"active","ping":47},{"user_id":51,"name":"Barry","steam_id":76561198371953939,"connected_time":1400000000000,"state":"active","ping":60},{"user_id":84,"name":"lanoc","steam_id":76561198055415367,"connected_time":143000000000,"state":"active","ping":68},{"user_id":83,"name":"simplyhere141","steam_id":76561199204117948,"connected_time":145000000000,"state":"active","ping":42},{"user_id":64,"name":"Elite_Friendly","steam_id":76561198819972127,"connected_time":1295000000000,"state":"active","ping":119},{"user_id":65,"name":"Saristan","steam_id":76561198093346048,"connected_time":1263000000000,"state":"active","ping":51},{"user_id":66,"name":"AverageRundownJoe.ttv","steam_id":76561198059359620,"connected_time":1263000000000,"state":"active","ping":77},{"user_id":67,"name":"☃❆FLVRRY☃❆","steam_id":76561199072765441,"connected_time":1223000000000,"state":"active","ping":134}]},{"server_id":15,"name":"Uncletopia | New York City | 3 | Stopwatch Beta","name_short":"nyc-3","host":"nyc-1.us.uncletopia.com","port":27035,"enabled":true,"region":"us-east","cc":"us","latitude":40.73061,"longitude":-73.93524,"reserved":0,"last_update":"0001-01-01T00:00:00Z","name_a2s":"Uncletopia | New York City | 3 | Stopwatch Beta","protocol":17,"map":"pl_pier","folder":"tf","game":"Team Fortress","app_id":440,"player_count":0,"max_players":24,"Bots":0,"server_type":"Dedicated","server_os":"Linux","password":true,"vac":true,"version":"7742253","steam_id":85568392924742820,"keywords":["nocrits","nodmgspread","payload","uncletopia"],"game_id":440,"stv_port":27036,"stv_name":"Uncletopia | New York City | 3 | Stopwatch Beta | STV","players":null},{"server_id":16,"name":"Uncletopia | New York City | 4 | Community","name_short":"nyc-4","host":"nyc-1.us.uncletopia.com","port":27045,"enabled":true,"region":"us-east","cc":"us","latitude":40.73061,"longitude":-73.93524,"reserved":0,"last_update":"0001-01-01T00:00:00Z","name_a2s":"Uncletopia | New York City | 4 | Community","protocol":17,"map":"koth_viaduct","folder":"tf","game":"Team Fortress","app_id":440,"player_count":8,"max_players":24,"Bots":0,"server_type":"Dedicated","server_os":"Linux","password":true,"vac":true,"version":"7742253","steam_id":85568392924742821,"keywords":["cp","nocrits","nodmgspread","uncletopia"],"game_id":440,"stv_port":27046,"stv_name":"Uncletopia | New York City | 4 | Community | STV","players":[{"user_id":26,"name":"Fearful_Housing","steam_id":76561199403107690,"connected_time":557000000000,"state":"active","ping":65},{"user_id":27,"name":"LazyKoala99","steam_id":76561199183623672,"connected_time":429000000000,"state":"active","ping":46},{"user_id":24,"name":"Aids Transmitter","steam_id":76561199365649476,"connected_time":725000000000,"state":"active","ping":268},{"user_id":28,"name":"NakedKoops(#RemasterTTYD)","steam_id":76561199197961413,"connected_time":357000000000,"state":"active","ping":32},{"user_id":30,"name":"Thermidor","steam_id":76561198021486476,"connected_time":107000000000,"state":"active","ping":81},{"user_id":20,"name":"illious","steam_id":76561198169925494,"connected_time":1189000000000,"state":"active","ping":77},{"user_id":21,"name":"KoolBucky","steam_id":76561198147927648,"connected_time":1165000000000,"state":"active","ping":78},{"user_id":31,"name":"AliCat","steam_id":76561198308360862,"connected_time":5000000000,"state":"spawning","ping":457}]},{"server_id":142,"name":"Uncletopia | São Paulo | 1 | All Maps","name_short":"sao-1","host":"sao-1.br.uncletopia.com","port":27015,"enabled":true,"region":"sa","cc":"br","latitude":-23.533773,"longitude":-46.62529,"reserved":0,"last_update":"0001-01-01T00:00:00Z","name_a2s":"Uncletopia | São Paulo | 1 | All Maps","protocol":17,"map":"koth_king","folder":"tf","game":"Team Fortress","app_id":440,"player_count":13,"max_players":24,"Bots":0,"server_type":"Dedicated","server_os":"Linux","password":true,"vac":true,"version":"7742253","steam_id":85568392924469996,"keywords":["cp","nocrits","nodmgspread","uncletopia"],"game_id":440,"stv_port":27016,"stv_name":"Uncletopia | São Paulo | 1 | All Maps | STV","players":[{"user_id":103,"name":"victourino (F2P)","steam_id":76561199058995595,"connected_time":1993000000000,"state":"spawning","ping":104},{"user_id":82,"name":"East Hastings","steam_id":76561198118943620,"connected_time":5715000000000,"state":"spawning","ping":90},{"user_id":81,"name":"Chihayafuru Peak Fiction","steam_id":76561199066360306,"connected_time":5759000000000,"state":"spawning","ping":160},{"user_id":107,"name":"Senhor mr m","steam_id":76561199171383361,"connected_time":1799000000000,"state":"spawning","ping":77},{"user_id":113,"name":"Kamikaze Soldier#SaveTF2","steam_id":76561198860370749,"connected_time":1254000000000,"state":"spawning","ping":125},{"user_id":99,"name":"silly","steam_id":76561199029268129,"connected_time":3144000000000,"state":"spawning","ping":168},{"user_id":109,"name":"skill issue i have","steam_id":76561198147130561,"connected_time":1578000000000,"state":"spawning","ping":93},{"user_id":123,"name":"Cabeleira","steam_id":76561198323253534,"connected_time":488000000000,"state":"spawning","ping":76},{"user_id":114,"name":"Liniker","steam_id":76561198948736406,"connected_time":1248000000000,"state":"spawning","ping":112},{"user_id":121,"name":"alisa meu pau","steam_id":76561198349761864,"connected_time":747000000000,"state":"spawning","ping":106},{"user_id":119,"name":"B. Comet","steam_id":76561198058235498,"connected_time":974000000000,"state":"spawning","ping":87},{"user_id":70,"name":"yes","steam_id":76561198276113571,"connected_time":7127000000000,"state":"spawning","ping":89},{"user_id":83,"name":"jr_rusty","steam_id":76561198313937899,"connected_time":5714000000000,"state":"spawning","ping":113}]},{"server_id":143,"name":"Uncletopia | São Paulo | 2 | All Maps","name_short":"sao-2","host":"sao-2.br.uncletopia.com","port":27015,"enabled":true,"region":"sa","cc":"br","latitude":-23.533773,"longitude":-46.62529,"reserved":0,"last_update":"0001-01-01T00:00:00Z","name_a2s":"Uncletopia | São Paulo | 2 | All Maps","protocol":17,"map":"pl_badwater","folder":"tf","game":"Team Fortress","app_id":440,"player_count":1,"max_players":24,"Bots":0,"server_type":"Dedicated","server_os":"Linux","password":true,"vac":true,"version":"7742253","steam_id":85568392924485349,"keywords":["nocrits","nodmgspread","payload","uncletopia"],"game_id":440,"stv_port":27016,"stv_name":"Uncletopia | São Paulo | 2 | All Maps | STV","players":[{"user_id":16,"name":"mignator1123","steam_id":76561199193442670,"connected_time":429000000000,"state":"active","ping":60}]},{"server_id":7,"name":"Uncletopia | Seattle | 1 | All Maps","name_short":"sea-1","host":"sea-1.us.uncletopia.com","port":27015,"enabled":true,"region":"us-west","cc":"us","latitude":47.608013,"longitude":-122.33517,"reserved":0,"last_update":"0001-01-01T00:00:00Z","name_a2s":"Uncletopia | Seattle | 1 | All Maps","protocol":17,"map":"pl_pier","folder":"tf","game":"Team Fortress","app_id":440,"player_count":24,"max_players":24,"Bots":0,"server_type":"Dedicated","server_os":"Linux","password":true,"vac":true,"version":"7742253","steam_id":85568392924469997,"keywords":["nocrits","nodmgspread","payload","uncletopia"],"game_id":440,"stv_port":27016,"stv_name":"Uncletopia | Seattle | 1 | All Maps | STV","players":[{"user_id":351,"name":"Korey","steam_id":76561198210734407,"connected_time":976000000000,"state":"active","ping":114},{"user_id":371,"name":"SterStormSnow","steam_id":76561198126687570,"connected_time":457000000000,"state":"active","ping":132},{"user_id":364,"name":"selvhat","steam_id":76561198114225509,"connected_time":535000000000,"state":"active","ping":80},{"user_id":333,"name":"Ridley","steam_id":76561198846891176,"connected_time":2362000000000,"state":"active","ping":58},{"user_id":361,"name":"͓͓̝͙̠̝͖͉̥C͂͑ͬ͛͋̿","steam_id":76561198423390455,"connected_time":597000000000,"state":"active","ping":58},{"user_id":362,"name":"Spicy Within Reason","steam_id":76561198066700370,"connected_time":596000000000,"state":"active","ping":57},{"user_id":320,"name":"Bubbamanme","steam_id":76561198119778504,"connected_time":3363000000000,"state":"active","ping":52},{"user_id":375,"name":"NGsterson","steam_id":76561198162108154,"connected_time":213000000000,"state":"active","ping":49},{"user_id":301,"name":"MagusTheThriceGreat","steam_id":76561198148249513,"connected_time":5095000000000,"state":"active","ping":131},{"user_id":276,"name":"Lightworker","steam_id":76561198063949642,"connected_time":6884000000000,"state":"active","ping":36},{"user_id":365,"name":"ZRMicrowave","steam_id":76561198288574525,"connected_time":502000000000,"state":"active","ping":108},{"user_id":309,"name":"Naffers","steam_id":76561198195957335,"connected_time":3714000000000,"state":"active","ping":45},{"user_id":372,"name":"Skate Duck","steam_id":76561198125041862,"connected_time":454000000000,"state":"active","ping":58},{"user_id":265,"name":"Aardappel","steam_id":76561198030894676,"connected_time":7978000000000,"state":"active","ping":63},{"user_id":356,"name":"RobloxFan2016","steam_id":76561198864845171,"connected_time":738000000000,"state":"active","ping":88},{"user_id":376,"name":"Sweets","steam_id":76561198998446307,"connected_time":156000000000,"state":"active","ping":70},{"user_id":378,"name":"Stapler","steam_id":76561198099295077,"connected_time":111000000000,"state":"active","ping":66},{"user_id":380,"name":"KingTinkerer","steam_id":76561198226856548,"connected_time":18000000000,"state":"active","ping":62},{"user_id":368,"name":"MarshallMellows","steam_id":76561198231561020,"connected_time":485000000000,"state":"active","ping":60},{"user_id":377,"name":"oil","steam_id":76561198099980149,"connected_time":145000000000,"state":"active","ping":81},{"user_id":373,"name":"ඞ","steam_id":76561198256701755,"connected_time":415000000000,"state":"active","ping":60},{"user_id":374,"name":"Luca","steam_id":76561198125087140,"connected_time":275000000000,"state":"active","ping":46},{"user_id":359,"name":"Ducks","steam_id":76561198130038345,"connected_time":622000000000,"state":"active","ping":62},{"user_id":379,"name":"🎄AndreaJingling🎄","steam_id":76561198198658783,"connected_time":96000000000,"state":"active","ping":74}]},{"server_id":119,"name":"Uncletopia | Seattle | 2 | All Maps","name_short":"sea-2","host":"sea-1.us.uncletopia.com","port":27025,"enabled":true,"region":"us-west","cc":"us","latitude":47.608013,"longitude":-122.33517,"reserved":0,"last_update":"0001-01-01T00:00:00Z","name_a2s":"Uncletopia | Seattle | 2 | All Maps","protocol":17,"map":"pl_snowycoast","folder":"tf","game":"Team Fortress","app_id":440,"player_count":23,"max_players":24,"Bots":0,"server_type":"Dedicated","server_os":"Linux","password":true,"vac":true,"version":"7742253","steam_id":85568392924469998,"keywords":["nocrits","nodmgspread","payload","uncletopia"],"game_id":440,"stv_port":27026,"stv_name":"Uncletopia | Seattle | 2 | All Maps | STV","players":[{"user_id":356,"name":"Ramix","steam_id":76561198120419206,"connected_time":118000000000,"state":"active","ping":106},{"user_id":337,"name":"myo0mity","steam_id":76561199018184096,"connected_time":1423000000000,"state":"active","ping":84},{"user_id":352,"name":"Smleh","steam_id":76561198273231747,"connected_time":322000000000,"state":"active","ping":67},{"user_id":319,"name":"What are you doing?!","steam_id":76561198405248691,"connected_time":3304000000000,"state":"active","ping":71},{"user_id":351,"name":"The Super Mario Bros. Movie","steam_id":76561198871692156,"connected_time":750000000000,"state":"active","ping":46},{"user_id":290,"name":"krootonitron","steam_id":76561198114113037,"connected_time":4536000000000,"state":"active","ping":78},{"user_id":357,"name":"♥ PsychicCellar ♥","steam_id":76561198045923020,"connected_time":101000000000,"state":"active","ping":89},{"user_id":354,"name":"Logan601 #savetf2","steam_id":76561198263116731,"connected_time":304000000000,"state":"active","ping":87},{"user_id":340,"name":"Clit Connoisseur","steam_id":76561198166880794,"connected_time":1411000000000,"state":"active","ping":101},{"user_id":344,"name":"GඞMER","steam_id":76561198340389876,"connected_time":1206000000000,"state":"active","ping":91},{"user_id":336,"name":"Cambonieboo","steam_id":76561198139174433,"connected_time":1468000000000,"state":"active","ping":100},{"user_id":327,"name":"That Guy","steam_id":76561197997444126,"connected_time":2617000000000,"state":"active","ping":51},{"user_id":322,"name":"Roomsky","steam_id":76561198012827494,"connected_time":3208000000000,"state":"active","ping":48},{"user_id":348,"name":"doopsies","steam_id":76561198083000867,"connected_time":863000000000,"state":"active","ping":56},{"user_id":328,"name":"PorgyPork","steam_id":76561198824399078,"connected_time":2609000000000,"state":"active","ping":48},{"user_id":313,"name":"Femboi Fox","steam_id":76561198915758702,"connected_time":3701000000000,"state":"active","ping":70},{"user_id":353,"name":"haj","steam_id":76561198043902911,"connected_time":318000000000,"state":"active","ping":48},{"user_id":355,"name":"suters05","steam_id":76561198076932174,"connected_time":293000000000,"state":"active","ping":122},{"user_id":332,"name":"Snowball","steam_id":76561198325874395,"connected_time":2445000000000,"state":"active","ping":75},{"user_id":334,"name":"Loud Mack + Tank Buster","steam_id":76561198011675372,"connected_time":1762000000000,"state":"active","ping":57},{"user_id":326,"name":"chunkysquare","steam_id":76561199076468383,"connected_time":2628000000000,"state":"active","ping":91},{"user_id":321,"name":"Krieg","steam_id":76561198094517450,"connected_time":3214000000000,"state":"active","ping":61},{"user_id":350,"name":"BasedGod","steam_id":76561198061177973,"connected_time":796000000000,"state":"active","ping":60}]},{"server_id":406,"name":"Uncletopia | Seattle | 3 | Stopwatch Beta","name_short":"sea-3","host":"sea-1.us.uncletopia.com","port":27035,"enabled":true,"region":"us-west","cc":"us","latitude":47.608013,"longitude":-122.33517,"reserved":0,"last_update":"0001-01-01T00:00:00Z","name_a2s":"Uncletopia | Seattle | 3 | Stopwatch Beta","protocol":17,"map":"workshop/pl_summercoast_rc8e.ugc1761528829","folder":"tf","game":"Team Fortress","app_id":440,"player_count":0,"max_players":24,"Bots":0,"server_type":"Dedicated","server_os":"Linux","password":true,"vac":true,"version":"7742253","steam_id":85568392924515217,"keywords":["nocrits","nodmgspread","payload","uncletopia"],"game_id":440,"stv_port":27036,"stv_name":"Uncletopia | Seattle | 3 | Stopwatch Beta | STV","players":null},{"server_id":17,"name":"Uncletopia | San Francisco | 1 | All Maps","name_short":"sfo-1","host":"sfo-1.us.uncletopia.com","port":27015,"enabled":true,"region":"us-west","cc":"us","latitude":37.77397,"longitude":-122.4313,"reserved":0,"last_update":"0001-01-01T00:00:00Z","name_a2s":"Uncletopia | San Francisco | 1 | All Maps","protocol":17,"map":"cp_sunshine","folder":"tf","game":"Team Fortress","app_id":440,"player_count":21,"max_players":24,"Bots":0,"server_type":"Dedicated","server_os":"Linux","password":true,"vac":true,"version":"7742253","steam_id":85568392924469999,"keywords":["cp","nocrits","nodmgspread","uncletopia"],"game_id":440,"stv_port":27016,"stv_name":"Uncletopia | San Francisco | 1 | All Maps | STV","players":[{"user_id":328,"name":"Sivinus","steam_id":76561198025589541,"connected_time":144000000000,"state":"active","ping":62},{"user_id":293,"name":"tullamore","steam_id":76561198318126190,"connected_time":3013000000000,"state":"active","ping":152},{"user_id":322,"name":"squinzi","steam_id":76561198086520846,"connected_time":209000000000,"state":"active","ping":55},{"user_id":311,"name":"futmaus","steam_id":76561199063130278,"connected_time":1570000000000,"state":"active","ping":63},{"user_id":270,"name":"brainfryfrenchfry","steam_id":76561199438777809,"connected_time":4501000000000,"state":"active","ping":67},{"user_id":320,"name":"Artoriasninja","steam_id":76561198834552307,"connected_time":248000000000,"state":"active","ping":72},{"user_id":312,"name":"Flickxi","steam_id":76561199013558457,"connected_time":1565000000000,"state":"active","ping":109},{"user_id":321,"name":"cuckboi","steam_id":76561198343060961,"connected_time":239000000000,"state":"active","ping":64},{"user_id":323,"name":"DoctorHa","steam_id":76561198044026008,"connected_time":197000000000,"state":"active","ping":63},{"user_id":324,"name":"Agent86","steam_id":76561198046794593,"connected_time":192000000000,"state":"active","ping":60},{"user_id":260,"name":"AureateAura","steam_id":76561198046902265,"connected_time":5273000000000,"state":"active","ping":116},{"user_id":325,"name":"Steven ☭","steam_id":76561197999653804,"connected_time":185000000000,"state":"active","ping":81},{"user_id":326,"name":"American freedom bird","steam_id":76561198366142388,"connected_time":162000000000,"state":"active","ping":58},{"user_id":329,"name":"RighteousICE","steam_id":76561198266993942,"connected_time":85000000000,"state":"active","ping":52},{"user_id":331,"name":"Lord Scrubling","steam_id":76561198263744445,"connected_time":28000000000,"state":"active","ping":89},{"user_id":330,"name":"The year is 1887","steam_id":76561198040430632,"connected_time":79000000000,"state":"active","ping":110},{"user_id":317,"name":"Brando","steam_id":76561198078306678,"connected_time":322000000000,"state":"active","ping":68},{"user_id":309,"name":"Nada2","steam_id":76561198087039694,"connected_time":1721000000000,"state":"active","ping":46},{"user_id":332,"name":"Hawkins","steam_id":76561198091829950,"connected_time":24000000000,"state":"active","ping":133},{"user_id":308,"name":"puffer","steam_id":76561199049164456,"connected_time":1950000000000,"state":"active","ping":59},{"user_id":315,"name":"A ♠ [Voice Off]","steam_id":76561198869945051,"connected_time":753000000000,"state":"active","ping":114}]},{"server_id":18,"name":"Uncletopia | San Francisco | 2 | All Maps","name_short":"sfo-2","host":"sfo-1.us.uncletopia.com","port":27025,"enabled":true,"region":"us-west","cc":"us","latitude":37.77397,"longitude":-122.4313,"reserved":0,"last_update":"0001-01-01T00:00:00Z","name_a2s":"Uncletopia | San Francisco | 2 | All Maps","protocol":17,"map":"cp_mountainlab","folder":"tf","game":"Team Fortress","app_id":440,"player_count":0,"max_players":24,"Bots":0,"server_type":"Dedicated","server_os":"Linux","password":true,"vac":true,"version":"7742253","steam_id":85568392924470000,"keywords":["cp","nocrits","nodmgspread","uncletopia"],"game_id":440,"stv_port":27026,"stv_name":"Uncletopia | San Francisco | 2 | All Maps | STV","players":null},{"server_id":19,"name":"Uncletopia | San Francisco | 3 | Stopwatch Beta","name_short":"sfo-3","host":"sfo-1.us.uncletopia.com","port":27035,"enabled":true,"region":"us-west","cc":"us","latitude":37.77397,"longitude":-122.4313,"reserved":0,"last_update":"0001-01-01T00:00:00Z","name_a2s":"Uncletopia | San Francisco | 3 | Stopwatch Beta","protocol":17,"map":"koth_lakeside_final","folder":"tf","game":"Team Fortress","app_id":440,"player_count":0,"max_players":24,"Bots":0,"server_type":"Dedicated","server_os":"Linux","password":true,"vac":true,"version":"7742253","steam_id":85568392924742824,"keywords":["cp","nocrits","nodmgspread","uncletopia"],"game_id":440,"stv_port":27036,"stv_name":"Uncletopia | San Francisco | 3 | Stopwatch Beta | STV","players":null},{"server_id":20,"name":"Uncletopia | San Francisco | 4 | Community","name_short":"sfo-4","host":"sfo-1.us.uncletopia.com","port":27045,"enabled":true,"region":"us-west","cc":"us","latitude":37.77397,"longitude":-122.4313,"reserved":0,"last_update":"0001-01-01T00:00:00Z","name_a2s":"Uncletopia | San Francisco | 4 | Community","protocol":17,"map":"workshop/pl_vigil_rc9.ugc1266210012","folder":"tf","game":"Team Fortress","app_id":440,"player_count":0,"max_players":24,"Bots":0,"server_type":"Dedicated","server_os":"Linux","password":true,"vac":true,"version":"7742253","steam_id":85568392924742826,"keywords":["nocrits","nodmgspread","payload","uncletopia"],"game_id":440,"stv_port":27046,"stv_name":"Uncletopia | San Francisco | 4 | Community | STV","players":null},{"server_id":141,"name":"Uncletopia | Sydney | 1 | All Maps","name_short":"syd-1","host":"syd-1.au.uncletopia.com","port":27015,"enabled":true,"region":"au","cc":"au","latitude":-33.865143,"longitude":151.2099,"reserved":0,"last_update":"0001-01-01T00:00:00Z","name_a2s":"Uncletopia | Sydney | 1 | All Maps","protocol":17,"map":"koth_lakeside_final","folder":"tf","game":"Team Fortress","app_id":440,"player_count":0,"max_players":24,"Bots":0,"server_type":"Dedicated","server_os":"Linux","password":true,"vac":true,"version":"7742253","steam_id":85568392924470001,"keywords":["cp","nocrits","nodmgspread","uncletopia"],"game_id":440,"stv_port":27016,"stv_name":"Uncletopia | Sydney | 1 | All Maps | STV","players":null},{"server_id":123,"name":"Uncletopia | Sydney | 2 | All Maps","name_short":"syd-2","host":"syd-1.au.uncletopia.com","port":27025,"enabled":true,"region":"au","cc":"au","latitude":-33.865143,"longitude":151.2099,"reserved":0,"last_update":"0001-01-01T00:00:00Z","name_a2s":"Uncletopia | Sydney | 2 | All Maps","protocol":17,"map":"koth_cascade","folder":"tf","game":"Team Fortress","app_id":440,"player_count":0,"max_players":24,"Bots":0,"server_type":"Dedicated","server_os":"Linux","password":true,"vac":true,"version":"7742253","steam_id":85568392924470002,"keywords":["cp","nocrits","nodmgspread","uncletopia"],"game_id":440,"stv_port":27026,"stv_name":"Uncletopia | Sydney | 2 | All Maps | STV","players":null},{"server_id":395,"name":"Uncletopia | Sydney | 3 | All Maps","name_short":"syd-3","host":"syd-1.au.uncletopia.com","port":27035,"enabled":true,"region":"au","cc":"au","latitude":-33.865143,"longitude":151.2099,"reserved":0,"last_update":"0001-01-01T00:00:00Z","name_a2s":"Uncletopia | Sydney | 3 | All Maps","protocol":17,"map":"cp_altitude","folder":"tf","game":"Team Fortress","app_id":440,"player_count":0,"max_players":24,"Bots":0,"server_type":"Dedicated","server_os":"Linux","password":true,"vac":true,"version":"7742253","steam_id":85568392925194467,"keywords":["cp","nocrits","nodmgspread","uncletopia"],"game_id":440,"stv_port":27036,"stv_name":"Uncletopia | Sydney | 3 | All Maps | STV","players":null},{"server_id":396,"name":"Uncletopia | Sydney | 4 | All Maps","name_short":"syd-4","host":"syd-1.au.uncletopia.com","port":27045,"enabled":true,"region":"au","cc":"au","latitude":-33.865143,"longitude":151.2099,"reserved":0,"last_update":"0001-01-01T00:00:00Z","name_a2s":"Uncletopia | Sydney | 4 | All Maps","protocol":17,"map":"pl_frontier_final","folder":"tf","game":"Team Fortress","app_id":440,"player_count":0,"max_players":24,"Bots":0,"server_type":"Dedicated","server_os":"Linux","password":true,"vac":true,"version":"7742253","steam_id":85568392925397958,"keywords":["nocrits","nodmgspread","payload","uncletopia"],"game_id":440,"stv_port":27046,"stv_name":"Uncletopia | Sydney | 4 | All Maps | STV","players":null},{"server_id":58,"name":"Uncletopia | Sydney | 5 | Stopwatch Beta","name_short":"syd-5","host":"syd-1.au.uncletopia.com","port":27055,"enabled":true,"region":"au","cc":"au","latitude":-33.865143,"longitude":151.2099,"reserved":0,"last_update":"0001-01-01T00:00:00Z","name_a2s":"Uncletopia | Sydney | 5 | Stopwatch Beta","protocol":17,"map":"workshop/koth_clearcut_b15.ugc2107050255","folder":"tf","game":"Team Fortress","app_id":440,"player_count":0,"max_players":24,"Bots":0,"server_type":"Dedicated","server_os":"Linux","password":true,"vac":true,"version":"7742253","steam_id":85568392925397959,"keywords":["cp","nocrits","nodmgspread","uncletopia"],"game_id":440,"stv_port":27056,"stv_name":"Uncletopia | Sydney | 5 | Stopwatch Beta | STV","players":null},{"server_id":59,"name":"Uncletopia | Sydney | 6 | Community","name_short":"syd-6","host":"syd-1.au.uncletopia.com","port":27065,"enabled":true,"region":"au","cc":"au","latitude":-33.865143,"longitude":151.2099,"reserved":0,"last_update":"0001-01-01T00:00:00Z","name_a2s":"Uncletopia | Sydney | 6 | Community","protocol":17,"map":"workshop/cp_reckoner_rc6.ugc674719999","folder":"tf","game":"Team Fortress","app_id":440,"player_count":0,"max_players":24,"Bots":0,"server_type":"Dedicated","server_os":"Linux","password":true,"vac":true,"version":"7742253","steam_id":85568392925397960,"keywords":["cp","nocrits","nodmgspread","uncletopia"],"game_id":440,"stv_port":27066,"stv_name":"Uncletopia | Sydney | 6 | Community | STV","players":null},{"server_id":49,"name":"Uncletopia | Warsaw | 1 | All Maps","name_short":"waw-1","host":"waw-1.pl.uncletopia.com","port":27015,"enabled":true,"region":"eu","cc":"pl","latitude":52.2297,"longitude":21.017532,"reserved":0,"last_update":"0001-01-01T00:00:00Z","name_a2s":"","protocol":0,"map":"","folder":"","game":"","app_id":0,"player_count":0,"max_players":0,"Bots":0,"server_type":"","server_os":"","password":false,"vac":false,"version":"","steam_id":0,"keywords":null,"game_id":0,"stv_port":0,"stv_name":"","players":null},{"server_id":50,"name":"Uncletopia | Warsaw | 2 | All Maps","name_short":"waw-2","host":"waw-1.pl.uncletopia.com","port":27025,"enabled":true,"region":"eu","cc":"pl","latitude":52.2297,"longitude":21.017532,"reserved":0,"last_update":"0001-01-01T00:00:00Z","name_a2s":"Uncletopia | Warsaw | 2 | All Maps","protocol":17,"map":"koth_highpass","folder":"tf","game":"Team Fortress","app_id":440,"player_count":0,"max_players":24,"Bots":0,"server_type":"Dedicated","server_os":"Linux","password":true,"vac":true,"version":"7742253","steam_id":85568392925397851,"keywords":["cp","nocrits","nodmgspread","uncletopia"],"game_id":440,"stv_port":27026,"stv_name":"Uncletopia | Warsaw | 2 | All Maps | STV","players":null},{"server_id":51,"name":"Uncletopia | Warsaw | 3 | All Maps","name_short":"waw-3","host":"waw-1.pl.uncletopia.com","port":27035,"enabled":true,"region":"eu","cc":"pl","latitude":52.2297,"longitude":21.017532,"reserved":0,"last_update":"0001-01-01T00:00:00Z","name_a2s":"Uncletopia | Warsaw | 3 | All Maps","protocol":17,"map":"koth_cascade","folder":"tf","game":"Team Fortress","app_id":440,"player_count":0,"max_players":24,"Bots":0,"server_type":"Dedicated","server_os":"Linux","password":true,"vac":true,"version":"7742253","steam_id":85568392925397852,"keywords":["cp","nocrits","nodmgspread","uncletopia"],"game_id":440,"stv_port":27036,"stv_name":"Uncletopia | Warsaw | 3 | All Maps | STV","players":null},{"server_id":52,"name":"Uncletopia | Warsaw | 4 | All Maps","name_short":"waw-4","host":"waw-1.pl.uncletopia.com","port":27045,"enabled":true,"region":"eu","cc":"pl","latitude":52.2297,"longitude":21.017532,"reserved":0,"last_update":"0001-01-01T00:00:00Z","name_a2s":"Uncletopia | Warsaw | 4 | All Maps","protocol":17,"map":"pl_swiftwater_final1","folder":"tf","game":"Team Fortress","app_id":440,"player_count":0,"max_players":24,"Bots":0,"server_type":"Dedicated","server_os":"Linux","password":true,"vac":true,"version":"7742253","steam_id":85568392925397853,"keywords":["nocrits","nodmgspread","payload","uncletopia"],"game_id":440,"stv_port":27046,"stv_name":"Uncletopia | Warsaw | 4 | All Maps | STV","players":null},{"server_id":53,"name":"Uncletopia | Warsaw | 5 | Stopwatch Beta","name_short":"waw-5","host":"waw-1.pl.uncletopia.com","port":27055,"enabled":true,"region":"eu","cc":"pl","latitude":52.2297,"longitude":21.017532,"reserved":0,"last_update":"0001-01-01T00:00:00Z","name_a2s":"Uncletopia | Warsaw | 5 | Stopwatch Beta","protocol":17,"map":"pl_swiftwater_final1","folder":"tf","game":"Team Fortress","app_id":440,"player_count":0,"max_players":24,"Bots":0,"server_type":"Dedicated","server_os":"Linux","password":true,"vac":true,"version":"7742253","steam_id":85568392925397854,"keywords":["nocrits","nodmgspread","payload","uncletopia"],"game_id":440,"stv_port":27056,"stv_name":"Uncletopia | Warsaw | 5 | Stopwatch Beta | STV","players":null},{"server_id":54,"name":"Uncletopia | Warsaw | 6 | Community","name_short":"waw-6","host":"waw-1.pl.uncletopia.com","port":27065,"enabled":true,"region":"eu","cc":"pl","latitude":52.2297,"longitude":21.017532,"reserved":0,"last_update":"0001-01-01T00:00:00Z","name_a2s":"Uncletopia | Warsaw | 6 | Community","protocol":17,"map":"workshop/koth_ashville_final.ugc2130459942","folder":"tf","game":"Team Fortress","app_id":440,"player_count":0,"max_players":24,"Bots":0,"server_type":"Dedicated","server_os":"Linux","password":true,"vac":true,"version":"7742253","steam_id":85568392925397856,"keywords":["cp","nocrits","nodmgspread","uncletopia"],"game_id":440,"stv_port":27066,"stv_name":"Uncletopia | Warsaw | 6 | Community | STV","players":null}]}