{"status":true,"message":"","result":[{"server_id":9,"name":"Uncletopia | Atlanta | 1 | All Maps","name_short":"atl-1","host":"atl-1.us.uncletopia.com","port":27015,"enabled":true,"region":"us-east","cc":"us","latitude":33.753746,"longitude":-84.38633,"reserved":0,"last_update":"0001-01-01T00:00:00Z","name_a2s":"Uncletopia | Atlanta | 1 | All Maps","protocol":17,"map":"koth_cascade","folder":"tf","game":"Team Fortress","app_id":440,"player_count":0,"max_players":24,"Bots":0,"server_type":"Dedicated","server_os":"Linux","password":true,"vac":true,"version":"7695204","steam_id":85568392924469982,"keywords":["cp","nocrits","nodmgspread","uncletopia"],"game_id":440,"stv_port":0,"stv_name":"","players":null},{"server_id":400,"name":"Uncletopia | Atlanta | 3 | All Maps","name_short":"atl-3","host":"atl-1.us.uncletopia.com","port":27035,"enabled":true,"region":"us-east","cc":"us","latitude":33.753746,"longitude":-84.38633,"reserved":0,"last_update":"0001-01-01T00:00:00Z","name_a2s":"Uncletopia | Atlanta | 3 | All Maps","protocol":17,"map":"pl_frontier_final","folder":"tf","game":"Team Fortress","app_id":440,"player_count":0,"max_players":24,"Bots":0,"server_type":"Dedicated","server_os":"Linux","password":true,"vac":true,"version":"7695204","steam_id":85568392924515187,"keywords":["nocrits","nodmgspread","payload","uncletopia"],"game_id":440,"stv_port":0,"stv_name":"","players":null},{"server_id":401,"name":"Uncletopia | Atlanta | 4 | No Payload","name_short":"atl-4","host":"atl-1.us.uncletopia.com","port":27045,"enabled":true,"region":"us-east","cc":"us","latitude":33.753746,"longitude":-84.38633,"reserved":0,"last_update":"0001-01-01T00:00:00Z","name_a2s":"Uncletopia | Atlanta | 4 | No Payload","protocol":17,"map":"cp_snakewater_final1","folder":"tf","game":"Team Fortress","app_id":440,"player_count":0,"max_players":24,"Bots":0,"server_type":"Dedicated","server_os":"Linux","password":true,"vac":true,"version":"7695204","steam_id":85568392924515188,"keywords":["cp","nocrits","nodmgspread","uncletopia"],"game_id":440,"stv_port":0,"stv_name":"","players":null},{"server_id":2,"name":"Uncletopia | Chicago | 1 | All Maps","name_short":"chi-1","host":"chi-1.us.uncletopia.com","port":27015,"enabled":true,"region":"us-central","cc":"us","latitude":41.881832,"longitude":-87.62318,"reserved":0,"last_update":"0001-01-01T00:00:00Z","name_a2s":"Uncletopia | Chicago | 1 | All Maps","protocol":17,"map":"cp_altitude","folder":"tf","game":"Team Fortress","app_id":440,"player_count":1,"max_players":24,"Bots":0,"server_type":"Dedicated","server_os":"Linux","password":true,"vac":true,"version":"7695204","steam_id":85568392924469984,"keywords":["cp","nocrits","nodmgspread","uncletopia"],"game_id":440,"stv_port":0,"stv_name":"","players":[{"user_id":3,"name":"Superunfunny3000","steam_id":76561199013770580,"connected_time":299000000000,"state":"active","ping":164}]},{"server_id":106,"name":"Uncletopia | Chicago | 2 | All Maps","name_short":"chi-2","host":"chi-1.us.uncletopia.com","port":27025,"enabled":true,"region":"us-central","cc":"us","latitude":41.881832,"longitude":-87.62318,"reserved":0,"last_update":"0001-01-01T00:00:00Z","name_a2s":"Uncletopia | Chicago | 2 | All Maps","protocol":17,"map":"cp_process_final","folder":"tf","game":"Team Fortress","app_id":440,"player_count":0,"max_players":24,"Bots":0,"server_type":"Dedicated","server_os":"Linux","password":true,"vac":true,"version":"7695204","steam_id":85568392924469985,"keywords":["cp","nocrits","nodmgspread","uncletopia"],"game_id":440,"stv_port":0,"stv_name":"","players":null},{"server_id":402,"name":"Uncletopia | Chicago | 3 | All Maps","name_short":"chi-3","host":"chi-1.us.uncletopia.com","port":27035,"enabled":true,"region":"us-central","cc":"us","latitude":41.881832,"longitude":-87.62318,"reserved":0,"last_update":"0001-01-01T00:00:00Z","name_a2s":"Uncletopia | Chicago | 3 | All Maps","protocol":17,"map":"pl_snowycoast","folder":"tf","game":"Team Fortress","app_id":440,"player_count":0,"max_players":24,"Bots":0,"server_type":"Dedicated","server_os":"Linux","password":true,"vac":true,"version":"7695204","steam_id":85568392924515191,"keywords":["nocrits","nodmgspread","payload","uncletopia"],"game_id":440,"stv_port":27036,"stv_name":"Uncletopia | Chicago | 3 | All Maps | STV","players":null},{"server_id":403,"name":"Uncletopia | Chicago | 4 | All Maps","name_short":"chi-4","host":"chi-1.us.uncletopia.com","port":27045,"enabled":true,"region":"us-central","cc":"us","latitude":41.881832,"longitude":-87.62318,"reserved":0,"last_update":"0001-01-01T00:00:00Z","name_a2s":"Uncletopia | Chicago | 4 | All Maps","protocol":17,"map":"koth_highpass","folder":"tf","game":"Team Fortress","app_id":440,"player_count":0,"max_players":24,"Bots":0,"server_type":"Dedicated","server_os":"Linux","password":true,"vac":true,"version":"7695204","steam_id":85568392924515193,"keywords":["cp","nocrits","nodmgspread","uncletopia"],"game_id":440,"stv_port":0,"stv_name":"","players":null},{"server_id":36,"name":"Uncletopia | Chicago | 5 | All Maps","name_short":"chi-5","host":"chi-2.us.uncletopia.com","port":27015,"enabled":true,"region":"us-central","cc":"us","latitude":41.881832,"longitude":-87.62318,"reserved":0,"last_update":"0001-01-01T00:00:00Z","name_a2s":"Uncletopia | Chicago | 5 | All Maps","protocol":17,"map":"cp_altitude","folder":"tf","game":"Team Fortress","app_id":440,"player_count":0,"max_players":24,"Bots":0,"server_type":"Dedicated","server_os":"Linux","password":true,"vac":true,"version":"7695204","steam_id":85568392924866362,"keywords":["cp","nocrits","nodmgspread","uncletopia"],"game_id":440,"stv_port":0,"stv_name":"","players":null},{"server_id":37,"name":"Uncletopia | Chicago | 6 | All Maps","name_short":"chi-6","host":"chi-2.us.uncletopia.com","port":27025,"enabled":true,"region":"us-central","cc":"us","latitude":41.881832,"longitude":-87.62318,"reserved":0,"last_update":"0001-01-01T00:00:00Z","name_a2s":"Uncletopia | Chicago | 6 | All Maps","protocol":17,"map":"cp_snakewater_final1","folder":"tf","game":"Team Fortress","app_id":440,"player_count":0,"max_players":24,"Bots":0,"server_type":"Dedicated","server_os":"Linux","password":true,"vac":true,"version":"7695204","steam_id":85568392924866363,"keywords":["cp","nocrits","nodmgspread","uncletopia"],"game_id":440,"stv_port":0,"stv_name":"","players":null},{"server_id":38,"name":"Uncletopia | Chicago | 7 | No Payload","name_short":"chi-7","host":"chi-2.us.uncletopia.com","port":27035,"enabled":true,"region":"us-central","cc":"us","latitude":41.881832,"longitude":-87.62318,"reserved":0,"last_update":"0001-01-01T00:00:00Z","name_a2s":"Uncletopia | Chicago | 7 | No Payload","protocol":17,"map":"cp_altitude","folder":"tf","game":"Team Fortress","app_id":440,"player_count":0,"max_players":24,"Bots":0,"server_type":"Dedicated","server_os":"Linux","password":true,"vac":true,"version":"7695204","steam_id":85568392924866364,"keywords":["cp","nocrits","nodmgspread","uncletopia"],"game_id":440,"stv_port":0,"stv_name":"","players":null},{"server_id":39,"name":"Uncletopia | Chicago | 8 | Community","name_short":"chi-8","host":"chi-2.us.uncletopia.com","port":27045,"enabled":true,"region":"us-central","cc":"us","latitude":41.881832,"longitude":-87.62318,"reserved":0,"last_update":"0001-01-01T00:00:00Z","name_a2s":"Uncletopia | Chicago | 8 | Community","protocol":17,"map":"cp_altitude","folder":"tf","game":"Team Fortress","app_id":440,"player_count":0,"max_players":24,"Bots":0,"server_type":"Dedicated","server_os":"Linux","password":true,"vac":true,"version":"7695204","steam_id":85568392924866365,"keywords":["cp","nocrits","nodmgspread","uncletopia"],"game_id":440,"stv_port":0,"stv_name":"","players":null},{"server_id":8,"name":"Uncletopia | Dallas | 1 | All Maps","name_short":"dal-1","host":"dal-1.us.uncletopia.com","port":27015,"enabled":true,"region":"us-central","cc":"us","latitude":32.779167,"longitude":-96.80889,"reserved":0,"last_update":"0001-01-01T00:00:00Z","name_a2s":"Uncletopia | Dallas | 1 | All Maps","protocol":17,"map":"pl_frontier_final","folder":"tf","game":"Team Fortress","app_id":440,"player_count":21,"max_players":24,"Bots":0,"server_type":"Dedicated","server_os":"Linux","password":true,"vac":true,"version":"7695204","steam_id":85568392924469986,"keywords":["nocrits","nodmgspread","payload","uncletopia"],"game_id":440,"stv_port":27016,"stv_name":"Uncletopia | Dallas | 1 | All Maps | STV","players":[{"user_id":41,"name":"Quakedad","steam_id":76561198055811307,"connected_time":3186000000000,"state":"active","ping":126},{"user_id":78,"name":"KewlKris","steam_id":76561198260738308,"connected_time":567000000000,"state":"active","ping":46},{"user_id":27,"name":"Zorlovo","steam_id":76561198006443283,"connected_time":4188000000000,"state":"active","ping":74},{"user_id":68,"name":"Yuhh","steam_id":76561199112894955,"connected_time":1325000000000,"state":"active","ping":61},{"user_id":34,"name":"obbeymaster19","steam_id":76561199197244143,"connected_time":4037000000000,"state":"active","ping":82},{"user_id":62,"name":"Hemiphix","steam_id":76561198329316429,"connected_time":1667000000000,"state":"active","ping":75},{"user_id":72,"name":"FackaYou","steam_id":76561198193036090,"connected_time":922000000000,"state":"active","ping":169},{"user_id":65,"name":"GlossyBat","steam_id":76561198929313869,"connected_time":1463000000000,"state":"active","ping":80},{"user_id":75,"name":"blanketboi9000","steam_id":76561199251829030,"connected_time":643000000000,"state":"active","ping":82},{"user_id":31,"name":"Kamin","steam_id":76561198255299559,"connected_time":4087000000000,"state":"active","ping":57},{"user_id":36,"name":"Casual Costanza","steam_id":76561198024409325,"connected_time":3918000000000,"state":"active","ping":95},{"user_id":64,"name":"gus","steam_id":76561198089852954,"connected_time":1510000000000,"state":"active","ping":83},{"user_id":73,"name":"IPlayGamez","steam_id":76561198041387508,"connected_time":764000000000,"state":"active","ping":81},{"user_id":69,"name":"Critical","steam_id":76561198123744966,"connected_time":1131000000000,"state":"active","ping":88},{"user_id":80,"name":"IceRunner","steam_id":76561198999311013,"connected_time":316000000000,"state":"active","ping":60},{"user_id":77,"name":"average covid haver","steam_id":76561198035969198,"connected_time":632000000000,"state":"active","ping":65},{"user_id":81,"name":"Gloteran","steam_id":76561199092623161,"connected_time":288000000000,"state":"active","ping":173},{"user_id":57,"name":"Grukken♡","steam_id":76561198042519780,"connected_time":2036000000000,"state":"active","ping":89},{"user_id":82,"name":"Solrayo","steam_id":76561197993336779,"connected_time":268000000000,"state":"active","ping":191},{"user_id":84,"name":"kasper","steam_id":76561198263271697,"connected_time":214000000000,"state":"active","ping":67},{"user_id":48,"name":"Peter Griffin","steam_id":76561198119784475,"connected_time":2994000000000,"state":"active","ping":122}]},{"server_id":108,"name":"Uncletopia | Dallas | 2 | All Maps","name_short":"dal-2","host":"dal-1.us.uncletopia.com","port":27025,"enabled":true,"region":"us-central","cc":"us","latitude":32.779167,"longitude":-96.80889,"reserved":0,"last_update":"0001-01-01T00:00:00Z","name_a2s":"Uncletopia | Dallas | 2 | All Maps","protocol":17,"map":"cp_mountainlab","folder":"tf","game":"Team Fortress","app_id":440,"player_count":0,"max_players":24,"Bots":0,"server_type":"Dedicated","server_os":"Linux","password":true,"vac":true,"version":"7695204","steam_id":85568392924469988,"keywords":["cp","nocrits","nodmgspread","uncletopia"],"game_id":440,"stv_port":0,"stv_name":"","players":null},{"server_id":5,"name":"Uncletopia | Frankfurt | 1 | All Maps","name_short":"frk-1","host":"frk-1.de.uncletopia.com","port":27015,"enabled":true,"region":"eu","cc":"de","latitude":50.110924,"longitude":8.682127,"reserved":0,"last_update":"0001-01-01T00:00:00Z","name_a2s":"Uncletopia | Frankfurt | 1 | All Maps","protocol":17,"map":"pl_swiftwater_final1","folder":"tf","game":"Team Fortress","app_id":440,"player_count":24,"max_players":24,"Bots":0,"server_type":"Dedicated","server_os":"Linux","password":true,"vac":true,"version":"7695204","steam_id":85568392924469989,"keywords":["nocrits","nodmgspread","payload","uncletopia"],"game_id":440,"stv_port":27016,"stv_name":"Uncletopia | Frankfurt | 1 | All Maps | STV","players":[{"user_id":173,"name":"clozz","steam_id":76561198135315083,"connected_time":2296000000000,"state":"active","ping":87},{"user_id":180,"name":"Emil","steam_id":76561198033205384,"connected_time":2071000000000,"state":"active","ping":59},{"user_id":197,"name":"Paulie Enjoyer","steam_id":76561198364121077,"connected_time":475000000000,"state":"active","ping":91},{"user_id":201,"name":"Sodemo","steam_id":76561198074987146,"connected_time":387000000000,"state":"active","ping":43},{"user_id":199,"name":"AwterSix","steam_id":76561198042561678,"connected_time":394000000000,"state":"active","ping":51},{"user_id":198,"name":"ghost","steam_id":76561198189940229,"connected_time":472000000000,"state":"active","ping":58},{"user_id":144,"name":"=OKB= P4NTH3R","steam_id":76561197999204603,"connected_time":4565000000000,"state":"active","ping":55},{"user_id":168,"name":"bean lover","steam_id":76561198876259318,"connected_time":2549000000000,"state":"active","ping":51},{"user_id":145,"name":"WUTVILLESWEEP","steam_id":76561199176835169,"connected_time":4558000000000,"state":"active","ping":67},{"user_id":202,"name":"weezer green album","steam_id":76561198863788240,"connected_time":360000000000,"state":"active","ping":83},{"user_id":151,"name":"M1rkus","steam_id":76561198171215447,"connected_time":4421000000000,"state":"active","ping":54},{"user_id":177,"name":"gremlin GOD","steam_id":76561198169972571,"connected_time":2130000000000,"state":"active","ping":66},{"user_id":204,"name":".jar.","steam_id":76561198042545701,"connected_time":167000000000,"state":"active","ping":76},{"user_id":200,"name":"cosmetical","steam_id":76561198444036574,"connected_time":393000000000,"state":"active","ping":62},{"user_id":190,"name":"magnus","steam_id":76561198045570936,"connected_time":943000000000,"state":"active","ping":85},{"user_id":158,"name":"Charmedelf","steam_id":76561197993611881,"connected_time":3463000000000,"state":"active","ping":59},{"user_id":188,"name":"yuh","steam_id":76561199005555839,"connected_time":1379000000000,"state":"active","ping":72},{"user_id":181,"name":"Uncle Lame","steam_id":76561198089003514,"connected_time":2055000000000,"state":"active","ping":45},{"user_id":171,"name":"Big Benn","steam_id":76561199024168373,"connected_time":2395000000000,"state":"active","ping":76},{"user_id":189,"name":"allan","steam_id":76561198214848887,"connected_time":1053000000000,"state":"active","ping":75},{"user_id":203,"name":"GGabesz","steam_id":76561198117199068,"connected_time":348000000000,"state":"active","ping":75},{"user_id":187,"name":"Prox","steam_id":76561198351490981,"connected_time":1667000000000,"state":"active","ping":60},{"user_id":183,"name":"boat","steam_id":76561198044915818,"connected_time":2023000000000,"state":"active","ping":90},{"user_id":196,"name":"generic alias","steam_id":76561198271607226,"connected_time":862000000000,"state":"active","ping":100}]},{"server_id":110,"name":"Uncletopia | Frankfurt | 2 | All Maps","name_short":"frk-2","host":"frk-1.de.uncletopia.com","port":27025,"enabled":true,"region":"eu","cc":"de","latitude":50.110924,"longitude":8.682127,"reserved":0,"last_update":"0001-01-01T00:00:00Z","name_a2s":"Uncletopia | Frankfurt | 2 | All Maps","protocol":17,"map":"pl_pier","folder":"tf","game":"Team Fortress","app_id":440,"player_count":0,"max_players":24,"Bots":0,"server_type":"Dedicated","server_os":"Linux","password":true,"vac":true,"version":"7695204","steam_id":85568392924469990,"keywords":["nocrits","nodmgspread","payload","uncletopia"],"game_id":440,"stv_port":27026,"stv_name":"Uncletopia | Frankfurt | 2 | All Maps | STV","players":null},{"server_id":308,"name":"Uncletopia | Frankfurt | 3 | All Maps","name_short":"frk-3","host":"frk-1.de.uncletopia.com","port":27035,"enabled":true,"region":"eu","cc":"de","latitude":50.110924,"longitude":8.682127,"reserved":0,"last_update":"0001-01-01T00:00:00Z","name_a2s":"Uncletopia | Frankfurt | 3 | All Maps","protocol":17,"map":"pl_pier","folder":"tf","game":"Team Fortress","app_id":440,"player_count":24,"max_players":24,"Bots":0,"server_type":"Dedicated","server_os":"Linux","password":true,"vac":true,"version":"7695204","steam_id":85568392924504274,"keywords":["nocrits","nodmgspread","payload","uncletopia"],"game_id":440,"stv_port":27036,"stv_name":"Uncletopia | Frankfurt | 3 | All Maps | STV","players":[{"user_id":131,"name":"bella a tutti","steam_id":76561198340262024,"connected_time":180000000000,"state":"active","ping":58},{"user_id":107,"name":"Kali","steam_id":76561198796327257,"connected_time":1877000000000,"state":"active","ping":51},{"user_id":94,"name":"Markein","steam_id":76561198360754280,"connected_time":2788000000000,"state":"active","ping":35},{"user_id":95,"name":"beanie_snail","steam_id":76561199111476299,"connected_time":2768000000000,"state":"active","ping":83},{"user_id":85,"name":"Rin-Nakaret","steam_id":76561197971051188,"connected_time":3696000000000,"state":"active","ping":70},{"user_id":124,"name":"TITS!!!1!!1????","steam_id":76561198412197820,"connected_time":887000000000,"state":"active","ping":75},{"user_id":89,"name":"Luke SpyWalker","steam_id":76561198008643276,"connected_time":3073000000000,"state":"active","ping":60},{"user_id":121,"name":"quincy","steam_id":76561198059782462,"connected_time":1162000000000,"state":"active","ping":54},{"user_id":133,"name":"Falconetti","steam_id":76561198029930580,"connected_time":85000000000,"state":"active","ping":64},{"user_id":120,"name":"Panda","steam_id":76561198176342325,"connected_time":1242000000000,"state":"active","ping":92},{"user_id":126,"name":"Big Gamer (real)","steam_id":76561198160114532,"connected_time":760000000000,"state":"active","ping":53},{"user_id":97,"name":"Cippo95","steam_id":76561198255311582,"connected_time":2637000000000,"state":"active","ping":72},{"user_id":111,"name":"Tohtori gerhard (official)","steam_id":76561198835081622,"connected_time":1664000000000,"state":"active","ping":81},{"user_id":83,"name":"Nibiru_Agent","steam_id":76561198796404149,"connected_time":3986000000000,"state":"active","ping":91},{"user_id":87,"name":"opaacic","steam_id":76561199158514501,"connected_time":3420000000000,"state":"active","ping":75},{"user_id":125,"name":"wasto-/-™","steam_id":76561198102888038,"connected_time":790000000000,"state":"active","ping":48},{"user_id":112,"name":"Sorky","steam_id":76561198007502339,"connected_time":1486000000000,"state":"active","ping":60},{"user_id":129,"name":"Vector Victor","steam_id":76561198050018221,"connected_time":583000000000,"state":"active","ping":54},{"user_id":27,"name":"Ixsus\u003c3","steam_id":76561198094756869,"connected_time":7840000000000,"state":"active","ping":58},{"user_id":134,"name":"Mayor Wank from Wanker Town","steam_id":76561197998253588,"connected_time":77000000000,"state":"active","ping":47},{"user_id":128,"name":"alien","steam_id":76561197968892194,"connected_time":734000000000,"state":"active","ping":58},{"user_id":130,"name":"Shlyk","steam_id":76561198333387103,"connected_time":552000000000,"state":"active","ping":90},{"user_id":51,"name":"-ˏˋ marruu ˎˊ-","steam_id":76561198391108779,"connected_time":6163000000000,"state":"active","ping":69},{"user_id":118,"name":"Carpet Tires","steam_id":76561198798428909,"connected_time":1413000000000,"state":"active","ping":94}]},{"server_id":309,"name":"Uncletopia | Frankfurt | 4 | All Maps","name_short":"frk-4","host":"frk-1.de.uncletopia.com","port":27045,"enabled":true,"region":"eu","cc":"de","latitude":50.110924,"longitude":8.682127,"reserved":0,"last_update":"0001-01-01T00:00:00Z","name_a2s":"Uncletopia | Frankfurt | 4 | All Maps","protocol":17,"map":"cp_sunshine","folder":"tf","game":"Team Fortress","app_id":440,"player_count":2,"max_players":24,"Bots":0,"server_type":"Dedicated","server_os":"Linux","password":true,"vac":true,"version":"7695204","steam_id":85568392924504275,"keywords":["cp","nocrits","nodmgspread","uncletopia"],"game_id":440,"stv_port":27046,"stv_name":"Uncletopia | Frankfurt | 4 | All Maps | STV","players":[{"user_id":20,"name":"Gr8gy","steam_id":76561198801350782,"connected_time":442000000000,"state":"active","ping":74},{"user_id":22,"name":"tealoverr.190","steam_id":76561199028497703,"connected_time":214000000000,"state":"active","ping":96}]},{"server_id":310,"name":"Uncletopia | Frankfurt | 5 | All Maps","name_short":"frk-5","host":"frk-1.de.uncletopia.com","port":27055,"enabled":true,"region":"eu","cc":"de","latitude":50.110924,"longitude":8.682127,"reserved":0,"last_update":"0001-01-01T00:00:00Z","name_a2s":"Uncletopia | Frankfurt | 5 | All Maps","protocol":17,"map":"koth_highpass","folder":"tf","game":"Team Fortress","app_id":440,"player_count":0,"max_players":24,"Bots":0,"server_type":"Dedicated","server_os":"Linux","password":true,"vac":true,"version":"7695204","steam_id":85568392924504277,"keywords":["cp","nocrits","nodmgspread","uncletopia"],"game_id":440,"stv_port":27056,"stv_name":"Uncletopia | Frankfurt | 5 | All Maps | STV","players":null},{"server_id":311,"name":"Uncletopia | Frankfurt | 6 | All Maps","name_short":"frk-6","host":"frk-1.de.uncletopia.com","port":27065,"enabled":true,"region":"eu","cc":"de","latitude":50.110924,"longitude":8.682127,"reserved":0,"last_update":"0001-01-01T00:00:00Z","name_a2s":"Uncletopia | Frankfurt | 6 | All Maps","protocol":17,"map":"cp_granary","folder":"tf","game":"Team Fortress","app_id":440,"player_count":21,"max_players":24,"Bots":0,"server_type":"Dedicated","server_os":"Linux","password":true,"vac":true,"version":"7695204","steam_id":85568392924504278,"keywords":["cp","nocrits","nodmgspread","uncletopia"],"game_id":440,"stv_port":27066,"stv_name":"Uncletopia | Frankfurt | 6 | All Maps | STV","players":[{"user_id":119,"name":"castl3sss","steam_id":76561198878687605,"connected_time":965000000000,"state":"active","ping":91},{"user_id":124,"name":"hubbles","steam_id":76561197961142646,"connected_time":377000000000,"state":"active","ping":46},{"user_id":105,"name":"Laki","steam_id":76561198126078953,"connected_time":1693000000000,"state":"active","ping":102},{"user_id":133,"name":"the worst player","steam_id":76561198206037191,"connected_time":98000000000,"state":"active","ping":63},{"user_id":70,"name":"KenPendersOfficial","steam_id":76561198065112022,"connected_time":3897000000000,"state":"active","ping":110},{"user_id":125,"name":"Minimi","steam_id":76561198873850443,"connected_time":329000000000,"state":"active","ping":59},{"user_id":104,"name":"Nin","steam_id":76561198227246584,"connected_time":2073000000000,"state":"active","ping":60},{"user_id":62,"name":"Man of Testicular Proportions","steam_id":76561198055949151,"connected_time":4405000000000,"state":"active","ping":60},{"user_id":126,"name":"big potato #savetf2","steam_id":76561199009525001,"connected_time":329000000000,"state":"active","ping":58},{"user_id":108,"name":"Shimas","steam_id":76561198867546842,"connected_time":1553000000000,"state":"active","ping":51},{"user_id":132,"name":"R!not","steam_id":76561197986328786,"connected_time":189000000000,"state":"active","ping":57},{"user_id":89,"name":"Skitli","steam_id":76561198980426812,"connected_time":3159000000000,"state":"active","ping":92},{"user_id":127,"name":"thebananabomb00","steam_id":76561198296409283,"connected_time":310000000000,"state":"active","ping":81},{"user_id":117,"name":"Cosmonaut","steam_id":76561198239514504,"connected_time":1106000000000,"state":"active","ping":52},{"user_id":120,"name":"The Imperial","steam_id":76561198374118102,"connected_time":807000000000,"state":"active","ping":58},{"user_id":128,"name":"Sin","steam_id":76561198975489819,"connected_time":310000000000,"state":"active","ping":57},{"user_id":131,"name":"Riddle","steam_id":76561198063114972,"connected_time":238000000000,"state":"active","ping":79},{"user_id":99,"name":"LAMC","steam_id":76561199066888917,"connected_time":2892000000000,"state":"active","ping":48},{"user_id":84,"name":"Senior","steam_id":76561198065014164,"connected_time":3373000000000,"state":"active","ping":61},{"user_id":113,"name":"enomis2002","steam_id":76561198387892963,"connected_time":1439000000000,"state":"active","ping":63},{"user_id":88,"name":"ඞbominasus 2137  #SaveTF2","steam_id":76561198030062981,"connected_time":3299000000000,"state":"active","ping":65}]},{"server_id":23,"name":"Uncletopia | Frankfurt | 7 | No Payload","name_short":"frk-7","host":"frk-1.de.uncletopia.com","port":27075,"enabled":true,"region":"eu","cc":"de","latitude":50.110924,"longitude":8.682127,"reserved":0,"last_update":"0001-01-01T00:00:00Z","name_a2s":"Uncletopia | Frankfurt | 7 | No Payload","protocol":17,"map":"koth_badlands","folder":"tf","game":"Team Fortress","app_id":440,"player_count":0,"max_players":24,"Bots":0,"server_type":"Dedicated","server_os":"Linux","password":true,"vac":true,"version":"7695204","steam_id":85568392924742827,"keywords":["cp","nocrits","nodmgspread","uncletopia"],"game_id":440,"stv_port":27076,"stv_name":"Uncletopia | Frankfurt | 7 | No Payload | STV","players":null},{"server_id":24,"name":"Uncletopia | Frankfurt | 8 | Community","name_short":"frk-8","host":"frk-1.de.uncletopia.com","port":27085,"enabled":true,"region":"eu","cc":"de","latitude":50.110924,"longitude":8.682127,"reserved":0,"last_update":"0001-01-01T00:00:00Z","name_a2s":"Uncletopia | Frankfurt | 8 | Community","protocol":17,"map":"koth_lakeside_final","folder":"tf","game":"Team Fortress","app_id":440,"player_count":0,"max_players":24,"Bots":0,"server_type":"Dedicated","server_os":"Linux","password":true,"vac":true,"version":"7695204","steam_id":85568392924742828,"keywords":["cp","nocrits","nodmgspread","uncletopia"],"game_id":440,"stv_port":0,"stv_name":"","players":null},{"server_id":202,"name":"Uncletopia | Hong Kong | 1 | All Maps","name_short":"hgk-1","host":"hgk-1.hk.uncletopia.com","port":27015,"enabled":true,"region":"asia","cc":"hk","latitude":22.302711,"longitude":114.177216,"reserved":0,"last_update":"0001-01-01T00:00:00Z","name_a2s":"Uncletopia | Hong Kong | 1 | All Maps","protocol":17,"map":"pl_borneo","folder":"tf","game":"Team Fortress","app_id":440,"player_count":24,"max_players":24,"Bots":0,"server_type":"Dedicated","server_os":"Linux","password":true,"vac":true,"version":"7695204","steam_id":85568392924494504,"keywords":["nocrits","nodmgspread","payload","uncletopia"],"game_id":440,"stv_port":27016,"stv_name":"Uncletopia | Hong Kong | 1 | All Maps | STV","players":[{"user_id":494,"name":"Cum","steam_id":76561199244428779,"connected_time":3490000000000,"state":"active","ping":104},{"user_id":491,"name":"r/leroy","steam_id":76561199137927625,"connected_time":3981000000000,"state":"active","ping":101},{"user_id":506,"name":"Othopeus","steam_id":76561198283534382,"connected_time":2796000000000,"state":"active","ping":70},{"user_id":444,"name":"terrybl","steam_id":76561198055553140,"connected_time":7848000000000,"state":"active","ping":83},{"user_id":449,"name":"stap","steam_id":76561198003863187,"connected_time":7097000000000,"state":"active","ping":102},{"user_id":478,"name":"crispy chicken nugget","steam_id":76561198114452937,"connected_time":4699000000000,"state":"active","ping":87},{"user_id":499,"name":"Corn_Archer","steam_id":76561199185044554,"connected_time":3257000000000,"state":"active","ping":71},{"user_id":496,"name":"AmaiToxic","steam_id":76561199122491157,"connected_time":3454000000000,"state":"active","ping":95},{"user_id":453,"name":"piyoko no english","steam_id":76561198088403016,"connected_time":6873000000000,"state":"active","ping":108},{"user_id":510,"name":"『ʀʜÆɢΛʀ』","steam_id":76561198037122849,"connected_time":2078000000000,"state":"active","ping":98},{"user_id":514,"name":"cellum95","steam_id":76561198172146871,"connected_time":1242000000000,"state":"active","ping":65},{"user_id":519,"name":"OrdinaryShiba","steam_id":76561198870912104,"connected_time":948000000000,"state":"active","ping":93},{"user_id":481,"name":"hoot","steam_id":76561198261404413,"connected_time":4591000000000,"state":"active","ping":84},{"user_id":492,"name":"nick","steam_id":76561198400698408,"connected_time":3860000000000,"state":"active","ping":92},{"user_id":524,"name":"tranquochao2903","steam_id":76561199220807832,"connected_time":635000000000,"state":"active","ping":73},{"user_id":517,"name":"Du57Y","steam_id":76561198120973476,"connected_time":1080000000000,"state":"active","ping":87},{"user_id":520,"name":"母の肉団子","steam_id":76561198069561896,"connected_time":695000000000,"state":"active","ping":32},{"user_id":526,"name":"Jaysong","steam_id":76561198828599078,"connected_time":601000000000,"state":"active","ping":81},{"user_id":477,"name":"Rephex","steam_id":76561198308185574,"connected_time":4739000000000,"state":"active","ping":83},{"user_id":509,"name":"ᗜˬᗜ","steam_id":76561198145500026,"connected_time":2107000000000,"state":"active","ping":69},{"user_id":521,"name":"Him Him Ung","steam_id":76561198204789021,"connected_time":690000000000,"state":"active","ping":50},{"user_id":527,"name":"bookman","steam_id":76561198989168133,"connected_time":280000000000,"state":"active","ping":93},{"user_id":532,"name":"godhood","steam_id":76561198412329672,"connected_time":40000000000,"state":"active","ping":93},{"user_id":505,"name":"Lúd","steam_id":76561198828840546,"connected_time":2877000000000,"state":"active","ping":68}]},{"server_id":1,"name":"Uncletopia | Los Angeles | 1 | All Maps","name_short":"lax-1","host":"lax-1.us.uncletopia.com","port":27015,"enabled":true,"region":"us-west","cc":"us","latitude":33.94279,"longitude":-118.41004,"reserved":0,"last_update":"0001-01-01T00:00:00Z","name_a2s":"Uncletopia | Los Angeles | 1 | All Maps","protocol":17,"map":"koth_nucleus","folder":"tf","game":"Team Fortress","app_id":440,"player_count":0,"max_players":24,"Bots":0,"server_type":"Dedicated","server_os":"Linux","password":true,"vac":true,"version":"7695204","steam_id":85568392924469991,"keywords":["cp","nocrits","nodmgspread","uncletopia"],"game_id":440,"stv_port":27016,"stv_name":"Uncletopia | Los Angeles | 1 | All Maps | STV","players":null},{"server_id":112,"name":"Uncletopia | Los Angeles | 2 | All Maps","name_short":"lax-2","host":"lax-1.us.uncletopia.com","port":27025,"enabled":true,"region":"us-west","cc":"us","latitude":33.94279,"longitude":-118.41004,"reserved":0,"last_update":"0001-01-01T00:00:00Z","name_a2s":"Uncletopia | Los Angeles | 2 | All Maps","protocol":17,"map":"koth_viaduct","folder":"tf","game":"Team Fortress","app_id":440,"player_count":0,"max_players":24,"Bots":0,"server_type":"Dedicated","server_os":"Linux","password":true,"vac":true,"version":"7695204","steam_id":85568392924469992,"keywords":["cp","nocrits","nodmgspread","uncletopia"],"game_id":440,"stv_port":27026,"stv_name":"Uncletopia | Los Angeles | 2 | All Maps | STV","players":null},{"server_id":324,"name":"Uncletopia | Los Angeles | 3 | All Maps","name_short":"lax-3","host":"lax-1.us.uncletopia.com","port":27035,"enabled":true,"region":"us-west","cc":"us","latitude":33.94279,"longitude":-118.41004,"reserved":0,"last_update":"0001-01-01T00:00:00Z","name_a2s":"Uncletopia | Los Angeles | 3 | All Maps","protocol":17,"map":"koth_cascade","folder":"tf","game":"Team Fortress","app_id":440,"player_count":0,"max_players":24,"Bots":0,"server_type":"Dedicated","server_os":"Linux","password":true,"vac":true,"version":"7695204","steam_id":85568392924510198,"keywords":["cp","nocrits","nodmgspread","uncletopia"],"game_id":440,"stv_port":27036,"stv_name":"Uncletopia | Los Angeles | 3 | All Maps | STV","players":null},{"server_id":25,"name":"Uncletopia | Los Angeles | 4 | No Payload","name_short":"lax-4","host":"lax-1.us.uncletopia.com","port":27045,"enabled":true,"region":"us-west","cc":"us","latitude":33.94279,"longitude":-118.41004,"reserved":0,"last_update":"0001-01-01T00:00:00Z","name_a2s":"Uncletopia | Los Angeles | 4 | No Payload","protocol":17,"map":"koth_harvest_final","folder":"tf","game":"Team Fortress","app_id":440,"player_count":0,"max_players":24,"Bots":0,"server_type":"Dedicated","server_os":"Linux","password":true,"vac":true,"version":"7695204","steam_id":85568392924510199,"keywords":["cp","nocrits","nodmgspread","uncletopia"],"game_id":440,"stv_port":27046,"stv_name":"Uncletopia | Los Angeles | 4 | No Payload | STV","players":null},{"server_id":11,"name":"Uncletopia | London | 1 | All Maps","name_short":"lon-1","host":"lon-1.uk.uncletopia.com","port":27015,"enabled":true,"region":"eu","cc":"gb","latitude":51.509865,"longitude":-0.118092,"reserved":0,"last_update":"0001-01-01T00:00:00Z","name_a2s":"Uncletopia | London | 1 | All Maps","protocol":17,"map":"cp_sunshine","folder":"tf","game":"Team Fortress","app_id":440,"player_count":0,"max_players":24,"Bots":0,"server_type":"Dedicated","server_os":"Linux","password":true,"vac":true,"version":"7695204","steam_id":85568392924367362,"keywords":["cp","nocrits","nodmgspread","uncletopia"],"game_id":440,"stv_port":27016,"stv_name":"Uncletopia | London | 1 | All Maps | STV","players":null},{"server_id":114,"name":"Uncletopia | London | 2 | All Maps","name_short":"lon-2","host":"lon-1.uk.uncletopia.com","port":27025,"enabled":true,"region":"eu","cc":"gb","latitude":51.509865,"longitude":-0.118092,"reserved":0,"last_update":"0001-01-01T00:00:00Z","name_a2s":"Uncletopia | London | 2 | All Maps","protocol":17,"map":"cp_sunshine","folder":"tf","game":"Team Fortress","app_id":440,"player_count":0,"max_players":24,"Bots":0,"server_type":"Dedicated","server_os":"Linux","password":true,"vac":true,"version":"7695204","steam_id":85568392924470941,"keywords":["cp","nocrits","nodmgspread","uncletopia"],"game_id":440,"stv_port":0,"stv_name":"","players":null},{"server_id":320,"name":"Uncletopia | London | 3 | All Maps","name_short":"lon-3","host":"lon-1.uk.uncletopia.com","port":27035,"enabled":true,"region":"eu","cc":"gb","latitude":51.509865,"longitude":-0.118092,"reserved":0,"last_update":"0001-01-01T00:00:00Z","name_a2s":"Uncletopia | London | 3 | All Maps","protocol":17,"map":"pl_borneo","folder":"tf","game":"Team Fortress","app_id":440,"player_count":0,"max_players":24,"Bots":0,"server_type":"Dedicated","server_os":"Linux","password":true,"vac":true,"version":"7695204","steam_id":85568392924510192,"keywords":["nocrits","nodmgspread","payload","uncletopia"],"game_id":440,"stv_port":27036,"stv_name":"Uncletopia | London | 3 | All Maps | STV","players":null},{"server_id":321,"name":"Uncletopia | London | 4 | All Maps","name_short":"lon-4","host":"lon-1.uk.uncletopia.com","port":27045,"enabled":true,"region":"eu","cc":"gb","latitude":51.509865,"longitude":-0.118092,"reserved":0,"last_update":"0001-01-01T00:00:00Z","name_a2s":"Uncletopia | London | 4 | All Maps","protocol":17,"map":"pl_frontier_final","folder":"tf","game":"Team Fortress","app_id":440,"player_count":24,"max_players":24,"Bots":0,"server_type":"Dedicated","server_os":"Linux","password":true,"vac":true,"version":"7695204","steam_id":85568392924510193,"keywords":["nocrits","nodmgspread","payload","uncletopia"],"game_id":440,"stv_port":27046,"stv_name":"Uncletopia | London | 4 | All Maps | STV","players":[{"user_id":152,"name":"listening to 100 gecs rn","steam_id":76561199013457963,"connected_time":619000000000,"state":"active","ping":82},{"user_id":147,"name":"Urayuli","steam_id":76561198031573426,"connected_time":876000000000,"state":"active","ping":63},{"user_id":160,"name":"Loop_Cat","steam_id":76561199045902145,"connected_time":155000000000,"state":"active","ping":117},{"user_id":148,"name":"Mr.Schnittlauch","steam_id":76561198295868113,"connected_time":864000000000,"state":"active","ping":67},{"user_id":157,"name":"SHURIKEN","steam_id":76561197982319164,"connected_time":385000000000,"state":"active","ping":81},{"user_id":137,"name":"Ax ._.","steam_id":76561198073575185,"connected_time":2130000000000,"state":"active","ping":46},{"user_id":142,"name":"Aquatical","steam_id":76561198097333170,"connected_time":1160000000000,"state":"active","ping":94},{"user_id":43,"name":"ciliorkun18","steam_id":76561198228942500,"connected_time":9274000000000,"state":"active","ping":90},{"user_id":122,"name":"0_Dan","steam_id":76561199006567387,"connected_time":3645000000000,"state":"active","ping":51},{"user_id":158,"name":"RubenFisher","steam_id":76561199236976484,"connected_time":370000000000,"state":"active","ping":68},{"user_id":139,"name":"Poor Fucking Infantry","steam_id":76561198055978522,"connected_time":1807000000000,"state":"active","ping":46},{"user_id":128,"name":"Mi PRO | FIH","steam_id":76561199023108666,"connected_time":2764000000000,"state":"active","ping":104},{"user_id":133,"name":"murderwow","steam_id":76561198024566944,"connected_time":2554000000000,"state":"active","ping":114},{"user_id":153,"name":"jge","steam_id":76561198123186387,"connected_time":607000000000,"state":"active","ping":61},{"user_id":150,"name":"(1)Him","steam_id":76561198155314925,"connected_time":842000000000,"state":"active","ping":53},{"user_id":141,"name":"wxyz kapıcı izzet","steam_id":76561198241873438,"connected_time":1524000000000,"state":"active","ping":89},{"user_id":129,"name":"toes","steam_id":76561198409592046,"connected_time":2746000000000,"state":"active","ping":44},{"user_id":154,"name":"Nedge","steam_id":76561197963549701,"connected_time":593000000000,"state":"active","ping":53},{"user_id":98,"name":"Him","steam_id":76561198086400484,"connected_time":5358000000000,"state":"active","ping":61},{"user_id":130,"name":"Akimbo","steam_id":76561197970178267,"connected_time":2745000000000,"state":"active","ping":81},{"user_id":145,"name":"tomix7","steam_id":76561198365122597,"connected_time":927000000000,"state":"active","ping":71},{"user_id":146,"name":"Combat Wombat","steam_id":76561197994720068,"connected_time":926000000000,"state":"active","ping":56},{"user_id":143,"name":"Marzipan","steam_id":76561199122194201,"connected_time":1081000000000,"state":"active","ping":49},{"user_id":151,"name":"Maya #transrights","steam_id":76561198290614621,"connected_time":829000000000,"state":"active","ping":58}]},{"server_id":21,"name":"Uncletopia | London | 5 | All Maps","name_short":"lon-5","host":"lon-1.uk.uncletopia.com","port":27055,"enabled":true,"region":"eu","cc":"gb","latitude":51.509865,"longitude":-0.118092,"reserved":0,"last_update":"0001-01-01T00:00:00Z","name_a2s":"Uncletopia | London | 5 | All Maps","protocol":17,"map":"koth_cascade","folder":"tf","game":"Team Fortress","app_id":440,"player_count":0,"max_players":24,"Bots":0,"server_type":"Dedicated","server_os":"Linux","password":true,"vac":true,"version":"7695204","steam_id":85568392924742829,"keywords":["cp","nocrits","nodmgspread","uncletopia"],"game_id":440,"stv_port":0,"stv_name":"","players":null},{"server_id":22,"name":"Uncletopia | London | 6 | All Maps","name_short":"lon-6","host":"lon-1.uk.uncletopia.com","port":27065,"enabled":true,"region":"eu","cc":"gb","latitude":51.509865,"longitude":-0.118092,"reserved":0,"last_update":"0001-01-01T00:00:00Z","name_a2s":"Uncletopia | London | 6 | All Maps","protocol":17,"map":"cp_dustbowl","folder":"tf","game":"Team Fortress","app_id":440,"player_count":0,"max_players":24,"Bots":0,"server_type":"Dedicated","server_os":"Linux","password":true,"vac":true,"version":"7695204","steam_id":85568392924742830,"keywords":["cp","nocrits","nodmgspread","uncletopia"],"game_id":440,"stv_port":27066,"stv_name":"Uncletopia | London | 6 | All Maps | STV","players":null},{"server_id":40,"name":"Uncletopia | London | 7 | No Payload","name_short":"lon-7","host":"lon-1.uk.uncletopia.com","port":27075,"enabled":true,"region":"eu","cc":"gb","latitude":51.509865,"longitude":-0.118092,"reserved":0,"last_update":"0001-01-01T00:00:00Z","name_a2s":"Uncletopia | London | 7 | No Payload","protocol":17,"map":"koth_highpass","folder":"tf","game":"Team Fortress","app_id":440,"player_count":24,"max_players":24,"Bots":0,"server_type":"Dedicated","server_os":"Linux","password":true,"vac":true,"version":"7695204","steam_id":85568392924964314,"keywords":["cp","nocrits","nodmgspread","uncletopia"],"game_id":440,"stv_port":27076,"stv_name":"Uncletopia | London | 7 | No Payload | STV","players":[{"user_id":27,"name":"Random Main \u003c3","steam_id":76561198341428449,"connected_time":1666000000000,"state":"active","ping":48},{"user_id":69,"name":"Michael","steam_id":76561198003146906,"connected_time":223000000000,"state":"active","ping":45},{"user_id":9,"name":"not clickbait","steam_id":76561198951275407,"connected_time":4004000000000,"state":"active","ping":77},{"user_id":59,"name":"El_Kommadante","steam_id":76561198079551685,"connected_time":381000000000,"state":"active","ping":51},{"user_id":70,"name":"Bell","steam_id":76561199413517335,"connected_time":220000000000,"state":"active","ping":121},{"user_id":49,"name":"luvny","steam_id":76561198159928154,"connected_time":514000000000,"state":"active","ping":44},{"user_id":62,"name":"pryate","steam_id":76561198135960359,"connected_time":293000000000,"state":"active","ping":44},{"user_id":72,"name":"hallfelt","steam_id":76561199008716852,"connected_time":113000000000,"state":"active","ping":63},{"user_id":61,"name":"RoboOlaf","steam_id":76561198137708439,"connected_time":310000000000,"state":"active","ping":69},{"user_id":22,"name":"Milk","steam_id":76561198219146857,"connected_time":1761000000000,"state":"active","ping":76},{"user_id":50,"name":"ahcenetupe","steam_id":76561198916501470,"connected_time":478000000000,"state":"active","ping":64},{"user_id":32,"name":"Garden Freeman","steam_id":76561199073314677,"connected_time":1374000000000,"state":"active","ping":73},{"user_id":71,"name":"tzino","steam_id":76561199076883472,"connected_time":174000000000,"state":"active","ping":60},{"user_id":67,"name":"tacker11","steam_id":76561198886244287,"connected_time":249000000000,"state":"active","ping":51},{"user_id":35,"name":"Breadcrab","steam_id":76561198015924039,"connected_time":1208000000000,"state":"active","ping":52},{"user_id":73,"name":"Soul Knight","steam_id":76561199034041634,"connected_time":108000000000,"state":"active","ping":51},{"user_id":42,"name":"Scientific Idiocy","steam_id":76561198951206047,"connected_time":843000000000,"state":"active","ping":115},{"user_id":43,"name":"Average Piss Enthusiast","steam_id":76561198057472680,"connected_time":836000000000,"state":"active","ping":76},{"user_id":45,"name":"Fauli™","steam_id":76561198125109310,"connected_time":719000000000,"state":"active","ping":73},{"user_id":46,"name":"pjena","steam_id":76561198207643025,"connected_time":708000000000,"state":"active","ping":75},{"user_id":47,"name":"100 IQ gaming","steam_id":76561198948719596,"connected_time":690000000000,"state":"active","ping":43},{"user_id":58,"name":"Sham!","steam_id":76561198050434275,"connected_time":409000000000,"state":"active","ping":56},{"user_id":52,"name":"Marukuso","steam_id":76561198154229845,"connected_time":471000000000,"state":"active","ping":62},{"user_id":75,"name":"S c u m p","steam_id":76561199172582978,"connected_time":77000000000,"state":"spawning","ping":342}]},{"server_id":41,"name":"Uncletopia | London | 8 | Community","name_short":"lon-8","host":"lon-1.uk.uncletopia.com","port":27085,"enabled":true,"region":"eu","cc":"gb","latitude":51.509865,"longitude":-0.118092,"reserved":0,"last_update":"0001-01-01T00:00:00Z","name_a2s":"Uncletopia | London | 8 | Community","protocol":17,"map":"workshop/rd_asteroid_redux_rc9.ugc2154902912","folder":"tf","game":"Team Fortress","app_id":440,"player_count":0,"max_players":24,"Bots":0,"server_type":"Dedicated","server_os":"Linux","password":true,"vac":true,"version":"7695204","steam_id":85568392924964315,"keywords":["beta","nocrits","nodmgspread","rd","uncletopia"],"game_id":440,"stv_port":27086,"stv_name":"Uncletopia | London | 8 | Community | STV","players":null},{"server_id":300,"name":"Uncletopia | Montréal | 1 | All Maps","name_short":"mtl-1","host":"mtl-1.ca.uncletopia.com","port":27015,"enabled":true,"region":"us-east","cc":"ca","latitude":45.50889,"longitude":-73.56167,"reserved":0,"last_update":"0001-01-01T00:00:00Z","name_a2s":"Uncletopia | Montréal | 1 | All Maps","protocol":17,"map":"cp_dustbowl","folder":"tf","game":"Team Fortress","app_id":440,"player_count":0,"max_players":24,"Bots":0,"server_type":"Dedicated","server_os":"Linux","password":true,"vac":true,"version":"7695204","steam_id":85568392924500087,"keywords":["cp","nocrits","nodmgspread","uncletopia"],"game_id":440,"stv_port":0,"stv_name":"","players":null},{"server_id":301,"name":"Uncletopia | Montréal | 2 | All Maps","name_short":"mtl-2","host":"mtl-1.ca.uncletopia.com","port":27025,"enabled":true,"region":"us-east","cc":"ca","latitude":45.50889,"longitude":-73.56167,"reserved":0,"last_update":"0001-01-01T00:00:00Z","name_a2s":"Uncletopia | Montréal | 2 | All Maps","protocol":17,"map":"pl_snowycoast","folder":"tf","game":"Team Fortress","app_id":440,"player_count":0,"max_players":24,"Bots":0,"server_type":"Dedicated","server_os":"Linux","password":true,"vac":true,"version":"7695204","steam_id":85568392924500088,"keywords":["nocrits","nodmgspread","payload","uncletopia"],"game_id":440,"stv_port":0,"stv_name":"","players":null},{"server_id":302,"name":"Uncletopia | Montréal | 3 | All Maps","name_short":"mtl-3","host":"mtl-1.ca.uncletopia.com","port":27035,"enabled":true,"region":"us-east","cc":"ca","latitude":45.50889,"longitude":-73.56167,"reserved":0,"last_update":"0001-01-01T00:00:00Z","name_a2s":"Uncletopia | Montréal | 3 | All Maps","protocol":17,"map":"koth_viaduct","folder":"tf","game":"Team Fortress","app_id":440,"player_count":0,"max_players":24,"Bots":0,"server_type":"Dedicated","server_os":"Linux","password":true,"vac":true,"version":"7695204","steam_id":85568392924500089,"keywords":["cp","nocrits","nodmgspread","uncletopia"],"game_id":440,"stv_port":0,"stv_name":"","players":null},{"server_id":303,"name":"Uncletopia | Montréal | 4 | No Payload","name_short":"mtl-4","host":"mtl-1.ca.uncletopia.com","port":27045,"enabled":true,"region":"us-east","cc":"ca","latitude":45.50889,"longitude":-73.56167,"reserved":0,"last_update":"0001-01-01T00:00:00Z","name_a2s":"Uncletopia | Montréal | 4 | No Payload","protocol":17,"map":"cp_dustbowl","folder":"tf","game":"Team Fortress","app_id":440,"player_count":0,"max_players":24,"Bots":0,"server_type":"Dedicated","server_os":"Linux","password":true,"vac":true,"version":"7695204","steam_id":85568392924500090,"keywords":["cp","nocrits","nodmgspread","uncletopia"],"game_id":440,"stv_port":0,"stv_name":"","players":null},{"server_id":13,"name":"Uncletopia | New York City | 1 | All Maps","name_short":"nyc-1","host":"nyc-1.us.uncletopia.com","port":27015,"enabled":true,"region":"us-east","cc":"us","latitude":40.73061,"longitude":-73.93524,"reserved":0,"last_update":"0001-01-01T00:00:00Z","name_a2s":"Uncletopia | New York City | 1 | All Maps","protocol":17,"map":"koth_viaduct","folder":"tf","game":"Team Fortress","app_id":440,"player_count":0,"max_players":24,"Bots":0,"server_type":"Dedicated","server_os":"Linux","password":true,"vac":true,"version":"7695204","steam_id":85568392924469993,"keywords":["cp","nocrits","nodmgspread","uncletopia"],"game_id":440,"stv_port":27016,"stv_name":"Uncletopia | New York City | 1 | All Maps | STV","players":null},{"server_id":14,"name":"Uncletopia | New York City | 2 | All Maps","name_short":"nyc-2","host":"nyc-1.us.uncletopia.com","port":27025,"enabled":true,"region":"us-east","cc":"us","latitude":40.73061,"longitude":-73.93524,"reserved":0,"last_update":"0001-01-01T00:00:00Z","name_a2s":"Uncletopia | New York City | 2 | All Maps","protocol":17,"map":"pl_borneo","folder":"tf","game":"Team Fortress","app_id":440,"player_count":0,"max_players":24,"Bots":0,"server_type":"Dedicated","server_os":"Linux","password":true,"vac":true,"version":"7695204","steam_id":85568392924469994,"keywords":["nocrits","nodmgspread","payload","uncletopia"],"game_id":440,"stv_port":0,"stv_name":"","players":null},{"server_id":15,"name":"Uncletopia | New York City | 3 | All Maps","name_short":"nyc-3","host":"nyc-1.us.uncletopia.com","port":27035,"enabled":true,"region":"us-east","cc":"us","latitude":40.73061,"longitude":-73.93524,"reserved":0,"last_update":"0001-01-01T00:00:00Z","name_a2s":"Uncletopia | New York City | 3 | All Maps","protocol":17,"map":"pl_snowycoast","folder":"tf","game":"Team Fortress","app_id":440,"player_count":0,"max_players":24,"Bots":0,"server_type":"Dedicated","server_os":"Linux","password":true,"vac":true,"version":"7695204","steam_id":85568392924742820,"keywords":["nocrits","nodmgspread","payload","uncletopia"],"game_id":440,"stv_port":0,"stv_name":"","players":null},{"server_id":16,"name":"Uncletopia | New York City | 4 | Community","name_short":"nyc-4","host":"nyc-1.us.uncletopia.com","port":27045,"enabled":true,"region":"us-east","cc":"us","latitude":40.73061,"longitude":-73.93524,"reserved":0,"last_update":"0001-01-01T00:00:00Z","name_a2s":"Uncletopia | New York City | 4 | Community","protocol":17,"map":"pl_barnblitz","folder":"tf","game":"Team Fortress","app_id":440,"player_count":0,"max_players":24,"Bots":0,"server_type":"Dedicated","server_os":"Linux","password":true,"vac":true,"version":"7695204","steam_id":85568392924742821,"keywords":["nocrits","nodmgspread","payload","uncletopia"],"game_id":440,"stv_port":0,"stv_name":"","players":null},{"server_id":142,"name":"Uncletopia | São Paulo | 1 | All Maps","name_short":"sao-1","host":"sao-1.br.uncletopia.com","port":27015,"enabled":true,"region":"sa","cc":"br","latitude":-23.533773,"longitude":-46.62529,"reserved":0,"last_update":"0001-01-01T00:00:00Z","name_a2s":"Uncletopia | São Paulo | 1 | All Maps","protocol":17,"map":"koth_cascade","folder":"tf","game":"Team Fortress","app_id":440,"player_count":0,"max_players":24,"Bots":0,"server_type":"Dedicated","server_os":"Linux","password":true,"vac":true,"version":"7695204","steam_id":85568392924469996,"keywords":["cp","nocrits","nodmgspread","uncletopia"],"game_id":440,"stv_port":0,"stv_name":"","players":null},{"server_id":143,"name":"Uncletopia | São Paulo | 2 | All Maps","name_short":"sao-2","host":"sao-2.br.uncletopia.com","port":27015,"enabled":true,"region":"sa","cc":"br","latitude":-23.533773,"longitude":-46.62529,"reserved":0,"last_update":"0001-01-01T00:00:00Z","name_a2s":"Uncletopia | São Paulo | 2 | All Maps","protocol":17,"map":"pl_borneo","folder":"tf","game":"Team Fortress","app_id":440,"player_count":0,"max_players":24,"Bots":0,"server_type":"Dedicated","server_os":"Linux","password":true,"vac":true,"version":"7695204","steam_id":85568392924485349,"keywords":["nocrits","nodmgspread","payload","uncletopia"],"game_id":440,"stv_port":27016,"stv_name":"Uncletopia | São Paulo | 2 | All Maps | STV","players":null},{"server_id":7,"name":"Uncletopia | Seattle | 1 | All Maps","name_short":"sea-1","host":"sea-1.us.uncletopia.com","port":27015,"enabled":true,"region":"us-west","cc":"us","latitude":47.608013,"longitude":-122.33517,"reserved":0,"last_update":"0001-01-01T00:00:00Z","name_a2s":"Uncletopia | Seattle | 1 | All Maps","protocol":17,"map":"koth_cascade","folder":"tf","game":"Team Fortress","app_id":440,"player_count":0,"max_players":24,"Bots":0,"server_type":"Dedicated","server_os":"Linux","password":true,"vac":true,"version":"7695204","steam_id":85568392924469997,"keywords":["cp","nocrits","nodmgspread","uncletopia"],"game_id":440,"stv_port":27016,"stv_name":"Uncletopia | Seattle | 1 | All Maps | STV","players":null},{"server_id":119,"name":"Uncletopia | Seattle | 2 | All Maps","name_short":"sea-2","host":"sea-1.us.uncletopia.com","port":27025,"enabled":true,"region":"us-west","cc":"us","latitude":47.608013,"longitude":-122.33517,"reserved":0,"last_update":"0001-01-01T00:00:00Z","name_a2s":"Uncletopia | Seattle | 2 | All Maps","protocol":17,"map":"pl_badwater","folder":"tf","game":"Team Fortress","app_id":440,"player_count":19,"max_players":24,"Bots":0,"server_type":"Dedicated","server_os":"Linux","password":true,"vac":true,"version":"7695204","steam_id":85568392924469998,"keywords":["nocrits","nodmgspread","payload","uncletopia"],"game_id":440,"stv_port":27026,"stv_name":"Uncletopia | Seattle | 2 | All Maps | STV","players":[{"user_id":851,"name":"J O S H³²","steam_id":76561198122603779,"connected_time":1295000000000,"state":"active","ping":75},{"user_id":852,"name":"super_deathgrips_fan76","steam_id":76561199070989131,"connected_time":1293000000000,"state":"active","ping":66},{"user_id":833,"name":"begolds8","steam_id":76561198841069098,"connected_time":3247000000000,"state":"active","ping":126},{"user_id":770,"name":"Tsudad","steam_id":76561198827362462,"connected_time":7473000000000,"state":"active","ping":65},{"user_id":858,"name":"weedcatinthasky","steam_id":76561198421913648,"connected_time":755000000000,"state":"active","ping":45},{"user_id":850,"name":"PROFILE NAME","steam_id":76561199438851854,"connected_time":1412000000000,"state":"active","ping":64},{"user_id":795,"name":"rat gets the cheese","steam_id":76561198031234032,"connected_time":5709000000000,"state":"active","ping":90},{"user_id":862,"name":"Rhutebeer","steam_id":76561198018302761,"connected_time":69000000000,"state":"active","ping":129},{"user_id":830,"name":"Blackcat","steam_id":76561199013406735,"connected_time":3504000000000,"state":"active","ping":61},{"user_id":807,"name":"amagicowl","steam_id":76561199060487814,"connected_time":4730000000000,"state":"active","ping":77},{"user_id":856,"name":"THE NUT","steam_id":76561198067813626,"connected_time":1112000000000,"state":"active","ping":48},{"user_id":859,"name":"awfulArbiter","steam_id":76561198068189558,"connected_time":642000000000,"state":"active","ping":60},{"user_id":863,"name":"gmwinix","steam_id":76561198171246314,"connected_time":31000000000,"state":"active","ping":278},{"user_id":836,"name":"HAT-WEARING™ Maggot Gamer Cat","steam_id":76561197973992705,"connected_time":3053000000000,"state":"active","ping":72},{"user_id":811,"name":"Sad Sapling","steam_id":76561198075612150,"connected_time":4721000000000,"state":"active","ping":76},{"user_id":838,"name":"snugthebug","steam_id":76561198030964222,"connected_time":2981000000000,"state":"active","ping":91},{"user_id":814,"name":"Beef Wellington","steam_id":76561197995635241,"connected_time":4694000000000,"state":"active","ping":113},{"user_id":860,"name":"pabbott123110","steam_id":76561199231739796,"connected_time":523000000000,"state":"active","ping":130},{"user_id":817,"name":"Daz","steam_id":76561198041431938,"connected_time":4587000000000,"state":"active","ping":122}]},{"server_id":17,"name":"Uncletopia | San Francisco | 1 | All Maps","name_short":"sfo-1","host":"sfo-1.us.uncletopia.com","port":27015,"enabled":true,"region":"us-west","cc":"us","latitude":37.77397,"longitude":-122.4313,"reserved":0,"last_update":"0001-01-01T00:00:00Z","name_a2s":"Uncletopia | San Francisco | 1 | All Maps","protocol":17,"map":"koth_lakeside_final","folder":"tf","game":"Team Fortress","app_id":440,"player_count":0,"max_players":24,"Bots":0,"server_type":"Dedicated","server_os":"Linux","password":true,"vac":true,"version":"7695204","steam_id":85568392924469999,"keywords":["cp","nocrits","nodmgspread","uncletopia"],"game_id":440,"stv_port":27016,"stv_name":"Uncletopia | San Francisco | 1 | All Maps | STV","players":null},{"server_id":18,"name":"Uncletopia | San Francisco | 2 | All Maps","name_short":"sfo-2","host":"sfo-1.us.uncletopia.com","port":27025,"enabled":true,"region":"us-west","cc":"us","latitude":37.77397,"longitude":-122.4313,"reserved":0,"last_update":"0001-01-01T00:00:00Z","name_a2s":"Uncletopia | San Francisco | 2 | All Maps","protocol":17,"map":"koth_viaduct","folder":"tf","game":"Team Fortress","app_id":440,"player_count":0,"max_players":24,"Bots":0,"server_type":"Dedicated","server_os":"Linux","password":true,"vac":true,"version":"7695204","steam_id":85568392924470000,"keywords":["cp","nocrits","nodmgspread","uncletopia"],"game_id":440,"stv_port":27026,"stv_name":"Uncletopia | San Francisco | 2 | All Maps | STV","players":null},{"server_id":19,"name":"Uncletopia | San Francisco | 3 | No Payload","name_short":"sfo-3","host":"sfo-1.us.uncletopia.com","port":27035,"enabled":true,"region":"us-west","cc":"us","latitude":37.77397,"longitude":-122.4313,"reserved":0,"last_update":"0001-01-01T00:00:00Z","name_a2s":"Uncletopia | San Francisco | 3 | No Payload","protocol":17,"map":"plr_hightower","folder":"tf","game":"Team Fortress","app_id":440,"player_count":4,"max_players":24,"Bots":0,"server_type":"Dedicated","server_os":"Linux","password":true,"vac":true,"version":"7695204","steam_id":85568392924742824,"keywords":["nocrits","nodmgspread","payload","uncletopia"],"game_id":440,"stv_port":27036,"stv_name":"Uncletopia | San Francisco | 3 | No Payload | STV","players":[{"user_id":23,"name":"titicost2200","steam_id":76561198826858059,"connected_time":1070000000000,"state":"active","ping":200},{"user_id":24,"name":"Jotapê","steam_id":76561198325543532,"connected_time":1065000000000,"state":"active","ping":207},{"user_id":25,"name":"Joe69420","steam_id":76561198351489663,"connected_time":923000000000,"state":"active","ping":159},{"user_id":26,"name":"orange","steam_id":76561198312698447,"connected_time":899000000000,"state":"active","ping":183}]},{"server_id":20,"name":"Uncletopia | San Francisco | 4 | Community","name_short":"sfo-4","host":"sfo-1.us.uncletopia.com","port":27045,"enabled":true,"region":"us-west","cc":"us","latitude":37.77397,"longitude":-122.4313,"reserved":0,"last_update":"0001-01-01T00:00:00Z","name_a2s":"Uncletopia | San Francisco | 4 | Community","protocol":17,"map":"workshop/cp_sulfur_rc2.ugc619869471","folder":"tf","game":"Team Fortress","app_id":440,"player_count":0,"max_players":24,"Bots":0,"server_type":"Dedicated","server_os":"Linux","password":true,"vac":true,"version":"7695204","steam_id":85568392924742826,"keywords":["cp","nocrits","nodmgspread","uncletopia"],"game_id":440,"stv_port":27046,"stv_name":"Uncletopia | San Francisco | 4 | Community | STV","players":null},{"server_id":141,"name":"Uncletopia | Sydney | 1 | All Maps","name_short":"syd-1","host":"syd-1.au.uncletopia.com","port":27015,"enabled":true,"region":"au","cc":"au","latitude":-33.865143,"longitude":151.2099,"reserved":0,"last_update":"0001-01-01T00:00:00Z","name_a2s":"Uncletopia | Sydney | 1 | All Maps","protocol":17,"map":"pl_upward","folder":"tf","game":"Team Fortress","app_id":440,"player_count":0,"max_players":24,"Bots":0,"server_type":"Dedicated","server_os":"Linux","password":true,"vac":true,"version":"7695204","steam_id":85568392924470001,"keywords":["nocrits","nodmgspread","payload","uncletopia"],"game_id":440,"stv_port":27016,"stv_name":"Uncletopia | Sydney | 1 | All Maps | STV","players":null},{"server_id":123,"name":"Uncletopia | Sydney | 2 | All Maps","name_short":"syd-2","host":"syd-1.au.uncletopia.com","port":27025,"enabled":true,"region":"au","cc":"au","latitude":-33.865143,"longitude":151.2099,"reserved":0,"last_update":"0001-01-01T00:00:00Z","name_a2s":"Uncletopia | Sydney | 2 | All Maps","protocol":17,"map":"pl_barnblitz","folder":"tf","game":"Team Fortress","app_id":440,"player_count":23,"max_players":24,"Bots":0,"server_type":"Dedicated","server_os":"Linux","password":true,"vac":true,"version":"7695204","steam_id":85568392924470002,"keywords":["nocrits","nodmgspread","payload","uncletopia"],"game_id":440,"stv_port":27026,"stv_name":"Uncletopia | Sydney | 2 | All Maps | STV","players":[{"user_id":694,"name":"hawk","steam_id":76561198135164277,"connected_time":458000000000,"state":"active","ping":51},{"user_id":701,"name":"kevin","steam_id":76561198018566139,"connected_time":289000000000,"state":"active","ping":34},{"user_id":625,"name":"blicky","steam_id":76561198029829077,"connected_time":5683000000000,"state":"active","ping":90},{"user_id":706,"name":"sir sex","steam_id":76561199057400955,"connected_time":38000000000,"state":"spawning","ping":96},{"user_id":680,"name":"LMAO xDDDDDDD","steam_id":76561198104864553,"connected_time":1402000000000,"state":"active","ping":47},{"user_id":638,"name":"curtis","steam_id":76561197993731862,"connected_time":4517000000000,"state":"active","ping":93},{"user_id":702,"name":"Locker633","steam_id":76561198132624042,"connected_time":288000000000,"state":"active","ping":90},{"user_id":640,"name":"korn","steam_id":76561198022563294,"connected_time":4347000000000,"state":"active","ping":102},{"user_id":682,"name":"i like balls","steam_id":76561199010558927,"connected_time":1254000000000,"state":"active","ping":146},{"user_id":669,"name":"DelHasMangoes/yt","steam_id":76561198047183797,"connected_time":2460000000000,"state":"active","ping":84},{"user_id":641,"name":"Rarity the Fabulous","steam_id":76561198077653287,"connected_time":4279000000000,"state":"active","ping":30},{"user_id":677,"name":"pdf file","steam_id":76561198351675787,"connected_time":1582000000000,"state":"active","ping":50},{"user_id":608,"name":"RoverTw0","steam_id":76561198025416071,"connected_time":6570000000000,"state":"active","ping":38},{"user_id":707,"name":"Whoopass_voice","steam_id":76561198003965423,"connected_time":3000000000,"state":"spawning","ping":118},{"user_id":675,"name":"banna man","steam_id":76561198425529484,"connected_time":1811000000000,"state":"active","ping":45},{"user_id":645,"name":"hobo","steam_id":76561199046481213,"connected_time":4215000000000,"state":"active","ping":60},{"user_id":681,"name":"hyak","steam_id":76561198175700625,"connected_time":1318000000000,"state":"active","ping":86},{"user_id":704,"name":"Pride","steam_id":76561198036671190,"connected_time":170000000000,"state":"active","ping":59},{"user_id":698,"name":"Charm","steam_id":76561198028891054,"connected_time":359000000000,"state":"active","ping":60},{"user_id":705,"name":"malicious meddler","steam_id":76561198052118118,"connected_time":117000000000,"state":"active","ping":32},{"user_id":683,"name":"gave my love to a shooting star","steam_id":76561197990537324,"connected_time":1125000000000,"state":"active","ping":108},{"user_id":700,"name":"Marvin","steam_id":76561198202181742,"connected_time":339000000000,"state":"active","ping":37},{"user_id":696,"name":"BSL_543","steam_id":76561198216094064,"connected_time":404000000000,"state":"active","ping":64}]},{"server_id":395,"name":"Uncletopia | Sydney | 3 | All Maps","name_short":"syd-3","host":"syd-1.au.uncletopia.com","port":27035,"enabled":true,"region":"au","cc":"au","latitude":-33.865143,"longitude":151.2099,"reserved":0,"last_update":"0001-01-01T00:00:00Z","name_a2s":"Uncletopia | Sydney | 3 | All Maps","protocol":17,"map":"koth_lakeside_final","folder":"tf","game":"Team Fortress","app_id":440,"player_count":0,"max_players":24,"Bots":0,"server_type":"Dedicated","server_os":"Linux","password":true,"vac":true,"version":"7695204","steam_id":85568392925194467,"keywords":["cp","nocrits","nodmgspread","uncletopia"],"game_id":440,"stv_port":27036,"stv_name":"Uncletopia | Sydney | 3 | All Maps | STV","players":null},{"server_id":396,"name":"Uncletopia | Sydney | 4 | All Maps","name_short":"syd-4","host":"syd-1.au.uncletopia.com","port":27045,"enabled":true,"region":"au","cc":"au","latitude":-33.865143,"longitude":151.2099,"reserved":0,"last_update":"0001-01-01T00:00:00Z","name_a2s":"Uncletopia | Sydney | 4 | All Maps","protocol":17,"map":"cp_snakewater_final1","folder":"tf","game":"Team Fortress","app_id":440,"player_count":0,"max_players":24,"Bots":0,"server_type":"Dedicated","server_os":"Linux","password":true,"vac":true,"version":"7695204","steam_id":85568392925397958,"keywords":["cp","nocrits","nodmgspread","uncletopia"],"game_id":440,"stv_port":27046,"stv_name":"Uncletopia | Sydney | 4 | All Maps | STV","players":null},{"server_id":58,"name":"Uncletopia | Sydney | 5 | No Payload","name_short":"syd-5","host":"syd-1.au.uncletopia.com","port":27055,"enabled":true,"region":"au","cc":"au","latitude":-33.865143,"longitude":151.2099,"reserved":0,"last_update":"0001-01-01T00:00:00Z","name_a2s":"Uncletopia | Sydney | 5 | No Payload","protocol":17,"map":"plr_nightfall_final","folder":"tf","game":"Team Fortress","app_id":440,"player_count":0,"max_players":24,"Bots":0,"server_type":"Dedicated","server_os":"Linux","password":true,"vac":true,"version":"7695204","steam_id":85568392925397959,"keywords":["nocrits","nodmgspread","payload","uncletopia"],"game_id":440,"stv_port":27056,"stv_name":"Uncletopia | Sydney | 5 | No Payload | STV","players":null},{"server_id":59,"name":"Uncletopia | Sydney | 6 | Community","name_short":"syd-6","host":"syd-1.au.uncletopia.com","port":27065,"enabled":true,"region":"au","cc":"au","latitude":-33.865143,"longitude":151.2099,"reserved":0,"last_update":"0001-01-01T00:00:00Z","name_a2s":"Uncletopia | Sydney | 6 | Community","protocol":17,"map":"workshop/koth_product_final.ugc454272353","folder":"tf","game":"Team Fortress","app_id":440,"player_count":0,"max_players":24,"Bots":0,"server_type":"Dedicated","server_os":"Linux","password":true,"vac":true,"version":"7695204","steam_id":85568392925397960,"keywords":["cp","nocrits","nodmgspread","uncletopia"],"game_id":440,"stv_port":27066,"stv_name":"Uncletopia | Sydney | 6 | Community | STV","players":null},{"server_id":49,"name":"Uncletopia | Warsaw | 1 | All Maps","name_short":"waw-1","host":"waw-1.pl.uncletopia.com","port":27015,"enabled":true,"region":"eu","cc":"pl","latitude":52.2297,"longitude":21.017532,"reserved":0,"last_update":"0001-01-01T00:00:00Z","name_a2s":"Uncletopia | Warsaw | 1 | All Maps","protocol":17,"map":"cp_sunshine","folder":"tf","game":"Team Fortress","app_id":440,"player_count":0,"max_players":24,"Bots":0,"server_type":"Dedicated","server_os":"Linux","password":true,"vac":true,"version":"7695204","steam_id":85568392925397850,"keywords":["cp","nocrits","nodmgspread","uncletopia"],"game_id":440,"stv_port":27016,"stv_name":"Uncletopia | Warsaw | 1 | All Maps | STV","players":null},{"server_id":50,"name":"Uncletopia | Warsaw | 2 | All Maps","name_short":"waw-2","host":"waw-1.pl.uncletopia.com","port":27025,"enabled":true,"region":"eu","cc":"pl","latitude":52.2297,"longitude":21.017532,"reserved":0,"last_update":"0001-01-01T00:00:00Z","name_a2s":"Uncletopia | Warsaw | 2 | All Maps","protocol":17,"map":"pl_upward","folder":"tf","game":"Team Fortress","app_id":440,"player_count":24,"max_players":24,"Bots":0,"server_type":"Dedicated","server_os":"Linux","password":true,"vac":true,"version":"7695204","steam_id":85568392925397851,"keywords":["nocrits","nodmgspread","payload","uncletopia"],"game_id":440,"stv_port":27026,"stv_name":"Uncletopia | Warsaw | 2 | All Maps | STV","players":[{"user_id":281,"name":"scout TF2","steam_id":76561198072037878,"connected_time":2423000000000,"state":"active","ping":77},{"user_id":286,"name":"Mankor","steam_id":76561198020439322,"connected_time":2269000000000,"state":"active","ping":62},{"user_id":258,"name":"Mapus Lepoldus","steam_id":76561198067705233,"connected_time":3694000000000,"state":"active","ping":80},{"user_id":318,"name":"naleksi","steam_id":76561198018391055,"connected_time":209000000000,"state":"active","ping":123},{"user_id":288,"name":"pandeux","steam_id":76561198343527617,"connected_time":2093000000000,"state":"active","ping":77},{"user_id":272,"name":"cat@hoodie","steam_id":76561199216923710,"connected_time":3055000000000,"state":"active","ping":103},{"user_id":289,"name":"brain rot","steam_id":76561198383879779,"connected_time":2030000000000,"state":"active","ping":85},{"user_id":313,"name":"engineer gaming","steam_id":76561198220157307,"connected_time":299000000000,"state":"active","ping":100},{"user_id":302,"name":"Canny8","steam_id":76561199142022395,"connected_time":821000000000,"state":"active","ping":82},{"user_id":316,"name":"NobDot","steam_id":76561198975487038,"connected_time":271000000000,"state":"active","ping":55},{"user_id":303,"name":"nicco","steam_id":76561198046217866,"connected_time":820000000000,"state":"active","ping":66},{"user_id":304,"name":"Alender","steam_id":76561198061122036,"connected_time":809000000000,"state":"active","ping":60},{"user_id":293,"name":"PLUTO","steam_id":76561198312436128,"connected_time":1744000000000,"state":"active","ping":98},{"user_id":267,"name":"Phiphler","steam_id":76561197994055715,"connected_time":3215000000000,"state":"active","ping":75},{"user_id":297,"name":"oli","steam_id":76561198101528339,"connected_time":1018000000000,"state":"active","ping":83},{"user_id":305,"name":"Dr. Douleur","steam_id":76561198304386590,"connected_time":730000000000,"state":"active","ping":84},{"user_id":306,"name":"Zikad22","steam_id":76561199010912015,"connected_time":714000000000,"state":"active","ping":89},{"user_id":307,"name":"Beggar's Bazooka default taunt","steam_id":76561198089727765,"connected_time":683000000000,"state":"active","ping":61},{"user_id":314,"name":"Simping for Pizza-san","steam_id":76561198067204908,"connected_time":290000000000,"state":"active","ping":88},{"user_id":311,"name":"gorchfock_20 #","steam_id":76561199026378253,"connected_time":443000000000,"state":"active","ping":72},{"user_id":276,"name":"esteebangus","steam_id":76561198203962355,"connected_time":2757000000000,"state":"active","ping":69},{"user_id":285,"name":"MAGIC SPEAR","steam_id":76561198106455841,"connected_time":2338000000000,"state":"active","ping":95},{"user_id":309,"name":"Naginacz","steam_id":76561199099232534,"connected_time":490000000000,"state":"active","ping":45},{"user_id":315,"name":"filo","steam_id":76561198103633797,"connected_time":286000000000,"state":"active","ping":62}]},{"server_id":51,"name":"Uncletopia | Warsaw | 3 | All Maps","name_short":"waw-3","host":"waw-1.pl.uncletopia.com","port":27035,"enabled":true,"region":"eu","cc":"pl","latitude":52.2297,"longitude":21.017532,"reserved":0,"last_update":"0001-01-01T00:00:00Z","name_a2s":"Uncletopia | Warsaw | 3 | All Maps","protocol":17,"map":"pl_barnblitz","folder":"tf","game":"Team Fortress","app_id":440,"player_count":0,"max_players":24,"Bots":0,"server_type":"Dedicated","server_os":"Linux","password":true,"vac":true,"version":"7695204","steam_id":85568392925397852,"keywords":["nocrits","nodmgspread","payload","uncletopia"],"game_id":440,"stv_port":0,"stv_name":"","players":null},{"server_id":52,"name":"Uncletopia | Warsaw | 4 | All Maps","name_short":"waw-4","host":"waw-1.pl.uncletopia.com","port":27045,"enabled":true,"region":"eu","cc":"pl","latitude":52.2297,"longitude":21.017532,"reserved":0,"last_update":"0001-01-01T00:00:00Z","name_a2s":"Uncletopia | Warsaw | 4 | All Maps","protocol":17,"map":"cp_altitude","folder":"tf","game":"Team Fortress","app_id":440,"player_count":1,"max_players":24,"Bots":0,"server_type":"Dedicated","server_os":"Linux","password":true,"vac":true,"version":"7695204","steam_id":85568392925397853,"keywords":["cp","nocrits","nodmgspread","uncletopia"],"game_id":440,"stv_port":0,"stv_name":"","players":[{"user_id":3,"name":"rpgloaf","steam_id":76561198068648568,"connected_time":473000000000,"state":"active","ping":98}]},{"server_id":53,"name":"Uncletopia | Warsaw | 5 | No Payload","name_short":"waw-5","host":"waw-1.pl.uncletopia.com","port":27055,"enabled":true,"region":"eu","cc":"pl","latitude":52.2297,"longitude":21.017532,"reserved":0,"last_update":"0001-01-01T00:00:00Z","name_a2s":"Uncletopia | Warsaw | 5 | No Payload","protocol":17,"map":"cp_steel","folder":"tf","game":"Team Fortress","app_id":440,"player_count":0,"max_players":24,"Bots":0,"server_type":"Dedicated","server_os":"Linux","password":true,"vac":true,"version":"7695204","steam_id":85568392925397854,"keywords":["cp","nocrits","nodmgspread","uncletopia"],"game_id":440,"stv_port":27056,"stv_name":"Uncletopia | Warsaw | 5 | No Payload | STV","players":null},{"server_id":54,"name":"Uncletopia | Warsaw | 6 | Community","name_short":"waw-6","host":"waw-1.pl.uncletopia.com","port":27065,"enabled":true,"region":"eu","cc":"pl","latitude":52.2297,"longitude":21.017532,"reserved":0,"last_update":"0001-01-01T00:00:00Z","name_a2s":"Uncletopia | Warsaw | 6 | Community","protocol":17,"map":"pl_barnblitz","folder":"tf","game":"Team Fortress","app_id":440,"player_count":0,"max_players":24,"Bots":0,"server_type":"Dedicated","server_os":"Linux","password":true,"vac":true,"version":"7695204","steam_id":85568392925397856,"keywords":["nocrits","nodmgspread","payload","uncletopia"],"game_id":440,"stv_port":0,"stv_name":"","players":null}]}