{"status":true,"message":"","result":[{"server_id":9,"name":"Uncletopia | Atlanta | 1 | All Maps","name_short":"atl-1","host":"atl-1.us.uncletopia.com","port":27015,"enabled":true,"region":"us-east","cc":"us","latitude":33.753746,"longitude":-84.38633,"reserved":0,"last_update":"0001-01-01T00:00:00Z","name_a2s":"Uncletopia | Atlanta | 1 | All Maps","protocol":17,"map":"pl_barnblitz","folder":"tf","game":"Team Fortress","app_id":440,"player_count":24,"max_players":24,"Bots":0,"server_type":"Dedicated","server_os":"Linux","password":true,"vac":true,"version":"7742253","steam_id":85568392924469982,"keywords":["nocrits","nodmgspread","payload","uncletopia"],"game_id":440,"stv_port":27016,"stv_name":"Uncletopia | Atlanta | 1 | All Maps | STV","players":[{"user_id":485,"name":"THICC","steam_id":76561198273234133,"connected_time":1032000000000,"state":"active","ping":53},{"user_id":472,"name":"SneakySneak","steam_id":76561198064847921,"connected_time":2095000000000,"state":"active","ping":76},{"user_id":501,"name":"help","steam_id":76561199056338917,"connected_time":136000000000,"state":"active","ping":87},{"user_id":502,"name":"2002 Honda Odyssey","steam_id":76561198999979202,"connected_time":135000000000,"state":"active","ping":59},{"user_id":494,"name":"stink","steam_id":76561198099318923,"connected_time":191000000000,"state":"active","ping":77},{"user_id":498,"name":"Open Mailbox","steam_id":76561198051933580,"connected_time":173000000000,"state":"active","ping":79},{"user_id":491,"name":"Stuart Little 2","steam_id":76561198097272509,"connected_time":707000000000,"state":"active","ping":36},{"user_id":503,"name":"Not_Luke_Again","steam_id":76561198180891187,"connected_time":132000000000,"state":"active","ping":69},{"user_id":430,"name":"Luucyf3r","steam_id":76561198141820085,"connected_time":6122000000000,"state":"active","ping":59},{"user_id":495,"name":"bogginwater","steam_id":76561198155547142,"connected_time":190000000000,"state":"active","ping":64},{"user_id":488,"name":"WiredGecko","steam_id":76561199121958430,"connected_time":912000000000,"state":"active","ping":61},{"user_id":477,"name":"Baconator","steam_id":76561198941700660,"connected_time":1905000000000,"state":"active","ping":114},{"user_id":480,"name":"lker","steam_id":76561197976975075,"connected_time":1871000000000,"state":"active","ping":43},{"user_id":499,"name":"26 feral animals","steam_id":76561198116741891,"connected_time":173000000000,"state":"active","ping":56},{"user_id":493,"name":"Alt","steam_id":76561197992591984,"connected_time":532000000000,"state":"active","ping":76},{"user_id":500,"name":"tsaide","steam_id":76561198384120999,"connected_time":170000000000,"state":"spawning","ping":1791},{"user_id":492,"name":"LEÓN","steam_id":76561198257559257,"connected_time":585000000000,"state":"active","ping":105},{"user_id":496,"name":"garfield","steam_id":76561199082902507,"connected_time":185000000000,"state":"active","ping":48},{"user_id":487,"name":"ChubbySolution","steam_id":76561198160468964,"connected_time":931000000000,"state":"active","ping":66},{"user_id":484,"name":"Im High","steam_id":76561198049954886,"connected_time":1136000000000,"state":"active","ping":72},{"user_id":400,"name":"quality_ch3ck","steam_id":76561198361132101,"connected_time":8842000000000,"state":"active","ping":88},{"user_id":435,"name":"Obelisk","steam_id":76561198049416866,"connected_time":5255000000000,"state":"active","ping":56},{"user_id":440,"name":"Jin","steam_id":76561198119873148,"connected_time":5006000000000,"state":"active","ping":80},{"user_id":454,"name":"Tay1Qr","steam_id":76561198082809935,"connected_time":3238000000000,"state":"active","ping":70}]},{"server_id":400,"name":"Uncletopia | Atlanta | 3 | Stopwatch Beta","name_short":"atl-3","host":"atl-1.us.uncletopia.com","port":27035,"enabled":true,"region":"us-east","cc":"us","latitude":33.753746,"longitude":-84.38633,"reserved":0,"last_update":"0001-01-01T00:00:00Z","name_a2s":"Uncletopia | Atlanta | 3 | Stopwatch Beta","protocol":17,"map":"pl_pier","folder":"tf","game":"Team Fortress","app_id":440,"player_count":0,"max_players":24,"Bots":0,"server_type":"Dedicated","server_os":"Linux","password":true,"vac":true,"version":"7742253","steam_id":85568392924515187,"keywords":["nocrits","nodmgspread","payload","uncletopia"],"game_id":440,"stv_port":27036,"stv_name":"Uncletopia | Atlanta | 3 | Stopwatch Beta | STV","players":null},{"server_id":401,"name":"Uncletopia | Atlanta | 4 | No Payload","name_short":"atl-4","host":"atl-1.us.uncletopia.com","port":27045,"enabled":true,"region":"us-east","cc":"us","latitude":33.753746,"longitude":-84.38633,"reserved":0,"last_update":"0001-01-01T00:00:00Z","name_a2s":"Uncletopia | Atlanta | 4 | No Payload","protocol":17,"map":"pl_pier","folder":"tf","game":"Team Fortress","app_id":440,"player_count":0,"max_players":24,"Bots":0,"server_type":"Dedicated","server_os":"Linux","password":true,"vac":true,"version":"7723704","steam_id":85568392924515188,"keywords":["nocrits","nodmgspread","payload","uncletopia"],"game_id":440,"stv_port":27046,"stv_name":"Uncletopia | Atlanta | 4 | No Payload | STV","players":null},{"server_id":2,"name":"Uncletopia | Chicago | 1 | All Maps","name_short":"chi-1","host":"chi-1.us.uncletopia.com","port":27015,"enabled":true,"region":"us-central","cc":"us","latitude":41.881832,"longitude":-87.62318,"reserved":0,"last_update":"0001-01-01T00:00:00Z","name_a2s":"Uncletopia | Chicago | 1 | All Maps","protocol":17,"map":"cp_steel","folder":"tf","game":"Team Fortress","app_id":440,"player_count":24,"max_players":24,"Bots":0,"server_type":"Dedicated","server_os":"Linux","password":true,"vac":true,"version":"7742253","steam_id":85568392924469984,"keywords":["cp","nocrits","nodmgspread","uncletopia"],"game_id":440,"stv_port":27016,"stv_name":"Uncletopia | Chicago | 1 | All Maps | STV","players":[{"user_id":386,"name":"GibWilly","steam_id":76561199072518408,"connected_time":2907000000000,"state":"active","ping":55},{"user_id":393,"name":"No Telefrag Plz","steam_id":76561198113931312,"connected_time":2223000000000,"state":"active","ping":69},{"user_id":418,"name":"ch","steam_id":76561198012566405,"connected_time":404000000000,"state":"active","ping":69},{"user_id":404,"name":"e","steam_id":76561198131245396,"connected_time":1100000000000,"state":"active","ping":58},{"user_id":381,"name":"PKBEAST_7","steam_id":76561198177136537,"connected_time":3097000000000,"state":"active","ping":82},{"user_id":416,"name":"pan","steam_id":76561198093968095,"connected_time":701000000000,"state":"active","ping":91},{"user_id":370,"name":"nines","steam_id":76561198078992548,"connected_time":3404000000000,"state":"active","ping":74},{"user_id":369,"name":"Sixrow","steam_id":76561198269289716,"connected_time":3406000000000,"state":"active","ping":65},{"user_id":388,"name":"SomeScuffedKid","steam_id":76561198086113234,"connected_time":2827000000000,"state":"active","ping":62},{"user_id":335,"name":"Venk","steam_id":76561198251131422,"connected_time":6507000000000,"state":"active","ping":62},{"user_id":372,"name":"Athaz","steam_id":76561198296557673,"connected_time":3353000000000,"state":"active","ping":69},{"user_id":412,"name":"Mattron1","steam_id":76561198012270524,"connected_time":836000000000,"state":"active","ping":68},{"user_id":405,"name":"Legion","steam_id":76561199036242643,"connected_time":1099000000000,"state":"active","ping":62},{"user_id":391,"name":"RHPenguin","steam_id":76561198161788481,"connected_time":2679000000000,"state":"active","ping":105},{"user_id":415,"name":"Pinto","steam_id":76561199105386998,"connected_time":748000000000,"state":"active","ping":83},{"user_id":411,"name":"Warpy","steam_id":76561198055852599,"connected_time":932000000000,"state":"active","ping":77},{"user_id":414,"name":"Ragnoratsu","steam_id":76561198189688723,"connected_time":820000000000,"state":"active","ping":47},{"user_id":410,"name":"SapphireSundew [Lotus]","steam_id":76561198040904890,"connected_time":1025000000000,"state":"active","ping":65},{"user_id":407,"name":"kairOs.fk","steam_id":76561197972421260,"connected_time":1083000000000,"state":"active","ping":61},{"user_id":382,"name":"Mr. Kracks, CBT Enjoyer","steam_id":76561198081394903,"connected_time":3095000000000,"state":"active","ping":76},{"user_id":389,"name":"Xuey","steam_id":76561199120960187,"connected_time":2699000000000,"state":"active","ping":62},{"user_id":417,"name":"Uncle","steam_id":76561197988647705,"connected_time":588000000000,"state":"active","ping":46},{"user_id":398,"name":"Ϫ.averted","steam_id":76561198067784310,"connected_time":1920000000000,"state":"active","ping":66},{"user_id":383,"name":"Smissmas Elf","steam_id":76561198004406054,"connected_time":3076000000000,"state":"active","ping":70}]},{"server_id":106,"name":"Uncletopia | Chicago | 2 | All Maps","name_short":"chi-2","host":"chi-1.us.uncletopia.com","port":27025,"enabled":true,"region":"us-central","cc":"us","latitude":41.881832,"longitude":-87.62318,"reserved":0,"last_update":"0001-01-01T00:00:00Z","name_a2s":"Uncletopia | Chicago | 2 | All Maps","protocol":17,"map":"cp_dustbowl","folder":"tf","game":"Team Fortress","app_id":440,"player_count":24,"max_players":24,"Bots":0,"server_type":"Dedicated","server_os":"Linux","password":true,"vac":true,"version":"7742253","steam_id":85568392924469985,"keywords":["cp","nocrits","nodmgspread","uncletopia"],"game_id":440,"stv_port":27026,"stv_name":"Uncletopia | Chicago | 2 | All Maps | STV","players":[{"user_id":352,"name":"Furry Saul Goodman","steam_id":76561198069580305,"connected_time":4948000000000,"state":"active","ping":50},{"user_id":402,"name":"a beggar's luck","steam_id":76561198161140568,"connected_time":1408000000000,"state":"active","ping":61},{"user_id":412,"name":"Quansen","steam_id":76561198151594550,"connected_time":60000000000,"state":"active","ping":52},{"user_id":381,"name":"defcon","steam_id":76561198100656328,"connected_time":2756000000000,"state":"active","ping":77},{"user_id":378,"name":"Ulrich Stern","steam_id":76561198101739682,"connected_time":2819000000000,"state":"active","ping":88},{"user_id":379,"name":"Red Physical","steam_id":76561198151864382,"connected_time":2799000000000,"state":"active","ping":94},{"user_id":413,"name":"FiveHoursLater...","steam_id":76561198092608339,"connected_time":21000000000,"state":"spawning","ping":109},{"user_id":393,"name":"Technically Trajan","steam_id":76561198057374871,"connected_time":2600000000000,"state":"active","ping":59},{"user_id":407,"name":"Iggy Dogg","steam_id":76561198059602545,"connected_time":568000000000,"state":"active","ping":48},{"user_id":382,"name":"gwxndolyn ☆","steam_id":76561198061497429,"connected_time":2743000000000,"state":"active","ping":75},{"user_id":392,"name":"Godmode","steam_id":76561198076240365,"connected_time":2620000000000,"state":"active","ping":62},{"user_id":399,"name":"Reacher","steam_id":76561198010917844,"connected_time":1981000000000,"state":"active","ping":95},{"user_id":403,"name":"Ikalpo","steam_id":76561198044686915,"connected_time":946000000000,"state":"active","ping":110},{"user_id":370,"name":"Quentin","steam_id":76561198032941413,"connected_time":4124000000000,"state":"active","ping":81},{"user_id":406,"name":"SoulSoup","steam_id":76561198069872582,"connected_time":903000000000,"state":"active","ping":88},{"user_id":338,"name":"kermitcreeper(ZAZA)","steam_id":76561199222829972,"connected_time":6565000000000,"state":"active","ping":49},{"user_id":384,"name":"Fish","steam_id":76561198986516474,"connected_time":2739000000000,"state":"active","ping":89},{"user_id":385,"name":"Eviscerator","steam_id":76561197980073637,"connected_time":2734000000000,"state":"active","ping":69},{"user_id":345,"name":"god approaches","steam_id":76561198081617990,"connected_time":6420000000000,"state":"active","ping":91},{"user_id":387,"name":"Walnut","steam_id":76561198024954863,"connected_time":2679000000000,"state":"active","ping":60},{"user_id":410,"name":"Deary","steam_id":76561198868580370,"connected_time":401000000000,"state":"active","ping":57},{"user_id":317,"name":"Afrodo The Scrub","steam_id":76561198138598907,"connected_time":8234000000000,"state":"active","ping":87},{"user_id":389,"name":"Iron Argus","steam_id":76561198181088245,"connected_time":2675000000000,"state":"active","ping":73},{"user_id":391,"name":"Kitt(eh) ∑:3","steam_id":76561198110858518,"connected_time":2654000000000,"state":"active","ping":58}]},{"server_id":402,"name":"Uncletopia | Chicago | 3 | All Maps","name_short":"chi-3","host":"chi-1.us.uncletopia.com","port":27035,"enabled":true,"region":"us-central","cc":"us","latitude":41.881832,"longitude":-87.62318,"reserved":0,"last_update":"0001-01-01T00:00:00Z","name_a2s":"Uncletopia | Chicago | 3 | All Maps","protocol":17,"map":"pl_badwater","folder":"tf","game":"Team Fortress","app_id":440,"player_count":24,"max_players":24,"Bots":0,"server_type":"Dedicated","server_os":"Linux","password":true,"vac":true,"version":"7742253","steam_id":85568392924515191,"keywords":["nocrits","nodmgspread","payload","uncletopia"],"game_id":440,"stv_port":27036,"stv_name":"Uncletopia | Chicago | 3 | All Maps | STV","players":[{"user_id":647,"name":"jae are","steam_id":76561198027906463,"connected_time":775000000000,"state":"active","ping":59},{"user_id":636,"name":"Strawburrr","steam_id":76561199208694620,"connected_time":1626000000000,"state":"active","ping":75},{"user_id":629,"name":"ඞ","steam_id":76561198275101482,"connected_time":1946000000000,"state":"active","ping":136},{"user_id":611,"name":"Dr Spaceman","steam_id":76561197969755657,"connected_time":2384000000000,"state":"active","ping":46},{"user_id":651,"name":"leonardo doujinshi","steam_id":76561198025810326,"connected_time":197000000000,"state":"active","ping":75},{"user_id":630,"name":"Milk","steam_id":76561198175903221,"connected_time":1939000000000,"state":"active","ping":75},{"user_id":613,"name":"Dr. Game and Watch","steam_id":76561197999615565,"connected_time":2344000000000,"state":"active","ping":66},{"user_id":637,"name":"Ergo Lith","steam_id":76561198042056228,"connected_time":1610000000000,"state":"active","ping":62},{"user_id":644,"name":"The mook","steam_id":76561198963551905,"connected_time":1118000000000,"state":"active","ping":60},{"user_id":631,"name":"Tok Hakaay","steam_id":76561199311828303,"connected_time":1934000000000,"state":"active","ping":90},{"user_id":649,"name":"Sevlix","steam_id":76561199056686495,"connected_time":283000000000,"state":"active","ping":84},{"user_id":632,"name":"lil bro","steam_id":76561198031675881,"connected_time":1934000000000,"state":"active","ping":75},{"user_id":640,"name":"logg","steam_id":76561198179595013,"connected_time":1420000000000,"state":"active","ping":80},{"user_id":648,"name":"Bread Baker","steam_id":76561198185335103,"connected_time":495000000000,"state":"active","ping":85},{"user_id":618,"name":"FortressGamer #SaveTF2","steam_id":76561198144049265,"connected_time":2236000000000,"state":"active","ping":55},{"user_id":577,"name":"Rornir","steam_id":76561198081829615,"connected_time":5559000000000,"state":"active","ping":43},{"user_id":602,"name":"Terium","steam_id":76561198331234327,"connected_time":3156000000000,"state":"active","ping":55},{"user_id":645,"name":"ly","steam_id":76561198062922146,"connected_time":1097000000000,"state":"active","ping":75},{"user_id":620,"name":"will power","steam_id":76561198151797250,"connected_time":2190000000000,"state":"active","ping":104},{"user_id":621,"name":"fuzze","steam_id":76561198214461775,"connected_time":2183000000000,"state":"active","ping":76},{"user_id":650,"name":"Pararara!!","steam_id":76561198122040445,"connected_time":275000000000,"state":"active","ping":78},{"user_id":622,"name":"bird brain","steam_id":76561198798945686,"connected_time":2178000000000,"state":"active","ping":120},{"user_id":623,"name":"Terman80r","steam_id":76561198250201692,"connected_time":2175000000000,"state":"active","ping":120},{"user_id":624,"name":"quacks","steam_id":76561198077934343,"connected_time":2165000000000,"state":"active","ping":84}]},{"server_id":403,"name":"Uncletopia | Chicago | 4 | All Maps","name_short":"chi-4","host":"chi-1.us.uncletopia.com","port":27045,"enabled":true,"region":"us-central","cc":"us","latitude":41.881832,"longitude":-87.62318,"reserved":0,"last_update":"0001-01-01T00:00:00Z","name_a2s":"Uncletopia | Chicago | 4 | All Maps","protocol":17,"map":"pl_barnblitz","folder":"tf","game":"Team Fortress","app_id":440,"player_count":24,"max_players":24,"Bots":0,"server_type":"Dedicated","server_os":"Linux","password":true,"vac":true,"version":"7742253","steam_id":85568392924515193,"keywords":["nocrits","nodmgspread","payload","uncletopia"],"game_id":440,"stv_port":27046,"stv_name":"Uncletopia | Chicago | 4 | All Maps | STV","players":[{"user_id":101,"name":"Zigadox","steam_id":76561198079813479,"connected_time":5750000000000,"state":"active","ping":78},{"user_id":182,"name":"ipadkid","steam_id":76561199239446808,"connected_time":46000000000,"state":"active","ping":87},{"user_id":177,"name":"Pink","steam_id":76561198042140694,"connected_time":276000000000,"state":"active","ping":78},{"user_id":181,"name":"m9","steam_id":76561198125732157,"connected_time":145000000000,"state":"active","ping":60},{"user_id":143,"name":"YWN","steam_id":76561198001475833,"connected_time":1651000000000,"state":"active","ping":60},{"user_id":180,"name":"VioletSpecs","steam_id":76561198089366466,"connected_time":260000000000,"state":"active","ping":74},{"user_id":174,"name":"Probably Aleks","steam_id":76561199106731358,"connected_time":320000000000,"state":"active","ping":69},{"user_id":128,"name":"Hertz","steam_id":76561198245322982,"connected_time":3581000000000,"state":"active","ping":56},{"user_id":172,"name":"Herr Doktor","steam_id":76561198025473302,"connected_time":334000000000,"state":"active","ping":82},{"user_id":175,"name":"Luis wid a mic","steam_id":76561198349570006,"connected_time":317000000000,"state":"active","ping":76},{"user_id":178,"name":"dr peppah chug!","steam_id":76561198068835693,"connected_time":269000000000,"state":"active","ping":86},{"user_id":140,"name":"Discourse","steam_id":76561198984286678,"connected_time":1961000000000,"state":"active","ping":51},{"user_id":179,"name":"Metal 9","steam_id":76561198178318343,"connected_time":267000000000,"state":"active","ping":67},{"user_id":167,"name":"NoShen","steam_id":76561198147434663,"connected_time":410000000000,"state":"active","ping":70},{"user_id":125,"name":"SilentFootba11","steam_id":76561199006570947,"connected_time":3844000000000,"state":"active","ping":78},{"user_id":158,"name":"∀ɐ","steam_id":76561198139718219,"connected_time":652000000000,"state":"active","ping":75},{"user_id":113,"name":"Twan (no vibes plz)","steam_id":76561197991064908,"connected_time":5075000000000,"state":"active","ping":63},{"user_id":145,"name":"Stew Eater","steam_id":76561198978307159,"connected_time":1209000000000,"state":"active","ping":60},{"user_id":139,"name":"Twilight Princess","steam_id":76561198049460281,"connected_time":1999000000000,"state":"active","ping":66},{"user_id":121,"name":"Im totally a hacker","steam_id":76561198888005736,"connected_time":4102000000000,"state":"active","ping":70},{"user_id":126,"name":"Scrumpy Main","steam_id":76561198146302597,"connected_time":3812000000000,"state":"active","ping":79},{"user_id":137,"name":"Chode Mode","steam_id":76561198353840477,"connected_time":2140000000000,"state":"active","ping":60},{"user_id":132,"name":"[slug]","steam_id":76561197989592178,"connected_time":3317000000000,"state":"active","ping":63},{"user_id":169,"name":"pathways","steam_id":76561198054832333,"connected_time":406000000000,"state":"active","ping":66}]},{"server_id":36,"name":"Uncletopia | Chicago | 5 | All Maps","name_short":"chi-5","host":"chi-2.us.uncletopia.com","port":27015,"enabled":true,"region":"us-central","cc":"us","latitude":41.881832,"longitude":-87.62318,"reserved":0,"last_update":"0001-01-01T00:00:00Z","name_a2s":"Uncletopia | Chicago | 5 | All Maps","protocol":17,"map":"pl_pier","folder":"tf","game":"Team Fortress","app_id":440,"player_count":24,"max_players":24,"Bots":0,"server_type":"Dedicated","server_os":"Linux","password":true,"vac":true,"version":"7742253","steam_id":85568392924866362,"keywords":["nocrits","nodmgspread","payload","uncletopia"],"game_id":440,"stv_port":27016,"stv_name":"Uncletopia | Chicago | 5 | All Maps | STV","players":[{"user_id":319,"name":"Grungus","steam_id":76561198076498818,"connected_time":5234000000000,"state":"active","ping":101},{"user_id":320,"name":"trappy","steam_id":76561198402801140,"connected_time":5201000000000,"state":"active","ping":58},{"user_id":382,"name":"Rex","steam_id":76561198138365053,"connected_time":69000000000,"state":"active","ping":116},{"user_id":356,"name":"Tisoy","steam_id":76561199041547921,"connected_time":2629000000000,"state":"active","ping":77},{"user_id":377,"name":"Rappitor","steam_id":76561198105613110,"connected_time":405000000000,"state":"active","ping":69},{"user_id":363,"name":"All 24 Pokémon movies at once","steam_id":76561198164738311,"connected_time":2424000000000,"state":"active","ping":49},{"user_id":372,"name":"Alberto2104","steam_id":76561198094968873,"connected_time":1263000000000,"state":"active","ping":102},{"user_id":343,"name":"THIRDPIERCE","steam_id":76561198405366314,"connected_time":3216000000000,"state":"active","ping":86},{"user_id":375,"name":"The Michigan Troll Guy","steam_id":76561197995525419,"connected_time":679000000000,"state":"active","ping":58},{"user_id":381,"name":"C papi","steam_id":76561198027779564,"connected_time":119000000000,"state":"active","ping":60},{"user_id":359,"name":"Infinitytacos","steam_id":76561198884260211,"connected_time":2537000000000,"state":"active","ping":50},{"user_id":379,"name":"jon","steam_id":76561198065314212,"connected_time":401000000000,"state":"active","ping":97},{"user_id":364,"name":"tinkercrab11","steam_id":76561198881792140,"connected_time":2131000000000,"state":"active","ping":82},{"user_id":368,"name":"--_Cook_--","steam_id":76561198080855748,"connected_time":1756000000000,"state":"active","ping":76},{"user_id":374,"name":"jeremy elbertson","steam_id":76561198044420428,"connected_time":980000000000,"state":"active","ping":60},{"user_id":328,"name":"Gaming on a 14 year old Mac","steam_id":76561198019476636,"connected_time":4908000000000,"state":"active","ping":75},{"user_id":329,"name":"Vladikr1","steam_id":76561198401495362,"connected_time":4548000000000,"state":"active","ping":53},{"user_id":367,"name":"Papillon","steam_id":76561198049725849,"connected_time":1965000000000,"state":"active","ping":70},{"user_id":376,"name":"Koolaid","steam_id":76561199200296010,"connected_time":654000000000,"state":"active","ping":77},{"user_id":355,"name":"wenshengqiu","steam_id":76561199048682062,"connected_time":2719000000000,"state":"active","ping":74},{"user_id":324,"name":"ZE UBERMENSCH","steam_id":76561198061184951,"connected_time":5169000000000,"state":"active","ping":77},{"user_id":371,"name":"Interrobang","steam_id":76561198385044529,"connected_time":1462000000000,"state":"active","ping":165},{"user_id":315,"name":"DiscoTraveler","steam_id":76561199240168088,"connected_time":6226000000000,"state":"active","ping":67},{"user_id":354,"name":"stevemarshall","steam_id":76561198405982285,"connected_time":2758000000000,"state":"active","ping":49}]},{"server_id":37,"name":"Uncletopia | Chicago | 6 | All Maps","name_short":"chi-6","host":"chi-2.us.uncletopia.com","port":27025,"enabled":true,"region":"us-central","cc":"us","latitude":41.881832,"longitude":-87.62318,"reserved":0,"last_update":"0001-01-01T00:00:00Z","name_a2s":"Uncletopia | Chicago | 6 | All Maps","protocol":17,"map":"pl_barnblitz","folder":"tf","game":"Team Fortress","app_id":440,"player_count":24,"max_players":24,"Bots":0,"server_type":"Dedicated","server_os":"Linux","password":true,"vac":true,"version":"7742253","steam_id":85568392924866363,"keywords":["nocrits","nodmgspread","payload","uncletopia"],"game_id":440,"stv_port":27026,"stv_name":"Uncletopia | Chicago | 6 | All Maps | STV","players":[{"user_id":518,"name":"lemon","steam_id":76561198086406706,"connected_time":209000000000,"state":"active","ping":45},{"user_id":519,"name":"Jaeger","steam_id":76561199225138429,"connected_time":77000000000,"state":"active","ping":67},{"user_id":449,"name":"Michael Scarn","steam_id":76561198035740143,"connected_time":2459000000000,"state":"active","ping":74},{"user_id":516,"name":"THRILLHO","steam_id":76561198371663047,"connected_time":407000000000,"state":"active","ping":63},{"user_id":470,"name":"viscodolante","steam_id":76561198013650292,"connected_time":1912000000000,"state":"active","ping":120},{"user_id":416,"name":"Pisser12434","steam_id":76561198835144780,"connected_time":3780000000000,"state":"active","ping":75},{"user_id":503,"name":"Dan Flashes Rewards Card Holder","steam_id":76561199215811448,"connected_time":1017000000000,"state":"active","ping":106},{"user_id":505,"name":"Juustin","steam_id":76561198121922413,"connected_time":921000000000,"state":"active","ping":112},{"user_id":502,"name":"Pebbles","steam_id":76561197985155770,"connected_time":1092000000000,"state":"active","ping":63},{"user_id":372,"name":"nalezinik","steam_id":76561198030026119,"connected_time":6617000000000,"state":"active","ping":65},{"user_id":453,"name":"The engineer","steam_id":76561199234860030,"connected_time":2365000000000,"state":"active","ping":58},{"user_id":506,"name":"cheese.","steam_id":76561198093688740,"connected_time":734000000000,"state":"active","ping":75},{"user_id":507,"name":"Max_Attack","steam_id":76561198944028607,"connected_time":729000000000,"state":"active","ping":77},{"user_id":514,"name":"JUNKIL D.","steam_id":76561198325721190,"connected_time":532000000000,"state":"active","ping":93},{"user_id":510,"name":"WitheringLeo","steam_id":76561198046722918,"connected_time":700000000000,"state":"active","ping":76},{"user_id":511,"name":"Dreamland","steam_id":76561198185490075,"connected_time":692000000000,"state":"active","ping":71},{"user_id":452,"name":"Dealyo","steam_id":76561198282395338,"connected_time":2390000000000,"state":"active","ping":75},{"user_id":467,"name":"capybara","steam_id":76561198798828328,"connected_time":1945000000000,"state":"active","ping":52},{"user_id":512,"name":"Pizza Party","steam_id":76561198165730754,"connected_time":650000000000,"state":"active","ping":73},{"user_id":435,"name":"Honeybunch","steam_id":76561198014850580,"connected_time":2647000000000,"state":"active","ping":89},{"user_id":515,"name":"R.Y.","steam_id":76561199384459715,"connected_time":461000000000,"state":"active","ping":77},{"user_id":513,"name":"*literally heresy*","steam_id":76561198129718241,"connected_time":643000000000,"state":"active","ping":81},{"user_id":390,"name":"Ras","steam_id":76561198123546775,"connected_time":5679000000000,"state":"active","ping":60},{"user_id":479,"name":"QueueBoX","steam_id":76561198052323284,"connected_time":1791000000000,"state":"active","ping":105}]},{"server_id":38,"name":"Uncletopia | Chicago | 7 | Stopwatch Beta","name_short":"chi-7","host":"chi-2.us.uncletopia.com","port":27035,"enabled":true,"region":"us-central","cc":"us","latitude":41.881832,"longitude":-87.62318,"reserved":0,"last_update":"0001-01-01T00:00:00Z","name_a2s":"Uncletopia | Chicago | 7 | Stopwatch Beta","protocol":17,"map":"workshop/pl_barnblitz_pro7.ugc582280235","folder":"tf","game":"Team Fortress","app_id":440,"player_count":1,"max_players":24,"Bots":0,"server_type":"Dedicated","server_os":"Linux","password":true,"vac":true,"version":"7742253","steam_id":85568392924866364,"keywords":["nocrits","nodmgspread","payload","uncletopia"],"game_id":440,"stv_port":27036,"stv_name":"Uncletopia | Chicago | 7 | Stopwatch Beta | STV","players":[{"user_id":33,"name":"Ted Cruz ate my son","steam_id":76561198050488555,"connected_time":68000000000,"state":"active","ping":70}]},{"server_id":39,"name":"Uncletopia | Chicago | 8 | Community","name_short":"chi-8","host":"chi-2.us.uncletopia.com","port":27045,"enabled":true,"region":"us-central","cc":"us","latitude":41.881832,"longitude":-87.62318,"reserved":0,"last_update":"0001-01-01T00:00:00Z","name_a2s":"Uncletopia | Chicago | 8 | Community","protocol":17,"map":"workshop/pl_barnblitz_pro7.ugc582280235","folder":"tf","game":"Team Fortress","app_id":440,"player_count":24,"max_players":24,"Bots":0,"server_type":"Dedicated","server_os":"Linux","password":true,"vac":true,"version":"7742253","steam_id":85568392924866365,"keywords":["nocrits","nodmgspread","payload","uncletopia"],"game_id":440,"stv_port":27046,"stv_name":"Uncletopia | Chicago | 8 | Community | STV","players":[{"user_id":23,"name":"Kuyumiester","steam_id":76561198126835302,"connected_time":1967000000000,"state":"active","ping":64},{"user_id":30,"name":"abolish the federal reserve","steam_id":76561198047796437,"connected_time":956000000000,"state":"active","ping":110},{"user_id":12,"name":"Gaius Octavius Thurinus","steam_id":76561199035832110,"connected_time":3232000000000,"state":"active","ping":85},{"user_id":31,"name":"laxy","steam_id":76561198141469778,"connected_time":943000000000,"state":"active","ping":91},{"user_id":15,"name":"The Clayton","steam_id":76561199160459733,"connected_time":3050000000000,"state":"active","ping":45},{"user_id":27,"name":"bdkaine1","steam_id":76561198133545467,"connected_time":1171000000000,"state":"active","ping":67},{"user_id":28,"name":"Chet Dingus","steam_id":76561198205181788,"connected_time":1153000000000,"state":"active","ping":87},{"user_id":36,"name":"nutter butter","steam_id":76561199283203575,"connected_time":468000000000,"state":"active","ping":135},{"user_id":33,"name":"Dr.Duck","steam_id":76561199162835806,"connected_time":848000000000,"state":"active","ping":52},{"user_id":37,"name":"The Sinister Potion","steam_id":76561198131280715,"connected_time":363000000000,"state":"active","ping":76},{"user_id":38,"name":"Bingus","steam_id":76561198001237783,"connected_time":338000000000,"state":"active","ping":51},{"user_id":39,"name":"k dot","steam_id":76561199166411595,"connected_time":325000000000,"state":"active","ping":79},{"user_id":40,"name":"Patton","steam_id":76561198087871688,"connected_time":316000000000,"state":"active","ping":60},{"user_id":41,"name":"Blue Collar","steam_id":76561198354781722,"connected_time":246000000000,"state":"active","ping":106},{"user_id":42,"name":"Aunty Frazzle","steam_id":76561198145596626,"connected_time":245000000000,"state":"active","ping":110},{"user_id":43,"name":"gulch","steam_id":76561199227946025,"connected_time":242000000000,"state":"active","ping":76},{"user_id":44,"name":"snuppy","steam_id":76561199157666657,"connected_time":210000000000,"state":"active","ping":74},{"user_id":45,"name":"puppygirl gaming","steam_id":76561198044363630,"connected_time":207000000000,"state":"active","ping":61},{"user_id":46,"name":"papersamurai","steam_id":76561198313608698,"connected_time":181000000000,"state":"active","ping":48},{"user_id":47,"name":"Sicko Mode (Chris Pratt Cover)","steam_id":76561198315786174,"connected_time":175000000000,"state":"active","ping":77},{"user_id":48,"name":"Opal","steam_id":76561198066642710,"connected_time":172000000000,"state":"active","ping":90},{"user_id":49,"name":"cixcin","steam_id":76561199215821942,"connected_time":119000000000,"state":"active","ping":75},{"user_id":50,"name":"dash23™","steam_id":76561198314951185,"connected_time":115000000000,"state":"active","ping":105},{"user_id":51,"name":"Colin102004","steam_id":76561198202384334,"connected_time":93000000000,"state":"active","ping":64}]},{"server_id":8,"name":"Uncletopia | Dallas | 1 | All Maps","name_short":"dal-1","host":"dal-1.us.uncletopia.com","port":27015,"enabled":true,"region":"us-central","cc":"us","latitude":32.779167,"longitude":-96.80889,"reserved":0,"last_update":"0001-01-01T00:00:00Z","name_a2s":"Uncletopia | Dallas | 1 | All Maps","protocol":17,"map":"pl_snowycoast","folder":"tf","game":"Team Fortress","app_id":440,"player_count":24,"max_players":24,"Bots":0,"server_type":"Dedicated","server_os":"Linux","password":true,"vac":true,"version":"7742253","steam_id":85568392924469986,"keywords":["nocrits","nodmgspread","payload","uncletopia"],"game_id":440,"stv_port":27016,"stv_name":"Uncletopia | Dallas | 1 | All Maps | STV","players":[{"user_id":302,"name":"Weerk","steam_id":76561199209543551,"connected_time":2643000000000,"state":"active","ping":75},{"user_id":327,"name":"ABraveBoy","steam_id":76561198308602486,"connected_time":695000000000,"state":"active","ping":46},{"user_id":326,"name":"FATHER","steam_id":76561198041308977,"connected_time":1268000000000,"state":"active","ping":45},{"user_id":301,"name":"gatorbelt","steam_id":76561198145784505,"connected_time":3007000000000,"state":"active","ping":75},{"user_id":268,"name":"B.A.S.E","steam_id":76561198065324447,"connected_time":5270000000000,"state":"active","ping":64},{"user_id":249,"name":"Salad","steam_id":76561198120907230,"connected_time":6203000000000,"state":"active","ping":94},{"user_id":260,"name":"shellaa","steam_id":76561198044124102,"connected_time":5531000000000,"state":"active","ping":44},{"user_id":339,"name":"Modern Day Wizard","steam_id":76561198354689252,"connected_time":5000000000,"state":"spawning","ping":73},{"user_id":261,"name":"Bri","steam_id":76561198089908485,"connected_time":5508000000000,"state":"active","ping":102},{"user_id":332,"name":"j.black","steam_id":76561197974493959,"connected_time":384000000000,"state":"active","ping":93},{"user_id":328,"name":"thebestperson1010","steam_id":76561199103241008,"connected_time":633000000000,"state":"active","ping":54},{"user_id":320,"name":"KRIMINAL SKUM","steam_id":76561199179880202,"connected_time":1414000000000,"state":"active","ping":103},{"user_id":316,"name":"bob","steam_id":76561198974161184,"connected_time":1465000000000,"state":"active","ping":77},{"user_id":313,"name":"Fake21","steam_id":76561198282065071,"connected_time":1476000000000,"state":"active","ping":46},{"user_id":334,"name":"[chef] iron","steam_id":76561197970888616,"connected_time":228000000000,"state":"active","ping":61},{"user_id":315,"name":"Triforce141","steam_id":76561198063896776,"connected_time":1472000000000,"state":"active","ping":45},{"user_id":207,"name":"prod CHAMPION","steam_id":76561199245670274,"connected_time":8867000000000,"state":"active","ping":75},{"user_id":329,"name":"mikey | I'm Burning Bright!","steam_id":76561198985847893,"connected_time":618000000000,"state":"active","ping":53},{"user_id":340,"name":"weewa","steam_id":76561198064876090,"connected_time":2000000000,"state":"spawning","ping":79},{"user_id":321,"name":"ChipperGunslinger","steam_id":76561199100483140,"connected_time":1412000000000,"state":"active","ping":60},{"user_id":325,"name":"Zero","steam_id":76561199383267408,"connected_time":1346000000000,"state":"active","ping":51},{"user_id":323,"name":"Obamacare","steam_id":76561198018894553,"connected_time":1386000000000,"state":"active","ping":77},{"user_id":297,"name":"amazing","steam_id":76561198386233160,"connected_time":3245000000000,"state":"active","ping":64},{"user_id":324,"name":"Luna","steam_id":76561198075944196,"connected_time":1385000000000,"state":"active","ping":69}]},{"server_id":108,"name":"Uncletopia | Dallas | 2 | All Maps","name_short":"dal-2","host":"dal-1.us.uncletopia.com","port":27025,"enabled":true,"region":"us-central","cc":"us","latitude":32.779167,"longitude":-96.80889,"reserved":0,"last_update":"0001-01-01T00:00:00Z","name_a2s":"Uncletopia | Dallas | 2 | All Maps","protocol":17,"map":"pl_badwater","folder":"tf","game":"Team Fortress","app_id":440,"player_count":24,"max_players":24,"Bots":0,"server_type":"Dedicated","server_os":"Linux","password":true,"vac":true,"version":"7742253","steam_id":85568392924469988,"keywords":["nocrits","nodmgspread","payload","uncletopia"],"game_id":440,"stv_port":27026,"stv_name":"Uncletopia | Dallas | 2 | All Maps | STV","players":[{"user_id":190,"name":"Insert_Name_Here","steam_id":76561198089428414,"connected_time":718000000000,"state":"active","ping":75},{"user_id":154,"name":"happy man!!! :D!!!!","steam_id":76561198128468316,"connected_time":2855000000000,"state":"active","ping":63},{"user_id":186,"name":"MarekHamm","steam_id":76561198239042642,"connected_time":1135000000000,"state":"active","ping":60},{"user_id":159,"name":"Sworddemonboggle","steam_id":76561198295526535,"connected_time":2553000000000,"state":"active","ping":90},{"user_id":131,"name":"StarManMatt","steam_id":76561198125513574,"connected_time":4577000000000,"state":"active","ping":99},{"user_id":176,"name":"GreenApples","steam_id":76561198120559543,"connected_time":1663000000000,"state":"active","ping":88},{"user_id":177,"name":"09robcraft2","steam_id":76561199073189184,"connected_time":1646000000000,"state":"active","ping":101},{"user_id":185,"name":"ROGUE-PLANET","steam_id":76561198116023052,"connected_time":1302000000000,"state":"active","ping":60},{"user_id":192,"name":"Caruso","steam_id":76561198053340414,"connected_time":489000000000,"state":"active","ping":63},{"user_id":188,"name":"SPOON MAN","steam_id":76561199028500370,"connected_time":910000000000,"state":"active","ping":86},{"user_id":178,"name":"themankeys","steam_id":76561198149339536,"connected_time":1645000000000,"state":"active","ping":90},{"user_id":179,"name":"Trufa","steam_id":76561198343651916,"connected_time":1643000000000,"state":"active","ping":150},{"user_id":165,"name":"Barracuda","steam_id":76561198013022083,"connected_time":2487000000000,"state":"active","ping":60},{"user_id":91,"name":"tyg","steam_id":76561198056246867,"connected_time":7967000000000,"state":"active","ping":90},{"user_id":174,"name":"Kfleppey","steam_id":76561198096893904,"connected_time":1945000000000,"state":"active","ping":95},{"user_id":181,"name":"ihatepyromains2013","steam_id":76561199139182003,"connected_time":1525000000000,"state":"active","ping":68},{"user_id":78,"name":"Ⓑ⓪⓪ⓣⓨⓒⓐⓚⓔⓢ","steam_id":76561198088776421,"connected_time":8568000000000,"state":"active","ping":89},{"user_id":189,"name":"goofy guy","steam_id":76561198947654861,"connected_time":784000000000,"state":"active","ping":55},{"user_id":136,"name":"number 1 pl_upward hater","steam_id":76561198143132686,"connected_time":4168000000000,"state":"active","ping":76},{"user_id":132,"name":"☻","steam_id":76561198176618461,"connected_time":4573000000000,"state":"active","ping":87},{"user_id":162,"name":"GLG.Liz","steam_id":76561198021957956,"connected_time":2535000000000,"state":"active","ping":51},{"user_id":153,"name":"Joan The Kisaragi Cat","steam_id":76561199370650064,"connected_time":3300000000000,"state":"active","ping":207},{"user_id":180,"name":"SarcasticSkeleton","steam_id":76561198354628649,"connected_time":1630000000000,"state":"active","ping":78},{"user_id":164,"name":"haru","steam_id":76561198313532743,"connected_time":2526000000000,"state":"active","ping":44}]},{"server_id":5,"name":"Uncletopia | Frankfurt | 1 | All Maps","name_short":"frk-1","host":"frk-1.de.uncletopia.com","port":27015,"enabled":true,"region":"eu","cc":"de","latitude":50.110924,"longitude":8.682127,"reserved":0,"last_update":"0001-01-01T00:00:00Z","name_a2s":"Uncletopia | Frankfurt | 1 | All Maps","protocol":17,"map":"pl_upward","folder":"tf","game":"Team Fortress","app_id":440,"player_count":24,"max_players":24,"Bots":0,"server_type":"Dedicated","server_os":"Linux","password":true,"vac":true,"version":"7742253","steam_id":85568392924469989,"keywords":["nocrits","nodmgspread","payload","uncletopia"],"game_id":440,"stv_port":27016,"stv_name":"Uncletopia | Frankfurt | 1 | All Maps | STV","players":[{"user_id":698,"name":"Marquis de Hoto","steam_id":76561198080687708,"connected_time":3618000000000,"state":"active","ping":58},{"user_id":695,"name":"Cabbch","steam_id":76561198045955679,"connected_time":3686000000000,"state":"active","ping":52},{"user_id":676,"name":"Volcyy","steam_id":76561198063979124,"connected_time":5493000000000,"state":"active","ping":44},{"user_id":673,"name":"Bilaterial Newt","steam_id":76561198074655679,"connected_time":5819000000000,"state":"active","ping":84},{"user_id":717,"name":"mordecai and rigby","steam_id":76561198353096483,"connected_time":1716000000000,"state":"active","ping":53},{"user_id":738,"name":"raime","steam_id":76561198024903775,"connected_time":186000000000,"state":"active","ping":83},{"user_id":677,"name":"lkx","steam_id":76561198048250715,"connected_time":5489000000000,"state":"active","ping":46},{"user_id":719,"name":"Jesus","steam_id":76561199403298146,"connected_time":1671000000000,"state":"active","ping":65},{"user_id":720,"name":"wicc","steam_id":76561198893915644,"connected_time":1551000000000,"state":"active","ping":75},{"user_id":724,"name":"-h","steam_id":76561198011529235,"connected_time":1410000000000,"state":"active","ping":57},{"user_id":722,"name":"Exxon","steam_id":76561198997885594,"connected_time":1486000000000,"state":"active","ping":39},{"user_id":678,"name":"j100j","steam_id":76561198338726444,"connected_time":5470000000000,"state":"active","ping":95},{"user_id":736,"name":"Sneaky boi","steam_id":76561199195985387,"connected_time":636000000000,"state":"active","ping":87},{"user_id":693,"name":"akakez","steam_id":76561198095432821,"connected_time":4404000000000,"state":"active","ping":113},{"user_id":725,"name":"Penis Contortionist","steam_id":76561198073663784,"connected_time":1371000000000,"state":"active","ping":53},{"user_id":711,"name":"saus","steam_id":76561198114729364,"connected_time":2674000000000,"state":"active","ping":60},{"user_id":728,"name":"gwałt wątroby 0,7 i 5 piw","steam_id":76561199038973360,"connected_time":1318000000000,"state":"active","ping":93},{"user_id":684,"name":"Miss Bari","steam_id":76561198365286092,"connected_time":5342000000000,"state":"active","ping":56},{"user_id":739,"name":"tekszi","steam_id":76561198107220903,"connected_time":113000000000,"state":"active","ping":47},{"user_id":729,"name":"74616b69","steam_id":76561198068771033,"connected_time":1301000000000,"state":"active","ping":60},{"user_id":735,"name":"Синий Диван","steam_id":76561198004071499,"connected_time":709000000000,"state":"active","ping":119},{"user_id":712,"name":"very soft kitten eating spaghet","steam_id":76561198142183478,"connected_time":2036000000000,"state":"active","ping":81},{"user_id":731,"name":"Superiumentarius","steam_id":76561198081642249,"connected_time":1288000000000,"state":"active","ping":59},{"user_id":737,"name":"gfjhsdf","steam_id":76561198136736426,"connected_time":603000000000,"state":"active","ping":58}]},{"server_id":110,"name":"Uncletopia | Frankfurt | 2 | All Maps","name_short":"frk-2","host":"frk-1.de.uncletopia.com","port":27025,"enabled":true,"region":"eu","cc":"de","latitude":50.110924,"longitude":8.682127,"reserved":0,"last_update":"0001-01-01T00:00:00Z","name_a2s":"Uncletopia | Frankfurt | 2 | All Maps","protocol":17,"map":"pl_upward","folder":"tf","game":"Team Fortress","app_id":440,"player_count":23,"max_players":24,"Bots":0,"server_type":"Dedicated","server_os":"Linux","password":true,"vac":true,"version":"7742253","steam_id":85568392924469990,"keywords":["nocrits","nodmgspread","payload","uncletopia"],"game_id":440,"stv_port":27026,"stv_name":"Uncletopia | Frankfurt | 2 | All Maps | STV","players":[{"user_id":631,"name":"nebuperminute","steam_id":76561198307037169,"connected_time":780000000000,"state":"active","ping":62},{"user_id":618,"name":"Woop!","steam_id":76561198062352934,"connected_time":2096000000000,"state":"active","ping":59},{"user_id":591,"name":"Julez","steam_id":76561198045505082,"connected_time":4811000000000,"state":"active","ping":64},{"user_id":493,"name":"Rose-Marie","steam_id":76561198055611092,"connected_time":8555000000000,"state":"active","ping":59},{"user_id":619,"name":"GoodGorilla","steam_id":76561198034356064,"connected_time":2088000000000,"state":"active","ping":70},{"user_id":620,"name":"AnnaZzz","steam_id":76561198130477214,"connected_time":2076000000000,"state":"active","ping":61},{"user_id":634,"name":"AfricanCommie","steam_id":76561198798803845,"connected_time":631000000000,"state":"active","ping":58},{"user_id":612,"name":"Martin","steam_id":76561198350826913,"connected_time":3012000000000,"state":"active","ping":65},{"user_id":523,"name":"Sylbar","steam_id":76561198065379590,"connected_time":6712000000000,"state":"active","ping":61},{"user_id":629,"name":"Mr.Jello ^-^","steam_id":76561198043681892,"connected_time":882000000000,"state":"active","ping":77},{"user_id":632,"name":"Knot me like your shoelaces","steam_id":76561198197606282,"connected_time":768000000000,"state":"active","ping":56},{"user_id":637,"name":"bkashooter","steam_id":76561198116877713,"connected_time":518000000000,"state":"active","ping":53},{"user_id":611,"name":"That's it I'm getting me mallet","steam_id":76561198114747737,"connected_time":3066000000000,"state":"active","ping":44},{"user_id":624,"name":"K4nek0","steam_id":76561198219296785,"connected_time":2010000000000,"state":"active","ping":57},{"user_id":607,"name":"BlueBlueFox","steam_id":76561198053817230,"connected_time":3623000000000,"state":"active","ping":69},{"user_id":636,"name":"sigma female","steam_id":76561198298576765,"connected_time":566000000000,"state":"active","ping":77},{"user_id":627,"name":"⛧ AlphaSatanOmega ⛧","steam_id":76561198035125511,"connected_time":1474000000000,"state":"active","ping":135},{"user_id":616,"name":"guyinatophat51","steam_id":76561198180230694,"connected_time":2348000000000,"state":"active","ping":171},{"user_id":610,"name":"ivanmixo","steam_id":76561198160213989,"connected_time":3225000000000,"state":"active","ping":65},{"user_id":596,"name":"Bizarro","steam_id":76561197983902578,"connected_time":4455000000000,"state":"active","ping":80},{"user_id":638,"name":"Mafour","steam_id":76561197994581337,"connected_time":50000000000,"state":"active","ping":84},{"user_id":633,"name":"Brian","steam_id":76561198077756206,"connected_time":766000000000,"state":"active","ping":57},{"user_id":558,"name":"SoupER","steam_id":76561198063056668,"connected_time":5807000000000,"state":"active","ping":53}]},{"server_id":308,"name":"Uncletopia | Frankfurt | 3 | All Maps","name_short":"frk-3","host":"frk-1.de.uncletopia.com","port":27035,"enabled":true,"region":"eu","cc":"de","latitude":50.110924,"longitude":8.682127,"reserved":0,"last_update":"0001-01-01T00:00:00Z","name_a2s":"Uncletopia | Frankfurt | 3 | All Maps","protocol":17,"map":"koth_cascade","folder":"tf","game":"Team Fortress","app_id":440,"player_count":13,"max_players":24,"Bots":0,"server_type":"Dedicated","server_os":"Linux","password":true,"vac":true,"version":"7742253","steam_id":85568392924504274,"keywords":["cp","nocrits","nodmgspread","uncletopia"],"game_id":440,"stv_port":27036,"stv_name":"Uncletopia | Frankfurt | 3 | All Maps | STV","players":[{"user_id":784,"name":"♡☠MORPHINE OVERDOSE☠♡","steam_id":76561198312877267,"connected_time":2448000000000,"state":"active","ping":82},{"user_id":775,"name":"KatTheCookiCat","steam_id":76561199054643392,"connected_time":5058000000000,"state":"active","ping":49},{"user_id":803,"name":"the meme lord","steam_id":76561198279369377,"connected_time":469000000000,"state":"active","ping":60},{"user_id":778,"name":"Thales gaming","steam_id":76561198154569703,"connected_time":4584000000000,"state":"active","ping":77},{"user_id":779,"name":"LenKineUltraGaming","steam_id":76561199195447283,"connected_time":4297000000000,"state":"active","ping":69},{"user_id":786,"name":"SIR MEPHEDRONE","steam_id":76561198302623594,"connected_time":1947000000000,"state":"active","ping":92},{"user_id":790,"name":"Mother? ⛴","steam_id":76561198113329812,"connected_time":1264000000000,"state":"active","ping":60},{"user_id":791,"name":"Emo Link","steam_id":76561198086524854,"connected_time":1249000000000,"state":"active","ping":66},{"user_id":801,"name":"Cute_Kirby1","steam_id":76561199280363955,"connected_time":547000000000,"state":"active","ping":171},{"user_id":802,"name":"barnkalassoldat","steam_id":76561198025513190,"connected_time":544000000000,"state":"active","ping":72},{"user_id":804,"name":"meap","steam_id":76561198126639221,"connected_time":451000000000,"state":"active","ping":87},{"user_id":806,"name":"rev up the bugatti wahey","steam_id":76561198079589665,"connected_time":210000000000,"state":"active","ping":73},{"user_id":807,"name":"swallowed 10 pennies please hel","steam_id":76561198055816412,"connected_time":202000000000,"state":"active","ping":59}]},{"server_id":309,"name":"Uncletopia | Frankfurt | 4 | All Maps","name_short":"frk-4","host":"frk-1.de.uncletopia.com","port":27045,"enabled":true,"region":"eu","cc":"de","latitude":50.110924,"longitude":8.682127,"reserved":0,"last_update":"0001-01-01T00:00:00Z","name_a2s":"Uncletopia | Frankfurt | 4 | All Maps","protocol":17,"map":"cp_altitude","folder":"tf","game":"Team Fortress","app_id":440,"player_count":0,"max_players":24,"Bots":0,"server_type":"Dedicated","server_os":"Linux","password":true,"vac":true,"version":"7742253","steam_id":85568392924504275,"keywords":["cp","nocrits","nodmgspread","uncletopia"],"game_id":440,"stv_port":27046,"stv_name":"Uncletopia | Frankfurt | 4 | All Maps | STV","players":null},{"server_id":310,"name":"Uncletopia | Frankfurt | 5 | All Maps","name_short":"frk-5","host":"frk-1.de.uncletopia.com","port":27055,"enabled":true,"region":"eu","cc":"de","latitude":50.110924,"longitude":8.682127,"reserved":0,"last_update":"0001-01-01T00:00:00Z","name_a2s":"Uncletopia | Frankfurt | 5 | All Maps","protocol":17,"map":"cp_sunshine","folder":"tf","game":"Team Fortress","app_id":440,"player_count":9,"max_players":24,"Bots":0,"server_type":"Dedicated","server_os":"Linux","password":true,"vac":true,"version":"7742253","steam_id":85568392924504277,"keywords":["cp","nocrits","nodmgspread","uncletopia"],"game_id":440,"stv_port":27056,"stv_name":"Uncletopia | Frankfurt | 5 | All Maps | STV","players":[{"user_id":818,"name":"Misty","steam_id":76561198863357531,"connected_time":2966000000000,"state":"active","ping":99},{"user_id":819,"name":"Krasenbassen","steam_id":76561198030518890,"connected_time":2953000000000,"state":"active","ping":53},{"user_id":840,"name":"SneKeTo","steam_id":76561198199302578,"connected_time":649000000000,"state":"active","ping":63},{"user_id":800,"name":"Snowmotion","steam_id":76561198075022454,"connected_time":3897000000000,"state":"active","ping":51},{"user_id":843,"name":"George_Hunterman","steam_id":76561198408012399,"connected_time":113000000000,"state":"active","ping":53},{"user_id":842,"name":"Legobanane","steam_id":76561199111382907,"connected_time":342000000000,"state":"active","ping":53},{"user_id":774,"name":"Valfezant","steam_id":76561199063983797,"connected_time":6031000000000,"state":"active","ping":49},{"user_id":826,"name":"Professional PP Rater","steam_id":76561198393134915,"connected_time":2546000000000,"state":"active","ping":66},{"user_id":839,"name":"Fratm_Wolf","steam_id":76561199100512277,"connected_time":700000000000,"state":"active","ping":60}]},{"server_id":311,"name":"Uncletopia | Frankfurt | 6 | All Maps","name_short":"frk-6","host":"frk-1.de.uncletopia.com","port":27065,"enabled":true,"region":"eu","cc":"de","latitude":50.110924,"longitude":8.682127,"reserved":0,"last_update":"0001-01-01T00:00:00Z","name_a2s":"Uncletopia | Frankfurt | 6 | All Maps","protocol":17,"map":"koth_lakeside_final","folder":"tf","game":"Team Fortress","app_id":440,"player_count":0,"max_players":24,"Bots":0,"server_type":"Dedicated","server_os":"Linux","password":true,"vac":true,"version":"7742253","steam_id":85568392924504278,"keywords":["cp","nocrits","nodmgspread","uncletopia"],"game_id":440,"stv_port":27066,"stv_name":"Uncletopia | Frankfurt | 6 | All Maps | STV","players":null},{"server_id":23,"name":"Uncletopia | Frankfurt | 7 | Stopwatch Beta","name_short":"frk-7","host":"frk-1.de.uncletopia.com","port":27075,"enabled":true,"region":"eu","cc":"de","latitude":50.110924,"longitude":8.682127,"reserved":0,"last_update":"0001-01-01T00:00:00Z","name_a2s":"Uncletopia | Frankfurt | 7 | Stopwatch Beta","protocol":17,"map":"workshop/koth_clearcut_b15.ugc2107050255","folder":"tf","game":"Team Fortress","app_id":440,"player_count":0,"max_players":24,"Bots":0,"server_type":"Dedicated","server_os":"Linux","password":true,"vac":true,"version":"7742253","steam_id":85568392924742827,"keywords":["cp","nocrits","nodmgspread","uncletopia"],"game_id":440,"stv_port":27076,"stv_name":"Uncletopia | Frankfurt | 7 | Stopwatch Beta | STV","players":null},{"server_id":24,"name":"Uncletopia | Frankfurt | 8 | Community","name_short":"frk-8","host":"frk-1.de.uncletopia.com","port":27085,"enabled":true,"region":"eu","cc":"de","latitude":50.110924,"longitude":8.682127,"reserved":0,"last_update":"0001-01-01T00:00:00Z","name_a2s":"Uncletopia | Frankfurt | 8 | Community","protocol":17,"map":"workshop/koth_ashville_final.ugc2130459942","folder":"tf","game":"Team Fortress","app_id":440,"player_count":0,"max_players":24,"Bots":0,"server_type":"Dedicated","server_os":"Linux","password":true,"vac":true,"version":"7742253","steam_id":85568392924742828,"keywords":["cp","nocrits","nodmgspread","uncletopia"],"game_id":440,"stv_port":27086,"stv_name":"Uncletopia | Frankfurt | 8 | Community | STV","players":null},{"server_id":202,"name":"Uncletopia | Hong Kong | 1 | All Maps","name_short":"hgk-1","host":"hgk-1.hk.uncletopia.com","port":27015,"enabled":true,"region":"asia","cc":"hk","latitude":22.302711,"longitude":114.177216,"reserved":0,"last_update":"0001-01-01T00:00:00Z","name_a2s":"Uncletopia | Hong Kong | 1 | All Maps","protocol":17,"map":"pl_badwater","folder":"tf","game":"Team Fortress","app_id":440,"player_count":0,"max_players":24,"Bots":0,"server_type":"Dedicated","server_os":"Linux","password":true,"vac":true,"version":"7742253","steam_id":85568392924494504,"keywords":["nocrits","nodmgspread","payload","uncletopia"],"game_id":440,"stv_port":27016,"stv_name":"Uncletopia | Hong Kong | 1 | All Maps | STV","players":null},{"server_id":1,"name":"Uncletopia | Los Angeles | 1 | All Maps","name_short":"lax-1","host":"lax-1.us.uncletopia.com","port":27015,"enabled":true,"region":"us-west","cc":"us","latitude":33.94279,"longitude":-118.41004,"reserved":0,"last_update":"0001-01-01T00:00:00Z","name_a2s":"Uncletopia | Los Angeles | 1 | All Maps","protocol":17,"map":"koth_highpass","folder":"tf","game":"Team Fortress","app_id":440,"player_count":0,"max_players":24,"Bots":0,"server_type":"Dedicated","server_os":"Linux","password":true,"vac":true,"version":"7742253","steam_id":85568392924469991,"keywords":["cp","nocrits","nodmgspread","uncletopia"],"game_id":440,"stv_port":27016,"stv_name":"Uncletopia | Los Angeles | 1 | All Maps | STV","players":null},{"server_id":112,"name":"Uncletopia | Los Angeles | 2 | All Maps","name_short":"lax-2","host":"lax-1.us.uncletopia.com","port":27025,"enabled":true,"region":"us-west","cc":"us","latitude":33.94279,"longitude":-118.41004,"reserved":0,"last_update":"0001-01-01T00:00:00Z","name_a2s":"Uncletopia | Los Angeles | 2 | All Maps","protocol":17,"map":"koth_lakeside_final","folder":"tf","game":"Team Fortress","app_id":440,"player_count":0,"max_players":24,"Bots":0,"server_type":"Dedicated","server_os":"Linux","password":true,"vac":true,"version":"7742253","steam_id":85568392924469992,"keywords":["cp","nocrits","nodmgspread","uncletopia"],"game_id":440,"stv_port":27026,"stv_name":"Uncletopia | Los Angeles | 2 | All Maps | STV","players":null},{"server_id":324,"name":"Uncletopia | Los Angeles | 3 | All Maps","name_short":"lax-3","host":"lax-1.us.uncletopia.com","port":27035,"enabled":true,"region":"us-west","cc":"us","latitude":33.94279,"longitude":-118.41004,"reserved":0,"last_update":"0001-01-01T00:00:00Z","name_a2s":"Uncletopia | Los Angeles | 3 | All Maps","protocol":17,"map":"cp_altitude","folder":"tf","game":"Team Fortress","app_id":440,"player_count":24,"max_players":24,"Bots":0,"server_type":"Dedicated","server_os":"Linux","password":true,"vac":true,"version":"7742253","steam_id":85568392924510198,"keywords":["cp","nocrits","nodmgspread","uncletopia"],"game_id":440,"stv_port":27036,"stv_name":"Uncletopia | Los Angeles | 3 | All Maps | STV","players":[{"user_id":204,"name":"Rx Auntie","steam_id":76561198051618393,"connected_time":1413000000000,"state":"active","ping":59},{"user_id":203,"name":"Tumbledown","steam_id":76561198841035798,"connected_time":1415000000000,"state":"active","ping":128},{"user_id":219,"name":"spookyturtle","steam_id":76561198079622859,"connected_time":238000000000,"state":"active","ping":45},{"user_id":192,"name":"Nuggies","steam_id":76561198272432592,"connected_time":2143000000000,"state":"active","ping":60},{"user_id":213,"name":"Trickler","steam_id":76561198417067853,"connected_time":1106000000000,"state":"active","ping":119},{"user_id":209,"name":"GeraldyJones65","steam_id":76561199122297098,"connected_time":1397000000000,"state":"active","ping":109},{"user_id":191,"name":"noceof","steam_id":76561198043656816,"connected_time":2529000000000,"state":"active","ping":162},{"user_id":116,"name":"chanoc","steam_id":76561198026734746,"connected_time":8162000000000,"state":"active","ping":58},{"user_id":210,"name":"tutua","steam_id":76561198065709917,"connected_time":1310000000000,"state":"active","ping":107},{"user_id":205,"name":"Eggineer Gaming™","steam_id":76561198850153403,"connected_time":1412000000000,"state":"active","ping":101},{"user_id":198,"name":"BOG BRINGER, BRINGER OF BOG","steam_id":76561198979319783,"connected_time":1613000000000,"state":"active","ping":115},{"user_id":202,"name":"maurice from ultrakill","steam_id":76561199147740808,"connected_time":1424000000000,"state":"active","ping":90},{"user_id":178,"name":"Coffee","steam_id":76561198098622184,"connected_time":3605000000000,"state":"active","ping":110},{"user_id":189,"name":"AKKAWI","steam_id":76561198203159952,"connected_time":2641000000000,"state":"active","ping":58},{"user_id":168,"name":"Hans Burr","steam_id":76561197994592491,"connected_time":4481000000000,"state":"active","ping":108},{"user_id":149,"name":"Taffy","steam_id":76561198276612538,"connected_time":5662000000000,"state":"active","ping":59},{"user_id":193,"name":"KaleidoscopeOk7981","steam_id":76561198110449520,"connected_time":2133000000000,"state":"active","ping":109},{"user_id":218,"name":"thisguy42424242","steam_id":76561199304282915,"connected_time":610000000000,"state":"active","ping":45},{"user_id":215,"name":"MinusSoup918","steam_id":76561198060902773,"connected_time":745000000000,"state":"active","ping":65},{"user_id":194,"name":"I have bad news...","steam_id":76561198058956253,"connected_time":2106000000000,"state":"active","ping":77},{"user_id":150,"name":"shmeushmeu ttv","steam_id":76561198168064595,"connected_time":5661000000000,"state":"active","ping":60},{"user_id":195,"name":"TheZombers","steam_id":76561199036266116,"connected_time":2091000000000,"state":"active","ping":55},{"user_id":206,"name":"bog gaming real","steam_id":76561199093213150,"connected_time":1412000000000,"state":"active","ping":61},{"user_id":197,"name":"Jill","steam_id":76561198002518984,"connected_time":2030000000000,"state":"active","ping":179}]},{"server_id":25,"name":"Uncletopia | Los Angeles | 4 | Stopwatch Beta","name_short":"lax-4","host":"lax-1.us.uncletopia.com","port":27045,"enabled":true,"region":"us-west","cc":"us","latitude":33.94279,"longitude":-118.41004,"reserved":0,"last_update":"0001-01-01T00:00:00Z","name_a2s":"Uncletopia | Los Angeles | 4 | Stopwatch Beta","protocol":17,"map":"workshop/koth_clearcut_b15.ugc2107050255","folder":"tf","game":"Team Fortress","app_id":440,"player_count":0,"max_players":24,"Bots":0,"server_type":"Dedicated","server_os":"Linux","password":true,"vac":true,"version":"7742253","steam_id":85568392924510199,"keywords":["cp","nocrits","nodmgspread","uncletopia"],"game_id":440,"stv_port":27046,"stv_name":"Uncletopia | Los Angeles | 4 | Stopwatch Beta | STV","players":null},{"server_id":11,"name":"Uncletopia | London | 1 | All Maps","name_short":"lon-1","host":"lon-1.uk.uncletopia.com","port":27015,"enabled":true,"region":"eu","cc":"gb","latitude":51.509865,"longitude":-0.118092,"reserved":0,"last_update":"0001-01-01T00:00:00Z","name_a2s":"Uncletopia | London | 1 | All Maps","protocol":17,"map":"pl_swiftwater_final1","folder":"tf","game":"Team Fortress","app_id":440,"player_count":24,"max_players":24,"Bots":0,"server_type":"Dedicated","server_os":"Linux","password":true,"vac":true,"version":"7742253","steam_id":85568392924367362,"keywords":["nocrits","nodmgspread","payload","uncletopia"],"game_id":440,"stv_port":27016,"stv_name":"Uncletopia | London | 1 | All Maps | STV","players":[{"user_id":698,"name":"aspect","steam_id":76561198315032412,"connected_time":486000000000,"state":"active","ping":72},{"user_id":674,"name":"DelaNo","steam_id":76561199125086655,"connected_time":1605000000000,"state":"active","ping":75},{"user_id":691,"name":"Turnups","steam_id":76561199078299198,"connected_time":522000000000,"state":"active","ping":164},{"user_id":697,"name":"Astolfo","steam_id":76561199138993597,"connected_time":496000000000,"state":"active","ping":57},{"user_id":642,"name":"R A S M U S","steam_id":76561198279799226,"connected_time":3747000000000,"state":"active","ping":77},{"user_id":654,"name":"Gingerbread","steam_id":76561198056378429,"connected_time":3393000000000,"state":"active","ping":68},{"user_id":692,"name":"Kolar","steam_id":76561198108583895,"connected_time":522000000000,"state":"active","ping":60},{"user_id":646,"name":"プンプン.62","steam_id":76561199285679674,"connected_time":3567000000000,"state":"active","ping":59},{"user_id":693,"name":"Cabbe","steam_id":76561198019915094,"connected_time":516000000000,"state":"active","ping":80},{"user_id":699,"name":"Refurbished Boy","steam_id":76561197995834697,"connected_time":484000000000,"state":"active","ping":91},{"user_id":663,"name":"tmac","steam_id":76561198047685716,"connected_time":2045000000000,"state":"active","ping":48},{"user_id":695,"name":"FS2(source)","steam_id":76561198802504617,"connected_time":504000000000,"state":"active","ping":59},{"user_id":706,"name":"wolfjellyfish","steam_id":76561198315033508,"connected_time":297000000000,"state":"active","ping":51},{"user_id":700,"name":"Soggy.burrito14","steam_id":76561198066249669,"connected_time":483000000000,"state":"active","ping":122},{"user_id":701,"name":"kING","steam_id":76561198150900065,"connected_time":482000000000,"state":"active","ping":67},{"user_id":702,"name":"Gety0","steam_id":76561198044387185,"connected_time":473000000000,"state":"active","ping":95},{"user_id":703,"name":"silenk","steam_id":76561198367689055,"connected_time":445000000000,"state":"active","ping":65},{"user_id":655,"name":"Chucky","steam_id":76561198891579362,"connected_time":3387000000000,"state":"active","ping":62},{"user_id":681,"name":"Maik","steam_id":76561198795607661,"connected_time":1161000000000,"state":"active","ping":62},{"user_id":704,"name":"Porco Rosso","steam_id":76561198005012592,"connected_time":441000000000,"state":"active","ping":81},{"user_id":707,"name":"Charles Darwin","steam_id":76561197973496139,"connected_time":281000000000,"state":"active","ping":68},{"user_id":687,"name":"The Fellow Feller","steam_id":76561198188864306,"connected_time":920000000000,"state":"active","ping":75},{"user_id":705,"name":"Supra","steam_id":76561197999127091,"connected_time":426000000000,"state":"active","ping":120},{"user_id":686,"name":"git bash -er","steam_id":76561198072586494,"connected_time":1011000000000,"state":"active","ping":47}]},{"server_id":114,"name":"Uncletopia | London | 2 | All Maps","name_short":"lon-2","host":"lon-1.uk.uncletopia.com","port":27025,"enabled":true,"region":"eu","cc":"gb","latitude":51.509865,"longitude":-0.118092,"reserved":0,"last_update":"0001-01-01T00:00:00Z","name_a2s":"Uncletopia | London | 2 | All Maps","protocol":17,"map":"koth_cascade","folder":"tf","game":"Team Fortress","app_id":440,"player_count":0,"max_players":24,"Bots":0,"server_type":"Dedicated","server_os":"Linux","password":true,"vac":true,"version":"7742253","steam_id":85568392924470941,"keywords":["cp","nocrits","nodmgspread","uncletopia"],"game_id":440,"stv_port":27026,"stv_name":"Uncletopia | London | 2 | All Maps | STV","players":null},{"server_id":320,"name":"Uncletopia | London | 3 | All Maps","name_short":"lon-3","host":"lon-1.uk.uncletopia.com","port":27035,"enabled":true,"region":"eu","cc":"gb","latitude":51.509865,"longitude":-0.118092,"reserved":0,"last_update":"0001-01-01T00:00:00Z","name_a2s":"Uncletopia | London | 3 | All Maps","protocol":17,"map":"pl_pier","folder":"tf","game":"Team Fortress","app_id":440,"player_count":24,"max_players":24,"Bots":0,"server_type":"Dedicated","server_os":"Linux","password":true,"vac":true,"version":"7742253","steam_id":85568392924510192,"keywords":["nocrits","nodmgspread","payload","uncletopia"],"game_id":440,"stv_port":27036,"stv_name":"Uncletopia | London | 3 | All Maps | STV","players":[{"user_id":588,"name":"Vsevers","steam_id":76561198984861515,"connected_time":816000000000,"state":"active","ping":80},{"user_id":457,"name":"Waffle","steam_id":76561198397024973,"connected_time":10962000000000,"state":"active","ping":40},{"user_id":561,"name":"|20BB)\u003eMach","steam_id":76561198952487564,"connected_time":2078000000000,"state":"active","ping":91},{"user_id":581,"name":"BIG STEFO","steam_id":76561198264421150,"connected_time":1225000000000,"state":"active","ping":90},{"user_id":564,"name":"mercedes ben","steam_id":76561198000147423,"connected_time":1839000000000,"state":"active","ping":44},{"user_id":583,"name":"theogliam","steam_id":76561198814626472,"connected_time":1059000000000,"state":"active","ping":65},{"user_id":589,"name":"idk","steam_id":76561199218967515,"connected_time":807000000000,"state":"active","ping":111},{"user_id":594,"name":"simplistic","steam_id":76561198231690748,"connected_time":31000000000,"state":"spawning","ping":63},{"user_id":530,"name":"waffle toaster","steam_id":76561198799089628,"connected_time":4768000000000,"state":"active","ping":46},{"user_id":531,"name":"torn","steam_id":76561198223003236,"connected_time":4767000000000,"state":"active","ping":49},{"user_id":543,"name":"Steen","steam_id":76561198122992510,"connected_time":3456000000000,"state":"active","ping":34},{"user_id":577,"name":"Dee","steam_id":76561198257836694,"connected_time":1420000000000,"state":"active","ping":38},{"user_id":591,"name":"Reast","steam_id":76561198022796927,"connected_time":719000000000,"state":"active","ping":90},{"user_id":585,"name":"Benameme","steam_id":76561198074097655,"connected_time":982000000000,"state":"active","ping":40},{"user_id":586,"name":"Ritz","steam_id":76561198222317440,"connected_time":981000000000,"state":"active","ping":48},{"user_id":578,"name":"cinny","steam_id":76561198832112629,"connected_time":1405000000000,"state":"active","ping":88},{"user_id":537,"name":"troglodyke","steam_id":76561199400809482,"connected_time":4718000000000,"state":"active","ping":54},{"user_id":460,"name":"N.","steam_id":76561198017274851,"connected_time":10083000000000,"state":"active","ping":32},{"user_id":575,"name":"Xyllys","steam_id":76561198271622904,"connected_time":1557000000000,"state":"active","ping":91},{"user_id":587,"name":"Purps","steam_id":76561198053886680,"connected_time":981000000000,"state":"active","ping":39},{"user_id":570,"name":"Redbows22","steam_id":76561199452479390,"connected_time":1767000000000,"state":"active","ping":149},{"user_id":527,"name":"Angelo254","steam_id":76561198327226011,"connected_time":4897000000000,"state":"active","ping":75},{"user_id":592,"name":"ZACKDARIPPAH","steam_id":76561198235739036,"connected_time":601000000000,"state":"active","ping":88},{"user_id":582,"name":"Burpman","steam_id":76561198022897937,"connected_time":1108000000000,"state":"active","ping":48}]},{"server_id":321,"name":"Uncletopia | London | 4 | All Maps","name_short":"lon-4","host":"lon-1.uk.uncletopia.com","port":27045,"enabled":true,"region":"eu","cc":"gb","latitude":51.509865,"longitude":-0.118092,"reserved":0,"last_update":"0001-01-01T00:00:00Z","name_a2s":"Uncletopia | London | 4 | All Maps","protocol":17,"map":"cp_sunshine","folder":"tf","game":"Team Fortress","app_id":440,"player_count":0,"max_players":24,"Bots":0,"server_type":"Dedicated","server_os":"Linux","password":true,"vac":true,"version":"7742253","steam_id":85568392924510193,"keywords":["cp","nocrits","nodmgspread","uncletopia"],"game_id":440,"stv_port":27046,"stv_name":"Uncletopia | London | 4 | All Maps | STV","players":null},{"server_id":21,"name":"Uncletopia | London | 5 | All Maps","name_short":"lon-5","host":"lon-1.uk.uncletopia.com","port":27055,"enabled":true,"region":"eu","cc":"gb","latitude":51.509865,"longitude":-0.118092,"reserved":0,"last_update":"0001-01-01T00:00:00Z","name_a2s":"Uncletopia | London | 5 | All Maps","protocol":17,"map":"plr_nightfall_final","folder":"tf","game":"Team Fortress","app_id":440,"player_count":24,"max_players":24,"Bots":0,"server_type":"Dedicated","server_os":"Linux","password":true,"vac":true,"version":"7742253","steam_id":85568392924742829,"keywords":["nocrits","nodmgspread","payload","uncletopia"],"game_id":440,"stv_port":27056,"stv_name":"Uncletopia | London | 5 | All Maps | STV","players":[{"user_id":310,"name":"Goldy","steam_id":76561198386274766,"connected_time":211000000000,"state":"active","ping":153},{"user_id":300,"name":"sak pase","steam_id":76561198095572159,"connected_time":1922000000000,"state":"active","ping":44},{"user_id":309,"name":"Shynii","steam_id":76561198194682105,"connected_time":241000000000,"state":"active","ping":60},{"user_id":292,"name":"KillerQueen (he/they/she)","steam_id":76561199019399725,"connected_time":2789000000000,"state":"active","ping":46},{"user_id":312,"name":"Tsireya ✿","steam_id":76561198038779395,"connected_time":197000000000,"state":"active","ping":75},{"user_id":313,"name":"Zedifo","steam_id":76561198044032070,"connected_time":174000000000,"state":"active","ping":32},{"user_id":227,"name":"I SMOKE PCP","steam_id":76561198129866997,"connected_time":5851000000000,"state":"active","ping":79},{"user_id":278,"name":"Regan","steam_id":76561198100631086,"connected_time":4265000000000,"state":"active","ping":59},{"user_id":281,"name":"alwayshornywhiteboy","steam_id":76561199214120675,"connected_time":4193000000000,"state":"active","ping":110},{"user_id":314,"name":"Kiri ✿","steam_id":76561198818035498,"connected_time":166000000000,"state":"active","ping":79},{"user_id":315,"name":"ᴇᴍɪʟɪᴀ","steam_id":76561198329913999,"connected_time":155000000000,"state":"active","ping":50},{"user_id":307,"name":"Lubrsi","steam_id":76561198040208195,"connected_time":527000000000,"state":"active","ping":50},{"user_id":256,"name":"Aras","steam_id":76561198160394046,"connected_time":4936000000000,"state":"active","ping":112},{"user_id":316,"name":"QueenKira","steam_id":76561198136543848,"connected_time":28000000000,"state":"active","ping":192},{"user_id":262,"name":"KlevukaS™","steam_id":76561198312867604,"connected_time":4683000000000,"state":"active","ping":72},{"user_id":290,"name":"★ sat1ra","steam_id":76561198011382701,"connected_time":2864000000000,"state":"active","ping":79},{"user_id":306,"name":"BarbÀtrou","steam_id":76561199439141531,"connected_time":670000000000,"state":"active","ping":49},{"user_id":250,"name":"NinasGay","steam_id":76561198116715588,"connected_time":5178000000000,"state":"active","ping":48},{"user_id":317,"name":"blindcinema_","steam_id":76561198026908105,"connected_time":25000000000,"state":"active","ping":72},{"user_id":282,"name":"Ghost","steam_id":76561198110914180,"connected_time":4190000000000,"state":"active","ping":94},{"user_id":259,"name":"Angels","steam_id":76561198253426373,"connected_time":4902000000000,"state":"active","ping":66},{"user_id":277,"name":"gjhkgfkjfh","steam_id":76561198031181349,"connected_time":4297000000000,"state":"active","ping":82},{"user_id":295,"name":"18+","steam_id":76561199416857377,"connected_time":2586000000000,"state":"active","ping":75},{"user_id":302,"name":"PainTruck","steam_id":76561199182475255,"connected_time":1779000000000,"state":"active","ping":111}]},{"server_id":22,"name":"Uncletopia | London | 6 | All Maps","name_short":"lon-6","host":"lon-1.uk.uncletopia.com","port":27065,"enabled":true,"region":"eu","cc":"gb","latitude":51.509865,"longitude":-0.118092,"reserved":0,"last_update":"0001-01-01T00:00:00Z","name_a2s":"Uncletopia | London | 6 | All Maps","protocol":17,"map":"ctf_landfall","folder":"tf","game":"Team Fortress","app_id":440,"player_count":0,"max_players":24,"Bots":0,"server_type":"Dedicated","server_os":"Linux","password":true,"vac":true,"version":"7742253","steam_id":85568392924742830,"keywords":["ctf","nocrits","nodmgspread","uncletopia"],"game_id":440,"stv_port":27066,"stv_name":"Uncletopia | London | 6 | All Maps | STV","players":null},{"server_id":40,"name":"Uncletopia | London | 7 | No Payload","name_short":"lon-7","host":"lon-1.uk.uncletopia.com","port":27075,"enabled":true,"region":"eu","cc":"gb","latitude":51.509865,"longitude":-0.118092,"reserved":0,"last_update":"0001-01-01T00:00:00Z","name_a2s":"Uncletopia | London | 7 | No Payload","protocol":17,"map":"koth_king","folder":"tf","game":"Team Fortress","app_id":440,"player_count":0,"max_players":24,"Bots":0,"server_type":"Dedicated","server_os":"Linux","password":true,"vac":true,"version":"7742253","steam_id":85568392924964314,"keywords":["cp","nocrits","nodmgspread","uncletopia"],"game_id":440,"stv_port":27076,"stv_name":"Uncletopia | London | 7 | No Payload | STV","players":null},{"server_id":41,"name":"Uncletopia | London | 8 | Community","name_short":"lon-8","host":"lon-1.uk.uncletopia.com","port":27085,"enabled":true,"region":"eu","cc":"gb","latitude":51.509865,"longitude":-0.118092,"reserved":0,"last_update":"0001-01-01T00:00:00Z","name_a2s":"Uncletopia | London | 8 | Community","protocol":17,"map":"workshop/koth_ashville_final.ugc2130459942","folder":"tf","game":"Team Fortress","app_id":440,"player_count":0,"max_players":24,"Bots":0,"server_type":"Dedicated","server_os":"Linux","password":true,"vac":true,"version":"7742253","steam_id":85568392924964315,"keywords":["cp","nocrits","nodmgspread","uncletopia"],"game_id":440,"stv_port":27086,"stv_name":"Uncletopia | London | 8 | Community | STV","players":null},{"server_id":300,"name":"Uncletopia | Montréal | 1 | All Maps","name_short":"mtl-1","host":"mtl-1.ca.uncletopia.com","port":27015,"enabled":true,"region":"us-east","cc":"ca","latitude":45.50889,"longitude":-73.56167,"reserved":0,"last_update":"0001-01-01T00:00:00Z","name_a2s":"Uncletopia | Montréal | 1 | All Maps","protocol":17,"map":"pl_badwater","folder":"tf","game":"Team Fortress","app_id":440,"player_count":24,"max_players":24,"Bots":0,"server_type":"Dedicated","server_os":"Linux","password":true,"vac":true,"version":"7742253","steam_id":85568392924500087,"keywords":["nocrits","nodmgspread","payload","uncletopia"],"game_id":440,"stv_port":27016,"stv_name":"Uncletopia | Montréal | 1 | All Maps | STV","players":[{"user_id":170,"name":"12 INCH TGIRL SCHLONG","steam_id":76561198122059018,"connected_time":1007000000000,"state":"active","ping":86},{"user_id":164,"name":"Ecliptica","steam_id":76561198171951333,"connected_time":1318000000000,"state":"active","ping":118},{"user_id":143,"name":"butch cowboy monkey","steam_id":76561198097175164,"connected_time":2349000000000,"state":"active","ping":55},{"user_id":168,"name":"sockman","steam_id":76561198306826566,"connected_time":1076000000000,"state":"active","ping":109},{"user_id":174,"name":"Chechens Spotted","steam_id":76561199028910893,"connected_time":641000000000,"state":"active","ping":86},{"user_id":173,"name":"neet","steam_id":76561197968115168,"connected_time":708000000000,"state":"active","ping":54},{"user_id":112,"name":"Phupperbat","steam_id":76561198098441032,"connected_time":3923000000000,"state":"active","ping":44},{"user_id":131,"name":"Jeromius","steam_id":76561198051865275,"connected_time":3114000000000,"state":"active","ping":67},{"user_id":126,"name":"Mike from Hell","steam_id":76561198026503248,"connected_time":3440000000000,"state":"active","ping":53},{"user_id":160,"name":"ventus51701","steam_id":76561198207372741,"connected_time":1729000000000,"state":"active","ping":52},{"user_id":150,"name":"PixelPal","steam_id":76561198418010300,"connected_time":1955000000000,"state":"active","ping":64},{"user_id":163,"name":"Churro Man","steam_id":76561198166868875,"connected_time":1485000000000,"state":"active","ping":49},{"user_id":148,"name":"Binky Den","steam_id":76561198164035863,"connected_time":2048000000000,"state":"active","ping":50},{"user_id":161,"name":"Ganja","steam_id":76561198420121261,"connected_time":1680000000000,"state":"active","ping":114},{"user_id":176,"name":"Kyle","steam_id":76561198105307551,"connected_time":600000000000,"state":"active","ping":89},{"user_id":172,"name":"Marauding Morty","steam_id":76561198013159528,"connected_time":989000000000,"state":"active","ping":47},{"user_id":177,"name":"Finn","steam_id":76561198179960193,"connected_time":596000000000,"state":"active","ping":118},{"user_id":178,"name":"Sunday","steam_id":76561198062930139,"connected_time":592000000000,"state":"active","ping":127},{"user_id":157,"name":"Juabs","steam_id":76561198179239486,"connected_time":1782000000000,"state":"active","ping":81},{"user_id":165,"name":"Penis but it rhymes with Venice","steam_id":76561197986420836,"connected_time":1278000000000,"state":"active","ping":64},{"user_id":181,"name":"Pizza_Pie_","steam_id":76561199018878356,"connected_time":533000000000,"state":"active","ping":62},{"user_id":109,"name":"Sensitive Shooter","steam_id":76561198041439581,"connected_time":4632000000000,"state":"active","ping":72},{"user_id":179,"name":"Garry","steam_id":76561198070584586,"connected_time":586000000000,"state":"active","ping":46},{"user_id":180,"name":"Papa Chariot","steam_id":76561198260908407,"connected_time":582000000000,"state":"active","ping":89}]},{"server_id":301,"name":"Uncletopia | Montréal | 2 | All Maps","name_short":"mtl-2","host":"mtl-1.ca.uncletopia.com","port":27025,"enabled":true,"region":"us-east","cc":"ca","latitude":45.50889,"longitude":-73.56167,"reserved":0,"last_update":"0001-01-01T00:00:00Z","name_a2s":"Uncletopia | Montréal | 2 | All Maps","protocol":17,"map":"koth_highpass","folder":"tf","game":"Team Fortress","app_id":440,"player_count":0,"max_players":24,"Bots":0,"server_type":"Dedicated","server_os":"Linux","password":true,"vac":true,"version":"7742253","steam_id":85568392924500088,"keywords":["cp","nocrits","nodmgspread","uncletopia"],"game_id":440,"stv_port":27026,"stv_name":"Uncletopia | Montréal | 2 | All Maps | STV","players":null},{"server_id":302,"name":"Uncletopia | Montréal | 3 | All Maps","name_short":"mtl-3","host":"mtl-1.ca.uncletopia.com","port":27035,"enabled":true,"region":"us-east","cc":"ca","latitude":45.50889,"longitude":-73.56167,"reserved":0,"last_update":"0001-01-01T00:00:00Z","name_a2s":"Uncletopia | Montréal | 3 | All Maps","protocol":17,"map":"pl_pier","folder":"tf","game":"Team Fortress","app_id":440,"player_count":0,"max_players":24,"Bots":0,"server_type":"Dedicated","server_os":"Linux","password":true,"vac":true,"version":"7742253","steam_id":85568392924500089,"keywords":["nocrits","nodmgspread","payload","uncletopia"],"game_id":440,"stv_port":27036,"stv_name":"Uncletopia | Montréal | 3 | All Maps | STV","players":null},{"server_id":303,"name":"Uncletopia | Montréal | 4 | No Payload","name_short":"mtl-4","host":"mtl-1.ca.uncletopia.com","port":27045,"enabled":true,"region":"us-east","cc":"ca","latitude":45.50889,"longitude":-73.56167,"reserved":0,"last_update":"0001-01-01T00:00:00Z","name_a2s":"Uncletopia | Montréal | 4 | No Payload","protocol":17,"map":"cp_5gorge","folder":"tf","game":"Team Fortress","app_id":440,"player_count":0,"max_players":24,"Bots":0,"server_type":"Dedicated","server_os":"Linux","password":true,"vac":true,"version":"7742253","steam_id":85568392924500090,"keywords":["cp","nocrits","nodmgspread","uncletopia"],"game_id":440,"stv_port":27046,"stv_name":"Uncletopia | Montréal | 4 | No Payload | STV","players":null},{"server_id":13,"name":"Uncletopia | New York City | 1 | All Maps","name_short":"nyc-1","host":"nyc-1.us.uncletopia.com","port":27015,"enabled":true,"region":"us-east","cc":"us","latitude":40.73061,"longitude":-73.93524,"reserved":0,"last_update":"0001-01-01T00:00:00Z","name_a2s":"Uncletopia | New York City | 1 | All Maps","protocol":17,"map":"pl_borneo","folder":"tf","game":"Team Fortress","app_id":440,"player_count":24,"max_players":24,"Bots":0,"server_type":"Dedicated","server_os":"Linux","password":true,"vac":true,"version":"7742253","steam_id":85568392924469993,"keywords":["nocrits","nodmgspread","payload","uncletopia"],"game_id":440,"stv_port":27016,"stv_name":"Uncletopia | New York City | 1 | All Maps | STV","players":[{"user_id":135,"name":"JoCaleb02","steam_id":76561198272389829,"connected_time":884000000000,"state":"active","ping":69},{"user_id":73,"name":"timestew","steam_id":76561198367583372,"connected_time":5808000000000,"state":"active","ping":84},{"user_id":125,"name":"Sir Galahad","steam_id":76561198195999859,"connected_time":2258000000000,"state":"active","ping":115},{"user_id":142,"name":"Snowberry Kush(nosound)","steam_id":76561198392280580,"connected_time":152000000000,"state":"active","ping":70},{"user_id":141,"name":"Horse","steam_id":76561199112075552,"connected_time":189000000000,"state":"active","ping":42},{"user_id":99,"name":"ebbaxter13","steam_id":76561198839647688,"connected_time":3934000000000,"state":"active","ping":54},{"user_id":113,"name":"N0_J0K3","steam_id":76561198287102197,"connected_time":3176000000000,"state":"active","ping":135},{"user_id":94,"name":"dr cock","steam_id":76561198124810219,"connected_time":5046000000000,"state":"active","ping":57},{"user_id":137,"name":"Michael Jordan","steam_id":76561198306393090,"connected_time":877000000000,"state":"active","ping":49},{"user_id":144,"name":"fLock","steam_id":76561198091578187,"connected_time":76000000000,"state":"active","ping":51},{"user_id":130,"name":"The Funny man","steam_id":76561199053955604,"connected_time":1849000000000,"state":"active","ping":64},{"user_id":112,"name":"BlueMelon!","steam_id":76561197970926435,"connected_time":3249000000000,"state":"active","ping":55},{"user_id":138,"name":"tethys","steam_id":76561199022899220,"connected_time":875000000000,"state":"active","ping":51},{"user_id":76,"name":"pasta","steam_id":76561198084719895,"connected_time":5795000000000,"state":"active","ping":65},{"user_id":96,"name":"SE X","steam_id":76561198094525829,"connected_time":4084000000000,"state":"active","ping":50},{"user_id":140,"name":"Spirit","steam_id":76561199069322627,"connected_time":647000000000,"state":"active","ping":58},{"user_id":139,"name":"fi_ji","steam_id":76561198126087725,"connected_time":712000000000,"state":"active","ping":61},{"user_id":116,"name":"BeerPowder","steam_id":76561198058129400,"connected_time":3011000000000,"state":"active","ping":50},{"user_id":71,"name":"he","steam_id":76561199193320651,"connected_time":6100000000000,"state":"active","ping":67},{"user_id":104,"name":"KhorneBread ︻デ 一","steam_id":76561198097069958,"connected_time":3879000000000,"state":"active","ping":66},{"user_id":143,"name":"Oak","steam_id":76561198127309023,"connected_time":152000000000,"state":"active","ping":85},{"user_id":124,"name":"ASSHOLE!!!!!!!!!!!!!!!!!!!!!!!!","steam_id":76561198034771900,"connected_time":2467000000000,"state":"active","ping":63},{"user_id":134,"name":"Subborbital","steam_id":76561198360416189,"connected_time":1173000000000,"state":"active","ping":47},{"user_id":65,"name":"Lemonade Juice","steam_id":76561198402892608,"connected_time":7091000000000,"state":"active","ping":105}]},{"server_id":14,"name":"Uncletopia | New York City | 2 | All Maps","name_short":"nyc-2","host":"nyc-1.us.uncletopia.com","port":27025,"enabled":true,"region":"us-east","cc":"us","latitude":40.73061,"longitude":-73.93524,"reserved":0,"last_update":"0001-01-01T00:00:00Z","name_a2s":"Uncletopia | New York City | 2 | All Maps","protocol":17,"map":"pl_coal_event","folder":"tf","game":"Team Fortress","app_id":440,"player_count":24,"max_players":24,"Bots":0,"server_type":"Dedicated","server_os":"Linux","password":true,"vac":true,"version":"7742253","steam_id":85568392924469994,"keywords":["nocrits","nodmgspread","payload","uncletopia"],"game_id":440,"stv_port":27026,"stv_name":"Uncletopia | New York City | 2 | All Maps | STV","players":[{"user_id":275,"name":"sauce","steam_id":76561198068430673,"connected_time":4148000000000,"state":"active","ping":63},{"user_id":284,"name":"Leo","steam_id":76561198088304064,"connected_time":3645000000000,"state":"active","ping":53},{"user_id":288,"name":"the rhode island toe sniffer","steam_id":76561199134895220,"connected_time":3178000000000,"state":"active","ping":51},{"user_id":298,"name":"thundermuffin","steam_id":76561198067770965,"connected_time":547000000000,"state":"active","ping":51},{"user_id":301,"name":"Meownsterhunter","steam_id":76561198319992602,"connected_time":130000000000,"state":"active","ping":86},{"user_id":223,"name":"Little Leo","steam_id":76561198018280180,"connected_time":6088000000000,"state":"active","ping":60},{"user_id":287,"name":"SaucyAlfredo","steam_id":76561198814854234,"connected_time":3421000000000,"state":"active","ping":59},{"user_id":292,"name":"Frank HardWood","steam_id":76561198109364911,"connected_time":2335000000000,"state":"active","ping":65},{"user_id":254,"name":"♥Phocae♥ (She/Her)","steam_id":76561199317584594,"connected_time":4968000000000,"state":"active","ping":58},{"user_id":300,"name":"ravioli","steam_id":76561199013708786,"connected_time":135000000000,"state":"active","ping":57},{"user_id":302,"name":"Tower","steam_id":76561198041091626,"connected_time":127000000000,"state":"active","ping":85},{"user_id":303,"name":"Dullahan","steam_id":76561198119668908,"connected_time":105000000000,"state":"active","ping":113},{"user_id":304,"name":"doodoo feces","steam_id":76561198118833685,"connected_time":105000000000,"state":"active","ping":90},{"user_id":305,"name":"Chicken Blow Job","steam_id":76561198086185071,"connected_time":74000000000,"state":"active","ping":75},{"user_id":289,"name":"Hiryuu","steam_id":76561198025267260,"connected_time":2757000000000,"state":"active","ping":77},{"user_id":295,"name":"oral piss inspector","steam_id":76561198147107736,"connected_time":2010000000000,"state":"active","ping":60},{"user_id":285,"name":"HAPPY NOOB YEAR","steam_id":76561198014919412,"connected_time":3442000000000,"state":"active","ping":47},{"user_id":291,"name":"Bait","steam_id":76561198336489647,"connected_time":2339000000000,"state":"active","ping":68},{"user_id":306,"name":"fallin","steam_id":76561198205386960,"connected_time":63000000000,"state":"active","ping":60},{"user_id":307,"name":"merge without looking","steam_id":76561198056702628,"connected_time":54000000000,"state":"active","ping":76},{"user_id":293,"name":"火星 | Marsy","steam_id":76561198014979892,"connected_time":2287000000000,"state":"active","ping":59},{"user_id":286,"name":"nhbiker","steam_id":76561198081277675,"connected_time":3433000000000,"state":"active","ping":59},{"user_id":308,"name":"Joy #savetf2","steam_id":76561198073690173,"connected_time":9000000000,"state":"spawning","ping":37},{"user_id":296,"name":"shake","steam_id":76561199064204750,"connected_time":1499000000000,"state":"active","ping":70}]},{"server_id":15,"name":"Uncletopia | New York City | 3 | Stopwatch Beta","name_short":"nyc-3","host":"nyc-1.us.uncletopia.com","port":27035,"enabled":true,"region":"us-east","cc":"us","latitude":40.73061,"longitude":-73.93524,"reserved":0,"last_update":"0001-01-01T00:00:00Z","name_a2s":"Uncletopia | New York City | 3 | Stopwatch Beta","protocol":17,"map":"workshop/koth_ashville_final.ugc2130459942","folder":"tf","game":"Team Fortress","app_id":440,"player_count":8,"max_players":24,"Bots":0,"server_type":"Dedicated","server_os":"Linux","password":true,"vac":true,"version":"7742253","steam_id":85568392924742820,"keywords":["cp","nocrits","nodmgspread","uncletopia"],"game_id":440,"stv_port":27036,"stv_name":"Uncletopia | New York City | 3 | Stopwatch Beta | STV","players":[{"user_id":38,"name":"As1an_M4n","steam_id":76561199173425102,"connected_time":1209000000000,"state":"active","ping":60},{"user_id":39,"name":"B1scuitd0ughhandsman","steam_id":76561199195647314,"connected_time":1198000000000,"state":"active","ping":610},{"user_id":40,"name":"wasd137","steam_id":76561199012193790,"connected_time":1147000000000,"state":"active","ping":75},{"user_id":46,"name":"freshedpotato","steam_id":76561198796778764,"connected_time":374000000000,"state":"active","ping":60},{"user_id":44,"name":"Viokik","steam_id":76561198408846602,"connected_time":588000000000,"state":"active","ping":53},{"user_id":47,"name":"creamgravy573","steam_id":76561198093308746,"connected_time":369000000000,"state":"active","ping":64},{"user_id":48,"name":"locked in the bathroom","steam_id":76561198121955432,"connected_time":244000000000,"state":"active","ping":69},{"user_id":49,"name":"Cogenheimer","steam_id":76561198146321550,"connected_time":239000000000,"state":"active","ping":60}]},{"server_id":16,"name":"Uncletopia | New York City | 4 | Community","name_short":"nyc-4","host":"nyc-1.us.uncletopia.com","port":27045,"enabled":true,"region":"us-east","cc":"us","latitude":40.73061,"longitude":-73.93524,"reserved":0,"last_update":"0001-01-01T00:00:00Z","name_a2s":"Uncletopia | New York City | 4 | Community","protocol":17,"map":"workshop/pl_cactuscanyon_redux_rc4b.ugc2579644293","folder":"tf","game":"Team Fortress","app_id":440,"player_count":24,"max_players":24,"Bots":0,"server_type":"Dedicated","server_os":"Linux","password":true,"vac":true,"version":"7742253","steam_id":85568392924742821,"keywords":["nocrits","nodmgspread","payload","uncletopia"],"game_id":440,"stv_port":27046,"stv_name":"Uncletopia | New York City | 4 | Community | STV","players":[{"user_id":9,"name":"Ham_Slammich","steam_id":76561198167978620,"connected_time":3631000000000,"state":"active","ping":57},{"user_id":10,"name":"Bweef","steam_id":76561198069819927,"connected_time":3620000000000,"state":"active","ping":123},{"user_id":62,"name":"GiraffeMan","steam_id":76561198042104084,"connected_time":554000000000,"state":"active","ping":62},{"user_id":12,"name":"BigCat","steam_id":76561198041131934,"connected_time":3617000000000,"state":"active","ping":50},{"user_id":64,"name":"Nico","steam_id":76561198125701869,"connected_time":336000000000,"state":"active","ping":46},{"user_id":14,"name":"I-WILL-TWIST-U","steam_id":76561198799572916,"connected_time":3606000000000,"state":"active","ping":62},{"user_id":15,"name":"Cesium","steam_id":76561198133557254,"connected_time":3606000000000,"state":"active","ping":115},{"user_id":16,"name":"Buff McMann","steam_id":76561198050196317,"connected_time":3602000000000,"state":"active","ping":60},{"user_id":17,"name":"GardinElla","steam_id":76561198123262799,"connected_time":3598000000000,"state":"active","ping":133},{"user_id":18,"name":"OverweightPoro","steam_id":76561198026808122,"connected_time":3595000000000,"state":"active","ping":98},{"user_id":60,"name":"centuronstar","steam_id":76561198277177841,"connected_time":714000000000,"state":"active","ping":51},{"user_id":20,"name":"Ginger Jesus","steam_id":76561198052386458,"connected_time":3573000000000,"state":"active","ping":43},{"user_id":61,"name":"MetaMetang","steam_id":76561199037970969,"connected_time":712000000000,"state":"active","ping":116},{"user_id":55,"name":"Brahan","steam_id":76561198024629210,"connected_time":1449000000000,"state":"active","ping":110},{"user_id":49,"name":"The looming threat of taxes","steam_id":76561198079446586,"connected_time":1730000000000,"state":"active","ping":85},{"user_id":47,"name":"aaaa","steam_id":76561198128164970,"connected_time":2352000000000,"state":"active","ping":116},{"user_id":25,"name":"Chompy115","steam_id":76561199094920380,"connected_time":3464000000000,"state":"active","ping":152},{"user_id":51,"name":"Wagemage","steam_id":76561198013625580,"connected_time":1705000000000,"state":"active","ping":68},{"user_id":42,"name":"femboy beats","steam_id":76561199245717718,"connected_time":2554000000000,"state":"active","ping":62},{"user_id":50,"name":"SneakyELYTRA","steam_id":76561198375302207,"connected_time":1714000000000,"state":"active","ping":58},{"user_id":63,"name":"EmeraldCola","steam_id":76561198066663687,"connected_time":365000000000,"state":"active","ping":56},{"user_id":41,"name":"Samoclese","steam_id":76561198055515027,"connected_time":2571000000000,"state":"active","ping":131},{"user_id":48,"name":"Gary","steam_id":76561198305003378,"connected_time":2131000000000,"state":"active","ping":95},{"user_id":53,"name":"[BBC] Justario","steam_id":76561198016095410,"connected_time":1651000000000,"state":"active","ping":50}]},{"server_id":142,"name":"Uncletopia | São Paulo | 1 | All Maps","name_short":"sao-1","host":"sao-1.br.uncletopia.com","port":27015,"enabled":true,"region":"sa","cc":"br","latitude":-23.533773,"longitude":-46.62529,"reserved":0,"last_update":"0001-01-01T00:00:00Z","name_a2s":"Uncletopia | São Paulo | 1 | All Maps","protocol":17,"map":"cp_gravelpit","folder":"tf","game":"Team Fortress","app_id":440,"player_count":5,"max_players":24,"Bots":0,"server_type":"Dedicated","server_os":"Linux","password":true,"vac":true,"version":"7742253","steam_id":85568392924469996,"keywords":["cp","nocrits","nodmgspread","uncletopia"],"game_id":440,"stv_port":27016,"stv_name":"Uncletopia | São Paulo | 1 | All Maps | STV","players":[{"user_id":49,"name":"FAT DUDE","steam_id":76561198861053668,"connected_time":627000000000,"state":"active","ping":51},{"user_id":48,"name":"luiz.lineu13","steam_id":76561199057600862,"connected_time":944000000000,"state":"active","ping":86},{"user_id":33,"name":"terzo","steam_id":76561198044494120,"connected_time":3079000000000,"state":"active","ping":41},{"user_id":43,"name":"jr_rusty","steam_id":76561198313937899,"connected_time":2106000000000,"state":"active","ping":42},{"user_id":52,"name":"Emperor Reinhard","steam_id":76561198181006839,"connected_time":453000000000,"state":"active","ping":47}]},{"server_id":143,"name":"Uncletopia | São Paulo | 2 | All Maps","name_short":"sao-2","host":"sao-2.br.uncletopia.com","port":27015,"enabled":true,"region":"sa","cc":"br","latitude":-23.533773,"longitude":-46.62529,"reserved":0,"last_update":"0001-01-01T00:00:00Z","name_a2s":"Uncletopia | São Paulo | 2 | All Maps","protocol":17,"map":"koth_viaduct","folder":"tf","game":"Team Fortress","app_id":440,"player_count":0,"max_players":24,"Bots":0,"server_type":"Dedicated","server_os":"Linux","password":true,"vac":true,"version":"7742253","steam_id":85568392924485349,"keywords":["cp","nocrits","nodmgspread","uncletopia"],"game_id":440,"stv_port":27016,"stv_name":"Uncletopia | São Paulo | 2 | All Maps | STV","players":null},{"server_id":7,"name":"Uncletopia | Seattle | 1 | All Maps","name_short":"sea-1","host":"sea-1.us.uncletopia.com","port":27015,"enabled":true,"region":"us-west","cc":"us","latitude":47.608013,"longitude":-122.33517,"reserved":0,"last_update":"0001-01-01T00:00:00Z","name_a2s":"Uncletopia | Seattle | 1 | All Maps","protocol":17,"map":"pl_snowycoast","folder":"tf","game":"Team Fortress","app_id":440,"player_count":24,"max_players":24,"Bots":0,"server_type":"Dedicated","server_os":"Linux","password":true,"vac":true,"version":"7742253","steam_id":85568392924469997,"keywords":["nocrits","nodmgspread","payload","uncletopia"],"game_id":440,"stv_port":27016,"stv_name":"Uncletopia | Seattle | 1 | All Maps | STV","players":[{"user_id":525,"name":"The Caretaker","steam_id":76561198125241411,"connected_time":1101000000000,"state":"active","ping":104},{"user_id":516,"name":"Delacroix","steam_id":76561198842964669,"connected_time":1929000000000,"state":"active","ping":111},{"user_id":522,"name":"rycepatti","steam_id":76561198291923635,"connected_time":1389000000000,"state":"active","ping":44},{"user_id":517,"name":"Seriously Bruh","steam_id":76561198070408485,"connected_time":1870000000000,"state":"active","ping":67},{"user_id":536,"name":"chiefin da oregano spliff","steam_id":76561198131166135,"connected_time":13000000000,"state":"spawning","ping":59},{"user_id":493,"name":"Yo","steam_id":76561198098462500,"connected_time":3786000000000,"state":"active","ping":70},{"user_id":528,"name":"Merach","steam_id":76561197994544587,"connected_time":891000000000,"state":"active","ping":53},{"user_id":508,"name":"Julien","steam_id":76561199389584938,"connected_time":2176000000000,"state":"active","ping":44},{"user_id":523,"name":"SlothWrangler","steam_id":76561198131322716,"connected_time":1138000000000,"state":"active","ping":48},{"user_id":478,"name":"The_Gilded_Warrior","steam_id":76561199055082197,"connected_time":5212000000000,"state":"active","ping":80},{"user_id":521,"name":"Burgie","steam_id":76561198207958445,"connected_time":1410000000000,"state":"active","ping":57},{"user_id":531,"name":"Larry from Pokemon SV","steam_id":76561198095245223,"connected_time":749000000000,"state":"active","ping":119},{"user_id":503,"name":"NeoN","steam_id":76561198117608366,"connected_time":2368000000000,"state":"active","ping":50},{"user_id":488,"name":"William P. Ennis","steam_id":76561198073464877,"connected_time":4256000000000,"state":"active","ping":90},{"user_id":509,"name":"Pluto","steam_id":76561198012630802,"connected_time":2165000000000,"state":"active","ping":65},{"user_id":524,"name":"lavender","steam_id":76561199069518286,"connected_time":1136000000000,"state":"active","ping":73},{"user_id":533,"name":"Disc0","steam_id":76561198067337267,"connected_time":665000000000,"state":"active","ping":46},{"user_id":530,"name":"Mr.Sex","steam_id":76561198169957571,"connected_time":773000000000,"state":"active","ping":120},{"user_id":519,"name":"aaple","steam_id":76561198056377621,"connected_time":1677000000000,"state":"active","ping":100},{"user_id":529,"name":"p9 squash","steam_id":76561198150281353,"connected_time":838000000000,"state":"active","ping":55},{"user_id":518,"name":"A Random Guy","steam_id":76561198052725191,"connected_time":1766000000000,"state":"active","ping":78},{"user_id":505,"name":"PopcornBucketGames","steam_id":76561199089562026,"connected_time":2237000000000,"state":"active","ping":48},{"user_id":534,"name":"Professor Sex","steam_id":76561198396414319,"connected_time":639000000000,"state":"active","ping":89},{"user_id":492,"name":"weegeebad","steam_id":76561198280841437,"connected_time":3802000000000,"state":"active","ping":119}]},{"server_id":119,"name":"Uncletopia | Seattle | 2 | All Maps","name_short":"sea-2","host":"sea-1.us.uncletopia.com","port":27025,"enabled":true,"region":"us-west","cc":"us","latitude":47.608013,"longitude":-122.33517,"reserved":0,"last_update":"0001-01-01T00:00:00Z","name_a2s":"Uncletopia | Seattle | 2 | All Maps","protocol":17,"map":"cp_mercenarypark","folder":"tf","game":"Team Fortress","app_id":440,"player_count":24,"max_players":24,"Bots":0,"server_type":"Dedicated","server_os":"Linux","password":true,"vac":true,"version":"7742253","steam_id":85568392924469998,"keywords":["cp","nocrits","nodmgspread","uncletopia"],"game_id":440,"stv_port":27026,"stv_name":"Uncletopia | Seattle | 2 | All Maps | STV","players":[{"user_id":57,"name":"hoboholden","steam_id":76561198799370303,"connected_time":1313000000000,"state":"active","ping":96},{"user_id":100,"name":"DeckofDragons","steam_id":76561198057398213,"connected_time":9000000000,"state":"spawning","ping":90},{"user_id":75,"name":"Perfume Department","steam_id":76561198128299594,"connected_time":812000000000,"state":"active","ping":66},{"user_id":90,"name":"RileyBlack2344","steam_id":76561199120958526,"connected_time":207000000000,"state":"active","ping":85},{"user_id":53,"name":"EggsAndBacon","steam_id":76561198031789082,"connected_time":1516000000000,"state":"active","ping":64},{"user_id":78,"name":"MagentaOnyx","steam_id":76561198845502894,"connected_time":723000000000,"state":"active","ping":73},{"user_id":56,"name":"filthycasual","steam_id":76561199138226238,"connected_time":1432000000000,"state":"active","ping":47},{"user_id":58,"name":"twitch.tv/ladyloki_ch","steam_id":76561198280150602,"connected_time":1255000000000,"state":"active","ping":49},{"user_id":76,"name":"SavagePineapples64","steam_id":76561198872013039,"connected_time":796000000000,"state":"active","ping":126},{"user_id":60,"name":"Chance","steam_id":76561198033104670,"connected_time":1229000000000,"state":"active","ping":72},{"user_id":79,"name":"PyroSoulGaming","steam_id":76561199210277863,"connected_time":657000000000,"state":"active","ping":93},{"user_id":87,"name":"DarthJiggles","steam_id":76561198088383875,"connected_time":464000000000,"state":"active","ping":62},{"user_id":95,"name":"NotMikeLegend101","steam_id":76561198980784909,"connected_time":93000000000,"state":"active","ping":70},{"user_id":66,"name":"Lightworker","steam_id":76561198063949642,"connected_time":1130000000000,"state":"active","ping":39},{"user_id":91,"name":"Jerry_","steam_id":76561198345491762,"connected_time":202000000000,"state":"active","ping":76},{"user_id":83,"name":"Lepo","steam_id":76561198383509659,"connected_time":601000000000,"state":"active","ping":157},{"user_id":92,"name":"CumBob","steam_id":76561198168693975,"connected_time":202000000000,"state":"active","ping":64},{"user_id":96,"name":"riri ᗜᴗᗜ","steam_id":76561198055462404,"connected_time":73000000000,"state":"active","ping":67},{"user_id":97,"name":"alban berg","steam_id":76561199057269867,"connected_time":71000000000,"state":"active","ping":47},{"user_id":71,"name":"ChoccyMiltank","steam_id":76561198981474284,"connected_time":1026000000000,"state":"active","ping":77},{"user_id":98,"name":"ATTENTION ALL BAJORAN WORKERS","steam_id":76561198033918106,"connected_time":58000000000,"state":"active","ping":81},{"user_id":99,"name":"primordialheath","steam_id":76561199386942638,"connected_time":41000000000,"state":"active","ping":112},{"user_id":88,"name":"lukamine","steam_id":76561198166827208,"connected_time":460000000000,"state":"active","ping":50},{"user_id":85,"name":"machomelon","steam_id":76561198043683564,"connected_time":584000000000,"state":"active","ping":65}]},{"server_id":406,"name":"Uncletopia | Seattle | 3 | Stopwatch Beta","name_short":"sea-3","host":"sea-1.us.uncletopia.com","port":27035,"enabled":true,"region":"us-west","cc":"us","latitude":47.608013,"longitude":-122.33517,"reserved":0,"last_update":"0001-01-01T00:00:00Z","name_a2s":"Uncletopia | Seattle | 3 | Stopwatch Beta","protocol":17,"map":"cp_metalworks","folder":"tf","game":"Team Fortress","app_id":440,"player_count":15,"max_players":24,"Bots":0,"server_type":"Dedicated","server_os":"Linux","password":true,"vac":true,"version":"7742253","steam_id":85568392924515217,"keywords":["cp","nocrits","nodmgspread","uncletopia"],"game_id":440,"stv_port":27036,"stv_name":"Uncletopia | Seattle | 3 | Stopwatch Beta | STV","players":[{"user_id":87,"name":"rat gets the cheese","steam_id":76561198031234032,"connected_time":1439000000000,"state":"active","ping":98},{"user_id":80,"name":"blood bitch","steam_id":76561198325306660,"connected_time":1714000000000,"state":"active","ping":49},{"user_id":106,"name":"soup","steam_id":76561198099977572,"connected_time":579000000000,"state":"active","ping":105},{"user_id":17,"name":"SunNc","steam_id":76561198097711843,"connected_time":7025000000000,"state":"active","ping":81},{"user_id":78,"name":"CaptainGold1","steam_id":76561198104967772,"connected_time":1755000000000,"state":"active","ping":58},{"user_id":113,"name":"reverie","steam_id":76561198168158637,"connected_time":155000000000,"state":"active","ping":76},{"user_id":85,"name":"Pim","steam_id":76561198046050375,"connected_time":1647000000000,"state":"active","ping":85},{"user_id":83,"name":"theTheSuzan","steam_id":76561198044181453,"connected_time":1697000000000,"state":"active","ping":86},{"user_id":107,"name":"Femboi Fox","steam_id":76561198915758702,"connected_time":542000000000,"state":"active","ping":63},{"user_id":108,"name":"TypicalGiftigTTV","steam_id":76561198170372495,"connected_time":510000000000,"state":"active","ping":99},{"user_id":112,"name":"meow","steam_id":76561198298140571,"connected_time":206000000000,"state":"active","ping":82},{"user_id":102,"name":"Charlie","steam_id":76561198798127908,"connected_time":1034000000000,"state":"active","ping":112},{"user_id":90,"name":"Pizza Knight","steam_id":76561198114242200,"connected_time":1290000000000,"state":"active","ping":56},{"user_id":93,"name":"TheSapphirePig","steam_id":76561199115310738,"connected_time":1224000000000,"state":"active","ping":80},{"user_id":99,"name":"Sasu","steam_id":76561198893447505,"connected_time":1172000000000,"state":"active","ping":59}]},{"server_id":17,"name":"Uncletopia | San Francisco | 1 | All Maps","name_short":"sfo-1","host":"sfo-1.us.uncletopia.com","port":27015,"enabled":true,"region":"us-west","cc":"us","latitude":37.77397,"longitude":-122.4313,"reserved":0,"last_update":"0001-01-01T00:00:00Z","name_a2s":"Uncletopia | San Francisco | 1 | All Maps","protocol":17,"map":"pl_frontier_final","folder":"tf","game":"Team Fortress","app_id":440,"player_count":8,"max_players":24,"Bots":0,"server_type":"Dedicated","server_os":"Linux","password":true,"vac":true,"version":"7742253","steam_id":85568392924469999,"keywords":["nocrits","nodmgspread","payload","uncletopia"],"game_id":440,"stv_port":27016,"stv_name":"Uncletopia | San Francisco | 1 | All Maps | STV","players":[{"user_id":6,"name":"dicksnip","steam_id":76561198356515396,"connected_time":688000000000,"state":"active","ping":101},{"user_id":7,"name":"Nuisance!!!","steam_id":76561199021471671,"connected_time":583000000000,"state":"active","ping":73},{"user_id":9,"name":"Frog","steam_id":76561198086409943,"connected_time":438000000000,"state":"active","ping":47},{"user_id":11,"name":"BernardBull","steam_id":76561198036138813,"connected_time":317000000000,"state":"active","ping":67},{"user_id":12,"name":"A 7/10","steam_id":76561198075814864,"connected_time":199000000000,"state":"active","ping":104},{"user_id":13,"name":"nfseskimo","steam_id":76561198078745666,"connected_time":194000000000,"state":"active","ping":63},{"user_id":14,"name":"Square Square","steam_id":76561198070481423,"connected_time":141000000000,"state":"active","ping":79},{"user_id":15,"name":"TheGaming13","steam_id":76561199239498966,"connected_time":68000000000,"state":"active","ping":96}]},{"server_id":18,"name":"Uncletopia | San Francisco | 2 | All Maps","name_short":"sfo-2","host":"sfo-1.us.uncletopia.com","port":27025,"enabled":true,"region":"us-west","cc":"us","latitude":37.77397,"longitude":-122.4313,"reserved":0,"last_update":"0001-01-01T00:00:00Z","name_a2s":"Uncletopia | San Francisco | 2 | All Maps","protocol":17,"map":"pl_frontier_final","folder":"tf","game":"Team Fortress","app_id":440,"player_count":0,"max_players":24,"Bots":0,"server_type":"Dedicated","server_os":"Linux","password":true,"vac":true,"version":"7742253","steam_id":85568392924470000,"keywords":["nocrits","nodmgspread","payload","uncletopia"],"game_id":440,"stv_port":27026,"stv_name":"Uncletopia | San Francisco | 2 | All Maps | STV","players":null},{"server_id":19,"name":"Uncletopia | San Francisco | 3 | Stopwatch Beta","name_short":"sfo-3","host":"sfo-1.us.uncletopia.com","port":27035,"enabled":true,"region":"us-west","cc":"us","latitude":37.77397,"longitude":-122.4313,"reserved":0,"last_update":"0001-01-01T00:00:00Z","name_a2s":"Uncletopia | San Francisco | 3 | Stopwatch Beta","protocol":17,"map":"workshop/pl_barnblitz_pro7.ugc582280235","folder":"tf","game":"Team Fortress","app_id":440,"player_count":0,"max_players":24,"Bots":0,"server_type":"Dedicated","server_os":"Linux","password":true,"vac":true,"version":"7742253","steam_id":85568392924742824,"keywords":["nocrits","nodmgspread","payload","uncletopia"],"game_id":440,"stv_port":27036,"stv_name":"Uncletopia | San Francisco | 3 | Stopwatch Beta | STV","players":null},{"server_id":20,"name":"Uncletopia | San Francisco | 4 | Community","name_short":"sfo-4","host":"sfo-1.us.uncletopia.com","port":27045,"enabled":true,"region":"us-west","cc":"us","latitude":37.77397,"longitude":-122.4313,"reserved":0,"last_update":"0001-01-01T00:00:00Z","name_a2s":"Uncletopia | San Francisco | 4 | Community","protocol":17,"map":"cp_dustbowl","folder":"tf","game":"Team Fortress","app_id":440,"player_count":0,"max_players":24,"Bots":0,"server_type":"Dedicated","server_os":"Linux","password":true,"vac":true,"version":"7742253","steam_id":85568392924742826,"keywords":["cp","nocrits","nodmgspread","uncletopia"],"game_id":440,"stv_port":27046,"stv_name":"Uncletopia | San Francisco | 4 | Community | STV","players":null},{"server_id":141,"name":"Uncletopia | Sydney | 1 | All Maps","name_short":"syd-1","host":"syd-1.au.uncletopia.com","port":27015,"enabled":true,"region":"au","cc":"au","latitude":-33.865143,"longitude":151.2099,"reserved":0,"last_update":"0001-01-01T00:00:00Z","name_a2s":"Uncletopia | Sydney | 1 | All Maps","protocol":17,"map":"koth_lakeside_final","folder":"tf","game":"Team Fortress","app_id":440,"player_count":0,"max_players":24,"Bots":0,"server_type":"Dedicated","server_os":"Linux","password":true,"vac":true,"version":"7742253","steam_id":85568392924470001,"keywords":["cp","nocrits","nodmgspread","uncletopia"],"game_id":440,"stv_port":27016,"stv_name":"Uncletopia | Sydney | 1 | All Maps | STV","players":null},{"server_id":123,"name":"Uncletopia | Sydney | 2 | All Maps","name_short":"syd-2","host":"syd-1.au.uncletopia.com","port":27025,"enabled":true,"region":"au","cc":"au","latitude":-33.865143,"longitude":151.2099,"reserved":0,"last_update":"0001-01-01T00:00:00Z","name_a2s":"Uncletopia | Sydney | 2 | All Maps","protocol":17,"map":"pl_badwater","folder":"tf","game":"Team Fortress","app_id":440,"player_count":23,"max_players":24,"Bots":0,"server_type":"Dedicated","server_os":"Linux","password":true,"vac":true,"version":"7742253","steam_id":85568392924470002,"keywords":["nocrits","nodmgspread","payload","uncletopia"],"game_id":440,"stv_port":27026,"stv_name":"Uncletopia | Sydney | 2 | All Maps | STV","players":[{"user_id":148,"name":"covenofbats","steam_id":76561198152117315,"connected_time":869000000000,"state":"active","ping":41},{"user_id":119,"name":"sprkles","steam_id":76561198097040446,"connected_time":2258000000000,"state":"active","ping":47},{"user_id":79,"name":"beth.cubitt","steam_id":76561198454733447,"connected_time":4394000000000,"state":"active","ping":77},{"user_id":151,"name":"freek","steam_id":76561198406237673,"connected_time":569000000000,"state":"active","ping":48},{"user_id":159,"name":"Maestro[FmJ]","steam_id":76561197996842734,"connected_time":216000000000,"state":"active","ping":50},{"user_id":149,"name":"femboy fishing","steam_id":76561198285103980,"connected_time":597000000000,"state":"active","ping":38},{"user_id":120,"name":"RA RA","steam_id":76561198361139900,"connected_time":2218000000000,"state":"active","ping":59},{"user_id":128,"name":"XTX","steam_id":76561198093828661,"connected_time":1964000000000,"state":"active","ping":76},{"user_id":157,"name":"Celph","steam_id":76561197993987500,"connected_time":251000000000,"state":"active","ping":45},{"user_id":150,"name":"Fatass Yoshi","steam_id":76561198033784848,"connected_time":593000000000,"state":"active","ping":54},{"user_id":70,"name":"blaze","steam_id":76561198241303512,"connected_time":5434000000000,"state":"active","ping":59},{"user_id":155,"name":"german doctor (german)","steam_id":76561198985044367,"connected_time":408000000000,"state":"active","ping":71},{"user_id":162,"name":"trash","steam_id":76561198110764631,"connected_time":108000000000,"state":"active","ping":50},{"user_id":164,"name":"Patricia","steam_id":76561198244663182,"connected_time":47000000000,"state":"active","ping":63},{"user_id":161,"name":"james16","steam_id":76561198362678073,"connected_time":148000000000,"state":"active","ping":32},{"user_id":116,"name":"AzureFox","steam_id":76561198108179408,"connected_time":2527000000000,"state":"active","ping":100},{"user_id":142,"name":"Unidentified Flying Gardener","steam_id":76561199143081082,"connected_time":1160000000000,"state":"active","ping":49},{"user_id":118,"name":"MayoMan","steam_id":76561199140828165,"connected_time":2520000000000,"state":"active","ping":44},{"user_id":127,"name":"BoboHleach","steam_id":76561198947368460,"connected_time":1984000000000,"state":"active","ping":35},{"user_id":130,"name":"Mohammed Handjop","steam_id":76561198142023589,"connected_time":1935000000000,"state":"active","ping":90},{"user_id":134,"name":"gode1000","steam_id":76561198836003115,"connected_time":1884000000000,"state":"active","ping":65},{"user_id":136,"name":"Enchanted Cat","steam_id":76561198866538028,"connected_time":1837000000000,"state":"active","ping":74},{"user_id":147,"name":"Catto","steam_id":76561197999111589,"connected_time":885000000000,"state":"active","ping":30}]},{"server_id":395,"name":"Uncletopia | Sydney | 3 | All Maps","name_short":"syd-3","host":"syd-1.au.uncletopia.com","port":27035,"enabled":true,"region":"au","cc":"au","latitude":-33.865143,"longitude":151.2099,"reserved":0,"last_update":"0001-01-01T00:00:00Z","name_a2s":"Uncletopia | Sydney | 3 | All Maps","protocol":17,"map":"koth_viaduct","folder":"tf","game":"Team Fortress","app_id":440,"player_count":0,"max_players":24,"Bots":0,"server_type":"Dedicated","server_os":"Linux","password":true,"vac":true,"version":"7742253","steam_id":85568392925194467,"keywords":["cp","nocrits","nodmgspread","uncletopia"],"game_id":440,"stv_port":27036,"stv_name":"Uncletopia | Sydney | 3 | All Maps | STV","players":null},{"server_id":396,"name":"Uncletopia | Sydney | 4 | All Maps","name_short":"syd-4","host":"syd-1.au.uncletopia.com","port":27045,"enabled":true,"region":"au","cc":"au","latitude":-33.865143,"longitude":151.2099,"reserved":0,"last_update":"0001-01-01T00:00:00Z","name_a2s":"Uncletopia | Sydney | 4 | All Maps","protocol":17,"map":"pl_upward","folder":"tf","game":"Team Fortress","app_id":440,"player_count":0,"max_players":24,"Bots":0,"server_type":"Dedicated","server_os":"Linux","password":true,"vac":true,"version":"7742253","steam_id":85568392925397958,"keywords":["nocrits","nodmgspread","payload","uncletopia"],"game_id":440,"stv_port":27046,"stv_name":"Uncletopia | Sydney | 4 | All Maps | STV","players":null},{"server_id":58,"name":"Uncletopia | Sydney | 5 | Stopwatch Beta","name_short":"syd-5","host":"syd-1.au.uncletopia.com","port":27055,"enabled":true,"region":"au","cc":"au","latitude":-33.865143,"longitude":151.2099,"reserved":0,"last_update":"0001-01-01T00:00:00Z","name_a2s":"Uncletopia | Sydney | 5 | Stopwatch Beta","protocol":17,"map":"cp_sunshine","folder":"tf","game":"Team Fortress","app_id":440,"player_count":0,"max_players":24,"Bots":0,"server_type":"Dedicated","server_os":"Linux","password":true,"vac":true,"version":"7742253","steam_id":85568392925397959,"keywords":["cp","nocrits","nodmgspread","uncletopia"],"game_id":440,"stv_port":27056,"stv_name":"Uncletopia | Sydney | 5 | Stopwatch Beta | STV","players":null},{"server_id":59,"name":"Uncletopia | Sydney | 6 | Community","name_short":"syd-6","host":"syd-1.au.uncletopia.com","port":27065,"enabled":true,"region":"au","cc":"au","latitude":-33.865143,"longitude":151.2099,"reserved":0,"last_update":"0001-01-01T00:00:00Z","name_a2s":"Uncletopia | Sydney | 6 | Community","protocol":17,"map":"cp_dustbowl","folder":"tf","game":"Team Fortress","app_id":440,"player_count":0,"max_players":24,"Bots":0,"server_type":"Dedicated","server_os":"Linux","password":true,"vac":true,"version":"7742253","steam_id":85568392925397960,"keywords":["cp","nocrits","nodmgspread","uncletopia"],"game_id":440,"stv_port":27066,"stv_name":"Uncletopia | Sydney | 6 | Community | STV","players":null},{"server_id":49,"name":"Uncletopia | Warsaw | 1 | All Maps","name_short":"waw-1","host":"waw-1.pl.uncletopia.com","port":27015,"enabled":true,"region":"eu","cc":"pl","latitude":52.2297,"longitude":21.017532,"reserved":0,"last_update":"0001-01-01T00:00:00Z","name_a2s":"","protocol":0,"map":"","folder":"","game":"","app_id":0,"player_count":0,"max_players":0,"Bots":0,"server_type":"","server_os":"","password":false,"vac":false,"version":"","steam_id":0,"keywords":null,"game_id":0,"stv_port":0,"stv_name":"","players":null},{"server_id":50,"name":"Uncletopia | Warsaw | 2 | All Maps","name_short":"waw-2","host":"waw-1.pl.uncletopia.com","port":27025,"enabled":true,"region":"eu","cc":"pl","latitude":52.2297,"longitude":21.017532,"reserved":0,"last_update":"0001-01-01T00:00:00Z","name_a2s":"Uncletopia | Warsaw | 2 | All Maps","protocol":17,"map":"koth_viaduct","folder":"tf","game":"Team Fortress","app_id":440,"player_count":0,"max_players":24,"Bots":0,"server_type":"Dedicated","server_os":"Linux","password":true,"vac":true,"version":"7742253","steam_id":85568392925397851,"keywords":["cp","nocrits","nodmgspread","uncletopia"],"game_id":440,"stv_port":27026,"stv_name":"Uncletopia | Warsaw | 2 | All Maps | STV","players":null},{"server_id":51,"name":"Uncletopia | Warsaw | 3 | All Maps","name_short":"waw-3","host":"waw-1.pl.uncletopia.com","port":27035,"enabled":true,"region":"eu","cc":"pl","latitude":52.2297,"longitude":21.017532,"reserved":0,"last_update":"0001-01-01T00:00:00Z","name_a2s":"Uncletopia | Warsaw | 3 | All Maps","protocol":17,"map":"pl_frontier_final","folder":"tf","game":"Team Fortress","app_id":440,"player_count":0,"max_players":24,"Bots":0,"server_type":"Dedicated","server_os":"Linux","password":true,"vac":true,"version":"7742253","steam_id":85568392925397852,"keywords":["nocrits","nodmgspread","payload","uncletopia"],"game_id":440,"stv_port":27036,"stv_name":"Uncletopia | Warsaw | 3 | All Maps | STV","players":null},{"server_id":52,"name":"Uncletopia | Warsaw | 4 | All Maps","name_short":"waw-4","host":"waw-1.pl.uncletopia.com","port":27045,"enabled":true,"region":"eu","cc":"pl","latitude":52.2297,"longitude":21.017532,"reserved":0,"last_update":"0001-01-01T00:00:00Z","name_a2s":"Uncletopia | Warsaw | 4 | All Maps","protocol":17,"map":"cp_snakewater_final1","folder":"tf","game":"Team Fortress","app_id":440,"player_count":0,"max_players":24,"Bots":0,"server_type":"Dedicated","server_os":"Linux","password":true,"vac":true,"version":"7742253","steam_id":85568392925397853,"keywords":["cp","nocrits","nodmgspread","uncletopia"],"game_id":440,"stv_port":27046,"stv_name":"Uncletopia | Warsaw | 4 | All Maps | STV","players":null},{"server_id":53,"name":"Uncletopia | Warsaw | 5 | Stopwatch Beta","name_short":"waw-5","host":"waw-1.pl.uncletopia.com","port":27055,"enabled":true,"region":"eu","cc":"pl","latitude":52.2297,"longitude":21.017532,"reserved":0,"last_update":"0001-01-01T00:00:00Z","name_a2s":"Uncletopia | Warsaw | 5 | Stopwatch Beta","protocol":17,"map":"pl_swiftwater_final1","folder":"tf","game":"Team Fortress","app_id":440,"player_count":0,"max_players":24,"Bots":0,"server_type":"Dedicated","server_os":"Linux","password":true,"vac":true,"version":"7742253","steam_id":85568392925397854,"keywords":["nocrits","nodmgspread","payload","uncletopia"],"game_id":440,"stv_port":27056,"stv_name":"Uncletopia | Warsaw | 5 | Stopwatch Beta | STV","players":null},{"server_id":54,"name":"Uncletopia | Warsaw | 6 | Community","name_short":"waw-6","host":"waw-1.pl.uncletopia.com","port":27065,"enabled":true,"region":"eu","cc":"pl","latitude":52.2297,"longitude":21.017532,"reserved":0,"last_update":"0001-01-01T00:00:00Z","name_a2s":"Uncletopia | Warsaw | 6 | Community","protocol":17,"map":"koth_highpass","folder":"tf","game":"Team Fortress","app_id":440,"player_count":0,"max_players":24,"Bots":0,"server_type":"Dedicated","server_os":"Linux","password":true,"vac":true,"version":"7742253","steam_id":85568392925397856,"keywords":["cp","nocrits","nodmgspread","uncletopia"],"game_id":440,"stv_port":27066,"stv_name":"Uncletopia | Warsaw | 6 | Community | STV","players":null}]}