{"status":true,"message":"","result":[{"server_id":9,"name":"Uncletopia | Atlanta | 1 | All Maps","name_short":"atl-1","host":"atl-1.us.uncletopia.com","port":27015,"enabled":true,"region":"us-east","cc":"us","latitude":33.753746,"longitude":-84.38633,"reserved":0,"last_update":"0001-01-01T00:00:00Z","name_a2s":"Uncletopia | Atlanta | 1 | All Maps","protocol":17,"map":"ctf_turbine","folder":"tf","game":"Team Fortress","app_id":440,"player_count":24,"max_players":24,"Bots":0,"server_type":"Dedicated","server_os":"Linux","password":true,"vac":true,"version":"7882260","steam_id":85568392924469982,"keywords":["ctf","nocrits","nodmgspread","uncletopia"],"game_id":440,"stv_port":27016,"stv_name":"Uncletopia | Atlanta | 1 | All Maps | STV","players":[{"user_id":257,"name":"Gill-Man","steam_id":76561198072736830,"connected_time":324000000000,"state":"active","ping":100},{"user_id":259,"name":"slafflow","steam_id":76561199381012350,"connected_time":170000000000,"state":"active","ping":90},{"user_id":201,"name":"Pumbloom","steam_id":76561198024481281,"connected_time":5436000000000,"state":"active","ping":45},{"user_id":249,"name":"·πΩ‚ßâ cookie","steam_id":76561197998884823,"connected_time":1614000000000,"state":"active","ping":77},{"user_id":253,"name":"pinple","steam_id":76561198167075606,"connected_time":730000000000,"state":"active","ping":55},{"user_id":227,"name":"crouton","steam_id":76561198828709358,"connected_time":3191000000000,"state":"active","ping":57},{"user_id":226,"name":"kazoo2","steam_id":76561198260473504,"connected_time":3501000000000,"state":"active","ping":78},{"user_id":255,"name":"Ninty","steam_id":76561199364725776,"connected_time":567000000000,"state":"active","ping":78},{"user_id":222,"name":"Smug ¬¨‚Äø¬¨ Smug","steam_id":76561198325526945,"connected_time":3676000000000,"state":"active","ping":84},{"user_id":229,"name":"badzombies2003","steam_id":76561198408802629,"connected_time":3028000000000,"state":"active","ping":65},{"user_id":248,"name":"SadVeggie","steam_id":76561198163430099,"connected_time":1667000000000,"state":"active","ping":105},{"user_id":234,"name":"sal","steam_id":76561198814096380,"connected_time":2420000000000,"state":"active","ping":77},{"user_id":256,"name":"Yoshi_86","steam_id":76561198942328734,"connected_time":340000000000,"state":"active","ping":64},{"user_id":235,"name":"IZISOO","steam_id":76561198970380577,"connected_time":2389000000000,"state":"active","ping":148},{"user_id":196,"name":"Monoko","steam_id":76561198106345026,"connected_time":5981000000000,"state":"active","ping":56},{"user_id":245,"name":"Doobloon","steam_id":76561199354240457,"connected_time":1861000000000,"state":"active","ping":130},{"user_id":117,"name":"Obelisk","steam_id":76561198049416866,"connected_time":14060000000000,"state":"active","ping":48},{"user_id":247,"name":"Cup o' Water","steam_id":76561198881038234,"connected_time":1713000000000,"state":"active","ping":133},{"user_id":204,"name":"Crib Death","steam_id":76561198329598223,"connected_time":4500000000000,"state":"active","ping":73},{"user_id":143,"name":"can you don't","steam_id":76561198070477953,"connected_time":11004000000000,"state":"active","ping":84},{"user_id":228,"name":"Ashes!","steam_id":76561197998475441,"connected_time":3065000000000,"state":"active","ping":81},{"user_id":250,"name":"Joe Dodger","steam_id":76561198030052564,"connected_time":1277000000000,"state":"active","ping":116},{"user_id":238,"name":"ItssRasazy","steam_id":76561199229512918,"connected_time":2066000000000,"state":"active","ping":186},{"user_id":262,"name":"Skinny pete","steam_id":76561198801608576,"connected_time":12000000000,"state":"active","ping":103}]},{"server_id":104,"name":"Uncletopia | Atlanta | 2 | All Maps","name_short":"atl-2","host":"atl-1.us.uncletopia.com","port":27025,"enabled":true,"region":"us-east","cc":"us","latitude":33.753746,"longitude":-84.38633,"reserved":0,"last_update":"0001-01-01T00:00:00Z","name_a2s":"Uncletopia | Atlanta | 2 | All Maps","protocol":17,"map":"cp_5gorge","folder":"tf","game":"Team Fortress","app_id":440,"player_count":24,"max_players":24,"Bots":0,"server_type":"Dedicated","server_os":"Linux","password":true,"vac":true,"version":"7882260","steam_id":85568392924469983,"keywords":["cp","nocrits","nodmgspread","uncletopia"],"game_id":440,"stv_port":27026,"stv_name":"Uncletopia | Atlanta | 2 | All Maps | STV","players":[{"user_id":12,"name":"Transfem Catgirl \u003c3 (she/it)","steam_id":76561198807069433,"connected_time":9403000000000,"state":"active","ping":85},{"user_id":13,"name":"Transfem Furry \u003c3","steam_id":76561198288036403,"connected_time":9331000000000,"state":"active","ping":98},{"user_id":74,"name":"nitrix","steam_id":76561198811202673,"connected_time":4786000000000,"state":"active","ping":99},{"user_id":43,"name":"James 4:4","steam_id":76561198121933439,"connected_time":6364000000000,"state":"active","ping":88},{"user_id":103,"name":"Orca?","steam_id":76561198164341099,"connected_time":2930000000000,"state":"active","ping":95},{"user_id":101,"name":"Vanilla :3","steam_id":76561199106847859,"connected_time":3161000000000,"state":"active","ping":70},{"user_id":122,"name":"highschool drop-out","steam_id":76561198366299848,"connected_time":1234000000000,"state":"active","ping":61},{"user_id":127,"name":"All 24 Pok√©mon movies at once","steam_id":76561198164738311,"connected_time":856000000000,"state":"active","ping":108},{"user_id":106,"name":"helen keller","steam_id":76561197979870540,"connected_time":2593000000000,"state":"active","ping":74},{"user_id":129,"name":"Sentry Gun Main Man","steam_id":76561198327938247,"connected_time":638000000000,"state":"active","ping":86},{"user_id":121,"name":"minecraft","steam_id":76561198104345201,"connected_time":1256000000000,"state":"active","ping":70},{"user_id":130,"name":"123","steam_id":76561198106308056,"connected_time":98000000000,"state":"active","ping":91},{"user_id":32,"name":"Rhea","steam_id":76561198066626240,"connected_time":6691000000000,"state":"active","ping":90},{"user_id":123,"name":"PBxJAY","steam_id":76561198402471788,"connected_time":1146000000000,"state":"active","ping":124},{"user_id":80,"name":"Baker","steam_id":76561198055196430,"connected_time":4632000000000,"state":"active","ping":75},{"user_id":126,"name":"Si1entSn1pa","steam_id":76561198170095479,"connected_time":969000000000,"state":"active","ping":71},{"user_id":87,"name":"Praise Hero","steam_id":76561198071362210,"connected_time":4180000000000,"state":"active","ping":76},{"user_id":125,"name":"QueenOTheSea","steam_id":76561199399273897,"connected_time":1001000000000,"state":"active","ping":60},{"user_id":85,"name":"uzi murder drones (real)","steam_id":76561198156799627,"connected_time":4240000000000,"state":"active","ping":81},{"user_id":131,"name":"blobb","steam_id":76561198950448488,"connected_time":61000000000,"state":"active","ping":75},{"user_id":97,"name":"„ÅÑ„Å°„Åî„Åæ„Çç","steam_id":76561198166100997,"connected_time":3760000000000,"state":"active","ping":62},{"user_id":132,"name":"Slowbar","steam_id":76561198027770943,"connected_time":56000000000,"state":"active","ping":91},{"user_id":119,"name":"(Past Tense)","steam_id":76561197996279335,"connected_time":1574000000000,"state":"active","ping":65},{"user_id":54,"name":"TrashMann","steam_id":76561198040969743,"connected_time":5641000000000,"state":"active","ping":60}]},{"server_id":400,"name":"Uncletopia | Atlanta | 3 | Community","name_short":"atl-3","host":"atl-1.us.uncletopia.com","port":27035,"enabled":true,"region":"us-east","cc":"us","latitude":33.753746,"longitude":-84.38633,"reserved":0,"last_update":"0001-01-01T00:00:00Z","name_a2s":"Uncletopia | Atlanta | 3 | Community","protocol":17,"map":"workshop/pl_emerge_rc2.ugc888027758","folder":"tf","game":"Team Fortress","app_id":440,"player_count":0,"max_players":24,"Bots":0,"server_type":"Dedicated","server_os":"Linux","password":true,"vac":true,"version":"7882260","steam_id":85568392924515187,"keywords":["nocrits","nodmgspread","payload","uncletopia"],"game_id":440,"stv_port":27036,"stv_name":"Uncletopia | Atlanta | 3 | Community | STV","players":null},{"server_id":401,"name":"Uncletopia | Atlanta | 4 | No Payload","name_short":"atl-4","host":"atl-1.us.uncletopia.com","port":27045,"enabled":true,"region":"us-east","cc":"us","latitude":33.753746,"longitude":-84.38633,"reserved":0,"last_update":"0001-01-01T00:00:00Z","name_a2s":"","protocol":0,"map":"","folder":"","game":"","app_id":0,"player_count":0,"max_players":0,"Bots":0,"server_type":"","server_os":"","password":false,"vac":false,"version":"","steam_id":0,"keywords":null,"game_id":0,"stv_port":0,"stv_name":"","players":null},{"server_id":2,"name":"Uncletopia | Chicago | 1 | All Maps","name_short":"chi-1","host":"chi-1.us.uncletopia.com","port":27015,"enabled":true,"region":"us-central","cc":"us","latitude":41.881832,"longitude":-87.62318,"reserved":0,"last_update":"0001-01-01T00:00:00Z","name_a2s":"Uncletopia | Chicago | 1 | All Maps","protocol":17,"map":"pl_upward","folder":"tf","game":"Team Fortress","app_id":440,"player_count":24,"max_players":24,"Bots":0,"server_type":"Dedicated","server_os":"Linux","password":true,"vac":true,"version":"7882260","steam_id":85568392924469984,"keywords":["nocrits","nodmgspread","payload","uncletopia"],"game_id":440,"stv_port":27016,"stv_name":"Uncletopia | Chicago | 1 | All Maps | STV","players":[{"user_id":21,"name":"Deadhax","steam_id":76561198296581175,"connected_time":3885000000000,"state":"active","ping":65},{"user_id":22,"name":"Mecha","steam_id":76561198014927379,"connected_time":3606000000000,"state":"active","ping":80},{"user_id":55,"name":"crayonnipple","steam_id":76561198070253331,"connected_time":1918000000000,"state":"active","ping":75},{"user_id":26,"name":"SoundslikeJustice","steam_id":76561198963640645,"connected_time":3137000000000,"state":"active","ping":70},{"user_id":65,"name":"CollDragon","steam_id":76561198067534450,"connected_time":1234000000000,"state":"active","ping":67},{"user_id":70,"name":"StonedGiant","steam_id":76561197984386932,"connected_time":735000000000,"state":"active","ping":57},{"user_id":30,"name":"robotman5","steam_id":76561197996783330,"connected_time":3033000000000,"state":"active","ping":76},{"user_id":67,"name":"AterPan","steam_id":76561199084128806,"connected_time":1038000000000,"state":"active","ping":41},{"user_id":72,"name":"richard clock","steam_id":76561198048455671,"connected_time":639000000000,"state":"active","ping":54},{"user_id":76,"name":"Praise_to_the_Flashlight!","steam_id":76561199001728789,"connected_time":268000000000,"state":"active","ping":59},{"user_id":69,"name":"sevanial","steam_id":76561198071532126,"connected_time":1032000000000,"state":"active","ping":62},{"user_id":59,"name":"recycle","steam_id":76561198819562111,"connected_time":1551000000000,"state":"active","ping":74},{"user_id":37,"name":"Notsocreative","steam_id":76561198236372202,"connected_time":2881000000000,"state":"active","ping":81},{"user_id":50,"name":"scio","steam_id":76561199001930207,"connected_time":2540000000000,"state":"active","ping":78},{"user_id":75,"name":"pipis","steam_id":76561198140971525,"connected_time":348000000000,"state":"active","ping":64},{"user_id":60,"name":"MjrMovnTARGET","steam_id":76561199125908849,"connected_time":1323000000000,"state":"active","ping":77},{"user_id":54,"name":"The one who heals","steam_id":76561199050193731,"connected_time":2044000000000,"state":"active","ping":72},{"user_id":68,"name":"VampWolfDoll (She/Her)","steam_id":76561198102301491,"connected_time":1035000000000,"state":"active","ping":72},{"user_id":78,"name":"pinglefingle","steam_id":76561198216580197,"connected_time":112000000000,"state":"active","ping":81},{"user_id":46,"name":"Kars","steam_id":76561198845612670,"connected_time":2620000000000,"state":"active","ping":77},{"user_id":66,"name":"Lord Scrubling","steam_id":76561198263744445,"connected_time":1216000000000,"state":"active","ping":78},{"user_id":77,"name":"rizzasourus rex sr.","steam_id":76561198927517471,"connected_time":237000000000,"state":"active","ping":82},{"user_id":49,"name":"fnkwgn","steam_id":76561198036884600,"connected_time":2598000000000,"state":"active","ping":67},{"user_id":58,"name":"Castroy","steam_id":76561198108160099,"connected_time":1845000000000,"state":"active","ping":67}]},{"server_id":106,"name":"Uncletopia | Chicago | 2 | All Maps","name_short":"chi-2","host":"chi-1.us.uncletopia.com","port":27025,"enabled":true,"region":"us-central","cc":"us","latitude":41.881832,"longitude":-87.62318,"reserved":0,"last_update":"0001-01-01T00:00:00Z","name_a2s":"Uncletopia | Chicago | 2 | All Maps","protocol":17,"map":"koth_lakeside_final","folder":"tf","game":"Team Fortress","app_id":440,"player_count":19,"max_players":24,"Bots":0,"server_type":"Dedicated","server_os":"Linux","password":true,"vac":true,"version":"7882260","steam_id":85568392924469985,"keywords":["cp","nocrits","nodmgspread","uncletopia"],"game_id":440,"stv_port":27026,"stv_name":"Uncletopia | Chicago | 2 | All Maps | STV","players":[{"user_id":5,"name":"AdorableMew","steam_id":76561198186706405,"connected_time":695000000000,"state":"active","ping":67},{"user_id":6,"name":"magickxanadu","steam_id":76561199117360103,"connected_time":659000000000,"state":"active","ping":71},{"user_id":8,"name":"Admiral Crumbs","steam_id":76561198108791583,"connected_time":218000000000,"state":"active","ping":63},{"user_id":9,"name":"nickr209","steam_id":76561198296561229,"connected_time":217000000000,"state":"active","ping":104},{"user_id":10,"name":"jorjor wells","steam_id":76561199073429082,"connected_time":205000000000,"state":"active","ping":123},{"user_id":11,"name":"furry sucker","steam_id":76561198063970639,"connected_time":204000000000,"state":"active","ping":63},{"user_id":12,"name":"Artemy \"The Haruspex\" Burakh","steam_id":76561198257038275,"connected_time":195000000000,"state":"active","ping":78},{"user_id":13,"name":"Mr. Dick‚Ñ¢","steam_id":76561198047309044,"connected_time":188000000000,"state":"active","ping":62},{"user_id":14,"name":"edin","steam_id":76561198117393097,"connected_time":155000000000,"state":"active","ping":72},{"user_id":15,"name":"blushcolors","steam_id":76561198382326295,"connected_time":147000000000,"state":"active","ping":85},{"user_id":16,"name":"Nassu","steam_id":76561198147367577,"connected_time":113000000000,"state":"active","ping":65},{"user_id":17,"name":"capybara","steam_id":76561198182288455,"connected_time":96000000000,"state":"active","ping":64},{"user_id":18,"name":"-[FF]- Frequency","steam_id":76561199057544355,"connected_time":88000000000,"state":"active","ping":84},{"user_id":19,"name":"chrzƒÖszcz","steam_id":76561198358887237,"connected_time":88000000000,"state":"active","ping":148},{"user_id":20,"name":"CreativeUsername","steam_id":76561198186045503,"connected_time":78000000000,"state":"active","ping":49},{"user_id":21,"name":"SirCleric","steam_id":76561198353556457,"connected_time":46000000000,"state":"active","ping":71},{"user_id":22,"name":"Chaotic Rushu","steam_id":76561198170054407,"connected_time":42000000000,"state":"spawning","ping":88},{"user_id":23,"name":"G-G-G-GAMERSHOT","steam_id":76561198798980951,"connected_time":38000000000,"state":"active","ping":53},{"user_id":24,"name":"Sage Grim","steam_id":76561198089219648,"connected_time":31000000000,"state":"active","ping":96}]},{"server_id":402,"name":"Uncletopia | Chicago | 3 | All Maps","name_short":"chi-3","host":"chi-1.us.uncletopia.com","port":27035,"enabled":true,"region":"us-central","cc":"us","latitude":41.881832,"longitude":-87.62318,"reserved":0,"last_update":"0001-01-01T00:00:00Z","name_a2s":"Uncletopia | Chicago | 3 | All Maps","protocol":17,"map":"koth_cascade","folder":"tf","game":"Team Fortress","app_id":440,"player_count":24,"max_players":24,"Bots":0,"server_type":"Dedicated","server_os":"Linux","password":true,"vac":true,"version":"7882260","steam_id":85568392924515191,"keywords":["cp","nocrits","nodmgspread","uncletopia"],"game_id":440,"stv_port":27036,"stv_name":"Uncletopia | Chicago | 3 | All Maps | STV","players":[{"user_id":178,"name":"Witch Vomit","steam_id":76561198080766921,"connected_time":307000000000,"state":"active","ping":65},{"user_id":127,"name":"weeb_whacker","steam_id":76561198187098041,"connected_time":5217000000000,"state":"active","ping":48},{"user_id":156,"name":"87 iq (tested by mensa.no)","steam_id":76561199476816590,"connected_time":2327000000000,"state":"active","ping":116},{"user_id":171,"name":"sphinxmagoo","steam_id":76561198057001653,"connected_time":1030000000000,"state":"active","ping":70},{"user_id":173,"name":"LargeMollusk221","steam_id":76561198132068284,"connected_time":361000000000,"state":"active","ping":71},{"user_id":170,"name":"raygun RING","steam_id":76561198290269128,"connected_time":1054000000000,"state":"active","ping":95},{"user_id":140,"name":"Mr.Bady","steam_id":76561199094651706,"connected_time":4176000000000,"state":"active","ping":72},{"user_id":174,"name":"pee pee poo poo","steam_id":76561198930017260,"connected_time":348000000000,"state":"active","ping":57},{"user_id":157,"name":"skaska4","steam_id":76561198080606141,"connected_time":2281000000000,"state":"active","ping":74},{"user_id":180,"name":"Squifyz","steam_id":76561199405650048,"connected_time":20000000000,"state":"active","ping":142},{"user_id":175,"name":"YJ","steam_id":76561198315010474,"connected_time":344000000000,"state":"active","ping":65},{"user_id":162,"name":"üÖúüÖîüÖîüÖöüÖ¢üÖ£üÖî\ufffd\ufffd\ufffd","steam_id":76561197999748343,"connected_time":2165000000000,"state":"active","ping":60},{"user_id":166,"name":"THC Freebaser","steam_id":76561198075779863,"connected_time":1622000000000,"state":"active","ping":114},{"user_id":133,"name":"Portal2Player","steam_id":76561198062870114,"connected_time":5117000000000,"state":"active","ping":86},{"user_id":110,"name":"Nic0","steam_id":76561198305690218,"connected_time":7109000000000,"state":"active","ping":62},{"user_id":169,"name":"josh R\u0026M.TF","steam_id":76561198111565081,"connected_time":1059000000000,"state":"active","ping":106},{"user_id":179,"name":"Blue‚õßMelon","steam_id":76561197970926435,"connected_time":115000000000,"state":"active","ping":71},{"user_id":111,"name":"Filthy Acts at Reasonable Price","steam_id":76561198354615890,"connected_time":7102000000000,"state":"active","ping":96},{"user_id":164,"name":"Flowers","steam_id":76561198031669899,"connected_time":2099000000000,"state":"active","ping":88},{"user_id":150,"name":":3","steam_id":76561198237292756,"connected_time":3203000000000,"state":"active","ping":60},{"user_id":177,"name":"Mr.noob","steam_id":76561199200442395,"connected_time":332000000000,"state":"active","ping":172},{"user_id":136,"name":"Apetometrist","steam_id":76561198045391635,"connected_time":5093000000000,"state":"active","ping":56},{"user_id":172,"name":"NeedBetterAim","steam_id":76561199013705323,"connected_time":617000000000,"state":"active","ping":67},{"user_id":121,"name":"Shark","steam_id":76561198219031981,"connected_time":5889000000000,"state":"active","ping":77}]},{"server_id":403,"name":"Uncletopia | Chicago | 4 | All Maps","name_short":"chi-4","host":"chi-1.us.uncletopia.com","port":27045,"enabled":true,"region":"us-central","cc":"us","latitude":41.881832,"longitude":-87.62318,"reserved":0,"last_update":"0001-01-01T00:00:00Z","name_a2s":"Uncletopia | Chicago | 4 | All Maps","protocol":17,"map":"koth_lakeside_final","folder":"tf","game":"Team Fortress","app_id":440,"player_count":0,"max_players":24,"Bots":0,"server_type":"Dedicated","server_os":"Linux","password":true,"vac":true,"version":"7882260","steam_id":85568392924515193,"keywords":["cp","nocrits","nodmgspread","uncletopia"],"game_id":440,"stv_port":27046,"stv_name":"Uncletopia | Chicago | 4 | All Maps | STV","players":null},{"server_id":36,"name":"Uncletopia | Chicago | 5 | All Maps","name_short":"chi-5","host":"chi-2.us.uncletopia.com","port":27015,"enabled":true,"region":"us-central","cc":"us","latitude":41.881832,"longitude":-87.62318,"reserved":0,"last_update":"0001-01-01T00:00:00Z","name_a2s":"Uncletopia | Chicago | 5 | All Maps","protocol":17,"map":"cp_mountainlab","folder":"tf","game":"Team Fortress","app_id":440,"player_count":23,"max_players":24,"Bots":0,"server_type":"Dedicated","server_os":"Linux","password":true,"vac":true,"version":"7882260","steam_id":85568392924866362,"keywords":["cp","nocrits","nodmgspread","uncletopia"],"game_id":440,"stv_port":27016,"stv_name":"Uncletopia | Chicago | 5 | All Maps | STV","players":[{"user_id":105,"name":"Gaskranx","steam_id":76561198020269547,"connected_time":3291000000000,"state":"active","ping":69},{"user_id":106,"name":"Grandma","steam_id":76561198972191319,"connected_time":3288000000000,"state":"active","ping":69},{"user_id":107,"name":"CyberZayne","steam_id":76561198002351356,"connected_time":3266000000000,"state":"active","ping":85},{"user_id":75,"name":"INVEST IN SKYNET::œÑRU œÑAO","steam_id":76561198144436132,"connected_time":5550000000000,"state":"active","ping":80},{"user_id":134,"name":"touka","steam_id":76561198171521806,"connected_time":365000000000,"state":"active","ping":117},{"user_id":118,"name":"ProfessorCagan","steam_id":76561198141372356,"connected_time":1728000000000,"state":"active","ping":52},{"user_id":129,"name":"keffers","steam_id":76561198202338796,"connected_time":1129000000000,"state":"active","ping":75},{"user_id":136,"name":"The Noob Sire","steam_id":76561198119219754,"connected_time":280000000000,"state":"active","ping":86},{"user_id":126,"name":"A Trigger Happy Chipmunk","steam_id":76561198013608736,"connected_time":1380000000000,"state":"active","ping":43},{"user_id":138,"name":"Snozz Core","steam_id":76561198064520262,"connected_time":102000000000,"state":"active","ping":72},{"user_id":117,"name":"PoisonIvy","steam_id":76561198072384574,"connected_time":1761000000000,"state":"active","ping":52},{"user_id":137,"name":"DetL","steam_id":76561198375053315,"connected_time":202000000000,"state":"active","ping":94},{"user_id":112,"name":"Sneaky_Tank","steam_id":76561198078814793,"connected_time":2786000000000,"state":"active","ping":54},{"user_id":135,"name":"garfield","steam_id":76561198114119308,"connected_time":333000000000,"state":"active","ping":60},{"user_id":116,"name":"Petrivus","steam_id":76561198202152453,"connected_time":1845000000000,"state":"active","ping":99},{"user_id":133,"name":"joemoe84g","steam_id":76561199141651280,"connected_time":403000000000,"state":"active","ping":85},{"user_id":124,"name":"RussianVesper","steam_id":76561198263326607,"connected_time":1429000000000,"state":"active","ping":75},{"user_id":101,"name":"LORD CANTI","steam_id":76561198254479725,"connected_time":4068000000000,"state":"active","ping":46},{"user_id":100,"name":"Pasta Enthusiast","steam_id":76561198306393090,"connected_time":4197000000000,"state":"active","ping":51},{"user_id":113,"name":"LilGoBonkers","steam_id":76561198275780924,"connected_time":2630000000000,"state":"active","ping":110},{"user_id":131,"name":"Engineer Gaming","steam_id":76561199386119444,"connected_time":448000000000,"state":"active","ping":87},{"user_id":127,"name":"Mr. Durian","steam_id":76561198093813212,"connected_time":1367000000000,"state":"active","ping":78},{"user_id":128,"name":"feenman","steam_id":76561199383834799,"connected_time":1354000000000,"state":"active","ping":101}]},{"server_id":37,"name":"Uncletopia | Chicago | 6 | All Maps","name_short":"chi-6","host":"chi-2.us.uncletopia.com","port":27025,"enabled":true,"region":"us-central","cc":"us","latitude":41.881832,"longitude":-87.62318,"reserved":0,"last_update":"0001-01-01T00:00:00Z","name_a2s":"Uncletopia | Chicago | 6 | All Maps","protocol":17,"map":"pl_snowycoast","folder":"tf","game":"Team Fortress","app_id":440,"player_count":0,"max_players":24,"Bots":0,"server_type":"Dedicated","server_os":"Linux","password":true,"vac":true,"version":"7882260","steam_id":85568392924866363,"keywords":["nocrits","nodmgspread","payload","uncletopia"],"game_id":440,"stv_port":27026,"stv_name":"Uncletopia | Chicago | 6 | All Maps | STV","players":null},{"server_id":38,"name":"Uncletopia | Chicago | 7 | Stopwatch Beta","name_short":"chi-7","host":"chi-2.us.uncletopia.com","port":27035,"enabled":true,"region":"us-central","cc":"us","latitude":41.881832,"longitude":-87.62318,"reserved":0,"last_update":"0001-01-01T00:00:00Z","name_a2s":"Uncletopia | Chicago | 7 | Stopwatch Beta","protocol":17,"map":"pl_upward","folder":"tf","game":"Team Fortress","app_id":440,"player_count":0,"max_players":24,"Bots":0,"server_type":"Dedicated","server_os":"Linux","password":true,"vac":true,"version":"7882260","steam_id":85568392924866364,"keywords":["nocrits","nodmgspread","payload","uncletopia"],"game_id":440,"stv_port":27036,"stv_name":"Uncletopia | Chicago | 7 | Stopwatch Beta | STV","players":null},{"server_id":39,"name":"Uncletopia | Chicago | 8 | Community","name_short":"chi-8","host":"chi-2.us.uncletopia.com","port":27045,"enabled":true,"region":"us-central","cc":"us","latitude":41.881832,"longitude":-87.62318,"reserved":0,"last_update":"0001-01-01T00:00:00Z","name_a2s":"Uncletopia | Chicago | 8 | Community","protocol":17,"map":"workshop/pl_highwood_b13.ugc1769496557","folder":"tf","game":"Team Fortress","app_id":440,"player_count":0,"max_players":24,"Bots":0,"server_type":"Dedicated","server_os":"Linux","password":true,"vac":true,"version":"7882260","steam_id":85568392924866365,"keywords":["nocrits","nodmgspread","payload","uncletopia"],"game_id":440,"stv_port":27046,"stv_name":"Uncletopia | Chicago | 8 | Community | STV","players":null},{"server_id":8,"name":"Uncletopia | Dallas | 1 | All Maps","name_short":"dal-1","host":"dal-1.us.uncletopia.com","port":27015,"enabled":true,"region":"us-central","cc":"us","latitude":32.779167,"longitude":-96.80889,"reserved":0,"last_update":"0001-01-01T00:00:00Z","name_a2s":"Uncletopia | Dallas | 1 | All Maps","protocol":17,"map":"koth_viaduct","folder":"tf","game":"Team Fortress","app_id":440,"player_count":24,"max_players":24,"Bots":0,"server_type":"Dedicated","server_os":"Linux","password":true,"vac":true,"version":"7882260","steam_id":85568392924469986,"keywords":["cp","nocrits","nodmgspread","uncletopia"],"game_id":440,"stv_port":27016,"stv_name":"Uncletopia | Dallas | 1 | All Maps | STV","players":[{"user_id":297,"name":"Nyany","steam_id":76561198314591517,"connected_time":846000000000,"state":"active","ping":64},{"user_id":296,"name":"Fiestaknight","steam_id":76561198037847385,"connected_time":950000000000,"state":"active","ping":106},{"user_id":268,"name":"Dreamzapp","steam_id":76561199084936632,"connected_time":2687000000000,"state":"active","ping":95},{"user_id":273,"name":"„Åµ„Çè„Åµ„ÇèÊØõÂ∏É","steam_id":76561198088403016,"connected_time":2443000000000,"state":"active","ping":179},{"user_id":293,"name":"Bogey","steam_id":76561198096227944,"connected_time":982000000000,"state":"active","ping":43},{"user_id":289,"name":"tasty","steam_id":76561198083839061,"connected_time":1901000000000,"state":"active","ping":75},{"user_id":247,"name":"Cursed Dog","steam_id":76561198090785078,"connected_time":4370000000000,"state":"active","ping":75},{"user_id":281,"name":"stozzy","steam_id":76561198085809880,"connected_time":2259000000000,"state":"active","ping":82},{"user_id":295,"name":"LEEROY JENKINS","steam_id":76561199070160646,"connected_time":968000000000,"state":"active","ping":116},{"user_id":269,"name":"Waltuh Whitte","steam_id":76561198372798868,"connected_time":2667000000000,"state":"active","ping":101},{"user_id":298,"name":"Bong Water","steam_id":76561198320044243,"connected_time":844000000000,"state":"active","ping":78},{"user_id":275,"name":"JoanitoBananas","steam_id":76561198942953101,"connected_time":2390000000000,"state":"active","ping":63},{"user_id":218,"name":"CadenLCheese","steam_id":76561199105517435,"connected_time":6758000000000,"state":"active","ping":117},{"user_id":286,"name":"RaddaRaddaMan","steam_id":76561198354669477,"connected_time":2054000000000,"state":"active","ping":104},{"user_id":287,"name":"ACBucher","steam_id":76561198799154681,"connected_time":2048000000000,"state":"active","ping":82},{"user_id":299,"name":"FurryPlague","steam_id":76561198824729615,"connected_time":842000000000,"state":"active","ping":79},{"user_id":294,"name":"African Despot","steam_id":76561198169966346,"connected_time":974000000000,"state":"active","ping":108},{"user_id":300,"name":"ray (the based god)","steam_id":76561198311984941,"connected_time":831000000000,"state":"active","ping":77},{"user_id":304,"name":"NOT Susie Deltarune (not real)","steam_id":76561199007365488,"connected_time":73000000000,"state":"active","ping":65},{"user_id":260,"name":"Jezzus","steam_id":76561199289676387,"connected_time":3668000000000,"state":"active","ping":62},{"user_id":278,"name":"AlcoholicDad454","steam_id":76561198157414556,"connected_time":2340000000000,"state":"active","ping":93},{"user_id":283,"name":"a Salty Individual","steam_id":76561197979951077,"connected_time":2236000000000,"state":"active","ping":127},{"user_id":282,"name":"Sushii","steam_id":76561198160962635,"connected_time":2251000000000,"state":"active","ping":165},{"user_id":303,"name":"Drakon","steam_id":76561198078210822,"connected_time":343000000000,"state":"active","ping":90}]},{"server_id":108,"name":"Uncletopia | Dallas | 2 | All Maps","name_short":"dal-2","host":"dal-1.us.uncletopia.com","port":27025,"enabled":true,"region":"us-central","cc":"us","latitude":32.779167,"longitude":-96.80889,"reserved":0,"last_update":"0001-01-01T00:00:00Z","name_a2s":"Uncletopia | Dallas | 2 | All Maps","protocol":17,"map":"pl_swiftwater_final1","folder":"tf","game":"Team Fortress","app_id":440,"player_count":24,"max_players":24,"Bots":0,"server_type":"Dedicated","server_os":"Linux","password":true,"vac":true,"version":"7882260","steam_id":85568392924469988,"keywords":["nocrits","nodmgspread","payload","uncletopia"],"game_id":440,"stv_port":27026,"stv_name":"Uncletopia | Dallas | 2 | All Maps | STV","players":[{"user_id":232,"name":"shovel","steam_id":76561199230107171,"connected_time":1062000000000,"state":"active","ping":60},{"user_id":243,"name":"portal enjoyer","steam_id":76561199230796521,"connected_time":891000000000,"state":"active","ping":99},{"user_id":227,"name":"slowdance","steam_id":76561198097427947,"connected_time":1286000000000,"state":"active","ping":146},{"user_id":246,"name":"plink","steam_id":76561198057829889,"connected_time":188000000000,"state":"active","ping":51},{"user_id":247,"name":"hforce11","steam_id":76561198087647130,"connected_time":149000000000,"state":"active","ping":58},{"user_id":223,"name":"CloraPhoas","steam_id":76561199162750715,"connected_time":1946000000000,"state":"active","ping":72},{"user_id":233,"name":"Erlenmeyer","steam_id":76561199044703828,"connected_time":1052000000000,"state":"active","ping":97},{"user_id":218,"name":"jeremy","steam_id":76561198081332766,"connected_time":2189000000000,"state":"active","ping":71},{"user_id":203,"name":"thermometer mercury drink","steam_id":76561198882713406,"connected_time":3212000000000,"state":"active","ping":175},{"user_id":148,"name":"Toe","steam_id":76561199006989074,"connected_time":7359000000000,"state":"active","ping":71},{"user_id":241,"name":"Protato","steam_id":76561198061182563,"connected_time":946000000000,"state":"active","ping":93},{"user_id":219,"name":"Aviyarn","steam_id":76561199074194652,"connected_time":2178000000000,"state":"active","ping":83},{"user_id":235,"name":"Feesh","steam_id":76561198817024734,"connected_time":1044000000000,"state":"active","ping":71},{"user_id":230,"name":"...","steam_id":76561198312298321,"connected_time":1149000000000,"state":"active","ping":90},{"user_id":123,"name":"Moomin","steam_id":76561198072726213,"connected_time":10062000000000,"state":"active","ping":81},{"user_id":236,"name":"MoiMoi","steam_id":76561198873850038,"connected_time":1007000000000,"state":"active","ping":74},{"user_id":187,"name":"War-thog125","steam_id":76561198139383220,"connected_time":4779000000000,"state":"active","ping":87},{"user_id":237,"name":"Doopity","steam_id":76561198171836357,"connected_time":1006000000000,"state":"active","ping":59},{"user_id":220,"name":"TF3.aflyingmouse","steam_id":76561198058134934,"connected_time":2110000000000,"state":"active","ping":100},{"user_id":238,"name":"paste!","steam_id":76561198085388962,"connected_time":979000000000,"state":"active","ping":74},{"user_id":221,"name":"imp","steam_id":76561198055603569,"connected_time":2093000000000,"state":"active","ping":69},{"user_id":204,"name":"b4rry","steam_id":76561198365887154,"connected_time":3183000000000,"state":"active","ping":93},{"user_id":244,"name":"cup","steam_id":76561198121245586,"connected_time":860000000000,"state":"active","ping":96},{"user_id":240,"name":"‚éæ Ethereal ‚èå","steam_id":76561199385170644,"connected_time":974000000000,"state":"active","ping":75}]},{"server_id":5,"name":"Uncletopia | Frankfurt | 1 | All Maps","name_short":"frk-1","host":"frk-1.de.uncletopia.com","port":27015,"enabled":true,"region":"eu","cc":"de","latitude":50.110924,"longitude":8.682127,"reserved":0,"last_update":"0001-01-01T00:00:00Z","name_a2s":"Uncletopia | Frankfurt | 1 | All Maps","protocol":17,"map":"koth_harvest_final","folder":"tf","game":"Team Fortress","app_id":440,"player_count":21,"max_players":24,"Bots":0,"server_type":"Dedicated","server_os":"Linux","password":true,"vac":true,"version":"7882260","steam_id":85568392924469989,"keywords":["cp","nocrits","nodmgspread","uncletopia"],"game_id":440,"stv_port":27016,"stv_name":"Uncletopia | Frankfurt | 1 | All Maps | STV","players":[{"user_id":505,"name":"Syd","steam_id":76561198020515027,"connected_time":122000000000,"state":"active","ping":76},{"user_id":503,"name":"Michael","steam_id":76561198003146906,"connected_time":248000000000,"state":"active","ping":58},{"user_id":493,"name":"ÍßÅ‡ºíXenon‡ºíÍßÇ","steam_id":76561198120502313,"connected_time":856000000000,"state":"active","ping":88},{"user_id":499,"name":"Sirzen","steam_id":76561198170155434,"connected_time":653000000000,"state":"active","ping":57},{"user_id":506,"name":"AwterSix","steam_id":76561198042561678,"connected_time":101000000000,"state":"active","ping":54},{"user_id":495,"name":"Bella","steam_id":76561198214004331,"connected_time":812000000000,"state":"active","ping":75},{"user_id":449,"name":"Andy","steam_id":76561198046918834,"connected_time":4268000000000,"state":"active","ping":69},{"user_id":488,"name":"Ham","steam_id":76561198248478444,"connected_time":1441000000000,"state":"active","ping":83},{"user_id":492,"name":"Mr.Usean","steam_id":76561198965758724,"connected_time":918000000000,"state":"active","ping":60},{"user_id":507,"name":"Breadman","steam_id":76561198992521922,"connected_time":61000000000,"state":"active","ping":76},{"user_id":508,"name":"Jorji Costava","steam_id":76561198308441483,"connected_time":28000000000,"state":"active","ping":93},{"user_id":509,"name":"76531198198177417","steam_id":76561198086304421,"connected_time":10000000000,"state":"active","ping":90},{"user_id":500,"name":"philippoliverCat","steam_id":76561198877008415,"connected_time":651000000000,"state":"active","ping":67},{"user_id":457,"name":"Buster Bunny","steam_id":76561198113374310,"connected_time":3614000000000,"state":"active","ping":151},{"user_id":467,"name":"Dr Ludwig","steam_id":76561198426522902,"connected_time":3303000000000,"state":"active","ping":67},{"user_id":510,"name":"Penguinaco","steam_id":76561198369797969,"connected_time":7000000000,"state":"active","ping":59},{"user_id":472,"name":"Dio","steam_id":76561198117685434,"connected_time":2820000000000,"state":"active","ping":71},{"user_id":452,"name":"MoistMomMauler","steam_id":76561198069359049,"connected_time":3967000000000,"state":"active","ping":75},{"user_id":501,"name":"froglids","steam_id":76561198045466919,"connected_time":575000000000,"state":"active","ping":68},{"user_id":504,"name":"‚úûüòàprofesonale","steam_id":76561198049924024,"connected_time":140000000000,"state":"active","ping":113},{"user_id":490,"name":"SirSangoor","steam_id":76561198044462559,"connected_time":1326000000000,"state":"active","ping":124}]},{"server_id":110,"name":"Uncletopia | Frankfurt | 2 | All Maps","name_short":"frk-2","host":"frk-1.de.uncletopia.com","port":27025,"enabled":true,"region":"eu","cc":"de","latitude":50.110924,"longitude":8.682127,"reserved":0,"last_update":"0001-01-01T00:00:00Z","name_a2s":"Uncletopia | Frankfurt | 2 | All Maps","protocol":17,"map":"pl_snowycoast","folder":"tf","game":"Team Fortress","app_id":440,"player_count":22,"max_players":24,"Bots":0,"server_type":"Dedicated","server_os":"Linux","password":true,"vac":true,"version":"7882260","steam_id":85568392924469990,"keywords":["nocrits","nodmgspread","payload","uncletopia"],"game_id":440,"stv_port":27026,"stv_name":"Uncletopia | Frankfurt | 2 | All Maps | STV","players":[{"user_id":85,"name":"Kocham Wode z Filtra","steam_id":76561198016042113,"connected_time":2168000000000,"state":"active","ping":74},{"user_id":107,"name":"Brinier","steam_id":76561199012604288,"connected_time":193000000000,"state":"active","ping":55},{"user_id":108,"name":"absalonn","steam_id":76561198850407517,"connected_time":183000000000,"state":"active","ping":115},{"user_id":90,"name":"Katealyst","steam_id":76561198331215039,"connected_time":1533000000000,"state":"active","ping":61},{"user_id":106,"name":"Ziemniaczki z koperkiem","steam_id":76561198829123464,"connected_time":336000000000,"state":"active","ping":81},{"user_id":88,"name":"Sensei","steam_id":76561198383582429,"connected_time":1697000000000,"state":"active","ping":87},{"user_id":102,"name":"maxharmony","steam_id":76561198233819688,"connected_time":968000000000,"state":"active","ping":80},{"user_id":38,"name":"Vonk","steam_id":76561199080400526,"connected_time":4825000000000,"state":"active","ping":69},{"user_id":100,"name":"   „Éá Ô∏ªÍßÅ‡ºíRigby","steam_id":76561198021552128,"connected_time":1012000000000,"state":"active","ping":100},{"user_id":94,"name":"Gryoss","steam_id":76561197999837111,"connected_time":1487000000000,"state":"active","ping":98},{"user_id":84,"name":"?","steam_id":76561198111134021,"connected_time":2312000000000,"state":"active","ping":80},{"user_id":104,"name":"Adib al-asfar","steam_id":76561198095691592,"connected_time":365000000000,"state":"active","ping":57},{"user_id":105,"name":"BLACK MAN FROM JOJO","steam_id":76561198272948471,"connected_time":362000000000,"state":"active","ping":139},{"user_id":60,"name":"Pacyfista Feminista Frutarianin","steam_id":76561198435883762,"connected_time":4182000000000,"state":"active","ping":80},{"user_id":47,"name":"Ixsus\u003c3","steam_id":76561198094756869,"connected_time":4555000000000,"state":"active","ping":51},{"user_id":77,"name":"HerrMyrddin","steam_id":76561198045778215,"connected_time":3063000000000,"state":"active","ping":57},{"user_id":80,"name":"tallen","steam_id":76561198061708595,"connected_time":3033000000000,"state":"active","ping":82},{"user_id":103,"name":"gegit08","steam_id":76561199040010283,"connected_time":493000000000,"state":"active","ping":75},{"user_id":109,"name":"Shovelhalfrusty","steam_id":76561198346447513,"connected_time":126000000000,"state":"active","ping":75},{"user_id":95,"name":"Salih","steam_id":76561198287934839,"connected_time":1484000000000,"state":"active","ping":50},{"user_id":59,"name":"Charged","steam_id":76561199127215130,"connected_time":4231000000000,"state":"active","ping":84},{"user_id":99,"name":"Oculus Caeli","steam_id":76561198204655696,"connected_time":1140000000000,"state":"active","ping":65}]},{"server_id":308,"name":"Uncletopia | Frankfurt | 3 | All Maps","name_short":"frk-3","host":"frk-1.de.uncletopia.com","port":27035,"enabled":true,"region":"eu","cc":"de","latitude":50.110924,"longitude":8.682127,"reserved":0,"last_update":"0001-01-01T00:00:00Z","name_a2s":"Uncletopia | Frankfurt | 3 | All Maps","protocol":17,"map":"cp_mountainlab","folder":"tf","game":"Team Fortress","app_id":440,"player_count":1,"max_players":24,"Bots":0,"server_type":"Dedicated","server_os":"Linux","password":true,"vac":true,"version":"7882260","steam_id":85568392924504274,"keywords":["cp","nocrits","nodmgspread","uncletopia"],"game_id":440,"stv_port":27036,"stv_name":"Uncletopia | Frankfurt | 3 | All Maps | STV","players":[{"user_id":19,"name":"Bruce Wang","steam_id":76561198890409949,"connected_time":8000000000,"state":"spawning","ping":111}]},{"server_id":309,"name":"Uncletopia | Frankfurt | 4 | All Maps","name_short":"frk-4","host":"frk-1.de.uncletopia.com","port":27045,"enabled":true,"region":"eu","cc":"de","latitude":50.110924,"longitude":8.682127,"reserved":0,"last_update":"0001-01-01T00:00:00Z","name_a2s":"Uncletopia | Frankfurt | 4 | All Maps","protocol":17,"map":"koth_lakeside_final","folder":"tf","game":"Team Fortress","app_id":440,"player_count":0,"max_players":24,"Bots":0,"server_type":"Dedicated","server_os":"Linux","password":true,"vac":true,"version":"7882260","steam_id":85568392924504275,"keywords":["cp","nocrits","nodmgspread","uncletopia"],"game_id":440,"stv_port":27046,"stv_name":"Uncletopia | Frankfurt | 4 | All Maps | STV","players":null},{"server_id":310,"name":"Uncletopia | Frankfurt | 5 | All Maps","name_short":"frk-5","host":"frk-1.de.uncletopia.com","port":27055,"enabled":true,"region":"eu","cc":"de","latitude":50.110924,"longitude":8.682127,"reserved":0,"last_update":"0001-01-01T00:00:00Z","name_a2s":"Uncletopia | Frankfurt | 5 | All Maps","protocol":17,"map":"koth_viaduct","folder":"tf","game":"Team Fortress","app_id":440,"player_count":0,"max_players":24,"Bots":0,"server_type":"Dedicated","server_os":"Linux","password":true,"vac":true,"version":"7882260","steam_id":85568392924504277,"keywords":["cp","nocrits","nodmgspread","uncletopia"],"game_id":440,"stv_port":27056,"stv_name":"Uncletopia | Frankfurt | 5 | All Maps | STV","players":null},{"server_id":311,"name":"Uncletopia | Frankfurt | 6 | All Maps","name_short":"frk-6","host":"frk-1.de.uncletopia.com","port":27065,"enabled":true,"region":"eu","cc":"de","latitude":50.110924,"longitude":8.682127,"reserved":0,"last_update":"0001-01-01T00:00:00Z","name_a2s":"Uncletopia | Frankfurt | 6 | All Maps","protocol":17,"map":"pl_borneo","folder":"tf","game":"Team Fortress","app_id":440,"player_count":24,"max_players":24,"Bots":0,"server_type":"Dedicated","server_os":"Linux","password":true,"vac":true,"version":"7882260","steam_id":85568392924504278,"keywords":["nocrits","nodmgspread","payload","uncletopia"],"game_id":440,"stv_port":27066,"stv_name":"Uncletopia | Frankfurt | 6 | All Maps | STV","players":[{"user_id":230,"name":"where do i get replacement bike","steam_id":76561198084597975,"connected_time":3132000000000,"state":"active","ping":60},{"user_id":280,"name":"Pilaarius","steam_id":76561198120273212,"connected_time":331000000000,"state":"active","ping":91},{"user_id":282,"name":"finbar","steam_id":76561198056812396,"connected_time":14000000000,"state":"spawning","ping":88},{"user_id":234,"name":"QR code 78","steam_id":76561198073749509,"connected_time":2719000000000,"state":"active","ping":63},{"user_id":235,"name":"dr.sex","steam_id":76561197992018795,"connected_time":2715000000000,"state":"active","ping":76},{"user_id":189,"name":"Spectral Sloth","steam_id":76561198170083139,"connected_time":6606000000000,"state":"active","ping":78},{"user_id":261,"name":"Lugialf","steam_id":76561198069050794,"connected_time":1186000000000,"state":"active","ping":89},{"user_id":263,"name":"oscar","steam_id":76561198079636127,"connected_time":1034000000000,"state":"active","ping":84},{"user_id":238,"name":"Dimitri_612","steam_id":76561199223984137,"connected_time":2663000000000,"state":"active","ping":47},{"user_id":207,"name":"Master Of Noob","steam_id":76561198217926783,"connected_time":5152000000000,"state":"active","ping":70},{"user_id":257,"name":"Zizman","steam_id":76561198446562910,"connected_time":1433000000000,"state":"active","ping":139},{"user_id":240,"name":"SpaceNut","steam_id":76561198059198302,"connected_time":2635000000000,"state":"active","ping":60},{"user_id":274,"name":"hwyad","steam_id":76561199129942647,"connected_time":620000000000,"state":"active","ping":72},{"user_id":254,"name":"One-Face","steam_id":76561197999384826,"connected_time":1708000000000,"state":"active","ping":50},{"user_id":272,"name":"Zyabrik10","steam_id":76561199090400619,"connected_time":686000000000,"state":"active","ping":694},{"user_id":269,"name":"Cars","steam_id":76561198173329977,"connected_time":855000000000,"state":"active","ping":69},{"user_id":277,"name":"‰Ω†ÂñúÊ¨¢ÂÆÉ?","steam_id":76561198201424726,"connected_time":502000000000,"state":"active","ping":180},{"user_id":281,"name":"a peculiar romanian pig disease","steam_id":76561198013502376,"connected_time":272000000000,"state":"active","ping":65},{"user_id":275,"name":"Mi Manchi","steam_id":76561198171573129,"connected_time":596000000000,"state":"active","ping":57},{"user_id":279,"name":"Bajas","steam_id":76561198179339326,"connected_time":413000000000,"state":"active","ping":86},{"user_id":250,"name":"zee","steam_id":76561197994492154,"connected_time":2494000000000,"state":"active","ping":63},{"user_id":260,"name":"BrotherPotato","steam_id":76561198049948120,"connected_time":1263000000000,"state":"active","ping":76},{"user_id":252,"name":"Samplee","steam_id":76561198063406140,"connected_time":2485000000000,"state":"active","ping":145},{"user_id":259,"name":"Bonca","steam_id":76561198137503531,"connected_time":1327000000000,"state":"active","ping":80}]},{"server_id":23,"name":"Uncletopia | Frankfurt | 7 | Stopwatch Beta","name_short":"frk-7","host":"frk-1.de.uncletopia.com","port":27075,"enabled":true,"region":"eu","cc":"de","latitude":50.110924,"longitude":8.682127,"reserved":0,"last_update":"0001-01-01T00:00:00Z","name_a2s":"Uncletopia | Frankfurt | 7 | Stopwatch Beta","protocol":17,"map":"pl_swiftwater_final1","folder":"tf","game":"Team Fortress","app_id":440,"player_count":0,"max_players":24,"Bots":0,"server_type":"Dedicated","server_os":"Linux","password":true,"vac":true,"version":"7882260","steam_id":85568392924742827,"keywords":["nocrits","nodmgspread","payload","uncletopia"],"game_id":440,"stv_port":27076,"stv_name":"Uncletopia | Frankfurt | 7 | Stopwatch Beta | STV","players":null},{"server_id":24,"name":"Uncletopia | Frankfurt | 8 | Community","name_short":"frk-8","host":"frk-1.de.uncletopia.com","port":27085,"enabled":true,"region":"eu","cc":"de","latitude":50.110924,"longitude":8.682127,"reserved":0,"last_update":"0001-01-01T00:00:00Z","name_a2s":"Uncletopia | Frankfurt | 8 | Community","protocol":17,"map":"workshop/koth_ashville_final.ugc2130459942","folder":"tf","game":"Team Fortress","app_id":440,"player_count":0,"max_players":24,"Bots":0,"server_type":"Dedicated","server_os":"Linux","password":true,"vac":true,"version":"7882260","steam_id":85568392924742828,"keywords":["cp","nocrits","nodmgspread","uncletopia"],"game_id":440,"stv_port":27086,"stv_name":"Uncletopia | Frankfurt | 8 | Community | STV","players":null},{"server_id":202,"name":"Uncletopia | Hong Kong | 1 | All Maps","name_short":"hgk-1","host":"hgk-1.hk.uncletopia.com","port":27015,"enabled":true,"region":"asia","cc":"hk","latitude":22.302711,"longitude":114.177216,"reserved":0,"last_update":"0001-01-01T00:00:00Z","name_a2s":"Uncletopia | Hong Kong | 1 | All Maps","protocol":17,"map":"koth_viaduct","folder":"tf","game":"Team Fortress","app_id":440,"player_count":0,"max_players":24,"Bots":0,"server_type":"Dedicated","server_os":"Linux","password":true,"vac":true,"version":"7882260","steam_id":85568392924494504,"keywords":["cp","nocrits","nodmgspread","uncletopia"],"game_id":440,"stv_port":27016,"stv_name":"Uncletopia | Hong Kong | 1 | All Maps | STV","players":null},{"server_id":1,"name":"Uncletopia | Los Angeles | 1 | All Maps","name_short":"lax-1","host":"lax-1.us.uncletopia.com","port":27015,"enabled":true,"region":"us-west","cc":"us","latitude":33.94279,"longitude":-118.41004,"reserved":0,"last_update":"0001-01-01T00:00:00Z","name_a2s":"Uncletopia | Los Angeles | 1 | All Maps","protocol":17,"map":"koth_cascade","folder":"tf","game":"Team Fortress","app_id":440,"player_count":0,"max_players":24,"Bots":0,"server_type":"Dedicated","server_os":"Linux","password":true,"vac":true,"version":"7882260","steam_id":85568392924469991,"keywords":["cp","nocrits","nodmgspread","uncletopia"],"game_id":440,"stv_port":27016,"stv_name":"Uncletopia | Los Angeles | 1 | All Maps | STV","players":null},{"server_id":112,"name":"Uncletopia | Los Angeles | 2 | All Maps","name_short":"lax-2","host":"lax-1.us.uncletopia.com","port":27025,"enabled":true,"region":"us-west","cc":"us","latitude":33.94279,"longitude":-118.41004,"reserved":0,"last_update":"0001-01-01T00:00:00Z","name_a2s":"Uncletopia | Los Angeles | 2 | All Maps","protocol":17,"map":"cp_altitude","folder":"tf","game":"Team Fortress","app_id":440,"player_count":0,"max_players":24,"Bots":0,"server_type":"Dedicated","server_os":"Linux","password":true,"vac":true,"version":"7882260","steam_id":85568392924469992,"keywords":["cp","nocrits","nodmgspread","uncletopia"],"game_id":440,"stv_port":27026,"stv_name":"Uncletopia | Los Angeles | 2 | All Maps | STV","players":null},{"server_id":324,"name":"Uncletopia | Los Angeles | 3 | All Maps","name_short":"lax-3","host":"lax-1.us.uncletopia.com","port":27035,"enabled":true,"region":"us-west","cc":"us","latitude":33.94279,"longitude":-118.41004,"reserved":0,"last_update":"0001-01-01T00:00:00Z","name_a2s":"Uncletopia | Los Angeles | 3 | All Maps","protocol":17,"map":"pl_swiftwater_final1","folder":"tf","game":"Team Fortress","app_id":440,"player_count":0,"max_players":24,"Bots":0,"server_type":"Dedicated","server_os":"Linux","password":true,"vac":true,"version":"7882260","steam_id":85568392924510198,"keywords":["nocrits","nodmgspread","payload","uncletopia"],"game_id":440,"stv_port":27036,"stv_name":"Uncletopia | Los Angeles | 3 | All Maps | STV","players":null},{"server_id":25,"name":"Uncletopia | Los Angeles | 4 | Stopwatch Beta","name_short":"lax-4","host":"lax-1.us.uncletopia.com","port":27045,"enabled":true,"region":"us-west","cc":"us","latitude":33.94279,"longitude":-118.41004,"reserved":0,"last_update":"0001-01-01T00:00:00Z","name_a2s":"Uncletopia | Los Angeles | 4 | Stopwatch Beta","protocol":17,"map":"koth_viaduct","folder":"tf","game":"Team Fortress","app_id":440,"player_count":0,"max_players":24,"Bots":0,"server_type":"Dedicated","server_os":"Linux","password":true,"vac":true,"version":"7882260","steam_id":85568392924510199,"keywords":["cp","nocrits","nodmgspread","uncletopia"],"game_id":440,"stv_port":27046,"stv_name":"Uncletopia | Los Angeles | 4 | Stopwatch Beta | STV","players":null},{"server_id":11,"name":"Uncletopia | London | 1 | All Maps","name_short":"lon-1","host":"lon-1.uk.uncletopia.com","port":27015,"enabled":true,"region":"eu","cc":"gb","latitude":51.509865,"longitude":-0.118092,"reserved":0,"last_update":"0001-01-01T00:00:00Z","name_a2s":"Uncletopia | London | 1 | All Maps","protocol":17,"map":"koth_harvest_final","folder":"tf","game":"Team Fortress","app_id":440,"player_count":25,"max_players":24,"Bots":0,"server_type":"Dedicated","server_os":"Linux","password":true,"vac":true,"version":"7882260","steam_id":85568392924367362,"keywords":["cp","nocrits","nodmgspread","uncletopia"],"game_id":440,"stv_port":27016,"stv_name":"Uncletopia | London | 1 | All Maps | STV","players":[{"user_id":283,"name":"Sixie","steam_id":76561198251675360,"connected_time":4441000000000,"state":"active","ping":51},{"user_id":355,"name":"JC","steam_id":76561198029213352,"connected_time":280000000000,"state":"active","ping":31},{"user_id":332,"name":"Sorky","steam_id":76561198007502339,"connected_time":1040000000000,"state":"active","ping":72},{"user_id":354,"name":"Engineering since 1941","steam_id":76561198851157897,"connected_time":298000000000,"state":"active","ping":62},{"user_id":359,"name":"TJ1212","steam_id":76561199013575313,"connected_time":45000000000,"state":"active","ping":68},{"user_id":276,"name":"Sipsu","steam_id":76561198059424107,"connected_time":4672000000000,"state":"active","ping":84},{"user_id":226,"name":"Mr. Heavy LFT Premiership","steam_id":76561198080912087,"connected_time":8871000000000,"state":"active","ping":60},{"user_id":325,"name":"Gorzel","steam_id":76561198828273330,"connected_time":1732000000000,"state":"active","ping":77},{"user_id":222,"name":"lyra","steam_id":76561198043601838,"connected_time":8959000000000,"state":"active","ping":74},{"user_id":335,"name":"Ivan the space biker","steam_id":76561199388308203,"connected_time":945000000000,"state":"active","ping":170},{"user_id":318,"name":"British Disapproval","steam_id":76561198001375260,"connected_time":2380000000000,"state":"active","ping":51},{"user_id":334,"name":"Curlew","steam_id":76561198075884540,"connected_time":969000000000,"state":"active","ping":69},{"user_id":339,"name":"Prostate stealer","steam_id":76561198866972538,"connected_time":892000000000,"state":"active","ping":79},{"user_id":349,"name":"gŒ±–≤—î Œ∑œÉ√´‚Ñì","steam_id":76561198067342352,"connected_time":506000000000,"state":"active","ping":60},{"user_id":357,"name":"Pomeczka","steam_id":76561198281666662,"connected_time":64000000000,"state":"active","ping":79},{"user_id":356,"name":"Ô¢º","steam_id":76561198973232202,"connected_time":243000000000,"state":"active","ping":93},{"user_id":350,"name":"quickfast","steam_id":76561199438900919,"connected_time":502000000000,"state":"active","ping":43},{"user_id":343,"name":"Limbless Andr√©","steam_id":76561198077283223,"connected_time":723000000000,"state":"active","ping":85},{"user_id":351,"name":"I hate midgets","steam_id":76561199125982967,"connected_time":481000000000,"state":"active","ping":131},{"user_id":319,"name":"fume.","steam_id":76561197960476801,"connected_time":2215000000000,"state":"active","ping":53},{"user_id":329,"name":"[O\u0026O]YaboiDucki","steam_id":76561198195976589,"connected_time":1277000000000,"state":"active","ping":87},{"user_id":353,"name":"Tarakan usatuy","steam_id":76561199088697437,"connected_time":426000000000,"state":"active","ping":86},{"user_id":275,"name":"e9","steam_id":76561198890193313,"connected_time":4788000000000,"state":"active","ping":61},{"user_id":352,"name":"Jason Gaming","steam_id":76561198215467601,"connected_time":470000000000,"state":"active","ping":138},{"user_id":358,"name":"76531198198177417","steam_id":76561198086304421,"connected_time":55000000000,"state":"connecting","ping":0}]},{"server_id":114,"name":"Uncletopia | London | 2 | All Maps","name_short":"lon-2","host":"lon-1.uk.uncletopia.com","port":27025,"enabled":true,"region":"eu","cc":"gb","latitude":51.509865,"longitude":-0.118092,"reserved":0,"last_update":"0001-01-01T00:00:00Z","name_a2s":"Uncletopia | London | 2 | All Maps","protocol":17,"map":"pl_borneo","folder":"tf","game":"Team Fortress","app_id":440,"player_count":24,"max_players":24,"Bots":0,"server_type":"Dedicated","server_os":"Linux","password":true,"vac":true,"version":"7882260","steam_id":85568392924470941,"keywords":["nocrits","nodmgspread","payload","uncletopia"],"game_id":440,"stv_port":27026,"stv_name":"Uncletopia | London | 2 | All Maps | STV","players":[{"user_id":231,"name":"Margaret Thatcher","steam_id":76561198124463930,"connected_time":7972000000000,"state":"active","ping":37},{"user_id":318,"name":"Akkie.","steam_id":76561198017619091,"connected_time":1050000000000,"state":"active","ping":60},{"user_id":304,"name":"Spurt","steam_id":76561198078523852,"connected_time":1952000000000,"state":"active","ping":51},{"user_id":320,"name":"Woman (Real)","steam_id":76561199151823932,"connected_time":607000000000,"state":"active","ping":89},{"user_id":272,"name":"Pink Cheese","steam_id":76561198972186436,"connected_time":3891000000000,"state":"active","ping":77},{"user_id":269,"name":"frosty","steam_id":76561198094560834,"connected_time":3949000000000,"state":"active","ping":48},{"user_id":253,"name":"Kernel Panic","steam_id":76561198215811047,"connected_time":5784000000000,"state":"active","ping":38},{"user_id":254,"name":"Caliban","steam_id":76561197999696839,"connected_time":5724000000000,"state":"active","ping":120},{"user_id":319,"name":"Hey, I¬¥m Andy!","steam_id":76561198060337777,"connected_time":1004000000000,"state":"active","ping":83},{"user_id":316,"name":"generic alias","steam_id":76561198271607226,"connected_time":1326000000000,"state":"active","ping":95},{"user_id":322,"name":"E¬≤ FTH","steam_id":76561198066287815,"connected_time":292000000000,"state":"active","ping":119},{"user_id":300,"name":"arya sh","steam_id":76561199139537113,"connected_time":2804000000000,"state":"active","ping":165},{"user_id":290,"name":"howabe","steam_id":76561197996486818,"connected_time":3503000000000,"state":"active","ping":64},{"user_id":308,"name":"MoonDroid","steam_id":76561198023027016,"connected_time":1447000000000,"state":"active","ping":45},{"user_id":298,"name":"Krefa12","steam_id":76561198268375393,"connected_time":2871000000000,"state":"active","ping":104},{"user_id":321,"name":"i'm a movement player lois","steam_id":76561198112681438,"connected_time":400000000000,"state":"active","ping":97},{"user_id":252,"name":"reformed i swear","steam_id":76561198152392309,"connected_time":5815000000000,"state":"active","ping":53},{"user_id":317,"name":"Boxtrot","steam_id":76561198026321441,"connected_time":1154000000000,"state":"active","ping":72},{"user_id":242,"name":"Trippy","steam_id":76561199090730294,"connected_time":6698000000000,"state":"active","ping":150},{"user_id":314,"name":"Well, off to hang myself","steam_id":76561198053374944,"connected_time":1379000000000,"state":"active","ping":67},{"user_id":313,"name":"give piss‚Ñ¢ a chance","steam_id":76561198108098760,"connected_time":1405000000000,"state":"active","ping":43},{"user_id":193,"name":"Miss Bari","steam_id":76561198365286092,"connected_time":10202000000000,"state":"active","ping":39},{"user_id":303,"name":"yoursbzt","steam_id":76561198201866574,"connected_time":2357000000000,"state":"active","ping":82},{"user_id":324,"name":"Yuzu","steam_id":76561198121694613,"connected_time":126000000000,"state":"active","ping":47}]},{"server_id":320,"name":"Uncletopia | London | 3 | All Maps","name_short":"lon-3","host":"lon-1.uk.uncletopia.com","port":27035,"enabled":true,"region":"eu","cc":"gb","latitude":51.509865,"longitude":-0.118092,"reserved":0,"last_update":"0001-01-01T00:00:00Z","name_a2s":"Uncletopia | London | 3 | All Maps","protocol":17,"map":"pl_thundermountain","folder":"tf","game":"Team Fortress","app_id":440,"player_count":20,"max_players":24,"Bots":0,"server_type":"Dedicated","server_os":"Linux","password":true,"vac":true,"version":"7882260","steam_id":85568392924510192,"keywords":["nocrits","nodmgspread","payload","uncletopia"],"game_id":440,"stv_port":27036,"stv_name":"Uncletopia | London | 3 | All Maps | STV","players":[{"user_id":701,"name":"Borat","steam_id":76561198122226417,"connected_time":539000000000,"state":"active","ping":36},{"user_id":697,"name":"Rizziologist","steam_id":76561198089003514,"connected_time":1102000000000,"state":"active","ping":47},{"user_id":706,"name":"KorieOne ‚ù£","steam_id":76561197982998663,"connected_time":238000000000,"state":"active","ping":54},{"user_id":652,"name":"Tea","steam_id":76561198799243030,"connected_time":3222000000000,"state":"active","ping":54},{"user_id":696,"name":"KnugenIV","steam_id":76561198127091993,"connected_time":1282000000000,"state":"active","ping":60},{"user_id":708,"name":"mike erhmentraut","steam_id":76561199025378498,"connected_time":80000000000,"state":"active","ping":45},{"user_id":707,"name":"air arrow legacy","steam_id":76561198180361759,"connected_time":84000000000,"state":"active","ping":40},{"user_id":705,"name":"znunney","steam_id":76561199438501613,"connected_time":412000000000,"state":"active","ping":57},{"user_id":684,"name":"useless windows applications","steam_id":76561198410066304,"connected_time":2078000000000,"state":"active","ping":53},{"user_id":709,"name":"IDon'tNeedACoolName","steam_id":76561198013547503,"connected_time":66000000000,"state":"spawning","ping":54},{"user_id":686,"name":"Umbraprism","steam_id":76561197984504910,"connected_time":1953000000000,"state":"active","ping":58},{"user_id":704,"name":"hedon/","steam_id":76561198249832770,"connected_time":452000000000,"state":"active","ping":52},{"user_id":710,"name":"The Legolord","steam_id":76561199101367611,"connected_time":63000000000,"state":"active","ping":146},{"user_id":700,"name":"Dromeka","steam_id":76561198963557200,"connected_time":608000000000,"state":"active","ping":58},{"user_id":712,"name":"Ecin","steam_id":76561198816655769,"connected_time":25000000000,"state":"active","ping":54},{"user_id":599,"name":"Tea Follet","steam_id":76561198852408734,"connected_time":5753000000000,"state":"active","ping":77},{"user_id":698,"name":"Seri","steam_id":76561198017135441,"connected_time":843000000000,"state":"active","ping":55},{"user_id":632,"name":"germinator","steam_id":76561199387893648,"connected_time":4369000000000,"state":"active","ping":101},{"user_id":711,"name":"CAMON ENGELAND","steam_id":76561198054301125,"connected_time":53000000000,"state":"active","ping":86},{"user_id":680,"name":"ford unfocus","steam_id":76561198305748973,"connected_time":2183000000000,"state":"active","ping":76}]},{"server_id":321,"name":"Uncletopia | London | 4 | All Maps","name_short":"lon-4","host":"lon-1.uk.uncletopia.com","port":27045,"enabled":true,"region":"eu","cc":"gb","latitude":51.509865,"longitude":-0.118092,"reserved":0,"last_update":"0001-01-01T00:00:00Z","name_a2s":"Uncletopia | London | 4 | All Maps","protocol":17,"map":"pl_pier","folder":"tf","game":"Team Fortress","app_id":440,"player_count":21,"max_players":24,"Bots":0,"server_type":"Dedicated","server_os":"Linux","password":true,"vac":true,"version":"7882260","steam_id":85568392924510193,"keywords":["nocrits","nodmgspread","payload","uncletopia"],"game_id":440,"stv_port":27046,"stv_name":"Uncletopia | London | 4 | All Maps | STV","players":[{"user_id":115,"name":"schmick h_stt 0","steam_id":76561198039537958,"connected_time":15000000000,"state":"active","ping":44},{"user_id":103,"name":"Xx_EpicGaymer_xX","steam_id":76561198846784757,"connected_time":774000000000,"state":"active","ping":55},{"user_id":116,"name":"DiracDeltaFunction","steam_id":76561199201624841,"connected_time":11000000000,"state":"spawning","ping":107},{"user_id":69,"name":"cream gravy","steam_id":76561198973069177,"connected_time":1643000000000,"state":"active","ping":53},{"user_id":105,"name":"Max Power","steam_id":76561198019269089,"connected_time":758000000000,"state":"active","ping":49},{"user_id":106,"name":"Kestrel","steam_id":76561198144033005,"connected_time":748000000000,"state":"active","ping":49},{"user_id":111,"name":"Cookies and Bakies","steam_id":76561198017442928,"connected_time":448000000000,"state":"active","ping":65},{"user_id":74,"name":"Fish 'n' Chips","steam_id":76561198033476886,"connected_time":1389000000000,"state":"active","ping":47},{"user_id":75,"name":"OkamiSumo","steam_id":76561198271644152,"connected_time":1349000000000,"state":"active","ping":73},{"user_id":76,"name":"GibbusGod","steam_id":76561199232436690,"connected_time":1327000000000,"state":"active","ping":136},{"user_id":99,"name":"Some bub","steam_id":76561199077211138,"connected_time":896000000000,"state":"active","ping":31},{"user_id":107,"name":"Even R√º√ºd","steam_id":76561197981144291,"connected_time":736000000000,"state":"active","ping":62},{"user_id":110,"name":"Doggo","steam_id":76561198245583528,"connected_time":582000000000,"state":"active","ping":60},{"user_id":82,"name":"iokoieon","steam_id":76561198065009070,"connected_time":1182000000000,"state":"active","ping":104},{"user_id":83,"name":"Mitrev","steam_id":76561198157124880,"connected_time":1161000000000,"state":"active","ping":62},{"user_id":86,"name":"Spich","steam_id":76561199017245962,"connected_time":1048000000000,"state":"active","ping":97},{"user_id":87,"name":"Doruk K√º√ß√ºkduman","steam_id":76561198399815628,"connected_time":1045000000000,"state":"active","ping":88},{"user_id":114,"name":"Margaret \"Gamer\" Thatcher","steam_id":76561198819871606,"connected_time":108000000000,"state":"active","ping":104},{"user_id":113,"name":"dotdotdot","steam_id":76561198057628751,"connected_time":202000000000,"state":"active","ping":60},{"user_id":91,"name":"Lucky B.üèÜ","steam_id":76561198077571162,"connected_time":1018000000000,"state":"active","ping":53},{"user_id":97,"name":"Local Shower Shitter","steam_id":76561198084154306,"connected_time":949000000000,"state":"active","ping":160}]},{"server_id":21,"name":"Uncletopia | London | 5 | All Maps","name_short":"lon-5","host":"lon-1.uk.uncletopia.com","port":27055,"enabled":true,"region":"eu","cc":"gb","latitude":51.509865,"longitude":-0.118092,"reserved":0,"last_update":"0001-01-01T00:00:00Z","name_a2s":"Uncletopia | London | 5 | All Maps","protocol":17,"map":"pl_badwater","folder":"tf","game":"Team Fortress","app_id":440,"player_count":23,"max_players":24,"Bots":0,"server_type":"Dedicated","server_os":"Linux","password":true,"vac":true,"version":"7882260","steam_id":85568392924742829,"keywords":["nocrits","nodmgspread","payload","uncletopia"],"game_id":440,"stv_port":27056,"stv_name":"Uncletopia | London | 5 | All Maps | STV","players":[{"user_id":74,"name":"hunte","steam_id":76561198063483484,"connected_time":1489000000000,"state":"active","ping":72},{"user_id":79,"name":"NANI?!?!?!","steam_id":76561198172078559,"connected_time":1231000000000,"state":"active","ping":90},{"user_id":90,"name":"sine","steam_id":76561198012038088,"connected_time":371000000000,"state":"active","ping":146},{"user_id":81,"name":"Noob_Extreme","steam_id":76561198353507507,"connected_time":1136000000000,"state":"active","ping":75},{"user_id":78,"name":"MozPango","steam_id":76561198083556891,"connected_time":1251000000000,"state":"active","ping":76},{"user_id":91,"name":"andrewmcquaid06","steam_id":76561198955746332,"connected_time":171000000000,"state":"active","ping":75},{"user_id":42,"name":"RuneShine","steam_id":76561198007098323,"connected_time":2386000000000,"state":"active","ping":54},{"user_id":47,"name":"mook","steam_id":76561198175543442,"connected_time":1924000000000,"state":"active","ping":72},{"user_id":80,"name":"Bepperman","steam_id":76561198397517828,"connected_time":1157000000000,"state":"active","ping":60},{"user_id":82,"name":"John Noob","steam_id":76561197999170026,"connected_time":1106000000000,"state":"active","ping":77},{"user_id":51,"name":"KingDuckTheGreat","steam_id":76561199013190605,"connected_time":1845000000000,"state":"active","ping":68},{"user_id":84,"name":"Bun","steam_id":76561197989239999,"connected_time":1075000000000,"state":"active","ping":59},{"user_id":53,"name":"BoBunny McGlitter","steam_id":76561198057403817,"connected_time":1831000000000,"state":"active","ping":60},{"user_id":87,"name":"Sammy","steam_id":76561198394233189,"connected_time":701000000000,"state":"active","ping":77},{"user_id":56,"name":"OutOfDucks","steam_id":76561198166376227,"connected_time":1816000000000,"state":"active","ping":56},{"user_id":67,"name":"barker","steam_id":76561198128319767,"connected_time":1744000000000,"state":"active","ping":32},{"user_id":89,"name":"jge","steam_id":76561198123186387,"connected_time":512000000000,"state":"active","ping":74},{"user_id":61,"name":"Fofenho","steam_id":76561198436817109,"connected_time":1794000000000,"state":"active","ping":51},{"user_id":62,"name":"Mike","steam_id":76561198228455736,"connected_time":1778000000000,"state":"active","ping":67},{"user_id":63,"name":"WomenBeardLike","steam_id":76561198390184314,"connected_time":1777000000000,"state":"active","ping":59},{"user_id":69,"name":"Erin in Soup","steam_id":76561198416493306,"connected_time":1700000000000,"state":"active","ping":58},{"user_id":65,"name":"WolfmanCZ","steam_id":76561199157141414,"connected_time":1760000000000,"state":"active","ping":79},{"user_id":66,"name":"Pomson 6000","steam_id":76561198344588858,"connected_time":1758000000000,"state":"active","ping":51}]},{"server_id":22,"name":"Uncletopia | London | 6 | All Maps","name_short":"lon-6","host":"lon-1.uk.uncletopia.com","port":27065,"enabled":true,"region":"eu","cc":"gb","latitude":51.509865,"longitude":-0.118092,"reserved":0,"last_update":"0001-01-01T00:00:00Z","name_a2s":"Uncletopia | London | 6 | All Maps","protocol":17,"map":"cp_dustbowl","folder":"tf","game":"Team Fortress","app_id":440,"player_count":6,"max_players":24,"Bots":0,"server_type":"Dedicated","server_os":"Linux","password":true,"vac":true,"version":"7882260","steam_id":85568392924742830,"keywords":["cp","nocrits","nodmgspread","uncletopia"],"game_id":440,"stv_port":27066,"stv_name":"Uncletopia | London | 6 | All Maps | STV","players":[{"user_id":18,"name":"i can run tf2!","steam_id":76561198219193327,"connected_time":593000000000,"state":"active","ping":78},{"user_id":19,"name":"Penis Gaming","steam_id":76561199198623988,"connected_time":450000000000,"state":"active","ping":67},{"user_id":17,"name":"Dor_atar","steam_id":76561198973980542,"connected_time":1022000000000,"state":"active","ping":85},{"user_id":20,"name":"„ÄéDorarhim„Äè","steam_id":76561198220232352,"connected_time":437000000000,"state":"active","ping":45},{"user_id":23,"name":"Tengen","steam_id":76561199356990346,"connected_time":331000000000,"state":"active","ping":100},{"user_id":22,"name":"Burney","steam_id":76561198055390719,"connected_time":344000000000,"state":"active","ping":45}]},{"server_id":40,"name":"Uncletopia | London | 7 | No Payload","name_short":"lon-7","host":"lon-1.uk.uncletopia.com","port":27075,"enabled":true,"region":"eu","cc":"gb","latitude":51.509865,"longitude":-0.118092,"reserved":0,"last_update":"0001-01-01T00:00:00Z","name_a2s":"Uncletopia | London | 7 | No Payload","protocol":17,"map":"plr_hightower","folder":"tf","game":"Team Fortress","app_id":440,"player_count":2,"max_players":24,"Bots":0,"server_type":"Dedicated","server_os":"Linux","password":true,"vac":true,"version":"7882260","steam_id":85568392924964314,"keywords":["nocrits","nodmgspread","payload","uncletopia"],"game_id":440,"stv_port":27076,"stv_name":"Uncletopia | London | 7 | No Payload | STV","players":[{"user_id":461,"name":"Le bagutte","steam_id":76561198258504847,"connected_time":1513000000000,"state":"active","ping":66},{"user_id":460,"name":"Wubba","steam_id":76561198409725218,"connected_time":1564000000000,"state":"active","ping":41}]},{"server_id":41,"name":"Uncletopia | London | 8 | Community","name_short":"lon-8","host":"lon-1.uk.uncletopia.com","port":27085,"enabled":true,"region":"eu","cc":"gb","latitude":51.509865,"longitude":-0.118092,"reserved":0,"last_update":"0001-01-01T00:00:00Z","name_a2s":"Uncletopia | London | 8 | Community","protocol":17,"map":"workshop/cp_overgrown_rc7b.ugc503939302","folder":"tf","game":"Team Fortress","app_id":440,"player_count":2,"max_players":24,"Bots":0,"server_type":"Dedicated","server_os":"Linux","password":true,"vac":true,"version":"7882260","steam_id":85568392924964315,"keywords":["cp","nocrits","nodmgspread","uncletopia"],"game_id":440,"stv_port":27086,"stv_name":"Uncletopia | London | 8 | Community | STV","players":[{"user_id":25,"name":"Kiz","steam_id":76561198811732820,"connected_time":830000000000,"state":"active","ping":62},{"user_id":26,"name":"DicyPicky","steam_id":76561198078873335,"connected_time":826000000000,"state":"active","ping":60}]},{"server_id":300,"name":"Uncletopia | Montr√©al | 1 | All Maps","name_short":"mtl-1","host":"mtl-1.ca.uncletopia.com","port":27015,"enabled":true,"region":"us-east","cc":"ca","latitude":45.50889,"longitude":-73.56167,"reserved":0,"last_update":"0001-01-01T00:00:00Z","name_a2s":"Uncletopia | Montr√©al | 1 | All Maps","protocol":17,"map":"pl_pier","folder":"tf","game":"Team Fortress","app_id":440,"player_count":0,"max_players":24,"Bots":0,"server_type":"Dedicated","server_os":"Linux","password":true,"vac":true,"version":"7882260","steam_id":85568392924500087,"keywords":["nocrits","nodmgspread","payload","uncletopia"],"game_id":440,"stv_port":27016,"stv_name":"Uncletopia | Montr√©al | 1 | All Maps | STV","players":null},{"server_id":301,"name":"Uncletopia | Montr√©al | 2 | All Maps","name_short":"mtl-2","host":"mtl-1.ca.uncletopia.com","port":27025,"enabled":true,"region":"us-east","cc":"ca","latitude":45.50889,"longitude":-73.56167,"reserved":0,"last_update":"0001-01-01T00:00:00Z","name_a2s":"Uncletopia | Montr√©al | 2 | All Maps","protocol":17,"map":"pl_swiftwater_final1","folder":"tf","game":"Team Fortress","app_id":440,"player_count":0,"max_players":24,"Bots":0,"server_type":"Dedicated","server_os":"Linux","password":true,"vac":true,"version":"7882260","steam_id":85568392924500088,"keywords":["nocrits","nodmgspread","payload","uncletopia"],"game_id":440,"stv_port":27026,"stv_name":"Uncletopia | Montr√©al | 2 | All Maps | STV","players":null},{"server_id":302,"name":"Uncletopia | Montr√©al | 3 | All Maps","name_short":"mtl-3","host":"mtl-1.ca.uncletopia.com","port":27035,"enabled":true,"region":"us-east","cc":"ca","latitude":45.50889,"longitude":-73.56167,"reserved":0,"last_update":"0001-01-01T00:00:00Z","name_a2s":"Uncletopia | Montr√©al | 3 | All Maps","protocol":17,"map":"koth_highpass","folder":"tf","game":"Team Fortress","app_id":440,"player_count":6,"max_players":24,"Bots":0,"server_type":"Dedicated","server_os":"Linux","password":true,"vac":true,"version":"7882260","steam_id":85568392924500089,"keywords":["cp","nocrits","nodmgspread","uncletopia"],"game_id":440,"stv_port":27036,"stv_name":"Uncletopia | Montr√©al | 3 | All Maps | STV","players":[{"user_id":4,"name":"MiTTaliTi","steam_id":76561199472089992,"connected_time":1222000000000,"state":"active","ping":186},{"user_id":5,"name":"Darius","steam_id":76561199084179933,"connected_time":1207000000000,"state":"active","ping":187},{"user_id":6,"name":"semillams cuenta","steam_id":76561199223089296,"connected_time":447000000000,"state":"active","ping":163},{"user_id":7,"name":"RileyNiko","steam_id":76561198162093639,"connected_time":372000000000,"state":"active","ping":73},{"user_id":8,"name":"Dennis The Dark Lord","steam_id":76561198259260405,"connected_time":355000000000,"state":"active","ping":71},{"user_id":10,"name":"the king of the bus","steam_id":76561198830026220,"connected_time":86000000000,"state":"active","ping":45}]},{"server_id":303,"name":"Uncletopia | Montr√©al | 4 | No Payload","name_short":"mtl-4","host":"mtl-1.ca.uncletopia.com","port":27045,"enabled":true,"region":"us-east","cc":"ca","latitude":45.50889,"longitude":-73.56167,"reserved":0,"last_update":"0001-01-01T00:00:00Z","name_a2s":"Uncletopia | Montr√©al | 4 | No Payload","protocol":17,"map":"koth_highpass","folder":"tf","game":"Team Fortress","app_id":440,"player_count":0,"max_players":24,"Bots":0,"server_type":"Dedicated","server_os":"Linux","password":true,"vac":true,"version":"7882260","steam_id":85568392924500090,"keywords":["cp","nocrits","nodmgspread","uncletopia"],"game_id":440,"stv_port":27046,"stv_name":"Uncletopia | Montr√©al | 4 | No Payload | STV","players":null},{"server_id":13,"name":"Uncletopia | New York City | 1 | All Maps","name_short":"nyc-1","host":"nyc-1.us.uncletopia.com","port":27015,"enabled":true,"region":"us-east","cc":"us","latitude":40.73061,"longitude":-73.93524,"reserved":0,"last_update":"0001-01-01T00:00:00Z","name_a2s":"Uncletopia | New York City | 1 | All Maps","protocol":17,"map":"pl_barnblitz","folder":"tf","game":"Team Fortress","app_id":440,"player_count":24,"max_players":24,"Bots":0,"server_type":"Dedicated","server_os":"Linux","password":true,"vac":true,"version":"7882260","steam_id":85568392924469993,"keywords":["nocrits","nodmgspread","payload","uncletopia"],"game_id":440,"stv_port":27016,"stv_name":"Uncletopia | New York City | 1 | All Maps | STV","players":[{"user_id":190,"name":"Dr. drippenstein","steam_id":76561198209380493,"connected_time":3333000000000,"state":"active","ping":36},{"user_id":214,"name":"Lemony Lilly (She/Her)","steam_id":76561198042479066,"connected_time":1576000000000,"state":"active","ping":79},{"user_id":213,"name":"Orange Triangle","steam_id":76561198320498182,"connected_time":1695000000000,"state":"active","ping":76},{"user_id":205,"name":"Indigolake","steam_id":76561198202215807,"connected_time":2479000000000,"state":"active","ping":70},{"user_id":211,"name":"Stryder","steam_id":76561199387418697,"connected_time":1755000000000,"state":"active","ping":107},{"user_id":120,"name":"Totally not CIA","steam_id":76561198237827742,"connected_time":9524000000000,"state":"active","ping":48},{"user_id":173,"name":"YoshaBoss","steam_id":76561198449656454,"connected_time":5124000000000,"state":"active","ping":46},{"user_id":110,"name":"JD","steam_id":76561198202669250,"connected_time":10185000000000,"state":"active","ping":70},{"user_id":185,"name":"cass","steam_id":76561198074502046,"connected_time":3909000000000,"state":"active","ping":120},{"user_id":114,"name":"MellowBoy-2354","steam_id":76561199080630632,"connected_time":9790000000000,"state":"active","ping":91},{"user_id":196,"name":"emseaeye","steam_id":76561198161499803,"connected_time":2638000000000,"state":"active","ping":61},{"user_id":128,"name":"meth ape","steam_id":76561199110579692,"connected_time":8591000000000,"state":"active","ping":69},{"user_id":182,"name":"PyroEagle","steam_id":76561198296434231,"connected_time":4286000000000,"state":"active","ping":88},{"user_id":221,"name":"Good Seed","steam_id":76561198013443319,"connected_time":687000000000,"state":"active","ping":55},{"user_id":160,"name":"Ranger Plague","steam_id":76561198174647666,"connected_time":6066000000000,"state":"active","ping":97},{"user_id":224,"name":"greenV","steam_id":76561199261615711,"connected_time":381000000000,"state":"active","ping":67},{"user_id":209,"name":"TheLonliestThelonius","steam_id":76561198097657243,"connected_time":1820000000000,"state":"active","ping":84},{"user_id":206,"name":"T9 Raincool","steam_id":76561198042953645,"connected_time":2234000000000,"state":"active","ping":58},{"user_id":183,"name":"Bunnyboy","steam_id":76561198298416058,"connected_time":3960000000000,"state":"active","ping":77},{"user_id":222,"name":"zrsp1","steam_id":76561199030845505,"connected_time":655000000000,"state":"active","ping":69},{"user_id":189,"name":"Bother","steam_id":76561198336750909,"connected_time":3518000000000,"state":"active","ping":43},{"user_id":216,"name":"lost in spaaaaace","steam_id":76561199085974120,"connected_time":1300000000000,"state":"active","ping":59},{"user_id":215,"name":"Likeia #Savetf2","steam_id":76561198005214207,"connected_time":1512000000000,"state":"active","ping":59},{"user_id":195,"name":"Ripley","steam_id":76561198080766916,"connected_time":2663000000000,"state":"active","ping":62}]},{"server_id":14,"name":"Uncletopia | New York City | 2 | All Maps","name_short":"nyc-2","host":"nyc-1.us.uncletopia.com","port":27025,"enabled":true,"region":"us-east","cc":"us","latitude":40.73061,"longitude":-73.93524,"reserved":0,"last_update":"0001-01-01T00:00:00Z","name_a2s":"Uncletopia | New York City | 2 | All Maps","protocol":17,"map":"koth_lakeside_final","folder":"tf","game":"Team Fortress","app_id":440,"player_count":0,"max_players":24,"Bots":0,"server_type":"Dedicated","server_os":"Linux","password":true,"vac":true,"version":"7882260","steam_id":85568392924469994,"keywords":["cp","nocrits","nodmgspread","uncletopia"],"game_id":440,"stv_port":27026,"stv_name":"Uncletopia | New York City | 2 | All Maps | STV","players":null},{"server_id":15,"name":"Uncletopia | New York City | 3 | Stopwatch Beta","name_short":"nyc-3","host":"nyc-1.us.uncletopia.com","port":27035,"enabled":true,"region":"us-east","cc":"us","latitude":40.73061,"longitude":-73.93524,"reserved":0,"last_update":"0001-01-01T00:00:00Z","name_a2s":"Uncletopia | New York City | 3 | Stopwatch Beta","protocol":17,"map":"pl_borneo","folder":"tf","game":"Team Fortress","app_id":440,"player_count":0,"max_players":24,"Bots":0,"server_type":"Dedicated","server_os":"Linux","password":true,"vac":true,"version":"7882260","steam_id":85568392924742820,"keywords":["nocrits","nodmgspread","payload","uncletopia"],"game_id":440,"stv_port":27036,"stv_name":"Uncletopia | New York City | 3 | Stopwatch Beta | STV","players":null},{"server_id":16,"name":"Uncletopia | New York City | 4 | Community","name_short":"nyc-4","host":"nyc-1.us.uncletopia.com","port":27045,"enabled":true,"region":"us-east","cc":"us","latitude":40.73061,"longitude":-73.93524,"reserved":0,"last_update":"0001-01-01T00:00:00Z","name_a2s":"Uncletopia | New York City | 4 | Community","protocol":17,"map":"cp_altitude","folder":"tf","game":"Team Fortress","app_id":440,"player_count":0,"max_players":24,"Bots":0,"server_type":"Dedicated","server_os":"Linux","password":true,"vac":true,"version":"7882260","steam_id":85568392924742821,"keywords":["cp","nocrits","nodmgspread","uncletopia"],"game_id":440,"stv_port":27046,"stv_name":"Uncletopia | New York City | 4 | Community | STV","players":null},{"server_id":142,"name":"Uncletopia | S√£o Paulo | 1 | All Maps","name_short":"sao-1","host":"sao-1.br.uncletopia.com","port":27015,"enabled":true,"region":"sa","cc":"br","latitude":-23.533773,"longitude":-46.62529,"reserved":0,"last_update":"0001-01-01T00:00:00Z","name_a2s":"Uncletopia | S√£o Paulo | 1 | All Maps","protocol":17,"map":"koth_highpass","folder":"tf","game":"Team Fortress","app_id":440,"player_count":0,"max_players":24,"Bots":0,"server_type":"Dedicated","server_os":"Linux","password":true,"vac":true,"version":"7882260","steam_id":85568392924469996,"keywords":["cp","nocrits","nodmgspread","uncletopia"],"game_id":440,"stv_port":27016,"stv_name":"Uncletopia | S√£o Paulo | 1 | All Maps | STV","players":null},{"server_id":143,"name":"Uncletopia | S√£o Paulo | 2 | All Maps","name_short":"sao-2","host":"sao-2.br.uncletopia.com","port":27015,"enabled":true,"region":"sa","cc":"br","latitude":-23.533773,"longitude":-46.62529,"reserved":0,"last_update":"0001-01-01T00:00:00Z","name_a2s":"Uncletopia | S√£o Paulo | 2 | All Maps","protocol":17,"map":"koth_viaduct","folder":"tf","game":"Team Fortress","app_id":440,"player_count":10,"max_players":24,"Bots":0,"server_type":"Dedicated","server_os":"Linux","password":true,"vac":true,"version":"7882260","steam_id":85568392924485349,"keywords":["cp","nocrits","nodmgspread","uncletopia"],"game_id":440,"stv_port":27016,"stv_name":"Uncletopia | S√£o Paulo | 2 | All Maps | STV","players":[{"user_id":37,"name":"jogosdovitebas","steam_id":76561199122307638,"connected_time":3836000000000,"state":"active","ping":60},{"user_id":56,"name":"family guy","steam_id":76561199087663959,"connected_time":1070000000000,"state":"active","ping":47},{"user_id":32,"name":"Edge prince (a F2P)","steam_id":76561199076658868,"connected_time":4197000000000,"state":"active","ping":178},{"user_id":10,"name":"Regal ancestor spirit","steam_id":76561199369619865,"connected_time":8469000000000,"state":"active","ping":68},{"user_id":65,"name":"MaximumEffortX5","steam_id":76561199478262054,"connected_time":254000000000,"state":"active","ping":190},{"user_id":51,"name":"Family board night","steam_id":76561199440578631,"connected_time":1565000000000,"state":"active","ping":220},{"user_id":66,"name":"El Guas√≥n","steam_id":76561198129640271,"connected_time":249000000000,"state":"active","ping":66},{"user_id":39,"name":"Heavy's sandwicheria","steam_id":76561199434489438,"connected_time":3476000000000,"state":"active","ping":72},{"user_id":61,"name":"Alice Heartshine","steam_id":76561198308562212,"connected_time":602000000000,"state":"active","ping":98},{"user_id":62,"name":"suicide in fragments","steam_id":76561198071430182,"connected_time":572000000000,"state":"active","ping":193}]},{"server_id":7,"name":"Uncletopia | Seattle | 1 | All Maps","name_short":"sea-1","host":"sea-1.us.uncletopia.com","port":27015,"enabled":true,"region":"us-west","cc":"us","latitude":47.608013,"longitude":-122.33517,"reserved":0,"last_update":"0001-01-01T00:00:00Z","name_a2s":"Uncletopia | Seattle | 1 | All Maps","protocol":17,"map":"pl_snowycoast","folder":"tf","game":"Team Fortress","app_id":440,"player_count":24,"max_players":24,"Bots":0,"server_type":"Dedicated","server_os":"Linux","password":true,"vac":true,"version":"7882260","steam_id":85568392924469997,"keywords":["nocrits","nodmgspread","payload","uncletopia"],"game_id":440,"stv_port":27016,"stv_name":"Uncletopia | Seattle | 1 | All Maps | STV","players":[{"user_id":309,"name":"Doopa48","steam_id":76561199181633300,"connected_time":602000000000,"state":"active","ping":119},{"user_id":290,"name":"Sir_DankToast","steam_id":76561198385093022,"connected_time":1693000000000,"state":"active","ping":81},{"user_id":301,"name":"yeehaw","steam_id":76561198020475089,"connected_time":768000000000,"state":"active","ping":45},{"user_id":316,"name":"Corzap","steam_id":76561198086030373,"connected_time":153000000000,"state":"active","ping":55},{"user_id":314,"name":"Bishuhp","steam_id":76561198015062850,"connected_time":340000000000,"state":"active","ping":55},{"user_id":315,"name":"Loashes","steam_id":76561198119608299,"connected_time":328000000000,"state":"active","ping":109},{"user_id":281,"name":"Lesbian Futa Mommy","steam_id":76561198130479030,"connected_time":2277000000000,"state":"active","ping":52},{"user_id":251,"name":"Cave Creeper","steam_id":76561198090419068,"connected_time":3907000000000,"state":"active","ping":65},{"user_id":317,"name":"Definitely Not A Cat","steam_id":76561198123464621,"connected_time":78000000000,"state":"active","ping":116},{"user_id":308,"name":"BUFF THE SCORCH SHOT","steam_id":76561198042899484,"connected_time":642000000000,"state":"active","ping":60},{"user_id":284,"name":"SilverMango","steam_id":76561198091243252,"connected_time":2034000000000,"state":"active","ping":86},{"user_id":226,"name":"lox","steam_id":76561198288531493,"connected_time":5139000000000,"state":"active","ping":59},{"user_id":318,"name":"Sunshine","steam_id":76561198885528098,"connected_time":39000000000,"state":"active","ping":120},{"user_id":293,"name":"Lucile","steam_id":76561198041889138,"connected_time":1388000000000,"state":"active","ping":80},{"user_id":294,"name":"Zebulon","steam_id":76561198025719753,"connected_time":1293000000000,"state":"active","ping":42},{"user_id":310,"name":"Evenaris","steam_id":76561198087544319,"connected_time":538000000000,"state":"active","ping":75},{"user_id":274,"name":"EggPencil","steam_id":76561198043633284,"connected_time":2638000000000,"state":"active","ping":89},{"user_id":319,"name":"Bluedemon","steam_id":76561199212058684,"connected_time":13000000000,"state":"spawning","ping":75},{"user_id":313,"name":"Scorpianswag","steam_id":76561198260651036,"connected_time":381000000000,"state":"active","ping":60},{"user_id":302,"name":"Some Genius","steam_id":76561198101868089,"connected_time":756000000000,"state":"active","ping":68},{"user_id":219,"name":"CryshireWithAK","steam_id":76561198857908089,"connected_time":6204000000000,"state":"active","ping":128},{"user_id":312,"name":"Sillier-NA","steam_id":76561198112171949,"connected_time":506000000000,"state":"active","ping":134},{"user_id":307,"name":"Wingman","steam_id":76561198066270405,"connected_time":666000000000,"state":"active","ping":68},{"user_id":228,"name":"Google","steam_id":76561198857237473,"connected_time":4962000000000,"state":"active","ping":45}]},{"server_id":119,"name":"Uncletopia | Seattle | 2 | All Maps","name_short":"sea-2","host":"sea-1.us.uncletopia.com","port":27025,"enabled":true,"region":"us-west","cc":"us","latitude":47.608013,"longitude":-122.33517,"reserved":0,"last_update":"0001-01-01T00:00:00Z","name_a2s":"Uncletopia | Seattle | 2 | All Maps","protocol":17,"map":"pl_frontier_final","folder":"tf","game":"Team Fortress","app_id":440,"player_count":23,"max_players":24,"Bots":0,"server_type":"Dedicated","server_os":"Linux","password":true,"vac":true,"version":"7882260","steam_id":85568392924469998,"keywords":["nocrits","nodmgspread","payload","uncletopia"],"game_id":440,"stv_port":27026,"stv_name":"Uncletopia | Seattle | 2 | All Maps | STV","players":[{"user_id":62,"name":"Conehead Pizza man","steam_id":76561198062223540,"connected_time":1029000000000,"state":"active","ping":132},{"user_id":66,"name":"bengineer","steam_id":76561198171912174,"connected_time":733000000000,"state":"active","ping":46},{"user_id":50,"name":"Strikerbolt","steam_id":76561199095622897,"connected_time":3000000000000,"state":"active","ping":76},{"user_id":27,"name":"RadicalE","steam_id":76561197990528639,"connected_time":3727000000000,"state":"active","ping":71},{"user_id":89,"name":"Noxitril_Enjoyer","steam_id":76561198870649125,"connected_time":322000000000,"state":"active","ping":98},{"user_id":91,"name":"Mr. Computer","steam_id":76561198136878831,"connected_time":27000000000,"state":"spawning","ping":70},{"user_id":90,"name":"hellfighter6666","steam_id":76561198057944237,"connected_time":230000000000,"state":"active","ping":105},{"user_id":80,"name":"TheOdds","steam_id":76561198867256650,"connected_time":545000000000,"state":"active","ping":118},{"user_id":76,"name":"dog","steam_id":76561198090737207,"connected_time":618000000000,"state":"active","ping":42},{"user_id":71,"name":"kiv","steam_id":76561198838223023,"connected_time":680000000000,"state":"active","ping":102},{"user_id":51,"name":"Nibotshooter","steam_id":76561199284825579,"connected_time":2082000000000,"state":"active","ping":80},{"user_id":26,"name":"Belmore","steam_id":76561198009355231,"connected_time":3745000000000,"state":"active","ping":82},{"user_id":55,"name":"Jolly","steam_id":76561198116357972,"connected_time":1929000000000,"state":"active","ping":67},{"user_id":86,"name":"Phyyrin","steam_id":76561198154532657,"connected_time":403000000000,"state":"active","ping":69},{"user_id":29,"name":"BoX_hEaD101","steam_id":76561198200875467,"connected_time":3687000000000,"state":"active","ping":92},{"user_id":30,"name":"‡ºò ‚ãÜÀöüéßCaffeine‚òï*Àñ¬∞","steam_id":76561199259309294,"connected_time":3631000000000,"state":"active","ping":120},{"user_id":31,"name":"McLovin","steam_id":76561198114934503,"connected_time":3604000000000,"state":"active","ping":54},{"user_id":56,"name":"SYMBOL_YT","steam_id":76561198848655517,"connected_time":1877000000000,"state":"active","ping":62},{"user_id":35,"name":"swaglord1738420litty","steam_id":76561198062870880,"connected_time":3487000000000,"state":"active","ping":64},{"user_id":57,"name":"shadow wizard money gang","steam_id":76561198418414338,"connected_time":1869000000000,"state":"active","ping":114},{"user_id":58,"name":"salad","steam_id":76561198022225618,"connected_time":1849000000000,"state":"active","ping":71},{"user_id":72,"name":"Mei Hatsume","steam_id":76561198110243186,"connected_time":660000000000,"state":"active","ping":107},{"user_id":53,"name":"T√ºCold","steam_id":76561198111278197,"connected_time":2076000000000,"state":"active","ping":59}]},{"server_id":406,"name":"Uncletopia | Seattle | 3 | Stopwatch Beta","name_short":"sea-3","host":"sea-1.us.uncletopia.com","port":27035,"enabled":true,"region":"us-west","cc":"us","latitude":47.608013,"longitude":-122.33517,"reserved":0,"last_update":"0001-01-01T00:00:00Z","name_a2s":"Uncletopia | Seattle | 3 | Stopwatch Beta","protocol":17,"map":"koth_viaduct","folder":"tf","game":"Team Fortress","app_id":440,"player_count":0,"max_players":24,"Bots":0,"server_type":"Dedicated","server_os":"Linux","password":true,"vac":true,"version":"7882260","steam_id":85568392924515217,"keywords":["cp","nocrits","nodmgspread","uncletopia"],"game_id":440,"stv_port":27036,"stv_name":"Uncletopia | Seattle | 3 | Stopwatch Beta | STV","players":null},{"server_id":17,"name":"Uncletopia | San Francisco | 1 | All Maps","name_short":"sfo-1","host":"sfo-1.us.uncletopia.com","port":27015,"enabled":true,"region":"us-west","cc":"us","latitude":37.77397,"longitude":-122.4313,"reserved":0,"last_update":"0001-01-01T00:00:00Z","name_a2s":"Uncletopia | San Francisco | 1 | All Maps","protocol":17,"map":"koth_cascade","folder":"tf","game":"Team Fortress","app_id":440,"player_count":0,"max_players":24,"Bots":0,"server_type":"Dedicated","server_os":"Linux","password":true,"vac":true,"version":"7882260","steam_id":85568392924469999,"keywords":["cp","nocrits","nodmgspread","uncletopia"],"game_id":440,"stv_port":27016,"stv_name":"Uncletopia | San Francisco | 1 | All Maps | STV","players":null},{"server_id":18,"name":"Uncletopia | San Francisco | 2 | All Maps","name_short":"sfo-2","host":"sfo-1.us.uncletopia.com","port":27025,"enabled":true,"region":"us-west","cc":"us","latitude":37.77397,"longitude":-122.4313,"reserved":0,"last_update":"0001-01-01T00:00:00Z","name_a2s":"Uncletopia | San Francisco | 2 | All Maps","protocol":17,"map":"pl_frontier_final","folder":"tf","game":"Team Fortress","app_id":440,"player_count":0,"max_players":24,"Bots":0,"server_type":"Dedicated","server_os":"Linux","password":true,"vac":true,"version":"7882260","steam_id":85568392924470000,"keywords":["nocrits","nodmgspread","payload","uncletopia"],"game_id":440,"stv_port":27026,"stv_name":"Uncletopia | San Francisco | 2 | All Maps | STV","players":null},{"server_id":19,"name":"Uncletopia | San Francisco | 3 | Stopwatch Beta","name_short":"sfo-3","host":"sfo-1.us.uncletopia.com","port":27035,"enabled":true,"region":"us-west","cc":"us","latitude":37.77397,"longitude":-122.4313,"reserved":0,"last_update":"0001-01-01T00:00:00Z","name_a2s":"Uncletopia | San Francisco | 3 | Stopwatch Beta","protocol":17,"map":"pl_snowycoast","folder":"tf","game":"Team Fortress","app_id":440,"player_count":0,"max_players":24,"Bots":0,"server_type":"Dedicated","server_os":"Linux","password":true,"vac":true,"version":"7882260","steam_id":85568392924742824,"keywords":["nocrits","nodmgspread","payload","uncletopia"],"game_id":440,"stv_port":27036,"stv_name":"Uncletopia | San Francisco | 3 | Stopwatch Beta | STV","players":null},{"server_id":20,"name":"Uncletopia | San Francisco | 4 | Community","name_short":"sfo-4","host":"sfo-1.us.uncletopia.com","port":27045,"enabled":true,"region":"us-west","cc":"us","latitude":37.77397,"longitude":-122.4313,"reserved":0,"last_update":"0001-01-01T00:00:00Z","name_a2s":"Uncletopia | San Francisco | 4 | Community","protocol":17,"map":"workshop/rd_asteroid_redux_b1.ugc2154902912","folder":"tf","game":"Team Fortress","app_id":440,"player_count":0,"max_players":24,"Bots":0,"server_type":"Dedicated","server_os":"Linux","password":true,"vac":true,"version":"7882260","steam_id":85568392924742826,"keywords":["beta","nocrits","nodmgspread","rd","uncletopia"],"game_id":440,"stv_port":27046,"stv_name":"Uncletopia | San Francisco | 4 | Community | STV","players":null},{"server_id":141,"name":"Uncletopia | Sydney | 1 | All Maps","name_short":"syd-1","host":"syd-1.au.uncletopia.com","port":27015,"enabled":true,"region":"au","cc":"au","latitude":-33.865143,"longitude":151.2099,"reserved":0,"last_update":"0001-01-01T00:00:00Z","name_a2s":"Uncletopia | Sydney | 1 | All Maps","protocol":17,"map":"cp_altitude","folder":"tf","game":"Team Fortress","app_id":440,"player_count":0,"max_players":24,"Bots":0,"server_type":"Dedicated","server_os":"Linux","password":true,"vac":true,"version":"7882260","steam_id":85568392924470001,"keywords":["cp","nocrits","nodmgspread","uncletopia"],"game_id":440,"stv_port":27016,"stv_name":"Uncletopia | Sydney | 1 | All Maps | STV","players":null},{"server_id":123,"name":"Uncletopia | Sydney | 2 | All Maps","name_short":"syd-2","host":"syd-1.au.uncletopia.com","port":27025,"enabled":true,"region":"au","cc":"au","latitude":-33.865143,"longitude":151.2099,"reserved":0,"last_update":"0001-01-01T00:00:00Z","name_a2s":"Uncletopia | Sydney | 2 | All Maps","protocol":17,"map":"cp_snakewater_final1","folder":"tf","game":"Team Fortress","app_id":440,"player_count":0,"max_players":24,"Bots":0,"server_type":"Dedicated","server_os":"Linux","password":true,"vac":true,"version":"7882260","steam_id":85568392924470002,"keywords":["cp","nocrits","nodmgspread","uncletopia"],"game_id":440,"stv_port":27026,"stv_name":"Uncletopia | Sydney | 2 | All Maps | STV","players":null},{"server_id":395,"name":"Uncletopia | Sydney | 3 | All Maps","name_short":"syd-3","host":"syd-1.au.uncletopia.com","port":27035,"enabled":true,"region":"au","cc":"au","latitude":-33.865143,"longitude":151.2099,"reserved":0,"last_update":"0001-01-01T00:00:00Z","name_a2s":"Uncletopia | Sydney | 3 | All Maps","protocol":17,"map":"pl_badwater","folder":"tf","game":"Team Fortress","app_id":440,"player_count":0,"max_players":24,"Bots":0,"server_type":"Dedicated","server_os":"Linux","password":true,"vac":true,"version":"7882260","steam_id":85568392925194467,"keywords":["nocrits","nodmgspread","payload","uncletopia"],"game_id":440,"stv_port":27036,"stv_name":"Uncletopia | Sydney | 3 | All Maps | STV","players":null},{"server_id":396,"name":"Uncletopia | Sydney | 4 | All Maps","name_short":"syd-4","host":"syd-1.au.uncletopia.com","port":27045,"enabled":true,"region":"au","cc":"au","latitude":-33.865143,"longitude":151.2099,"reserved":0,"last_update":"0001-01-01T00:00:00Z","name_a2s":"Uncletopia | Sydney | 4 | All Maps","protocol":17,"map":"cp_altitude","folder":"tf","game":"Team Fortress","app_id":440,"player_count":0,"max_players":24,"Bots":0,"server_type":"Dedicated","server_os":"Linux","password":true,"vac":true,"version":"7882260","steam_id":85568392925397958,"keywords":["cp","nocrits","nodmgspread","uncletopia"],"game_id":440,"stv_port":27046,"stv_name":"Uncletopia | Sydney | 4 | All Maps | STV","players":null},{"server_id":58,"name":"Uncletopia | Sydney | 5 | Stopwatch Beta","name_short":"syd-5","host":"syd-1.au.uncletopia.com","port":27055,"enabled":true,"region":"au","cc":"au","latitude":-33.865143,"longitude":151.2099,"reserved":0,"last_update":"0001-01-01T00:00:00Z","name_a2s":"Uncletopia | Sydney | 5 | Stopwatch Beta","protocol":17,"map":"koth_viaduct","folder":"tf","game":"Team Fortress","app_id":440,"player_count":0,"max_players":24,"Bots":0,"server_type":"Dedicated","server_os":"Linux","password":true,"vac":true,"version":"7882260","steam_id":85568392925397959,"keywords":["cp","nocrits","nodmgspread","uncletopia"],"game_id":440,"stv_port":27056,"stv_name":"Uncletopia | Sydney | 5 | Stopwatch Beta | STV","players":null},{"server_id":59,"name":"Uncletopia | Sydney | 6 | Community","name_short":"syd-6","host":"syd-1.au.uncletopia.com","port":27065,"enabled":true,"region":"au","cc":"au","latitude":-33.865143,"longitude":151.2099,"reserved":0,"last_update":"0001-01-01T00:00:00Z","name_a2s":"Uncletopia | Sydney | 6 | Community","protocol":17,"map":"pl_upward","folder":"tf","game":"Team Fortress","app_id":440,"player_count":0,"max_players":24,"Bots":0,"server_type":"Dedicated","server_os":"Linux","password":true,"vac":true,"version":"7882260","steam_id":85568392925397960,"keywords":["nocrits","nodmgspread","payload","uncletopia"],"game_id":440,"stv_port":27066,"stv_name":"Uncletopia | Sydney | 6 | Community | STV","players":null},{"server_id":49,"name":"Uncletopia | Warsaw | 1 | All Maps","name_short":"waw-1","host":"waw-1.pl.uncletopia.com","port":27015,"enabled":true,"region":"eu","cc":"pl","latitude":52.2297,"longitude":21.017532,"reserved":0,"last_update":"0001-01-01T00:00:00Z","name_a2s":"","protocol":0,"map":"","folder":"","game":"","app_id":0,"player_count":0,"max_players":0,"Bots":0,"server_type":"","server_os":"","password":false,"vac":false,"version":"","steam_id":0,"keywords":null,"game_id":0,"stv_port":0,"stv_name":"","players":null},{"server_id":50,"name":"Uncletopia | Warsaw | 2 | All Maps","name_short":"waw-2","host":"waw-1.pl.uncletopia.com","port":27025,"enabled":true,"region":"eu","cc":"pl","latitude":52.2297,"longitude":21.017532,"reserved":0,"last_update":"0001-01-01T00:00:00Z","name_a2s":"Uncletopia | Warsaw | 2 | All Maps","protocol":17,"map":"pl_pier","folder":"tf","game":"Team Fortress","app_id":440,"player_count":0,"max_players":24,"Bots":0,"server_type":"Dedicated","server_os":"Linux","password":true,"vac":true,"version":"7882260","steam_id":85568392925397851,"keywords":["nocrits","nodmgspread","payload","uncletopia"],"game_id":440,"stv_port":27026,"stv_name":"Uncletopia | Warsaw | 2 | All Maps | STV","players":null},{"server_id":51,"name":"Uncletopia | Warsaw | 3 | All Maps","name_short":"waw-3","host":"waw-1.pl.uncletopia.com","port":27035,"enabled":true,"region":"eu","cc":"pl","latitude":52.2297,"longitude":21.017532,"reserved":0,"last_update":"0001-01-01T00:00:00Z","name_a2s":"Uncletopia | Warsaw | 3 | All Maps","protocol":17,"map":"pl_badwater","folder":"tf","game":"Team Fortress","app_id":440,"player_count":24,"max_players":24,"Bots":0,"server_type":"Dedicated","server_os":"Linux","password":true,"vac":true,"version":"7882260","steam_id":85568392925397852,"keywords":["nocrits","nodmgspread","payload","uncletopia"],"game_id":440,"stv_port":27036,"stv_name":"Uncletopia | Warsaw | 3 | All Maps | STV","players":[{"user_id":205,"name":"M2rtRa","steam_id":76561198111036466,"connected_time":1074000000000,"state":"active","ping":89},{"user_id":214,"name":"SLB055","steam_id":76561198320511977,"connected_time":724000000000,"state":"active","ping":53},{"user_id":192,"name":"SunSill","steam_id":76561198159219899,"connected_time":1340000000000,"state":"active","ping":76},{"user_id":219,"name":"BlinkedUp","steam_id":76561198249985618,"connected_time":468000000000,"state":"active","ping":39},{"user_id":203,"name":"Gilbert","steam_id":76561198127732887,"connected_time":1113000000000,"state":"active","ping":81},{"user_id":220,"name":"MrBigStu234","steam_id":76561198211599767,"connected_time":396000000000,"state":"active","ping":81},{"user_id":190,"name":"kreeekz","steam_id":76561198014431602,"connected_time":1426000000000,"state":"active","ping":90},{"user_id":221,"name":"walter _hardwell_white","steam_id":76561199479691952,"connected_time":396000000000,"state":"active","ping":228},{"user_id":215,"name":"flange","steam_id":76561198040182692,"connected_time":620000000000,"state":"active","ping":70},{"user_id":197,"name":"D0kai","steam_id":76561198389271720,"connected_time":1226000000000,"state":"active","ping":83},{"user_id":229,"name":"Egtu","steam_id":76561198013757235,"connected_time":192000000000,"state":"active","ping":45},{"user_id":212,"name":"Amon Gus","steam_id":76561199094540960,"connected_time":957000000000,"state":"active","ping":83},{"user_id":216,"name":"Dorich","steam_id":76561198287126217,"connected_time":590000000000,"state":"active","ping":87},{"user_id":204,"name":"Holo","steam_id":76561198348567663,"connected_time":1103000000000,"state":"active","ping":54},{"user_id":227,"name":"Mr. Mundy","steam_id":76561198132008918,"connected_time":236000000000,"state":"active","ping":96},{"user_id":228,"name":"Joe12000","steam_id":76561198160817969,"connected_time":228000000000,"state":"active","ping":76},{"user_id":208,"name":"rets","steam_id":76561198061551392,"connected_time":1018000000000,"state":"active","ping":70},{"user_id":217,"name":"Dolcelatte","steam_id":76561198038501770,"connected_time":586000000000,"state":"active","ping":74},{"user_id":223,"name":"Eggman (Kaio-ken x20)","steam_id":76561199042470246,"connected_time":379000000000,"state":"active","ping":74},{"user_id":98,"name":"eva.","steam_id":76561198054474684,"connected_time":8286000000000,"state":"active","ping":72},{"user_id":225,"name":"Premiere Pro","steam_id":76561198189686075,"connected_time":305000000000,"state":"active","ping":75},{"user_id":213,"name":"LOBZIK","steam_id":76561198114830120,"connected_time":950000000000,"state":"active","ping":49},{"user_id":210,"name":"Officer KD6-3.7","steam_id":76561198034343111,"connected_time":1001000000000,"state":"active","ping":70},{"user_id":230,"name":"Timpanojnoj","steam_id":76561197970334448,"connected_time":176000000000,"state":"active","ping":158}]},{"server_id":52,"name":"Uncletopia | Warsaw | 4 | All Maps","name_short":"waw-4","host":"waw-1.pl.uncletopia.com","port":27045,"enabled":true,"region":"eu","cc":"pl","latitude":52.2297,"longitude":21.017532,"reserved":0,"last_update":"0001-01-01T00:00:00Z","name_a2s":"Uncletopia | Warsaw | 4 | All Maps","protocol":17,"map":"koth_cascade","folder":"tf","game":"Team Fortress","app_id":440,"player_count":0,"max_players":24,"Bots":0,"server_type":"Dedicated","server_os":"Linux","password":true,"vac":true,"version":"7882260","steam_id":85568392925397853,"keywords":["cp","nocrits","nodmgspread","uncletopia"],"game_id":440,"stv_port":27046,"stv_name":"Uncletopia | Warsaw | 4 | All Maps | STV","players":null},{"server_id":53,"name":"Uncletopia | Warsaw | 5 | Stopwatch Beta","name_short":"waw-5","host":"waw-1.pl.uncletopia.com","port":27055,"enabled":true,"region":"eu","cc":"pl","latitude":52.2297,"longitude":21.017532,"reserved":0,"last_update":"0001-01-01T00:00:00Z","name_a2s":"Uncletopia | Warsaw | 5 | Stopwatch Beta","protocol":17,"map":"koth_highpass","folder":"tf","game":"Team Fortress","app_id":440,"player_count":0,"max_players":24,"Bots":0,"server_type":"Dedicated","server_os":"Linux","password":true,"vac":true,"version":"7882260","steam_id":85568392925397854,"keywords":["cp","nocrits","nodmgspread","uncletopia"],"game_id":440,"stv_port":27056,"stv_name":"Uncletopia | Warsaw | 5 | Stopwatch Beta | STV","players":null},{"server_id":54,"name":"Uncletopia | Warsaw | 6 | Community","name_short":"waw-6","host":"waw-1.pl.uncletopia.com","port":27065,"enabled":true,"region":"eu","cc":"pl","latitude":52.2297,"longitude":21.017532,"reserved":0,"last_update":"0001-01-01T00:00:00Z","name_a2s":"Uncletopia | Warsaw | 6 | Community","protocol":17,"map":"cp_dustbowl","folder":"tf","game":"Team Fortress","app_id":440,"player_count":0,"max_players":24,"Bots":0,"server_type":"Dedicated","server_os":"Linux","password":true,"vac":true,"version":"7882260","steam_id":85568392925397856,"keywords":["cp","nocrits","nodmgspread","uncletopia"],"game_id":440,"stv_port":27066,"stv_name":"Uncletopia | Warsaw | 6 | Community | STV","players":null}]}