{"status":true,"message":"","result":[{"server_id":9,"name":"Uncletopia | Atlanta | 1 | All Maps","name_short":"atl-1","host":"atl-1.us.uncletopia.com","port":27015,"enabled":true,"region":"us-east","cc":"us","latitude":33.753746,"longitude":-84.38633,"reserved":0,"last_update":"0001-01-01T00:00:00Z","name_a2s":"Uncletopia | Atlanta | 1 | All Maps","protocol":17,"map":"ctf_2fort","folder":"tf","game":"Team Fortress","app_id":440,"player_count":24,"max_players":24,"Bots":0,"server_type":"Dedicated","server_os":"Linux","password":true,"vac":true,"version":"7882260","steam_id":85568392924469982,"keywords":["ctf","nocrits","nodmgspread","uncletopia"],"game_id":440,"stv_port":27016,"stv_name":"Uncletopia | Atlanta | 1 | All Maps | STV","players":[{"user_id":77,"name":"trepidotractatos","steam_id":76561198815950232,"connected_time":89000000000,"state":"active","ping":70},{"user_id":69,"name":"lorelius hogglefart","steam_id":76561198211781375,"connected_time":498000000000,"state":"active","ping":68},{"user_id":40,"name":"Obelisk","steam_id":76561198049416866,"connected_time":2416000000000,"state":"active","ping":48},{"user_id":11,"name":"the mcskank (limited time)","steam_id":76561198814096380,"connected_time":3553000000000,"state":"active","ping":76},{"user_id":72,"name":"Walmart Employee","steam_id":76561198840373909,"connected_time":362000000000,"state":"active","ping":71},{"user_id":51,"name":"boylover54","steam_id":76561199030726701,"connected_time":1153000000000,"state":"active","ping":94},{"user_id":45,"name":"Thinkpad X220","steam_id":76561198057076267,"connected_time":2157000000000,"state":"active","ping":69},{"user_id":61,"name":"TrashMann","steam_id":76561198040969743,"connected_time":925000000000,"state":"active","ping":57},{"user_id":73,"name":"Princebutt01","steam_id":76561199244257925,"connected_time":314000000000,"state":"active","ping":83},{"user_id":55,"name":"ashtondavid1108","steam_id":76561199182234670,"connected_time":1030000000000,"state":"active","ping":73},{"user_id":18,"name":"Masotan","steam_id":76561199047187302,"connected_time":3159000000000,"state":"active","ping":64},{"user_id":60,"name":"Brand0n","steam_id":76561197966363212,"connected_time":955000000000,"state":"active","ping":75},{"user_id":47,"name":"επιλέγω","steam_id":76561198076639682,"connected_time":1354000000000,"state":"active","ping":90},{"user_id":74,"name":"LegendaryMister151","steam_id":76561198064890524,"connected_time":206000000000,"state":"active","ping":81},{"user_id":79,"name":"The Crack Miser","steam_id":76561198821487551,"connected_time":33000000000,"state":"active","ping":73},{"user_id":78,"name":"Death By Killing","steam_id":76561198857643139,"connected_time":66000000000,"state":"active","ping":75},{"user_id":76,"name":"pogo","steam_id":76561198148913461,"connected_time":130000000000,"state":"active","ping":60},{"user_id":67,"name":"kite","steam_id":76561198346516392,"connected_time":643000000000,"state":"active","ping":78},{"user_id":58,"name":"DieTryHard","steam_id":76561198096583654,"connected_time":975000000000,"state":"active","ping":75},{"user_id":34,"name":"røck","steam_id":76561198072115209,"connected_time":2845000000000,"state":"active","ping":71},{"user_id":68,"name":"AlmondMilk","steam_id":76561198151229725,"connected_time":628000000000,"state":"active","ping":53},{"user_id":70,"name":"Soul_Intern","steam_id":76561198310238109,"connected_time":483000000000,"state":"active","ping":91},{"user_id":62,"name":"Dewie","steam_id":76561199089824120,"connected_time":900000000000,"state":"active","ping":78},{"user_id":43,"name":"Cloud","steam_id":76561198954987128,"connected_time":2217000000000,"state":"active","ping":55}]},{"server_id":104,"name":"Uncletopia | Atlanta | 2 | All Maps","name_short":"atl-2","host":"atl-1.us.uncletopia.com","port":27025,"enabled":true,"region":"us-east","cc":"us","latitude":33.753746,"longitude":-84.38633,"reserved":0,"last_update":"0001-01-01T00:00:00Z","name_a2s":"Uncletopia | Atlanta | 2 | All Maps","protocol":17,"map":"pl_pier","folder":"tf","game":"Team Fortress","app_id":440,"player_count":0,"max_players":24,"Bots":0,"server_type":"Dedicated","server_os":"Linux","password":true,"vac":true,"version":"7882260","steam_id":85568392924469983,"keywords":["nocrits","nodmgspread","payload","uncletopia"],"game_id":440,"stv_port":27026,"stv_name":"Uncletopia | Atlanta | 2 | All Maps | STV","players":null},{"server_id":400,"name":"Uncletopia | Atlanta | 3 | Community","name_short":"atl-3","host":"atl-1.us.uncletopia.com","port":27035,"enabled":true,"region":"us-east","cc":"us","latitude":33.753746,"longitude":-84.38633,"reserved":0,"last_update":"0001-01-01T00:00:00Z","name_a2s":"Uncletopia | Atlanta | 3 | Community","protocol":17,"map":"cp_sunshine","folder":"tf","game":"Team Fortress","app_id":440,"player_count":0,"max_players":24,"Bots":0,"server_type":"Dedicated","server_os":"Linux","password":true,"vac":true,"version":"7882260","steam_id":85568392924515187,"keywords":["cp","nocrits","nodmgspread","uncletopia"],"game_id":440,"stv_port":27036,"stv_name":"Uncletopia | Atlanta | 3 | Community | STV","players":null},{"server_id":401,"name":"Uncletopia | Atlanta | 4 | No Payload","name_short":"atl-4","host":"atl-1.us.uncletopia.com","port":27045,"enabled":true,"region":"us-east","cc":"us","latitude":33.753746,"longitude":-84.38633,"reserved":0,"last_update":"0001-01-01T00:00:00Z","name_a2s":"","protocol":0,"map":"","folder":"","game":"","app_id":0,"player_count":0,"max_players":0,"Bots":0,"server_type":"","server_os":"","password":false,"vac":false,"version":"","steam_id":0,"keywords":null,"game_id":0,"stv_port":0,"stv_name":"","players":null},{"server_id":2,"name":"Uncletopia | Chicago | 1 | All Maps","name_short":"chi-1","host":"chi-1.us.uncletopia.com","port":27015,"enabled":true,"region":"us-central","cc":"us","latitude":41.881832,"longitude":-87.62318,"reserved":0,"last_update":"0001-01-01T00:00:00Z","name_a2s":"Uncletopia | Chicago | 1 | All Maps","protocol":17,"map":"cp_well","folder":"tf","game":"Team Fortress","app_id":440,"player_count":25,"max_players":24,"Bots":0,"server_type":"Dedicated","server_os":"Linux","password":true,"vac":true,"version":"7882260","steam_id":85568392924469984,"keywords":["cp","nocrits","nodmgspread","uncletopia"],"game_id":440,"stv_port":27016,"stv_name":"Uncletopia | Chicago | 1 | All Maps | STV","players":[{"user_id":139,"name":"rontu","steam_id":76561199072955534,"connected_time":3977000000000,"state":"active","ping":50},{"user_id":178,"name":"Fobby #Savetf2","steam_id":76561198047681469,"connected_time":34000000000,"state":"active","ping":83},{"user_id":173,"name":"DuckMann","steam_id":76561198197058638,"connected_time":644000000000,"state":"active","ping":58},{"user_id":135,"name":"Motreir","steam_id":76561198151717946,"connected_time":4307000000000,"state":"active","ping":75},{"user_id":67,"name":"WatchWill","steam_id":76561198157237945,"connected_time":9204000000000,"state":"active","ping":66},{"user_id":122,"name":"kingjeffry2012@hotmail.com","steam_id":76561198314104415,"connected_time":5513000000000,"state":"active","ping":70},{"user_id":143,"name":"Bangushonkle","steam_id":76561198218887511,"connected_time":3764000000000,"state":"active","ping":92},{"user_id":177,"name":"demoted","steam_id":76561198025454899,"connected_time":259000000000,"state":"active","ping":66},{"user_id":130,"name":"tacofever","steam_id":76561198010966507,"connected_time":4517000000000,"state":"active","ping":103},{"user_id":82,"name":"larry","steam_id":76561198236166288,"connected_time":8115000000000,"state":"active","ping":67},{"user_id":147,"name":"DinkleBerg","steam_id":76561198891626233,"connected_time":3432000000000,"state":"active","ping":60},{"user_id":129,"name":"i thought you were my friend","steam_id":76561198929646112,"connected_time":4569000000000,"state":"active","ping":70},{"user_id":168,"name":"Lightatex","steam_id":76561199068097196,"connected_time":1187000000000,"state":"active","ping":57},{"user_id":134,"name":"Surinferior","steam_id":76561198008953177,"connected_time":4356000000000,"state":"active","ping":72},{"user_id":170,"name":"ultra_beanman","steam_id":76561198008751185,"connected_time":655000000000,"state":"active","ping":61},{"user_id":156,"name":"Mailguy","steam_id":76561199066183834,"connected_time":2303000000000,"state":"active","ping":53},{"user_id":172,"name":"Eve","steam_id":76561198052472822,"connected_time":654000000000,"state":"active","ping":67},{"user_id":166,"name":"Zoot","steam_id":76561198121944243,"connected_time":1342000000000,"state":"active","ping":73},{"user_id":162,"name":"RaCoom","steam_id":76561198325125932,"connected_time":1806000000000,"state":"active","ping":92},{"user_id":180,"name":"Mr_Starman","steam_id":76561199083428007,"connected_time":17000000000,"state":"spawning","ping":31},{"user_id":140,"name":"Eggcracker","steam_id":76561199274850641,"connected_time":3951000000000,"state":"active","ping":164},{"user_id":154,"name":"HollowMan","steam_id":76561198967266827,"connected_time":2741000000000,"state":"active","ping":71},{"user_id":181,"name":"Swifgz","steam_id":76561198162875756,"connected_time":15000000000,"state":"spawning","ping":56},{"user_id":174,"name":"YourCatOverlord","steam_id":76561198313689213,"connected_time":636000000000,"state":"active","ping":48},{"user_id":176,"name":"Fastest Spycrab in The West","steam_id":76561198345326844,"connected_time":290000000000,"state":"active","ping":61}]},{"server_id":106,"name":"Uncletopia | Chicago | 2 | All Maps","name_short":"chi-2","host":"chi-1.us.uncletopia.com","port":27025,"enabled":true,"region":"us-central","cc":"us","latitude":41.881832,"longitude":-87.62318,"reserved":0,"last_update":"0001-01-01T00:00:00Z","name_a2s":"Uncletopia | Chicago | 2 | All Maps","protocol":17,"map":"cp_snakewater_final1","folder":"tf","game":"Team Fortress","app_id":440,"player_count":1,"max_players":24,"Bots":0,"server_type":"Dedicated","server_os":"Linux","password":true,"vac":true,"version":"7882260","steam_id":85568392924469985,"keywords":["cp","nocrits","nodmgspread","uncletopia"],"game_id":440,"stv_port":27026,"stv_name":"Uncletopia | Chicago | 2 | All Maps | STV","players":[{"user_id":8,"name":"Cruisin'","steam_id":76561199245457119,"connected_time":24000000000,"state":"active","ping":78}]},{"server_id":402,"name":"Uncletopia | Chicago | 3 | All Maps","name_short":"chi-3","host":"chi-1.us.uncletopia.com","port":27035,"enabled":true,"region":"us-central","cc":"us","latitude":41.881832,"longitude":-87.62318,"reserved":0,"last_update":"0001-01-01T00:00:00Z","name_a2s":"Uncletopia | Chicago | 3 | All Maps","protocol":17,"map":"pl_swiftwater_final1","folder":"tf","game":"Team Fortress","app_id":440,"player_count":24,"max_players":24,"Bots":0,"server_type":"Dedicated","server_os":"Linux","password":true,"vac":true,"version":"7882260","steam_id":85568392924515191,"keywords":["nocrits","nodmgspread","payload","uncletopia"],"game_id":440,"stv_port":27036,"stv_name":"Uncletopia | Chicago | 3 | All Maps | STV","players":[{"user_id":239,"name":"Mehman","steam_id":76561199020244051,"connected_time":1495000000000,"state":"active","ping":101},{"user_id":234,"name":"Jimbabwe","steam_id":76561198065373807,"connected_time":2016000000000,"state":"active","ping":64},{"user_id":243,"name":"Smiles","steam_id":76561198107197973,"connected_time":1335000000000,"state":"active","ping":54},{"user_id":191,"name":"both older and younger ladies","steam_id":76561199100342013,"connected_time":4646000000000,"state":"active","ping":91},{"user_id":235,"name":"[BALLS] r30848","steam_id":76561199123984543,"connected_time":1889000000000,"state":"active","ping":77},{"user_id":200,"name":"Bravo to Alpha","steam_id":76561198149821972,"connected_time":3901000000000,"state":"active","ping":74},{"user_id":201,"name":"googy doogy","steam_id":76561199025852100,"connected_time":3886000000000,"state":"active","ping":82},{"user_id":255,"name":"Bassline","steam_id":76561199129606036,"connected_time":378000000000,"state":"active","ping":72},{"user_id":248,"name":"Pettifogging Milksop","steam_id":76561198074560331,"connected_time":1220000000000,"state":"active","ping":86},{"user_id":242,"name":"TJGSASQUATCH","steam_id":76561198077806921,"connected_time":1366000000000,"state":"active","ping":75},{"user_id":256,"name":"bart","steam_id":76561198025395216,"connected_time":322000000000,"state":"active","ping":151},{"user_id":254,"name":"no teleport for you","steam_id":76561198882404753,"connected_time":746000000000,"state":"active","ping":73},{"user_id":249,"name":"Smokey","steam_id":76561198071523590,"connected_time":1218000000000,"state":"active","ping":74},{"user_id":220,"name":"dirty dank","steam_id":76561198360904432,"connected_time":2720000000000,"state":"active","ping":73},{"user_id":225,"name":"Xx_Monty2k_xX","steam_id":76561198346070981,"connected_time":2471000000000,"state":"active","ping":65},{"user_id":208,"name":"Cowman","steam_id":76561199013705323,"connected_time":3094000000000,"state":"active","ping":60},{"user_id":236,"name":"Bread Cat","steam_id":76561199086362207,"connected_time":1818000000000,"state":"active","ping":136},{"user_id":238,"name":"Cream Pioneer","steam_id":76561198309491596,"connected_time":1607000000000,"state":"active","ping":103},{"user_id":233,"name":"InsertNameHere","steam_id":76561199237340935,"connected_time":2026000000000,"state":"active","ping":102},{"user_id":228,"name":"Provocator","steam_id":76561197961830410,"connected_time":2396000000000,"state":"active","ping":74},{"user_id":257,"name":"Carpigani","steam_id":76561199472897062,"connected_time":257000000000,"state":"active","ping":145},{"user_id":258,"name":"[8008135]UgliKumquat420","steam_id":76561199006886644,"connected_time":255000000000,"state":"active","ping":95},{"user_id":241,"name":"sailaser","steam_id":76561198035752229,"connected_time":1396000000000,"state":"active","ping":71},{"user_id":165,"name":"HOTA","steam_id":76561199002778841,"connected_time":6186000000000,"state":"active","ping":72}]},{"server_id":403,"name":"Uncletopia | Chicago | 4 | All Maps","name_short":"chi-4","host":"chi-1.us.uncletopia.com","port":27045,"enabled":true,"region":"us-central","cc":"us","latitude":41.881832,"longitude":-87.62318,"reserved":0,"last_update":"0001-01-01T00:00:00Z","name_a2s":"Uncletopia | Chicago | 4 | All Maps","protocol":17,"map":"pl_borneo","folder":"tf","game":"Team Fortress","app_id":440,"player_count":24,"max_players":24,"Bots":0,"server_type":"Dedicated","server_os":"Linux","password":true,"vac":true,"version":"7882260","steam_id":85568392924515193,"keywords":["nocrits","nodmgspread","payload","uncletopia"],"game_id":440,"stv_port":27046,"stv_name":"Uncletopia | Chicago | 4 | All Maps | STV","players":[{"user_id":3,"name":"DragonSpinach","steam_id":76561198407033936,"connected_time":7583000000000,"state":"active","ping":70},{"user_id":74,"name":"TabbyCat","steam_id":76561198414125672,"connected_time":1124000000000,"state":"active","ping":77},{"user_id":59,"name":"fruitpunch","steam_id":76561198156516161,"connected_time":2976000000000,"state":"active","ping":70},{"user_id":33,"name":"maggot","steam_id":76561199075532033,"connected_time":4560000000000,"state":"active","ping":161},{"user_id":56,"name":"Idk","steam_id":76561198971629959,"connected_time":3450000000000,"state":"active","ping":135},{"user_id":60,"name":"capybara","steam_id":76561198182288455,"connected_time":2912000000000,"state":"active","ping":61},{"user_id":82,"name":"PCR","steam_id":76561198048748102,"connected_time":596000000000,"state":"active","ping":49},{"user_id":76,"name":"gayest MF DOOM fan","steam_id":76561198065801979,"connected_time":1120000000000,"state":"active","ping":78},{"user_id":79,"name":"Terminal Brain Rot","steam_id":76561198112594672,"connected_time":1050000000000,"state":"active","ping":69},{"user_id":64,"name":"-W3E- grim10465","steam_id":76561198045698581,"connected_time":2356000000000,"state":"active","ping":46},{"user_id":83,"name":"LukeLeal","steam_id":76561198049822995,"connected_time":536000000000,"state":"active","ping":168},{"user_id":51,"name":"MR. SCHRAMM","steam_id":76561199381257236,"connected_time":3854000000000,"state":"active","ping":84},{"user_id":24,"name":"LEGACYYYYYYYYYYYYYYYYYYYYYY","steam_id":76561198172421881,"connected_time":4794000000000,"state":"active","ping":73},{"user_id":61,"name":"Noid","steam_id":76561198227804500,"connected_time":2578000000000,"state":"active","ping":81},{"user_id":84,"name":"♥ PsychicCellar ♥","steam_id":76561198045923020,"connected_time":140000000000,"state":"active","ping":60},{"user_id":58,"name":"Daperlin","steam_id":76561198091299113,"connected_time":3108000000000,"state":"active","ping":86},{"user_id":73,"name":"rawrie","steam_id":76561198005371178,"connected_time":1153000000000,"state":"active","ping":75},{"user_id":85,"name":"effete","steam_id":76561197994376499,"connected_time":114000000000,"state":"active","ping":98},{"user_id":75,"name":"B o o g","steam_id":76561199267535506,"connected_time":1121000000000,"state":"active","ping":67},{"user_id":44,"name":"Mayxaroni","steam_id":76561198170642041,"connected_time":4001000000000,"state":"active","ping":94},{"user_id":65,"name":"threethree","steam_id":76561198177354155,"connected_time":2302000000000,"state":"active","ping":50},{"user_id":81,"name":"Piethon","steam_id":76561198880995645,"connected_time":797000000000,"state":"active","ping":111},{"user_id":78,"name":"caberknight tf2  (f2p-ish)","steam_id":76561199273882768,"connected_time":1085000000000,"state":"active","ping":69},{"user_id":53,"name":"zaza rizzington","steam_id":76561199187337967,"connected_time":3792000000000,"state":"active","ping":68}]},{"server_id":36,"name":"Uncletopia | Chicago | 5 | All Maps","name_short":"chi-5","host":"chi-2.us.uncletopia.com","port":27015,"enabled":true,"region":"us-central","cc":"us","latitude":41.881832,"longitude":-87.62318,"reserved":0,"last_update":"0001-01-01T00:00:00Z","name_a2s":"Uncletopia | Chicago | 5 | All Maps","protocol":17,"map":"pl_upward","folder":"tf","game":"Team Fortress","app_id":440,"player_count":7,"max_players":24,"Bots":0,"server_type":"Dedicated","server_os":"Linux","password":true,"vac":true,"version":"7882260","steam_id":85568392924866362,"keywords":["nocrits","nodmgspread","payload","uncletopia"],"game_id":440,"stv_port":27016,"stv_name":"Uncletopia | Chicago | 5 | All Maps | STV","players":[{"user_id":15,"name":"Peter Griffin plays games","steam_id":76561199067665730,"connected_time":697000000000,"state":"active","ping":35},{"user_id":19,"name":"bogus binted","steam_id":76561198203329842,"connected_time":179000000000,"state":"active","ping":76},{"user_id":17,"name":"Doc_Eevee","steam_id":76561199289204820,"connected_time":506000000000,"state":"active","ping":94},{"user_id":18,"name":"Kamin","steam_id":76561198255299559,"connected_time":498000000000,"state":"active","ping":102},{"user_id":20,"name":"lodediper","steam_id":76561198049606896,"connected_time":170000000000,"state":"active","ping":72},{"user_id":21,"name":"Plague Doctor Moose","steam_id":76561199027129554,"connected_time":66000000000,"state":"active","ping":73},{"user_id":22,"name":"EnnyBennyM","steam_id":76561199033392439,"connected_time":5000000000,"state":"spawning","ping":74}]},{"server_id":37,"name":"Uncletopia | Chicago | 6 | All Maps","name_short":"chi-6","host":"chi-2.us.uncletopia.com","port":27025,"enabled":true,"region":"us-central","cc":"us","latitude":41.881832,"longitude":-87.62318,"reserved":0,"last_update":"0001-01-01T00:00:00Z","name_a2s":"Uncletopia | Chicago | 6 | All Maps","protocol":17,"map":"koth_cascade","folder":"tf","game":"Team Fortress","app_id":440,"player_count":0,"max_players":24,"Bots":0,"server_type":"Dedicated","server_os":"Linux","password":true,"vac":true,"version":"7882260","steam_id":85568392924866363,"keywords":["cp","nocrits","nodmgspread","uncletopia"],"game_id":440,"stv_port":27026,"stv_name":"Uncletopia | Chicago | 6 | All Maps | STV","players":null},{"server_id":38,"name":"Uncletopia | Chicago | 7 | Stopwatch Beta","name_short":"chi-7","host":"chi-2.us.uncletopia.com","port":27035,"enabled":true,"region":"us-central","cc":"us","latitude":41.881832,"longitude":-87.62318,"reserved":0,"last_update":"0001-01-01T00:00:00Z","name_a2s":"Uncletopia | Chicago | 7 | Stopwatch Beta","protocol":17,"map":"pl_borneo","folder":"tf","game":"Team Fortress","app_id":440,"player_count":0,"max_players":24,"Bots":0,"server_type":"Dedicated","server_os":"Linux","password":true,"vac":true,"version":"7882260","steam_id":85568392924866364,"keywords":["nocrits","nodmgspread","payload","uncletopia"],"game_id":440,"stv_port":27036,"stv_name":"Uncletopia | Chicago | 7 | Stopwatch Beta | STV","players":null},{"server_id":39,"name":"Uncletopia | Chicago | 8 | Community","name_short":"chi-8","host":"chi-2.us.uncletopia.com","port":27045,"enabled":true,"region":"us-central","cc":"us","latitude":41.881832,"longitude":-87.62318,"reserved":0,"last_update":"0001-01-01T00:00:00Z","name_a2s":"Uncletopia | Chicago | 8 | Community","protocol":17,"map":"workshop/koth_bagel_rc6.ugc2514036946","folder":"tf","game":"Team Fortress","app_id":440,"player_count":24,"max_players":24,"Bots":0,"server_type":"Dedicated","server_os":"Linux","password":true,"vac":true,"version":"7882260","steam_id":85568392924866365,"keywords":["cp","nocrits","nodmgspread","uncletopia"],"game_id":440,"stv_port":27046,"stv_name":"Uncletopia | Chicago | 8 | Community | STV","players":[{"user_id":13,"name":"orange_not_red","steam_id":76561199151435338,"connected_time":2154000000000,"state":"active","ping":76},{"user_id":16,"name":"Xx_TokerEnby_xX","steam_id":76561199164194494,"connected_time":2096000000000,"state":"active","ping":85},{"user_id":5,"name":"Blake...","steam_id":76561198064090974,"connected_time":2734000000000,"state":"active","ping":95},{"user_id":40,"name":"Mocanthl","steam_id":76561198043778324,"connected_time":1264000000000,"state":"active","ping":71},{"user_id":8,"name":"touhou2010@gmail.com","steam_id":76561198045844070,"connected_time":2595000000000,"state":"active","ping":69},{"user_id":9,"name":"BreakfastTacos","steam_id":76561198847620442,"connected_time":2587000000000,"state":"active","ping":92},{"user_id":50,"name":"creepycrawler","steam_id":76561198352016831,"connected_time":473000000000,"state":"active","ping":62},{"user_id":44,"name":"Sussin'","steam_id":76561198059813696,"connected_time":948000000000,"state":"active","ping":71},{"user_id":17,"name":"Cow Trousers","steam_id":76561198028607813,"connected_time":2094000000000,"state":"active","ping":95},{"user_id":26,"name":"Crow","steam_id":76561198274977209,"connected_time":1655000000000,"state":"active","ping":52},{"user_id":45,"name":"BattleWriter","steam_id":76561198059618706,"connected_time":887000000000,"state":"active","ping":64},{"user_id":24,"name":"bread","steam_id":76561198291298731,"connected_time":1735000000000,"state":"active","ping":74},{"user_id":21,"name":"Sneaky_Tank","steam_id":76561198078814793,"connected_time":1862000000000,"state":"active","ping":56},{"user_id":49,"name":"✰ DOC ROBOT K-176 ✰","steam_id":76561198280315202,"connected_time":774000000000,"state":"active","ping":90},{"user_id":46,"name":"Dave The Sloth","steam_id":76561199135831355,"connected_time":879000000000,"state":"active","ping":149},{"user_id":51,"name":"indi","steam_id":76561198045917538,"connected_time":428000000000,"state":"active","ping":46},{"user_id":27,"name":"Lord Scrubling","steam_id":76561198263744445,"connected_time":1639000000000,"state":"active","ping":75},{"user_id":52,"name":"FateTheTitan","steam_id":76561198176884955,"connected_time":421000000000,"state":"active","ping":156},{"user_id":29,"name":"Mr.Silver","steam_id":76561198156382508,"connected_time":1619000000000,"state":"active","ping":53},{"user_id":48,"name":"DrLuciferWinchester","steam_id":76561198261849661,"connected_time":779000000000,"state":"active","ping":164},{"user_id":53,"name":"Punished Kong","steam_id":76561198973620882,"connected_time":89000000000,"state":"spawning","ping":147},{"user_id":38,"name":"Mr.noob","steam_id":76561199200442395,"connected_time":1349000000000,"state":"active","ping":166},{"user_id":35,"name":"Greenie","steam_id":76561198081998064,"connected_time":1503000000000,"state":"active","ping":67},{"user_id":36,"name":"sentry turret","steam_id":76561198327057433,"connected_time":1473000000000,"state":"active","ping":89}]},{"server_id":8,"name":"Uncletopia | Dallas | 1 | All Maps","name_short":"dal-1","host":"dal-1.us.uncletopia.com","port":27015,"enabled":true,"region":"us-central","cc":"us","latitude":32.779167,"longitude":-96.80889,"reserved":0,"last_update":"0001-01-01T00:00:00Z","name_a2s":"Uncletopia | Dallas | 1 | All Maps","protocol":17,"map":"koth_lakeside_final","folder":"tf","game":"Team Fortress","app_id":440,"player_count":23,"max_players":24,"Bots":0,"server_type":"Dedicated","server_os":"Linux","password":true,"vac":true,"version":"7882260","steam_id":85568392924469986,"keywords":["cp","nocrits","nodmgspread","uncletopia"],"game_id":440,"stv_port":27016,"stv_name":"Uncletopia | Dallas | 1 | All Maps | STV","players":[{"user_id":124,"name":"Utopia","steam_id":76561198330205913,"connected_time":2120000000000,"state":"active","ping":109},{"user_id":123,"name":"Pombley","steam_id":76561198141227263,"connected_time":2149000000000,"state":"active","ping":57},{"user_id":134,"name":"chestes *\u003c|B^)","steam_id":76561198066223818,"connected_time":1130000000000,"state":"active","ping":84},{"user_id":154,"name":"Tyler\u0026Fingers","steam_id":76561198085154485,"connected_time":486000000000,"state":"active","ping":86},{"user_id":104,"name":"Minlit","steam_id":76561198205832799,"connected_time":3633000000000,"state":"active","ping":53},{"user_id":114,"name":"lost in spaaaaace","steam_id":76561199085974120,"connected_time":2361000000000,"state":"active","ping":85},{"user_id":135,"name":"superwarm07","steam_id":76561199196313157,"connected_time":1114000000000,"state":"active","ping":80},{"user_id":160,"name":"Sage","steam_id":76561198143101697,"connected_time":104000000000,"state":"active","ping":106},{"user_id":159,"name":"Grunt420","steam_id":76561199407313140,"connected_time":134000000000,"state":"active","ping":174},{"user_id":138,"name":"Soap","steam_id":76561197994893383,"connected_time":1045000000000,"state":"active","ping":60},{"user_id":147,"name":"ZerBase","steam_id":76561198145301375,"connected_time":765000000000,"state":"active","ping":45},{"user_id":113,"name":"Dimension","steam_id":76561198132803810,"connected_time":2813000000000,"state":"active","ping":53},{"user_id":156,"name":"zzz","steam_id":76561198143727547,"connected_time":339000000000,"state":"active","ping":106},{"user_id":157,"name":"Yardy","steam_id":76561199014069096,"connected_time":168000000000,"state":"active","ping":124},{"user_id":153,"name":"who is gavin?","steam_id":76561198069415057,"connected_time":575000000000,"state":"active","ping":76},{"user_id":158,"name":"Gibby","steam_id":76561199336569123,"connected_time":148000000000,"state":"active","ping":136},{"user_id":108,"name":"Ghost","steam_id":76561198426370628,"connected_time":3318000000000,"state":"active","ping":60},{"user_id":109,"name":"Kim Possible's Mom","steam_id":76561198206517160,"connected_time":3289000000000,"state":"active","ping":62},{"user_id":130,"name":"SneekiCheekiQbone","steam_id":76561198045077980,"connected_time":1514000000000,"state":"active","ping":73},{"user_id":82,"name":"Pyrite","steam_id":76561198158817820,"connected_time":5921000000000,"state":"active","ping":72},{"user_id":133,"name":"Darling","steam_id":76561198127525888,"connected_time":1177000000000,"state":"active","ping":48},{"user_id":46,"name":"BrainlezBrainiac","steam_id":76561199193942805,"connected_time":8372000000000,"state":"active","ping":63},{"user_id":127,"name":"Muffin","steam_id":76561198209987299,"connected_time":1723000000000,"state":"active","ping":145}]},{"server_id":108,"name":"Uncletopia | Dallas | 2 | All Maps","name_short":"dal-2","host":"dal-1.us.uncletopia.com","port":27025,"enabled":true,"region":"us-central","cc":"us","latitude":32.779167,"longitude":-96.80889,"reserved":0,"last_update":"0001-01-01T00:00:00Z","name_a2s":"Uncletopia | Dallas | 2 | All Maps","protocol":17,"map":"pl_barnblitz","folder":"tf","game":"Team Fortress","app_id":440,"player_count":24,"max_players":24,"Bots":0,"server_type":"Dedicated","server_os":"Linux","password":true,"vac":true,"version":"7882260","steam_id":85568392924469988,"keywords":["nocrits","nodmgspread","payload","uncletopia"],"game_id":440,"stv_port":27026,"stv_name":"Uncletopia | Dallas | 2 | All Maps | STV","players":[{"user_id":42,"name":"Acrid","steam_id":76561199019742998,"connected_time":275000000000,"state":"active","ping":57},{"user_id":6,"name":"Caterpillar Smoking a Blunt","steam_id":76561198369511235,"connected_time":1865000000000,"state":"active","ping":94},{"user_id":44,"name":"Molotov","steam_id":76561198117184826,"connected_time":213000000000,"state":"active","ping":139},{"user_id":8,"name":"Jones","steam_id":76561198046037216,"connected_time":1653000000000,"state":"active","ping":131},{"user_id":38,"name":"Drakon","steam_id":76561198078210822,"connected_time":600000000000,"state":"active","ping":89},{"user_id":40,"name":"Goblin","steam_id":76561198338245497,"connected_time":520000000000,"state":"active","ping":73},{"user_id":11,"name":"Nonok","steam_id":76561199480685498,"connected_time":1552000000000,"state":"active","ping":175},{"user_id":12,"name":"andyiscolorless","steam_id":76561199239870921,"connected_time":1468000000000,"state":"active","ping":138},{"user_id":18,"name":"Monsieur Pequeño","steam_id":76561198327271041,"connected_time":1116000000000,"state":"active","ping":102},{"user_id":15,"name":"AureateAura","steam_id":76561198046902265,"connected_time":1282000000000,"state":"active","ping":90},{"user_id":25,"name":"Ventastega","steam_id":76561197999366317,"connected_time":825000000000,"state":"active","ping":103},{"user_id":34,"name":"Vergil Gaming","steam_id":76561198306756272,"connected_time":718000000000,"state":"active","ping":60},{"user_id":19,"name":"Publicspace","steam_id":76561198813222526,"connected_time":1053000000000,"state":"active","ping":61},{"user_id":20,"name":"Grand Theft Intellect","steam_id":76561198048461337,"connected_time":1053000000000,"state":"active","ping":85},{"user_id":21,"name":"jackhillard83","steam_id":76561199057098390,"connected_time":987000000000,"state":"active","ping":70},{"user_id":26,"name":"Malevo","steam_id":76561198148606522,"connected_time":819000000000,"state":"active","ping":64},{"user_id":24,"name":"The Kritz Man","steam_id":76561198210972645,"connected_time":871000000000,"state":"active","ping":72},{"user_id":41,"name":"FETTUCCINE GANG","steam_id":76561198398722419,"connected_time":328000000000,"state":"active","ping":62},{"user_id":28,"name":"Benrosim","steam_id":76561199258825333,"connected_time":817000000000,"state":"active","ping":171},{"user_id":32,"name":"The Loveable CHI.I.BI.","steam_id":76561198039262228,"connected_time":755000000000,"state":"active","ping":86},{"user_id":33,"name":"Mediocre Gaming","steam_id":76561199230467980,"connected_time":748000000000,"state":"active","ping":90},{"user_id":35,"name":"rrati01","steam_id":76561198084744194,"connected_time":713000000000,"state":"active","ping":99},{"user_id":36,"name":"Skill Saw Stan","steam_id":76561199013064727,"connected_time":676000000000,"state":"active","ping":105},{"user_id":37,"name":"Jonatello","steam_id":76561198045699189,"connected_time":670000000000,"state":"active","ping":139}]},{"server_id":5,"name":"Uncletopia | Frankfurt | 1 | All Maps","name_short":"frk-1","host":"frk-1.de.uncletopia.com","port":27015,"enabled":true,"region":"eu","cc":"de","latitude":50.110924,"longitude":8.682127,"reserved":0,"last_update":"0001-01-01T00:00:00Z","name_a2s":"Uncletopia | Frankfurt | 1 | All Maps","protocol":17,"map":"pl_borneo","folder":"tf","game":"Team Fortress","app_id":440,"player_count":24,"max_players":24,"Bots":0,"server_type":"Dedicated","server_os":"Linux","password":true,"vac":true,"version":"7882260","steam_id":85568392924469989,"keywords":["nocrits","nodmgspread","payload","uncletopia"],"game_id":440,"stv_port":27016,"stv_name":"Uncletopia | Frankfurt | 1 | All Maps | STV","players":[{"user_id":422,"name":"Milk","steam_id":76561198125876588,"connected_time":1885000000000,"state":"active","ping":57},{"user_id":423,"name":"Doohickey mechanic","steam_id":76561198146180114,"connected_time":1591000000000,"state":"active","ping":91},{"user_id":427,"name":"Chopperson_","steam_id":76561198873728497,"connected_time":1186000000000,"state":"active","ping":103},{"user_id":406,"name":"M.Bou","steam_id":76561199097750260,"connected_time":2987000000000,"state":"active","ping":126},{"user_id":401,"name":"TheCosmicLizard","steam_id":76561198861751742,"connected_time":3200000000000,"state":"active","ping":75},{"user_id":409,"name":"chopsticks","steam_id":76561198045899345,"connected_time":2765000000000,"state":"active","ping":101},{"user_id":410,"name":"Havelyn","steam_id":76561198036159862,"connected_time":2760000000000,"state":"active","ping":129},{"user_id":438,"name":"Dr.Sees [F2P]","steam_id":76561199219233587,"connected_time":91000000000,"state":"active","ping":74},{"user_id":405,"name":"One-Face","steam_id":76561197999384826,"connected_time":3078000000000,"state":"active","ping":51},{"user_id":411,"name":"Butt Fangs Fetish","steam_id":76561198038130063,"connected_time":2694000000000,"state":"active","ping":71},{"user_id":432,"name":"Jack","steam_id":76561198079575891,"connected_time":436000000000,"state":"active","ping":74},{"user_id":381,"name":"ROX","steam_id":76561198272289320,"connected_time":4655000000000,"state":"active","ping":72},{"user_id":430,"name":"Tywhip","steam_id":76561199207545191,"connected_time":640000000000,"state":"active","ping":58},{"user_id":435,"name":"in alec LV server","steam_id":76561198988750340,"connected_time":182000000000,"state":"active","ping":59},{"user_id":414,"name":"wolffy","steam_id":76561198083145076,"connected_time":2682000000000,"state":"active","ping":46},{"user_id":425,"name":"nevim","steam_id":76561199120843402,"connected_time":1396000000000,"state":"active","ping":56},{"user_id":426,"name":"Acanda","steam_id":76561198123246537,"connected_time":1387000000000,"state":"active","ping":54},{"user_id":431,"name":"Samuel L. Jackson","steam_id":76561198130427881,"connected_time":460000000000,"state":"active","ping":156},{"user_id":417,"name":"tete","steam_id":76561198045222850,"connected_time":2608000000000,"state":"active","ping":83},{"user_id":433,"name":"Soerlssoelssöen","steam_id":76561197993060585,"connected_time":434000000000,"state":"active","ping":74},{"user_id":429,"name":"justgvbe","steam_id":76561199193230375,"connected_time":894000000000,"state":"active","ping":56},{"user_id":375,"name":"Fr0sty","steam_id":76561198125024338,"connected_time":4752000000000,"state":"active","ping":81},{"user_id":419,"name":"dogge","steam_id":76561199236632572,"connected_time":2567000000000,"state":"active","ping":148},{"user_id":421,"name":"dac","steam_id":76561198057745983,"connected_time":2378000000000,"state":"active","ping":60}]},{"server_id":110,"name":"Uncletopia | Frankfurt | 2 | All Maps","name_short":"frk-2","host":"frk-1.de.uncletopia.com","port":27025,"enabled":true,"region":"eu","cc":"de","latitude":50.110924,"longitude":8.682127,"reserved":0,"last_update":"0001-01-01T00:00:00Z","name_a2s":"Uncletopia | Frankfurt | 2 | All Maps","protocol":17,"map":"pl_borneo","folder":"tf","game":"Team Fortress","app_id":440,"player_count":23,"max_players":24,"Bots":0,"server_type":"Dedicated","server_os":"Linux","password":true,"vac":true,"version":"7882260","steam_id":85568392924469990,"keywords":["nocrits","nodmgspread","payload","uncletopia"],"game_id":440,"stv_port":27026,"stv_name":"Uncletopia | Frankfurt | 2 | All Maps | STV","players":[{"user_id":158,"name":"CKenny.js","steam_id":76561198063245962,"connected_time":971000000000,"state":"active","ping":69},{"user_id":160,"name":"roby","steam_id":76561198044660393,"connected_time":824000000000,"state":"active","ping":50},{"user_id":157,"name":"Egg","steam_id":76561199360189459,"connected_time":1079000000000,"state":"active","ping":74},{"user_id":126,"name":"FATTY","steam_id":76561198087962709,"connected_time":2507000000000,"state":"active","ping":92},{"user_id":159,"name":"Frylock","steam_id":76561198050292560,"connected_time":904000000000,"state":"active","ping":46},{"user_id":166,"name":"pummed","steam_id":76561198827108475,"connected_time":268000000000,"state":"active","ping":72},{"user_id":155,"name":"dog","steam_id":76561198063919822,"connected_time":1114000000000,"state":"active","ping":46},{"user_id":170,"name":"Proto-arc","steam_id":76561198012776747,"connected_time":6000000000,"state":"spawning","ping":100},{"user_id":162,"name":"Lord of the Cows","steam_id":76561198203140640,"connected_time":565000000000,"state":"active","ping":65},{"user_id":164,"name":"vug","steam_id":76561198042227249,"connected_time":295000000000,"state":"active","ping":45},{"user_id":131,"name":"cinny","steam_id":76561198832112629,"connected_time":2270000000000,"state":"active","ping":69},{"user_id":161,"name":"ijustsmokeandcry","steam_id":76561198044189114,"connected_time":651000000000,"state":"active","ping":58},{"user_id":134,"name":"Spirit Socks","steam_id":76561199214635037,"connected_time":2199000000000,"state":"active","ping":168},{"user_id":104,"name":"hedon/","steam_id":76561198249832770,"connected_time":4623000000000,"state":"active","ping":68},{"user_id":169,"name":"Kaishakunin","steam_id":76561198028123874,"connected_time":48000000000,"state":"active","ping":90},{"user_id":136,"name":"david","steam_id":76561198843793834,"connected_time":2184000000000,"state":"active","ping":77},{"user_id":140,"name":"frank gallagher","steam_id":76561198973429541,"connected_time":2104000000000,"state":"active","ping":155},{"user_id":150,"name":"OreHaX","steam_id":76561198272166623,"connected_time":1659000000000,"state":"active","ping":73},{"user_id":142,"name":"Malicious Mop","steam_id":76561199117640736,"connected_time":2093000000000,"state":"active","ping":163},{"user_id":143,"name":"Mr. Pink","steam_id":76561198065858172,"connected_time":2085000000000,"state":"active","ping":129},{"user_id":59,"name":"nyanezt","steam_id":76561198253734265,"connected_time":6928000000000,"state":"active","ping":166},{"user_id":144,"name":"Jackie Chan","steam_id":76561199378865926,"connected_time":2078000000000,"state":"active","ping":86},{"user_id":145,"name":"IceGamesPlay","steam_id":76561198014078452,"connected_time":2021000000000,"state":"active","ping":87}]},{"server_id":308,"name":"Uncletopia | Frankfurt | 3 | All Maps","name_short":"frk-3","host":"frk-1.de.uncletopia.com","port":27035,"enabled":true,"region":"eu","cc":"de","latitude":50.110924,"longitude":8.682127,"reserved":0,"last_update":"0001-01-01T00:00:00Z","name_a2s":"Uncletopia | Frankfurt | 3 | All Maps","protocol":17,"map":"pl_swiftwater_final1","folder":"tf","game":"Team Fortress","app_id":440,"player_count":24,"max_players":24,"Bots":0,"server_type":"Dedicated","server_os":"Linux","password":true,"vac":true,"version":"7882260","steam_id":85568392924504274,"keywords":["nocrits","nodmgspread","payload","uncletopia"],"game_id":440,"stv_port":27036,"stv_name":"Uncletopia | Frankfurt | 3 | All Maps | STV","players":[{"user_id":96,"name":"schmick h_stt 0","steam_id":76561198039537958,"connected_time":819000000000,"state":"active","ping":62},{"user_id":81,"name":"Sham!","steam_id":76561198050434275,"connected_time":1760000000000,"state":"active","ping":45},{"user_id":97,"name":"KeepIT.OK?","steam_id":76561198957890584,"connected_time":689000000000,"state":"active","ping":118},{"user_id":61,"name":"pardner","steam_id":76561198451471161,"connected_time":2976000000000,"state":"active","ping":70},{"user_id":101,"name":"Slifer the Sky Dragon","steam_id":76561198062255803,"connected_time":249000000000,"state":"active","ping":63},{"user_id":78,"name":"Ecton","steam_id":76561198025103720,"connected_time":1827000000000,"state":"active","ping":61},{"user_id":102,"name":"!!!","steam_id":76561199099057716,"connected_time":246000000000,"state":"active","ping":90},{"user_id":41,"name":"Andy","steam_id":76561198136364381,"connected_time":3709000000000,"state":"active","ping":58},{"user_id":77,"name":"The Grave Hunter","steam_id":76561198143586002,"connected_time":1846000000000,"state":"active","ping":71},{"user_id":79,"name":"Marukuso","steam_id":76561198154229845,"connected_time":1823000000000,"state":"active","ping":67},{"user_id":88,"name":"El_Kommadante","steam_id":76561198079551685,"connected_time":1545000000000,"state":"active","ping":78},{"user_id":91,"name":"lulu","steam_id":76561199147764133,"connected_time":1339000000000,"state":"active","ping":58},{"user_id":89,"name":"\u003c blank \u003e","steam_id":76561198059375315,"connected_time":1514000000000,"state":"active","ping":69},{"user_id":65,"name":"Kati","steam_id":76561198007231088,"connected_time":2827000000000,"state":"active","ping":57},{"user_id":95,"name":"Dictatorial Karelian","steam_id":76561198196736457,"connected_time":997000000000,"state":"active","ping":75},{"user_id":51,"name":"Poleeyan","steam_id":76561198885522435,"connected_time":3441000000000,"state":"active","ping":66},{"user_id":85,"name":"Based and lainpilled","steam_id":76561198981021250,"connected_time":1678000000000,"state":"active","ping":86},{"user_id":90,"name":"ALARM","steam_id":76561198120686521,"connected_time":1508000000000,"state":"active","ping":58},{"user_id":99,"name":"Burbie","steam_id":76561198046069449,"connected_time":320000000000,"state":"active","ping":75},{"user_id":86,"name":"XPullaHiiri","steam_id":76561198031652375,"connected_time":1648000000000,"state":"active","ping":97},{"user_id":103,"name":"yeyegoncas","steam_id":76561198061217656,"connected_time":230000000000,"state":"active","ping":76},{"user_id":58,"name":"PashaVerti","steam_id":76561199013963024,"connected_time":3334000000000,"state":"active","ping":78},{"user_id":70,"name":"AestheticalZ","steam_id":76561198269554197,"connected_time":2659000000000,"state":"active","ping":67},{"user_id":71,"name":"gagalak","steam_id":76561198089979108,"connected_time":2657000000000,"state":"active","ping":92}]},{"server_id":309,"name":"Uncletopia | Frankfurt | 4 | All Maps","name_short":"frk-4","host":"frk-1.de.uncletopia.com","port":27045,"enabled":true,"region":"eu","cc":"de","latitude":50.110924,"longitude":8.682127,"reserved":0,"last_update":"0001-01-01T00:00:00Z","name_a2s":"Uncletopia | Frankfurt | 4 | All Maps","protocol":17,"map":"koth_lakeside_final","folder":"tf","game":"Team Fortress","app_id":440,"player_count":0,"max_players":24,"Bots":0,"server_type":"Dedicated","server_os":"Linux","password":true,"vac":true,"version":"7882260","steam_id":85568392924504275,"keywords":["cp","nocrits","nodmgspread","uncletopia"],"game_id":440,"stv_port":27046,"stv_name":"Uncletopia | Frankfurt | 4 | All Maps | STV","players":null},{"server_id":310,"name":"Uncletopia | Frankfurt | 5 | All Maps","name_short":"frk-5","host":"frk-1.de.uncletopia.com","port":27055,"enabled":true,"region":"eu","cc":"de","latitude":50.110924,"longitude":8.682127,"reserved":0,"last_update":"0001-01-01T00:00:00Z","name_a2s":"Uncletopia | Frankfurt | 5 | All Maps","protocol":17,"map":"pl_barnblitz","folder":"tf","game":"Team Fortress","app_id":440,"player_count":0,"max_players":24,"Bots":0,"server_type":"Dedicated","server_os":"Linux","password":true,"vac":true,"version":"7882260","steam_id":85568392924504277,"keywords":["nocrits","nodmgspread","payload","uncletopia"],"game_id":440,"stv_port":27056,"stv_name":"Uncletopia | Frankfurt | 5 | All Maps | STV","players":null},{"server_id":311,"name":"Uncletopia | Frankfurt | 6 | All Maps","name_short":"frk-6","host":"frk-1.de.uncletopia.com","port":27065,"enabled":true,"region":"eu","cc":"de","latitude":50.110924,"longitude":8.682127,"reserved":0,"last_update":"0001-01-01T00:00:00Z","name_a2s":"Uncletopia | Frankfurt | 6 | All Maps","protocol":17,"map":"pl_borneo","folder":"tf","game":"Team Fortress","app_id":440,"player_count":0,"max_players":24,"Bots":0,"server_type":"Dedicated","server_os":"Linux","password":true,"vac":true,"version":"7882260","steam_id":85568392924504278,"keywords":["nocrits","nodmgspread","payload","uncletopia"],"game_id":440,"stv_port":27066,"stv_name":"Uncletopia | Frankfurt | 6 | All Maps | STV","players":null},{"server_id":23,"name":"Uncletopia | Frankfurt | 7 | Stopwatch Beta","name_short":"frk-7","host":"frk-1.de.uncletopia.com","port":27075,"enabled":true,"region":"eu","cc":"de","latitude":50.110924,"longitude":8.682127,"reserved":0,"last_update":"0001-01-01T00:00:00Z","name_a2s":"Uncletopia | Frankfurt | 7 | Stopwatch Beta","protocol":17,"map":"workshop/pl_summercoast_rc8e.ugc1761528829","folder":"tf","game":"Team Fortress","app_id":440,"player_count":0,"max_players":24,"Bots":0,"server_type":"Dedicated","server_os":"Linux","password":true,"vac":true,"version":"7882260","steam_id":85568392924742827,"keywords":["nocrits","nodmgspread","payload","uncletopia"],"game_id":440,"stv_port":27076,"stv_name":"Uncletopia | Frankfurt | 7 | Stopwatch Beta | STV","players":null},{"server_id":24,"name":"Uncletopia | Frankfurt | 8 | Community","name_short":"frk-8","host":"frk-1.de.uncletopia.com","port":27085,"enabled":true,"region":"eu","cc":"de","latitude":50.110924,"longitude":8.682127,"reserved":0,"last_update":"0001-01-01T00:00:00Z","name_a2s":"Uncletopia | Frankfurt | 8 | Community","protocol":17,"map":"workshop/cp_mannbase_rc2a.ugc1900737467","folder":"tf","game":"Team Fortress","app_id":440,"player_count":21,"max_players":24,"Bots":0,"server_type":"Dedicated","server_os":"Linux","password":true,"vac":true,"version":"7882260","steam_id":85568392924742828,"keywords":["cp","nocrits","nodmgspread","uncletopia"],"game_id":440,"stv_port":27086,"stv_name":"Uncletopia | Frankfurt | 8 | Community | STV","players":[{"user_id":50,"name":"the scringly dingly","steam_id":76561198192179174,"connected_time":796000000000,"state":"active","ping":112},{"user_id":32,"name":"usmanov.inc","steam_id":76561198263734652,"connected_time":1177000000000,"state":"active","ping":101},{"user_id":29,"name":"StealthCat","steam_id":76561198068937412,"connected_time":1249000000000,"state":"active","ping":45},{"user_id":12,"name":"Black Sheep","steam_id":76561198042244701,"connected_time":3321000000000,"state":"active","ping":74},{"user_id":34,"name":"DevilNeverCry200","steam_id":76561198203040245,"connected_time":1149000000000,"state":"active","ping":75},{"user_id":35,"name":"PerskuleBenener","steam_id":76561198156899375,"connected_time":1143000000000,"state":"active","ping":91},{"user_id":17,"name":"Pan W","steam_id":76561198384111099,"connected_time":2049000000000,"state":"active","ping":60},{"user_id":18,"name":"kanelsnurr :3 \u003e///\u003c","steam_id":76561198163615254,"connected_time":1988000000000,"state":"active","ping":59},{"user_id":19,"name":"[bridget pfp]","steam_id":76561198311044984,"connected_time":1951000000000,"state":"active","ping":62},{"user_id":57,"name":"BELADIT","steam_id":76561198011911501,"connected_time":328000000000,"state":"active","ping":70},{"user_id":30,"name":"Your local defective","steam_id":76561198072950522,"connected_time":1224000000000,"state":"active","ping":97},{"user_id":55,"name":"lightsabers","steam_id":76561198101292843,"connected_time":508000000000,"state":"active","ping":47},{"user_id":27,"name":"Microsoft PowerPoint","steam_id":76561198204290539,"connected_time":1318000000000,"state":"active","ping":79},{"user_id":33,"name":"Belik","steam_id":76561199008567884,"connected_time":1170000000000,"state":"active","ping":90},{"user_id":53,"name":"꧁๖乡Ðe·SexyLion乡꧂","steam_id":76561198123539320,"connected_time":689000000000,"state":"active","ping":88},{"user_id":39,"name":"Jeerven","steam_id":76561198259189841,"connected_time":1040000000000,"state":"active","ping":64},{"user_id":48,"name":"Puhaur","steam_id":76561198404557509,"connected_time":827000000000,"state":"active","ping":46},{"user_id":59,"name":"kayx","steam_id":76561199041233757,"connected_time":285000000000,"state":"active","ping":108},{"user_id":56,"name":"EGirl | Klarra","steam_id":76561198077745407,"connected_time":451000000000,"state":"active","ping":61},{"user_id":45,"name":"Stümpy","steam_id":76561198255904077,"connected_time":961000000000,"state":"active","ping":65},{"user_id":54,"name":"WasserGurke","steam_id":76561198372482746,"connected_time":687000000000,"state":"active","ping":55}]},{"server_id":202,"name":"Uncletopia | Hong Kong | 1 | All Maps","name_short":"hgk-1","host":"hgk-1.hk.uncletopia.com","port":27015,"enabled":true,"region":"asia","cc":"hk","latitude":22.302711,"longitude":114.177216,"reserved":0,"last_update":"0001-01-01T00:00:00Z","name_a2s":"Uncletopia | Hong Kong | 1 | All Maps","protocol":17,"map":"cp_dustbowl","folder":"tf","game":"Team Fortress","app_id":440,"player_count":14,"max_players":24,"Bots":0,"server_type":"Dedicated","server_os":"Linux","password":true,"vac":true,"version":"7882260","steam_id":85568392924494504,"keywords":["cp","nocrits","nodmgspread","uncletopia"],"game_id":440,"stv_port":27016,"stv_name":"Uncletopia | Hong Kong | 1 | All Maps | STV","players":[{"user_id":467,"name":"Frostbyte","steam_id":76561199209090756,"connected_time":416000000000,"state":"active","ping":73},{"user_id":469,"name":"Spirito_Irzlmine","steam_id":76561199213792906,"connected_time":190000000000,"state":"active","ping":101},{"user_id":449,"name":"MsD IV","steam_id":76561198059707655,"connected_time":1552000000000,"state":"active","ping":122},{"user_id":470,"name":"Marika","steam_id":76561198212649929,"connected_time":188000000000,"state":"active","ping":75},{"user_id":444,"name":"Duck with a knife (what he gonn","steam_id":76561199092409364,"connected_time":3388000000000,"state":"active","ping":209},{"user_id":313,"name":"JDSFE","steam_id":76561198975490851,"connected_time":16469000000000,"state":"active","ping":103},{"user_id":417,"name":"WhereAmai","steam_id":76561199122491157,"connected_time":7488000000000,"state":"active","ping":76},{"user_id":415,"name":"scorchshot gaming","steam_id":76561198092969425,"connected_time":7542000000000,"state":"active","ping":101},{"user_id":463,"name":"P","steam_id":76561198304514505,"connected_time":750000000000,"state":"active","ping":74},{"user_id":446,"name":"killman47","steam_id":76561198348487408,"connected_time":1920000000000,"state":"active","ping":38},{"user_id":429,"name":"domjni","steam_id":76561198287931508,"connected_time":4865000000000,"state":"active","ping":60},{"user_id":445,"name":"쿠키","steam_id":76561197997220367,"connected_time":1933000000000,"state":"active","ping":54},{"user_id":118,"name":"母の肉団子@hao123.com","steam_id":76561198069561896,"connected_time":30836000000000,"state":"active","ping":33},{"user_id":443,"name":"17","steam_id":76561198241530712,"connected_time":3453000000000,"state":"active","ping":49}]},{"server_id":1,"name":"Uncletopia | Los Angeles | 1 | All Maps","name_short":"lax-1","host":"lax-1.us.uncletopia.com","port":27015,"enabled":true,"region":"us-west","cc":"us","latitude":33.94279,"longitude":-118.41004,"reserved":0,"last_update":"0001-01-01T00:00:00Z","name_a2s":"Uncletopia | Los Angeles | 1 | All Maps","protocol":17,"map":"pl_pier","folder":"tf","game":"Team Fortress","app_id":440,"player_count":9,"max_players":24,"Bots":0,"server_type":"Dedicated","server_os":"Linux","password":true,"vac":true,"version":"7882260","steam_id":85568392924469991,"keywords":["nocrits","nodmgspread","payload","uncletopia"],"game_id":440,"stv_port":27016,"stv_name":"Uncletopia | Los Angeles | 1 | All Maps | STV","players":[{"user_id":3,"name":"oske","steam_id":76561198131526809,"connected_time":921000000000,"state":"active","ping":89},{"user_id":4,"name":"VERY STABLE GENIUS","steam_id":76561198079401635,"connected_time":726000000000,"state":"active","ping":105},{"user_id":5,"name":"OminousNoises","steam_id":76561198263320321,"connected_time":679000000000,"state":"active","ping":118},{"user_id":6,"name":"ApplesMate","steam_id":76561198832763278,"connected_time":518000000000,"state":"active","ping":50},{"user_id":7,"name":"momus","steam_id":76561198966979196,"connected_time":492000000000,"state":"active","ping":48},{"user_id":8,"name":"meszaros1293","steam_id":76561198168201600,"connected_time":401000000000,"state":"active","ping":52},{"user_id":9,"name":"Celia [ +/- ] ✔","steam_id":76561198067164431,"connected_time":145000000000,"state":"active","ping":41},{"user_id":10,"name":"CSharp","steam_id":76561199185191710,"connected_time":58000000000,"state":"active","ping":103},{"user_id":11,"name":"Dreamzapp","steam_id":76561199084936632,"connected_time":9000000000,"state":"spawning","ping":51}]},{"server_id":112,"name":"Uncletopia | Los Angeles | 2 | All Maps","name_short":"lax-2","host":"lax-1.us.uncletopia.com","port":27025,"enabled":true,"region":"us-west","cc":"us","latitude":33.94279,"longitude":-118.41004,"reserved":0,"last_update":"0001-01-01T00:00:00Z","name_a2s":"Uncletopia | Los Angeles | 2 | All Maps","protocol":17,"map":"koth_lakeside_final","folder":"tf","game":"Team Fortress","app_id":440,"player_count":0,"max_players":24,"Bots":0,"server_type":"Dedicated","server_os":"Linux","password":true,"vac":true,"version":"7882260","steam_id":85568392924469992,"keywords":["cp","nocrits","nodmgspread","uncletopia"],"game_id":440,"stv_port":27026,"stv_name":"Uncletopia | Los Angeles | 2 | All Maps | STV","players":null},{"server_id":324,"name":"Uncletopia | Los Angeles | 3 | All Maps","name_short":"lax-3","host":"lax-1.us.uncletopia.com","port":27035,"enabled":true,"region":"us-west","cc":"us","latitude":33.94279,"longitude":-118.41004,"reserved":0,"last_update":"0001-01-01T00:00:00Z","name_a2s":"Uncletopia | Los Angeles | 3 | All Maps","protocol":17,"map":"koth_lakeside_final","folder":"tf","game":"Team Fortress","app_id":440,"player_count":0,"max_players":24,"Bots":0,"server_type":"Dedicated","server_os":"Linux","password":true,"vac":true,"version":"7882260","steam_id":85568392924510198,"keywords":["cp","nocrits","nodmgspread","uncletopia"],"game_id":440,"stv_port":27036,"stv_name":"Uncletopia | Los Angeles | 3 | All Maps | STV","players":null},{"server_id":25,"name":"Uncletopia | Los Angeles | 4 | Stopwatch Beta","name_short":"lax-4","host":"lax-1.us.uncletopia.com","port":27045,"enabled":true,"region":"us-west","cc":"us","latitude":33.94279,"longitude":-118.41004,"reserved":0,"last_update":"0001-01-01T00:00:00Z","name_a2s":"Uncletopia | Los Angeles | 4 | Stopwatch Beta","protocol":17,"map":"cp_snakewater_final1","folder":"tf","game":"Team Fortress","app_id":440,"player_count":0,"max_players":24,"Bots":0,"server_type":"Dedicated","server_os":"Linux","password":true,"vac":true,"version":"7882260","steam_id":85568392924510199,"keywords":["cp","nocrits","nodmgspread","uncletopia"],"game_id":440,"stv_port":27046,"stv_name":"Uncletopia | Los Angeles | 4 | Stopwatch Beta | STV","players":null},{"server_id":11,"name":"Uncletopia | London | 1 | All Maps","name_short":"lon-1","host":"lon-1.uk.uncletopia.com","port":27015,"enabled":true,"region":"eu","cc":"gb","latitude":51.509865,"longitude":-0.118092,"reserved":0,"last_update":"0001-01-01T00:00:00Z","name_a2s":"Uncletopia | London | 1 | All Maps","protocol":17,"map":"koth_cascade","folder":"tf","game":"Team Fortress","app_id":440,"player_count":24,"max_players":24,"Bots":0,"server_type":"Dedicated","server_os":"Linux","password":true,"vac":true,"version":"7882260","steam_id":85568392924367362,"keywords":["cp","nocrits","nodmgspread","uncletopia"],"game_id":440,"stv_port":27016,"stv_name":"Uncletopia | London | 1 | All Maps | STV","players":[{"user_id":190,"name":"walluu","steam_id":76561198121830870,"connected_time":2333000000000,"state":"active","ping":75},{"user_id":176,"name":"quickfast","steam_id":76561199438900919,"connected_time":3441000000000,"state":"active","ping":44},{"user_id":198,"name":"dec","steam_id":76561198009660168,"connected_time":1389000000000,"state":"active","ping":56},{"user_id":199,"name":"tïger","steam_id":76561198260483157,"connected_time":1322000000000,"state":"active","ping":76},{"user_id":210,"name":"kiewass","steam_id":76561198870729709,"connected_time":424000000000,"state":"active","ping":73},{"user_id":211,"name":"Marky","steam_id":76561199474556920,"connected_time":389000000000,"state":"active","ping":120},{"user_id":201,"name":"Fwebbie","steam_id":76561199006875621,"connected_time":1231000000000,"state":"active","ping":47},{"user_id":186,"name":"BreadBubbles","steam_id":76561198174332826,"connected_time":2664000000000,"state":"active","ping":56},{"user_id":126,"name":"Houf*venomcrosshairs","steam_id":76561198448050535,"connected_time":6004000000000,"state":"active","ping":73},{"user_id":188,"name":"Kurage","steam_id":76561198021221288,"connected_time":2415000000000,"state":"active","ping":72},{"user_id":212,"name":"multiflex","steam_id":76561198049639319,"connected_time":388000000000,"state":"active","ping":72},{"user_id":209,"name":"SuperBob103","steam_id":76561199175360012,"connected_time":466000000000,"state":"active","ping":50},{"user_id":213,"name":"Kapitan Polska","steam_id":76561197968069413,"connected_time":384000000000,"state":"active","ping":82},{"user_id":189,"name":"Maru","steam_id":76561198030931030,"connected_time":2403000000000,"state":"active","ping":82},{"user_id":203,"name":"✪ qua ✪","steam_id":76561198066408333,"connected_time":1094000000000,"state":"active","ping":84},{"user_id":208,"name":"nappo","steam_id":76561198060105180,"connected_time":469000000000,"state":"active","ping":60},{"user_id":217,"name":"Aura☆","steam_id":76561198113248599,"connected_time":207000000000,"state":"active","ping":45},{"user_id":161,"name":"WATANG!","steam_id":76561198040478926,"connected_time":4207000000000,"state":"active","ping":84},{"user_id":207,"name":"Croy","steam_id":76561197972552579,"connected_time":708000000000,"state":"active","ping":45},{"user_id":162,"name":"Femgineer","steam_id":76561198975667801,"connected_time":4203000000000,"state":"active","ping":55},{"user_id":215,"name":"the stupid","steam_id":76561199089904076,"connected_time":350000000000,"state":"active","ping":113},{"user_id":193,"name":"Stuid","steam_id":76561199427506542,"connected_time":2227000000000,"state":"active","ping":82},{"user_id":216,"name":"BROOMSTER","steam_id":76561198344833818,"connected_time":257000000000,"state":"active","ping":65},{"user_id":197,"name":"unconditional love","steam_id":76561199026097466,"connected_time":1559000000000,"state":"active","ping":75}]},{"server_id":114,"name":"Uncletopia | London | 2 | All Maps","name_short":"lon-2","host":"lon-1.uk.uncletopia.com","port":27025,"enabled":true,"region":"eu","cc":"gb","latitude":51.509865,"longitude":-0.118092,"reserved":0,"last_update":"0001-01-01T00:00:00Z","name_a2s":"Uncletopia | London | 2 | All Maps","protocol":17,"map":"pl_badwater","folder":"tf","game":"Team Fortress","app_id":440,"player_count":23,"max_players":24,"Bots":0,"server_type":"Dedicated","server_os":"Linux","password":true,"vac":true,"version":"7882260","steam_id":85568392924470941,"keywords":["nocrits","nodmgspread","payload","uncletopia"],"game_id":440,"stv_port":27026,"stv_name":"Uncletopia | London | 2 | All Maps | STV","players":[{"user_id":573,"name":"ZingyBot_","steam_id":76561198284732624,"connected_time":565000000000,"state":"active","ping":50},{"user_id":577,"name":"BeaterHU","steam_id":76561198138651315,"connected_time":180000000000,"state":"active","ping":94},{"user_id":578,"name":"Jara.","steam_id":76561197992207165,"connected_time":8000000000,"state":"active","ping":110},{"user_id":533,"name":"Bradley","steam_id":76561198984603343,"connected_time":2207000000000,"state":"active","ping":76},{"user_id":526,"name":"[O\u0026O]YaboiDucki","steam_id":76561198195976589,"connected_time":2580000000000,"state":"active","ping":75},{"user_id":556,"name":"thebananabomb00","steam_id":76561198296409283,"connected_time":1039000000000,"state":"active","ping":186},{"user_id":529,"name":"sethlington14","steam_id":76561199438357690,"connected_time":2462000000000,"state":"active","ping":63},{"user_id":469,"name":"croco.","steam_id":76561198988882521,"connected_time":6543000000000,"state":"active","ping":104},{"user_id":545,"name":"SerialKILLA!","steam_id":76561198804885060,"connected_time":1630000000000,"state":"active","ping":66},{"user_id":572,"name":"minitel","steam_id":76561198056336216,"connected_time":697000000000,"state":"active","ping":59},{"user_id":540,"name":"Penis Contortionist","steam_id":76561198073663784,"connected_time":1858000000000,"state":"active","ping":37},{"user_id":527,"name":"Cyberpsycho","steam_id":76561198013528365,"connected_time":2561000000000,"state":"active","ping":60},{"user_id":542,"name":"Frosty","steam_id":76561199055987798,"connected_time":1794000000000,"state":"active","ping":64},{"user_id":574,"name":"Björn","steam_id":76561199097241285,"connected_time":547000000000,"state":"active","ping":80},{"user_id":543,"name":"Bodeine Brazy","steam_id":76561198122181176,"connected_time":1766000000000,"state":"active","ping":45},{"user_id":528,"name":"MrKampfCookie","steam_id":76561198085490175,"connected_time":2523000000000,"state":"active","ping":52},{"user_id":560,"name":"Dr. Funkenstein","steam_id":76561197977816210,"connected_time":916000000000,"state":"active","ping":51},{"user_id":512,"name":"cister0","steam_id":76561198130195469,"connected_time":3787000000000,"state":"active","ping":82},{"user_id":550,"name":"omony","steam_id":76561197983750025,"connected_time":1364000000000,"state":"active","ping":96},{"user_id":576,"name":"hshs","steam_id":76561198314562513,"connected_time":293000000000,"state":"active","ping":61},{"user_id":546,"name":"taulakääpä","steam_id":76561198093458326,"connected_time":1625000000000,"state":"active","ping":60},{"user_id":551,"name":"YeetusFeetus","steam_id":76561199043598948,"connected_time":1347000000000,"state":"active","ping":110},{"user_id":569,"name":"Krabs","steam_id":76561198161679477,"connected_time":739000000000,"state":"active","ping":45}]},{"server_id":320,"name":"Uncletopia | London | 3 | All Maps","name_short":"lon-3","host":"lon-1.uk.uncletopia.com","port":27035,"enabled":true,"region":"eu","cc":"gb","latitude":51.509865,"longitude":-0.118092,"reserved":0,"last_update":"0001-01-01T00:00:00Z","name_a2s":"Uncletopia | London | 3 | All Maps","protocol":17,"map":"pl_thundermountain","folder":"tf","game":"Team Fortress","app_id":440,"player_count":23,"max_players":24,"Bots":0,"server_type":"Dedicated","server_os":"Linux","password":true,"vac":true,"version":"7882260","steam_id":85568392924510192,"keywords":["nocrits","nodmgspread","payload","uncletopia"],"game_id":440,"stv_port":27036,"stv_name":"Uncletopia | London | 3 | All Maps | STV","players":[{"user_id":280,"name":"Accident","steam_id":76561198115160396,"connected_time":3127000000000,"state":"active","ping":75},{"user_id":281,"name":"let me cook","steam_id":76561198010380786,"connected_time":3035000000000,"state":"active","ping":45},{"user_id":262,"name":"new to tf2","steam_id":76561199466495926,"connected_time":3980000000000,"state":"active","ping":77},{"user_id":307,"name":"united chunk","steam_id":76561199017850298,"connected_time":298000000000,"state":"active","ping":77},{"user_id":295,"name":"dash.","steam_id":76561198084796149,"connected_time":1316000000000,"state":"active","ping":45},{"user_id":232,"name":"Piquesque","steam_id":76561198286763046,"connected_time":5069000000000,"state":"active","ping":107},{"user_id":294,"name":"hud_saytext_time 0","steam_id":76561198010327228,"connected_time":1364000000000,"state":"active","ping":66},{"user_id":260,"name":"yes, yes, yes","steam_id":76561198881083725,"connected_time":4065000000000,"state":"active","ping":60},{"user_id":285,"name":"Honest Tom's Discount Beef","steam_id":76561198029971392,"connected_time":2141000000000,"state":"active","ping":48},{"user_id":298,"name":"the sentry","steam_id":76561198847690613,"connected_time":1143000000000,"state":"active","ping":132},{"user_id":254,"name":"Undead Tit","steam_id":76561198042593027,"connected_time":4296000000000,"state":"active","ping":95},{"user_id":239,"name":"Ross from F.R.I.E.N.D.S.","steam_id":76561198008511665,"connected_time":4997000000000,"state":"active","ping":60},{"user_id":286,"name":"lunaire","steam_id":76561198163344452,"connected_time":2013000000000,"state":"active","ping":94},{"user_id":299,"name":"triple archaeology museum","steam_id":76561198067678158,"connected_time":1002000000000,"state":"active","ping":45},{"user_id":296,"name":"sareena","steam_id":76561198810194062,"connected_time":1196000000000,"state":"active","ping":75},{"user_id":258,"name":"jo","steam_id":76561198109074418,"connected_time":4130000000000,"state":"active","ping":70},{"user_id":291,"name":"Sensei","steam_id":76561198383582429,"connected_time":1737000000000,"state":"active","ping":97},{"user_id":266,"name":"SoupER","steam_id":76561198063056668,"connected_time":3896000000000,"state":"active","ping":48},{"user_id":273,"name":"fiter","steam_id":76561198331480295,"connected_time":3555000000000,"state":"active","ping":52},{"user_id":311,"name":"Demoknight tf2","steam_id":76561198133041874,"connected_time":46000000000,"state":"active","ping":100},{"user_id":283,"name":"nop","steam_id":76561198064180797,"connected_time":3000000000000,"state":"active","ping":74},{"user_id":303,"name":"Coffee Chee","steam_id":76561198113568207,"connected_time":614000000000,"state":"active","ping":110},{"user_id":301,"name":"Cabbch","steam_id":76561198045955679,"connected_time":972000000000,"state":"active","ping":45}]},{"server_id":321,"name":"Uncletopia | London | 4 | All Maps","name_short":"lon-4","host":"lon-1.uk.uncletopia.com","port":27045,"enabled":true,"region":"eu","cc":"gb","latitude":51.509865,"longitude":-0.118092,"reserved":0,"last_update":"0001-01-01T00:00:00Z","name_a2s":"Uncletopia | London | 4 | All Maps","protocol":17,"map":"pl_frontier_final","folder":"tf","game":"Team Fortress","app_id":440,"player_count":19,"max_players":24,"Bots":0,"server_type":"Dedicated","server_os":"Linux","password":true,"vac":true,"version":"7882260","steam_id":85568392924510193,"keywords":["nocrits","nodmgspread","payload","uncletopia"],"game_id":440,"stv_port":27046,"stv_name":"Uncletopia | London | 4 | All Maps | STV","players":[{"user_id":99,"name":"Luke","steam_id":76561198253533632,"connected_time":265000000000,"state":"active","ping":136},{"user_id":74,"name":"YuraGreek","steam_id":76561198050182252,"connected_time":2033000000000,"state":"active","ping":90},{"user_id":10,"name":"Wire  Bash","steam_id":76561198033268371,"connected_time":5509000000000,"state":"active","ping":48},{"user_id":72,"name":"Homosapien","steam_id":76561197972035953,"connected_time":2682000000000,"state":"active","ping":74},{"user_id":11,"name":"SlowMode","steam_id":76561198039631442,"connected_time":5476000000000,"state":"active","ping":76},{"user_id":100,"name":"Uncle Terry","steam_id":76561198396415736,"connected_time":177000000000,"state":"active","ping":57},{"user_id":101,"name":"nhstefanov","steam_id":76561198811811405,"connected_time":150000000000,"state":"active","ping":69},{"user_id":102,"name":"Dwapking","steam_id":76561198039583834,"connected_time":60000000000,"state":"active","ping":53},{"user_id":78,"name":"CubiCub","steam_id":76561198063875960,"connected_time":1610000000000,"state":"active","ping":109},{"user_id":43,"name":"LivEssense","steam_id":76561198052476979,"connected_time":4818000000000,"state":"active","ping":77},{"user_id":103,"name":"МОЯ ЖОПАААА","steam_id":76561198036715230,"connected_time":50000000000,"state":"active","ping":93},{"user_id":95,"name":"Mushi","steam_id":76561198395223082,"connected_time":551000000000,"state":"active","ping":53},{"user_id":47,"name":"Citrus","steam_id":76561198090650837,"connected_time":4615000000000,"state":"active","ping":51},{"user_id":104,"name":"ppk19","steam_id":76561198007665990,"connected_time":41000000000,"state":"active","ping":46},{"user_id":105,"name":"blurst of times","steam_id":76561197972325640,"connected_time":15000000000,"state":"active","ping":51},{"user_id":50,"name":"poliakov.noam","steam_id":76561199259322961,"connected_time":4441000000000,"state":"active","ping":100},{"user_id":80,"name":"walking plane","steam_id":76561198146779559,"connected_time":1452000000000,"state":"active","ping":90},{"user_id":86,"name":"BORGETENNISCLUB","steam_id":76561198049343723,"connected_time":942000000000,"state":"active","ping":57},{"user_id":81,"name":"Qwertuss","steam_id":76561198026305366,"connected_time":1165000000000,"state":"active","ping":58}]},{"server_id":21,"name":"Uncletopia | London | 5 | All Maps","name_short":"lon-5","host":"lon-1.uk.uncletopia.com","port":27055,"enabled":true,"region":"eu","cc":"gb","latitude":51.509865,"longitude":-0.118092,"reserved":0,"last_update":"0001-01-01T00:00:00Z","name_a2s":"Uncletopia | London | 5 | All Maps","protocol":17,"map":"pl_frontier_final","folder":"tf","game":"Team Fortress","app_id":440,"player_count":25,"max_players":24,"Bots":0,"server_type":"Dedicated","server_os":"Linux","password":true,"vac":true,"version":"7882260","steam_id":85568392924742829,"keywords":["nocrits","nodmgspread","payload","uncletopia"],"game_id":440,"stv_port":27056,"stv_name":"Uncletopia | London | 5 | All Maps | STV","players":[{"user_id":386,"name":"Undertaker","steam_id":76561198364121077,"connected_time":2274000000000,"state":"active","ping":98},{"user_id":395,"name":"๖ۣۜZargon","steam_id":76561197993964257,"connected_time":1937000000000,"state":"active","ping":71},{"user_id":400,"name":"grip reap3r","steam_id":76561199106399206,"connected_time":1250000000000,"state":"active","ping":34},{"user_id":405,"name":"hipster_doofus","steam_id":76561197970902697,"connected_time":464000000000,"state":"active","ping":57},{"user_id":410,"name":"LOBZIK","steam_id":76561198114830120,"connected_time":270000000000,"state":"active","ping":82},{"user_id":338,"name":"Miton","steam_id":76561197970323209,"connected_time":4869000000000,"state":"active","ping":96},{"user_id":412,"name":"Woro","steam_id":76561198271350885,"connected_time":248000000000,"state":"active","ping":85},{"user_id":413,"name":"Sentry_Molester","steam_id":76561198240499888,"connected_time":246000000000,"state":"active","ping":86},{"user_id":409,"name":"Brinier","steam_id":76561199012604288,"connected_time":291000000000,"state":"active","ping":70},{"user_id":414,"name":"Unfortunate","steam_id":76561198125500777,"connected_time":243000000000,"state":"active","ping":104},{"user_id":407,"name":"zaleek69","steam_id":76561198058877595,"connected_time":309000000000,"state":"active","ping":76},{"user_id":391,"name":"maybe blw.tf","steam_id":76561199028670732,"connected_time":2056000000000,"state":"active","ping":63},{"user_id":408,"name":"LFGGGGGG","steam_id":76561199062586342,"connected_time":308000000000,"state":"active","ping":67},{"user_id":415,"name":"NorthPolar","steam_id":76561198438741909,"connected_time":239000000000,"state":"active","ping":86},{"user_id":416,"name":"Bob.","steam_id":76561198330093822,"connected_time":220000000000,"state":"active","ping":90},{"user_id":369,"name":"big poo","steam_id":76561199088284199,"connected_time":3109000000000,"state":"active","ping":66},{"user_id":403,"name":"zebulon","steam_id":76561198384683504,"connected_time":778000000000,"state":"active","ping":69},{"user_id":417,"name":"Rizz","steam_id":76561198192135953,"connected_time":216000000000,"state":"active","ping":86},{"user_id":418,"name":"Wardruna96","steam_id":76561199057083828,"connected_time":183000000000,"state":"active","ping":75},{"user_id":419,"name":"Locke","steam_id":76561198339408300,"connected_time":156000000000,"state":"active","ping":60},{"user_id":422,"name":"Sipsu","steam_id":76561198059424107,"connected_time":20000000000,"state":"spawning","ping":146},{"user_id":396,"name":"jill valentine","steam_id":76561198075068529,"connected_time":1759000000000,"state":"active","ping":75},{"user_id":394,"name":"Cars","steam_id":76561198173329977,"connected_time":1993000000000,"state":"active","ping":52},{"user_id":342,"name":"Boki","steam_id":76561198044553351,"connected_time":4495000000000,"state":"active","ping":60},{"user_id":399,"name":"peso enjoyer","steam_id":76561198798177799,"connected_time":1552000000000,"state":"active","ping":84}]},{"server_id":22,"name":"Uncletopia | London | 6 | All Maps","name_short":"lon-6","host":"lon-1.uk.uncletopia.com","port":27065,"enabled":true,"region":"eu","cc":"gb","latitude":51.509865,"longitude":-0.118092,"reserved":0,"last_update":"0001-01-01T00:00:00Z","name_a2s":"Uncletopia | London | 6 | All Maps","protocol":17,"map":"cp_sunshine","folder":"tf","game":"Team Fortress","app_id":440,"player_count":23,"max_players":24,"Bots":0,"server_type":"Dedicated","server_os":"Linux","password":true,"vac":true,"version":"7882260","steam_id":85568392924742830,"keywords":["cp","nocrits","nodmgspread","uncletopia"],"game_id":440,"stv_port":27066,"stv_name":"Uncletopia | London | 6 | All Maps | STV","players":[{"user_id":420,"name":"Combatspok","steam_id":76561197971598115,"connected_time":181000000000,"state":"active","ping":107},{"user_id":396,"name":"Gorogaz","steam_id":76561198207157679,"connected_time":2678000000000,"state":"active","ping":61},{"user_id":417,"name":"Mass","steam_id":76561198432195204,"connected_time":376000000000,"state":"active","ping":71},{"user_id":414,"name":"Noob_with_source","steam_id":76561198870362103,"connected_time":530000000000,"state":"active","ping":60},{"user_id":416,"name":"Flying skyhigh","steam_id":76561198372971096,"connected_time":442000000000,"state":"active","ping":79},{"user_id":425,"name":"Dreamyous","steam_id":76561198081753298,"connected_time":123000000000,"state":"active","ping":163},{"user_id":387,"name":"Tsar Heavy","steam_id":76561198859439313,"connected_time":2981000000000,"state":"active","ping":90},{"user_id":348,"name":"Mr. Mundy","steam_id":76561198132008918,"connected_time":5274000000000,"state":"active","ping":80},{"user_id":375,"name":"Sharkeh","steam_id":76561199005336372,"connected_time":3740000000000,"state":"active","ping":62},{"user_id":404,"name":"jge","steam_id":76561198123186387,"connected_time":1920000000000,"state":"active","ping":60},{"user_id":400,"name":"I-I","steam_id":76561198267969436,"connected_time":2318000000000,"state":"active","ping":70},{"user_id":411,"name":"Mr. Luigi","steam_id":76561198167312951,"connected_time":1212000000000,"state":"active","ping":36},{"user_id":419,"name":"Artificial.Ignorance","steam_id":76561198453090180,"connected_time":234000000000,"state":"active","ping":187},{"user_id":407,"name":"Fish 'n' Chips","steam_id":76561198033476886,"connected_time":1802000000000,"state":"active","ping":54},{"user_id":421,"name":"kikyeredin","steam_id":76561199058651968,"connected_time":168000000000,"state":"active","ping":55},{"user_id":393,"name":"jones","steam_id":76561198044434971,"connected_time":2765000000000,"state":"active","ping":66},{"user_id":390,"name":"Pervert-Head","steam_id":76561198037099644,"connected_time":2909000000000,"state":"active","ping":70},{"user_id":423,"name":"beans on toes","steam_id":76561199049633351,"connected_time":143000000000,"state":"active","ping":69},{"user_id":335,"name":"Alibi","steam_id":76561198061845595,"connected_time":6523000000000,"state":"active","ping":50},{"user_id":424,"name":"Just washed","steam_id":76561199030160932,"connected_time":141000000000,"state":"active","ping":154},{"user_id":426,"name":"medicinal man","steam_id":76561198202668788,"connected_time":91000000000,"state":"active","ping":66},{"user_id":427,"name":"Fofenho","steam_id":76561198436817109,"connected_time":84000000000,"state":"active","ping":48},{"user_id":428,"name":"JOE BIDEN","steam_id":76561198847191826,"connected_time":82000000000,"state":"active","ping":70}]},{"server_id":40,"name":"Uncletopia | London | 7 | No Payload","name_short":"lon-7","host":"lon-1.uk.uncletopia.com","port":27075,"enabled":true,"region":"eu","cc":"gb","latitude":51.509865,"longitude":-0.118092,"reserved":0,"last_update":"0001-01-01T00:00:00Z","name_a2s":"Uncletopia | London | 7 | No Payload","protocol":17,"map":"koth_nucleus","folder":"tf","game":"Team Fortress","app_id":440,"player_count":0,"max_players":24,"Bots":0,"server_type":"Dedicated","server_os":"Linux","password":true,"vac":true,"version":"7882260","steam_id":85568392924964314,"keywords":["cp","nocrits","nodmgspread","uncletopia"],"game_id":440,"stv_port":27076,"stv_name":"Uncletopia | London | 7 | No Payload | STV","players":null},{"server_id":41,"name":"Uncletopia | London | 8 | Community","name_short":"lon-8","host":"lon-1.uk.uncletopia.com","port":27085,"enabled":true,"region":"eu","cc":"gb","latitude":51.509865,"longitude":-0.118092,"reserved":0,"last_update":"0001-01-01T00:00:00Z","name_a2s":"Uncletopia | London | 8 | Community","protocol":17,"map":"workshop/cp_propaganda_b18.ugc1603743849","folder":"tf","game":"Team Fortress","app_id":440,"player_count":0,"max_players":24,"Bots":0,"server_type":"Dedicated","server_os":"Linux","password":true,"vac":true,"version":"7882260","steam_id":85568392924964315,"keywords":["cp","nocrits","nodmgspread","uncletopia"],"game_id":440,"stv_port":27086,"stv_name":"Uncletopia | London | 8 | Community | STV","players":null},{"server_id":300,"name":"Uncletopia | Montréal | 1 | All Maps","name_short":"mtl-1","host":"mtl-1.ca.uncletopia.com","port":27015,"enabled":true,"region":"us-east","cc":"ca","latitude":45.50889,"longitude":-73.56167,"reserved":0,"last_update":"0001-01-01T00:00:00Z","name_a2s":"Uncletopia | Montréal | 1 | All Maps","protocol":17,"map":"pl_snowycoast","folder":"tf","game":"Team Fortress","app_id":440,"player_count":0,"max_players":24,"Bots":0,"server_type":"Dedicated","server_os":"Linux","password":true,"vac":true,"version":"7882260","steam_id":85568392924500087,"keywords":["nocrits","nodmgspread","payload","uncletopia"],"game_id":440,"stv_port":27016,"stv_name":"Uncletopia | Montréal | 1 | All Maps | STV","players":null},{"server_id":301,"name":"Uncletopia | Montréal | 2 | All Maps","name_short":"mtl-2","host":"mtl-1.ca.uncletopia.com","port":27025,"enabled":true,"region":"us-east","cc":"ca","latitude":45.50889,"longitude":-73.56167,"reserved":0,"last_update":"0001-01-01T00:00:00Z","name_a2s":"Uncletopia | Montréal | 2 | All Maps","protocol":17,"map":"cp_sunshine","folder":"tf","game":"Team Fortress","app_id":440,"player_count":0,"max_players":24,"Bots":0,"server_type":"Dedicated","server_os":"Linux","password":true,"vac":true,"version":"7882260","steam_id":85568392924500088,"keywords":["cp","nocrits","nodmgspread","uncletopia"],"game_id":440,"stv_port":27026,"stv_name":"Uncletopia | Montréal | 2 | All Maps | STV","players":null},{"server_id":302,"name":"Uncletopia | Montréal | 3 | All Maps","name_short":"mtl-3","host":"mtl-1.ca.uncletopia.com","port":27035,"enabled":true,"region":"us-east","cc":"ca","latitude":45.50889,"longitude":-73.56167,"reserved":0,"last_update":"0001-01-01T00:00:00Z","name_a2s":"Uncletopia | Montréal | 3 | All Maps","protocol":17,"map":"cp_sunshine","folder":"tf","game":"Team Fortress","app_id":440,"player_count":0,"max_players":24,"Bots":0,"server_type":"Dedicated","server_os":"Linux","password":true,"vac":true,"version":"7882260","steam_id":85568392924500089,"keywords":["cp","nocrits","nodmgspread","uncletopia"],"game_id":440,"stv_port":27036,"stv_name":"Uncletopia | Montréal | 3 | All Maps | STV","players":null},{"server_id":303,"name":"Uncletopia | Montréal | 4 | No Payload","name_short":"mtl-4","host":"mtl-1.ca.uncletopia.com","port":27045,"enabled":true,"region":"us-east","cc":"ca","latitude":45.50889,"longitude":-73.56167,"reserved":0,"last_update":"0001-01-01T00:00:00Z","name_a2s":"Uncletopia | Montréal | 4 | No Payload","protocol":17,"map":"cp_altitude","folder":"tf","game":"Team Fortress","app_id":440,"player_count":0,"max_players":24,"Bots":0,"server_type":"Dedicated","server_os":"Linux","password":true,"vac":true,"version":"7882260","steam_id":85568392924500090,"keywords":["cp","nocrits","nodmgspread","uncletopia"],"game_id":440,"stv_port":27046,"stv_name":"Uncletopia | Montréal | 4 | No Payload | STV","players":null},{"server_id":13,"name":"Uncletopia | New York City | 1 | All Maps","name_short":"nyc-1","host":"nyc-1.us.uncletopia.com","port":27015,"enabled":true,"region":"us-east","cc":"us","latitude":40.73061,"longitude":-73.93524,"reserved":0,"last_update":"0001-01-01T00:00:00Z","name_a2s":"Uncletopia | New York City | 1 | All Maps","protocol":17,"map":"pl_borneo","folder":"tf","game":"Team Fortress","app_id":440,"player_count":24,"max_players":24,"Bots":0,"server_type":"Dedicated","server_os":"Linux","password":true,"vac":true,"version":"7882260","steam_id":85568392924469993,"keywords":["nocrits","nodmgspread","payload","uncletopia"],"game_id":440,"stv_port":27016,"stv_name":"Uncletopia | New York City | 1 | All Maps | STV","players":[{"user_id":142,"name":"Heropon","steam_id":76561198105224481,"connected_time":649000000000,"state":"active","ping":64},{"user_id":139,"name":"Uhonlapjontetkiza","steam_id":76561199431280503,"connected_time":1022000000000,"state":"active","ping":67},{"user_id":116,"name":"i ate a mini sentry","steam_id":76561199153202930,"connected_time":1959000000000,"state":"active","ping":120},{"user_id":117,"name":"creeeeeee","steam_id":76561198392539722,"connected_time":1951000000000,"state":"active","ping":80},{"user_id":92,"name":"Graybard","steam_id":76561198045100497,"connected_time":4381000000000,"state":"active","ping":73},{"user_id":141,"name":"Scoron","steam_id":76561198062099305,"connected_time":652000000000,"state":"active","ping":137},{"user_id":147,"name":"R|||L","steam_id":76561198453824178,"connected_time":558000000000,"state":"active","ping":124},{"user_id":119,"name":"nalezinik","steam_id":76561198030026119,"connected_time":1935000000000,"state":"active","ping":67},{"user_id":136,"name":"Decot","steam_id":76561198042016967,"connected_time":1349000000000,"state":"active","ping":57},{"user_id":143,"name":"Xurany","steam_id":76561199005012427,"connected_time":605000000000,"state":"active","ping":86},{"user_id":129,"name":"Iman","steam_id":76561198063677510,"connected_time":1696000000000,"state":"active","ping":63},{"user_id":131,"name":"Oopsie Daisy ❋","steam_id":76561198042144492,"connected_time":1600000000000,"state":"active","ping":79},{"user_id":98,"name":"gertchy","steam_id":76561199111932529,"connected_time":4025000000000,"state":"active","ping":31},{"user_id":135,"name":"drank","steam_id":76561198249206656,"connected_time":1540000000000,"state":"active","ping":69},{"user_id":114,"name":"Poi","steam_id":76561198176914898,"connected_time":1994000000000,"state":"active","ping":92},{"user_id":132,"name":"*‧˚kitsu ʚ♥ɞ","steam_id":76561198091741658,"connected_time":1594000000000,"state":"active","ping":90},{"user_id":144,"name":"Mike1225","steam_id":76561198861615835,"connected_time":601000000000,"state":"active","ping":71},{"user_id":138,"name":"Immersive Sin","steam_id":76561198114458344,"connected_time":1173000000000,"state":"active","ping":41},{"user_id":148,"name":"steven","steam_id":76561198173047169,"connected_time":98000000000,"state":"active","ping":42},{"user_id":145,"name":"xiii","steam_id":76561198079416036,"connected_time":597000000000,"state":"active","ping":79},{"user_id":146,"name":"Washburne","steam_id":76561198032810579,"connected_time":581000000000,"state":"active","ping":124},{"user_id":53,"name":"specialinsect","steam_id":76561198324718706,"connected_time":8208000000000,"state":"active","ping":61},{"user_id":140,"name":"Room_237","steam_id":76561199135081315,"connected_time":656000000000,"state":"active","ping":64},{"user_id":106,"name":"the-willy12","steam_id":76561199145029672,"connected_time":3326000000000,"state":"active","ping":71}]},{"server_id":14,"name":"Uncletopia | New York City | 2 | All Maps","name_short":"nyc-2","host":"nyc-1.us.uncletopia.com","port":27025,"enabled":true,"region":"us-east","cc":"us","latitude":40.73061,"longitude":-73.93524,"reserved":0,"last_update":"0001-01-01T00:00:00Z","name_a2s":"Uncletopia | New York City | 2 | All Maps","protocol":17,"map":"pl_snowycoast","folder":"tf","game":"Team Fortress","app_id":440,"player_count":24,"max_players":24,"Bots":0,"server_type":"Dedicated","server_os":"Linux","password":true,"vac":true,"version":"7882260","steam_id":85568392924469994,"keywords":["nocrits","nodmgspread","payload","uncletopia"],"game_id":440,"stv_port":27026,"stv_name":"Uncletopia | New York City | 2 | All Maps | STV","players":[{"user_id":54,"name":"Kiwimpediment","steam_id":76561198322781400,"connected_time":3336000000000,"state":"active","ping":86},{"user_id":7,"name":"Fish","steam_id":76561199258053772,"connected_time":6331000000000,"state":"active","ping":72},{"user_id":63,"name":"meat glasses","steam_id":76561198046742645,"connected_time":2706000000000,"state":"active","ping":60},{"user_id":90,"name":"Tails","steam_id":76561198063743202,"connected_time":508000000000,"state":"active","ping":186},{"user_id":89,"name":"ThatGamingKiwi","steam_id":76561199170522237,"connected_time":558000000000,"state":"active","ping":77},{"user_id":92,"name":"CoconutNeutral","steam_id":76561198277110108,"connected_time":66000000000,"state":"active","ping":69},{"user_id":79,"name":"The Fragrance of Dark Coffee","steam_id":76561198013111370,"connected_time":1197000000000,"state":"active","ping":52},{"user_id":83,"name":"qoast","steam_id":76561198055403943,"connected_time":720000000000,"state":"active","ping":59},{"user_id":40,"name":"the pest","steam_id":76561198826298849,"connected_time":3682000000000,"state":"active","ping":89},{"user_id":80,"name":"Gaben Gaming","steam_id":76561198330119627,"connected_time":1150000000000,"state":"active","ping":75},{"user_id":43,"name":"Kedata","steam_id":76561198047750050,"connected_time":3558000000000,"state":"active","ping":60},{"user_id":68,"name":"Dipdoof","steam_id":76561198077634776,"connected_time":2379000000000,"state":"active","ping":62},{"user_id":72,"name":"abed","steam_id":76561198072856511,"connected_time":2243000000000,"state":"active","ping":69},{"user_id":78,"name":"Joe","steam_id":76561199389283507,"connected_time":1209000000000,"state":"active","ping":67},{"user_id":87,"name":"owieMYDICKHURT","steam_id":76561199445629071,"connected_time":657000000000,"state":"active","ping":47},{"user_id":81,"name":"doop","steam_id":76561198370487545,"connected_time":940000000000,"state":"active","ping":60},{"user_id":91,"name":"all_classics","steam_id":76561198012738913,"connected_time":444000000000,"state":"active","ping":68},{"user_id":77,"name":"sparejaguar","steam_id":76561199057045306,"connected_time":1580000000000,"state":"active","ping":106},{"user_id":86,"name":"MeDerp","steam_id":76561198334037284,"connected_time":693000000000,"state":"active","ping":104},{"user_id":67,"name":"mudman","steam_id":76561198079420187,"connected_time":2395000000000,"state":"active","ping":84},{"user_id":53,"name":"TheCaberMagnet","steam_id":76561198796383697,"connected_time":3395000000000,"state":"active","ping":63},{"user_id":64,"name":"glue sniffer","steam_id":76561198044689778,"connected_time":2626000000000,"state":"active","ping":45},{"user_id":85,"name":"suns","steam_id":76561198079583278,"connected_time":713000000000,"state":"active","ping":60},{"user_id":51,"name":"Smooth - Santana ft. Rob Thomas","steam_id":76561198145283389,"connected_time":3429000000000,"state":"active","ping":62}]},{"server_id":15,"name":"Uncletopia | New York City | 3 | Stopwatch Beta","name_short":"nyc-3","host":"nyc-1.us.uncletopia.com","port":27035,"enabled":true,"region":"us-east","cc":"us","latitude":40.73061,"longitude":-73.93524,"reserved":0,"last_update":"0001-01-01T00:00:00Z","name_a2s":"Uncletopia | New York City | 3 | Stopwatch Beta","protocol":17,"map":"koth_lakeside_final","folder":"tf","game":"Team Fortress","app_id":440,"player_count":0,"max_players":24,"Bots":0,"server_type":"Dedicated","server_os":"Linux","password":true,"vac":true,"version":"7882260","steam_id":85568392924742820,"keywords":["cp","nocrits","nodmgspread","uncletopia"],"game_id":440,"stv_port":27036,"stv_name":"Uncletopia | New York City | 3 | Stopwatch Beta | STV","players":null},{"server_id":16,"name":"Uncletopia | New York City | 4 | Community","name_short":"nyc-4","host":"nyc-1.us.uncletopia.com","port":27045,"enabled":true,"region":"us-east","cc":"us","latitude":40.73061,"longitude":-73.93524,"reserved":0,"last_update":"0001-01-01T00:00:00Z","name_a2s":"Uncletopia | New York City | 4 | Community","protocol":17,"map":"workshop/koth_ramjam_rc1.ugc459778887","folder":"tf","game":"Team Fortress","app_id":440,"player_count":0,"max_players":24,"Bots":0,"server_type":"Dedicated","server_os":"Linux","password":true,"vac":true,"version":"7882260","steam_id":85568392924742821,"keywords":["cp","nocrits","nodmgspread","uncletopia"],"game_id":440,"stv_port":27046,"stv_name":"Uncletopia | New York City | 4 | Community | STV","players":null},{"server_id":142,"name":"Uncletopia | São Paulo | 1 | All Maps","name_short":"sao-1","host":"sao-1.br.uncletopia.com","port":27015,"enabled":true,"region":"sa","cc":"br","latitude":-23.533773,"longitude":-46.62529,"reserved":0,"last_update":"0001-01-01T00:00:00Z","name_a2s":"Uncletopia | São Paulo | 1 | All Maps","protocol":17,"map":"pl_upward","folder":"tf","game":"Team Fortress","app_id":440,"player_count":0,"max_players":24,"Bots":0,"server_type":"Dedicated","server_os":"Linux","password":true,"vac":true,"version":"7882260","steam_id":85568392924469996,"keywords":["nocrits","nodmgspread","payload","uncletopia"],"game_id":440,"stv_port":27016,"stv_name":"Uncletopia | São Paulo | 1 | All Maps | STV","players":null},{"server_id":143,"name":"Uncletopia | São Paulo | 2 | All Maps","name_short":"sao-2","host":"sao-2.br.uncletopia.com","port":27015,"enabled":true,"region":"sa","cc":"br","latitude":-23.533773,"longitude":-46.62529,"reserved":0,"last_update":"0001-01-01T00:00:00Z","name_a2s":"Uncletopia | São Paulo | 2 | All Maps","protocol":17,"map":"pl_swiftwater_final1","folder":"tf","game":"Team Fortress","app_id":440,"player_count":0,"max_players":24,"Bots":0,"server_type":"Dedicated","server_os":"Linux","password":true,"vac":true,"version":"7882260","steam_id":85568392924485349,"keywords":["nocrits","nodmgspread","payload","uncletopia"],"game_id":440,"stv_port":27016,"stv_name":"Uncletopia | São Paulo | 2 | All Maps | STV","players":null},{"server_id":7,"name":"Uncletopia | Seattle | 1 | All Maps","name_short":"sea-1","host":"sea-1.us.uncletopia.com","port":27015,"enabled":true,"region":"us-west","cc":"us","latitude":47.608013,"longitude":-122.33517,"reserved":0,"last_update":"0001-01-01T00:00:00Z","name_a2s":"Uncletopia | Seattle | 1 | All Maps","protocol":17,"map":"pl_swiftwater_final1","folder":"tf","game":"Team Fortress","app_id":440,"player_count":24,"max_players":24,"Bots":0,"server_type":"Dedicated","server_os":"Linux","password":true,"vac":true,"version":"7882260","steam_id":85568392924469997,"keywords":["nocrits","nodmgspread","payload","uncletopia"],"game_id":440,"stv_port":27016,"stv_name":"Uncletopia | Seattle | 1 | All Maps | STV","players":[{"user_id":121,"name":"Flesh Eating Turtle","steam_id":76561198116742139,"connected_time":580000000000,"state":"active","ping":52},{"user_id":117,"name":"fancyfreak","steam_id":76561198326466375,"connected_time":1224000000000,"state":"active","ping":81},{"user_id":123,"name":"RED","steam_id":76561198030282308,"connected_time":272000000000,"state":"active","ping":65},{"user_id":116,"name":"evilOlive","steam_id":76561198106222025,"connected_time":1324000000000,"state":"active","ping":76},{"user_id":96,"name":"Stiffy Magnum","steam_id":76561198000036722,"connected_time":2577000000000,"state":"active","ping":88},{"user_id":15,"name":"Underscore Paul","steam_id":76561198070300902,"connected_time":9294000000000,"state":"active","ping":69},{"user_id":105,"name":"Midi","steam_id":76561199179087677,"connected_time":2022000000000,"state":"active","ping":114},{"user_id":118,"name":"paean","steam_id":76561198347225801,"connected_time":1186000000000,"state":"active","ping":46},{"user_id":112,"name":"captain red","steam_id":76561198191587983,"connected_time":1903000000000,"state":"active","ping":75},{"user_id":72,"name":"HiFivr","steam_id":76561198285190162,"connected_time":5306000000000,"state":"active","ping":66},{"user_id":120,"name":"Mr. Mime","steam_id":76561199197676776,"connected_time":1050000000000,"state":"active","ping":102},{"user_id":71,"name":"Riddle","steam_id":76561198892207399,"connected_time":5402000000000,"state":"active","ping":103},{"user_id":114,"name":"Monarch of Glass","steam_id":76561198165638237,"connected_time":1719000000000,"state":"active","ping":45},{"user_id":125,"name":"dust | she/it","steam_id":76561198045218909,"connected_time":155000000000,"state":"active","ping":43},{"user_id":103,"name":"YahYeeterson","steam_id":76561198120480906,"connected_time":2259000000000,"state":"active","ping":73},{"user_id":81,"name":"CTOAN","steam_id":76561198958617680,"connected_time":4372000000000,"state":"active","ping":84},{"user_id":87,"name":"jayeskae","steam_id":76561198144220801,"connected_time":3798000000000,"state":"active","ping":45},{"user_id":102,"name":"axellinag15","steam_id":76561199188113751,"connected_time":2283000000000,"state":"active","ping":92},{"user_id":56,"name":"Soda","steam_id":76561198219209367,"connected_time":6782000000000,"state":"active","ping":57},{"user_id":122,"name":"Themasterman75","steam_id":76561199385573293,"connected_time":538000000000,"state":"active","ping":75},{"user_id":104,"name":"BlazedBunny","steam_id":76561198243610560,"connected_time":2033000000000,"state":"active","ping":126},{"user_id":50,"name":"Unlock The Shock (She/They)","steam_id":76561198823616667,"connected_time":7601000000000,"state":"active","ping":109},{"user_id":124,"name":"SibilantSerpent","steam_id":76561198154488754,"connected_time":255000000000,"state":"active","ping":57},{"user_id":111,"name":"sushimomo","steam_id":76561198152131605,"connected_time":1943000000000,"state":"active","ping":130}]},{"server_id":119,"name":"Uncletopia | Seattle | 2 | All Maps","name_short":"sea-2","host":"sea-1.us.uncletopia.com","port":27025,"enabled":true,"region":"us-west","cc":"us","latitude":47.608013,"longitude":-122.33517,"reserved":0,"last_update":"0001-01-01T00:00:00Z","name_a2s":"Uncletopia | Seattle | 2 | All Maps","protocol":17,"map":"koth_highpass","folder":"tf","game":"Team Fortress","app_id":440,"player_count":0,"max_players":24,"Bots":0,"server_type":"Dedicated","server_os":"Linux","password":true,"vac":true,"version":"7882260","steam_id":85568392924469998,"keywords":["cp","nocrits","nodmgspread","uncletopia"],"game_id":440,"stv_port":27026,"stv_name":"Uncletopia | Seattle | 2 | All Maps | STV","players":null},{"server_id":406,"name":"Uncletopia | Seattle | 3 | Stopwatch Beta","name_short":"sea-3","host":"sea-1.us.uncletopia.com","port":27035,"enabled":true,"region":"us-west","cc":"us","latitude":47.608013,"longitude":-122.33517,"reserved":0,"last_update":"0001-01-01T00:00:00Z","name_a2s":"Uncletopia | Seattle | 3 | Stopwatch Beta","protocol":17,"map":"workshop/koth_ashville_final.ugc2130459942","folder":"tf","game":"Team Fortress","app_id":440,"player_count":0,"max_players":24,"Bots":0,"server_type":"Dedicated","server_os":"Linux","password":true,"vac":true,"version":"7882260","steam_id":85568392924515217,"keywords":["cp","nocrits","nodmgspread","uncletopia"],"game_id":440,"stv_port":27036,"stv_name":"Uncletopia | Seattle | 3 | Stopwatch Beta | STV","players":null},{"server_id":17,"name":"Uncletopia | San Francisco | 1 | All Maps","name_short":"sfo-1","host":"sfo-1.us.uncletopia.com","port":27015,"enabled":true,"region":"us-west","cc":"us","latitude":37.77397,"longitude":-122.4313,"reserved":0,"last_update":"0001-01-01T00:00:00Z","name_a2s":"Uncletopia | San Francisco | 1 | All Maps","protocol":17,"map":"cp_process_final","folder":"tf","game":"Team Fortress","app_id":440,"player_count":0,"max_players":24,"Bots":0,"server_type":"Dedicated","server_os":"Linux","password":true,"vac":true,"version":"7757534","steam_id":85568392924469999,"keywords":["cp","nocrits","nodmgspread","uncletopia"],"game_id":440,"stv_port":27016,"stv_name":"Uncletopia | San Francisco | 1 | All Maps | STV","players":null},{"server_id":18,"name":"Uncletopia | San Francisco | 2 | All Maps","name_short":"sfo-2","host":"sfo-1.us.uncletopia.com","port":27025,"enabled":true,"region":"us-west","cc":"us","latitude":37.77397,"longitude":-122.4313,"reserved":0,"last_update":"0001-01-01T00:00:00Z","name_a2s":"Uncletopia | San Francisco | 2 | All Maps","protocol":17,"map":"koth_highpass","folder":"tf","game":"Team Fortress","app_id":440,"player_count":0,"max_players":24,"Bots":0,"server_type":"Dedicated","server_os":"Linux","password":true,"vac":true,"version":"7757534","steam_id":85568392924470000,"keywords":["cp","nocrits","nodmgspread","uncletopia"],"game_id":440,"stv_port":27026,"stv_name":"Uncletopia | San Francisco | 2 | All Maps | STV","players":null},{"server_id":19,"name":"Uncletopia | San Francisco | 3 | Stopwatch Beta","name_short":"sfo-3","host":"sfo-1.us.uncletopia.com","port":27035,"enabled":true,"region":"us-west","cc":"us","latitude":37.77397,"longitude":-122.4313,"reserved":0,"last_update":"0001-01-01T00:00:00Z","name_a2s":"Uncletopia | San Francisco | 3 | Stopwatch Beta","protocol":17,"map":"koth_lakeside_final","folder":"tf","game":"Team Fortress","app_id":440,"player_count":0,"max_players":24,"Bots":0,"server_type":"Dedicated","server_os":"Linux","password":true,"vac":true,"version":"7757534","steam_id":85568392924742824,"keywords":["cp","nocrits","nodmgspread","uncletopia"],"game_id":440,"stv_port":27036,"stv_name":"Uncletopia | San Francisco | 3 | Stopwatch Beta | STV","players":null},{"server_id":20,"name":"Uncletopia | San Francisco | 4 | Community","name_short":"sfo-4","host":"sfo-1.us.uncletopia.com","port":27045,"enabled":true,"region":"us-west","cc":"us","latitude":37.77397,"longitude":-122.4313,"reserved":0,"last_update":"0001-01-01T00:00:00Z","name_a2s":"Uncletopia | San Francisco | 4 | Community","protocol":17,"map":"cp_altitude","folder":"tf","game":"Team Fortress","app_id":440,"player_count":0,"max_players":24,"Bots":0,"server_type":"Dedicated","server_os":"Linux","password":true,"vac":true,"version":"7757534","steam_id":85568392924742826,"keywords":["cp","nocrits","nodmgspread","uncletopia"],"game_id":440,"stv_port":27046,"stv_name":"Uncletopia | San Francisco | 4 | Community | STV","players":null},{"server_id":141,"name":"Uncletopia | Sydney | 1 | All Maps","name_short":"syd-1","host":"syd-1.au.uncletopia.com","port":27015,"enabled":true,"region":"au","cc":"au","latitude":-33.865143,"longitude":151.2099,"reserved":0,"last_update":"0001-01-01T00:00:00Z","name_a2s":"Uncletopia | Sydney | 1 | All Maps","protocol":17,"map":"koth_viaduct","folder":"tf","game":"Team Fortress","app_id":440,"player_count":0,"max_players":24,"Bots":0,"server_type":"Dedicated","server_os":"Linux","password":true,"vac":true,"version":"7882260","steam_id":85568392924470001,"keywords":["cp","nocrits","nodmgspread","uncletopia"],"game_id":440,"stv_port":27016,"stv_name":"Uncletopia | Sydney | 1 | All Maps | STV","players":null},{"server_id":123,"name":"Uncletopia | Sydney | 2 | All Maps","name_short":"syd-2","host":"syd-1.au.uncletopia.com","port":27025,"enabled":true,"region":"au","cc":"au","latitude":-33.865143,"longitude":151.2099,"reserved":0,"last_update":"0001-01-01T00:00:00Z","name_a2s":"Uncletopia | Sydney | 2 | All Maps","protocol":17,"map":"koth_viaduct","folder":"tf","game":"Team Fortress","app_id":440,"player_count":0,"max_players":24,"Bots":0,"server_type":"Dedicated","server_os":"Linux","password":true,"vac":true,"version":"7882260","steam_id":85568392924470002,"keywords":["cp","nocrits","nodmgspread","uncletopia"],"game_id":440,"stv_port":27026,"stv_name":"Uncletopia | Sydney | 2 | All Maps | STV","players":null},{"server_id":395,"name":"Uncletopia | Sydney | 3 | All Maps","name_short":"syd-3","host":"syd-1.au.uncletopia.com","port":27035,"enabled":true,"region":"au","cc":"au","latitude":-33.865143,"longitude":151.2099,"reserved":0,"last_update":"0001-01-01T00:00:00Z","name_a2s":"Uncletopia | Sydney | 3 | All Maps","protocol":17,"map":"pl_pier","folder":"tf","game":"Team Fortress","app_id":440,"player_count":0,"max_players":24,"Bots":0,"server_type":"Dedicated","server_os":"Linux","password":true,"vac":true,"version":"7882260","steam_id":85568392925194467,"keywords":["nocrits","nodmgspread","payload","uncletopia"],"game_id":440,"stv_port":27036,"stv_name":"Uncletopia | Sydney | 3 | All Maps | STV","players":null},{"server_id":396,"name":"Uncletopia | Sydney | 4 | All Maps","name_short":"syd-4","host":"syd-1.au.uncletopia.com","port":27045,"enabled":true,"region":"au","cc":"au","latitude":-33.865143,"longitude":151.2099,"reserved":0,"last_update":"0001-01-01T00:00:00Z","name_a2s":"Uncletopia | Sydney | 4 | All Maps","protocol":17,"map":"koth_viaduct","folder":"tf","game":"Team Fortress","app_id":440,"player_count":0,"max_players":24,"Bots":0,"server_type":"Dedicated","server_os":"Linux","password":true,"vac":true,"version":"7882260","steam_id":85568392925397958,"keywords":["cp","nocrits","nodmgspread","uncletopia"],"game_id":440,"stv_port":27046,"stv_name":"Uncletopia | Sydney | 4 | All Maps | STV","players":null},{"server_id":58,"name":"Uncletopia | Sydney | 5 | Stopwatch Beta","name_short":"syd-5","host":"syd-1.au.uncletopia.com","port":27055,"enabled":true,"region":"au","cc":"au","latitude":-33.865143,"longitude":151.2099,"reserved":0,"last_update":"0001-01-01T00:00:00Z","name_a2s":"Uncletopia | Sydney | 5 | Stopwatch Beta","protocol":17,"map":"cp_granary","folder":"tf","game":"Team Fortress","app_id":440,"player_count":0,"max_players":24,"Bots":0,"server_type":"Dedicated","server_os":"Linux","password":true,"vac":true,"version":"7882260","steam_id":85568392925397959,"keywords":["cp","nocrits","nodmgspread","uncletopia"],"game_id":440,"stv_port":27056,"stv_name":"Uncletopia | Sydney | 5 | Stopwatch Beta | STV","players":null},{"server_id":59,"name":"Uncletopia | Sydney | 6 | Community","name_short":"syd-6","host":"syd-1.au.uncletopia.com","port":27065,"enabled":true,"region":"au","cc":"au","latitude":-33.865143,"longitude":151.2099,"reserved":0,"last_update":"0001-01-01T00:00:00Z","name_a2s":"Uncletopia | Sydney | 6 | Community","protocol":17,"map":"workshop/koth_product_final.ugc454272353","folder":"tf","game":"Team Fortress","app_id":440,"player_count":0,"max_players":24,"Bots":0,"server_type":"Dedicated","server_os":"Linux","password":true,"vac":true,"version":"7882260","steam_id":85568392925397960,"keywords":["cp","nocrits","nodmgspread","uncletopia"],"game_id":440,"stv_port":27066,"stv_name":"Uncletopia | Sydney | 6 | Community | STV","players":null},{"server_id":49,"name":"Uncletopia | Warsaw | 1 | All Maps","name_short":"waw-1","host":"waw-1.pl.uncletopia.com","port":27015,"enabled":true,"region":"eu","cc":"pl","latitude":52.2297,"longitude":21.017532,"reserved":0,"last_update":"0001-01-01T00:00:00Z","name_a2s":"","protocol":0,"map":"","folder":"","game":"","app_id":0,"player_count":0,"max_players":0,"Bots":0,"server_type":"","server_os":"","password":false,"vac":false,"version":"","steam_id":0,"keywords":null,"game_id":0,"stv_port":0,"stv_name":"","players":null},{"server_id":50,"name":"Uncletopia | Warsaw | 2 | All Maps","name_short":"waw-2","host":"waw-1.pl.uncletopia.com","port":27025,"enabled":true,"region":"eu","cc":"pl","latitude":52.2297,"longitude":21.017532,"reserved":0,"last_update":"0001-01-01T00:00:00Z","name_a2s":"Uncletopia | Warsaw | 2 | All Maps","protocol":17,"map":"koth_highpass","folder":"tf","game":"Team Fortress","app_id":440,"player_count":0,"max_players":24,"Bots":0,"server_type":"Dedicated","server_os":"Linux","password":true,"vac":true,"version":"7882260","steam_id":85568392925397851,"keywords":["cp","nocrits","nodmgspread","uncletopia"],"game_id":440,"stv_port":27026,"stv_name":"Uncletopia | Warsaw | 2 | All Maps | STV","players":null},{"server_id":51,"name":"Uncletopia | Warsaw | 3 | All Maps","name_short":"waw-3","host":"waw-1.pl.uncletopia.com","port":27035,"enabled":true,"region":"eu","cc":"pl","latitude":52.2297,"longitude":21.017532,"reserved":0,"last_update":"0001-01-01T00:00:00Z","name_a2s":"Uncletopia | Warsaw | 3 | All Maps","protocol":17,"map":"koth_viaduct","folder":"tf","game":"Team Fortress","app_id":440,"player_count":0,"max_players":24,"Bots":0,"server_type":"Dedicated","server_os":"Linux","password":true,"vac":true,"version":"7882260","steam_id":85568392925397852,"keywords":["cp","nocrits","nodmgspread","uncletopia"],"game_id":440,"stv_port":27036,"stv_name":"Uncletopia | Warsaw | 3 | All Maps | STV","players":null},{"server_id":52,"name":"Uncletopia | Warsaw | 4 | All Maps","name_short":"waw-4","host":"waw-1.pl.uncletopia.com","port":27045,"enabled":true,"region":"eu","cc":"pl","latitude":52.2297,"longitude":21.017532,"reserved":0,"last_update":"0001-01-01T00:00:00Z","name_a2s":"Uncletopia | Warsaw | 4 | All Maps","protocol":17,"map":"pl_pier","folder":"tf","game":"Team Fortress","app_id":440,"player_count":0,"max_players":24,"Bots":0,"server_type":"Dedicated","server_os":"Linux","password":true,"vac":true,"version":"7882260","steam_id":85568392925397853,"keywords":["nocrits","nodmgspread","payload","uncletopia"],"game_id":440,"stv_port":27046,"stv_name":"Uncletopia | Warsaw | 4 | All Maps | STV","players":null},{"server_id":53,"name":"Uncletopia | Warsaw | 5 | Stopwatch Beta","name_short":"waw-5","host":"waw-1.pl.uncletopia.com","port":27055,"enabled":true,"region":"eu","cc":"pl","latitude":52.2297,"longitude":21.017532,"reserved":0,"last_update":"0001-01-01T00:00:00Z","name_a2s":"Uncletopia | Warsaw | 5 | Stopwatch Beta","protocol":17,"map":"cp_gullywash_final1","folder":"tf","game":"Team Fortress","app_id":440,"player_count":0,"max_players":24,"Bots":0,"server_type":"Dedicated","server_os":"Linux","password":true,"vac":true,"version":"7882260","steam_id":85568392925397854,"keywords":["cp","nocrits","nodmgspread","uncletopia"],"game_id":440,"stv_port":27056,"stv_name":"Uncletopia | Warsaw | 5 | Stopwatch Beta | STV","players":null},{"server_id":54,"name":"Uncletopia | Warsaw | 6 | Community","name_short":"waw-6","host":"waw-1.pl.uncletopia.com","port":27065,"enabled":true,"region":"eu","cc":"pl","latitude":52.2297,"longitude":21.017532,"reserved":0,"last_update":"0001-01-01T00:00:00Z","name_a2s":"Uncletopia | Warsaw | 6 | Community","protocol":17,"map":"koth_viaduct","folder":"tf","game":"Team Fortress","app_id":440,"player_count":0,"max_players":24,"Bots":0,"server_type":"Dedicated","server_os":"Linux","password":true,"vac":true,"version":"7882260","steam_id":85568392925397856,"keywords":["cp","nocrits","nodmgspread","uncletopia"],"game_id":440,"stv_port":27066,"stv_name":"Uncletopia | Warsaw | 6 | Community | STV","players":null}]}