{"status":true,"message":"","result":[{"server_id":9,"name":"Uncletopia | Atlanta | 1 | All Maps","name_short":"atl-1","host":"atl-1.us.uncletopia.com","port":27015,"enabled":true,"region":"us-east","cc":"us","latitude":33.753746,"longitude":-84.38633,"reserved":0,"last_update":"0001-01-01T00:00:00Z","name_a2s":"Uncletopia | Atlanta | 1 | All Maps","protocol":17,"map":"koth_cascade","folder":"tf","game":"Team Fortress","app_id":440,"player_count":0,"max_players":24,"Bots":0,"server_type":"Dedicated","server_os":"Linux","password":true,"vac":true,"version":"7757534","steam_id":85568392924469982,"keywords":["cp","nocrits","nodmgspread","uncletopia"],"game_id":440,"stv_port":27016,"stv_name":"Uncletopia | Atlanta | 1 | All Maps | STV","players":null},{"server_id":104,"name":"Uncletopia | Atlanta | 2 | All Maps","name_short":"atl-2","host":"atl-1.us.uncletopia.com","port":27025,"enabled":true,"region":"us-east","cc":"us","latitude":33.753746,"longitude":-84.38633,"reserved":0,"last_update":"0001-01-01T00:00:00Z","name_a2s":"Uncletopia | Atlanta | 2 | All Maps","protocol":17,"map":"pl_snowycoast","folder":"tf","game":"Team Fortress","app_id":440,"player_count":24,"max_players":24,"Bots":0,"server_type":"Dedicated","server_os":"Linux","password":true,"vac":true,"version":"7757534","steam_id":85568392924469983,"keywords":["nocrits","nodmgspread","payload","uncletopia"],"game_id":440,"stv_port":27026,"stv_name":"Uncletopia | Atlanta | 2 | All Maps | STV","players":[{"user_id":21,"name":"whittlo","steam_id":76561198056793479,"connected_time":2315000000000,"state":"active","ping":72},{"user_id":29,"name":"lycoris","steam_id":76561199113965768,"connected_time":1958000000000,"state":"active","ping":82},{"user_id":33,"name":"{SuN} 2","steam_id":76561198072441047,"connected_time":1764000000000,"state":"active","ping":125},{"user_id":31,"name":".jpegged","steam_id":76561198120078454,"connected_time":1867000000000,"state":"active","ping":55},{"user_id":17,"name":"Solaris","steam_id":76561198073166053,"connected_time":2550000000000,"state":"active","ping":60},{"user_id":62,"name":"Snow☆","steam_id":76561198031290573,"connected_time":127000000000,"state":"active","ping":56},{"user_id":32,"name":"Smalls","steam_id":76561198046081504,"connected_time":1812000000000,"state":"active","ping":60},{"user_id":34,"name":"strep!","steam_id":76561199437511713,"connected_time":1713000000000,"state":"active","ping":54},{"user_id":50,"name":"mechiimi ★","steam_id":76561198321627268,"connected_time":1231000000000,"state":"active","ping":106},{"user_id":36,"name":"Achi","steam_id":76561199097601364,"connected_time":1689000000000,"state":"active","ping":107},{"user_id":37,"name":"qwerg","steam_id":76561198107191794,"connected_time":1565000000000,"state":"active","ping":81},{"user_id":55,"name":"richard clock","steam_id":76561198048455671,"connected_time":598000000000,"state":"active","ping":71},{"user_id":39,"name":"manbearswineflu","steam_id":76561198083945137,"connected_time":1453000000000,"state":"active","ping":81},{"user_id":40,"name":"TheOnlyBeast","steam_id":76561197993208453,"connected_time":1449000000000,"state":"active","ping":63},{"user_id":60,"name":"stall","steam_id":76561199152861652,"connected_time":334000000000,"state":"active","ping":57},{"user_id":57,"name":"Player of Games","steam_id":76561198092309937,"connected_time":520000000000,"state":"active","ping":79},{"user_id":53,"name":"Placek","steam_id":76561198396258285,"connected_time":737000000000,"state":"active","ping":169},{"user_id":44,"name":"skullboyds","steam_id":76561198307348446,"connected_time":1381000000000,"state":"active","ping":181},{"user_id":59,"name":"Brown_Dream","steam_id":76561198975766145,"connected_time":465000000000,"state":"active","ping":69},{"user_id":46,"name":"Quindeli","steam_id":76561198082765254,"connected_time":1328000000000,"state":"active","ping":61},{"user_id":47,"name":"Roggan?","steam_id":76561198144260455,"connected_time":1304000000000,"state":"active","ping":89},{"user_id":48,"name":"abomination","steam_id":76561198167974713,"connected_time":1274000000000,"state":"active","ping":56},{"user_id":63,"name":"Degenerate","steam_id":76561198079416360,"connected_time":93000000000,"state":"active","ping":73},{"user_id":52,"name":"Yummy Kabobz","steam_id":76561198067661705,"connected_time":1146000000000,"state":"active","ping":57}]},{"server_id":400,"name":"Uncletopia | Atlanta | 3 | Community","name_short":"atl-3","host":"atl-1.us.uncletopia.com","port":27035,"enabled":true,"region":"us-east","cc":"us","latitude":33.753746,"longitude":-84.38633,"reserved":0,"last_update":"0001-01-01T00:00:00Z","name_a2s":"Uncletopia | Atlanta | 3 | Community","protocol":17,"map":"cp_snakewater_final1","folder":"tf","game":"Team Fortress","app_id":440,"player_count":0,"max_players":24,"Bots":0,"server_type":"Dedicated","server_os":"Linux","password":true,"vac":true,"version":"7757534","steam_id":85568392924515187,"keywords":["cp","nocrits","nodmgspread","uncletopia"],"game_id":440,"stv_port":27036,"stv_name":"Uncletopia | Atlanta | 3 | Community | STV","players":null},{"server_id":401,"name":"Uncletopia | Atlanta | 4 | No Payload","name_short":"atl-4","host":"atl-1.us.uncletopia.com","port":27045,"enabled":true,"region":"us-east","cc":"us","latitude":33.753746,"longitude":-84.38633,"reserved":0,"last_update":"0001-01-01T00:00:00Z","name_a2s":"","protocol":0,"map":"","folder":"","game":"","app_id":0,"player_count":0,"max_players":0,"Bots":0,"server_type":"","server_os":"","password":false,"vac":false,"version":"","steam_id":0,"keywords":null,"game_id":0,"stv_port":0,"stv_name":"","players":null},{"server_id":2,"name":"Uncletopia | Chicago | 1 | All Maps","name_short":"chi-1","host":"chi-1.us.uncletopia.com","port":27015,"enabled":true,"region":"us-central","cc":"us","latitude":41.881832,"longitude":-87.62318,"reserved":0,"last_update":"0001-01-01T00:00:00Z","name_a2s":"Uncletopia | Chicago | 1 | All Maps","protocol":17,"map":"pl_barnblitz","folder":"tf","game":"Team Fortress","app_id":440,"player_count":0,"max_players":24,"Bots":0,"server_type":"Dedicated","server_os":"Linux","password":true,"vac":true,"version":"7757534","steam_id":85568392924469984,"keywords":["nocrits","nodmgspread","payload","uncletopia"],"game_id":440,"stv_port":27016,"stv_name":"Uncletopia | Chicago | 1 | All Maps | STV","players":null},{"server_id":106,"name":"Uncletopia | Chicago | 2 | All Maps","name_short":"chi-2","host":"chi-1.us.uncletopia.com","port":27025,"enabled":true,"region":"us-central","cc":"us","latitude":41.881832,"longitude":-87.62318,"reserved":0,"last_update":"0001-01-01T00:00:00Z","name_a2s":"Uncletopia | Chicago | 2 | All Maps","protocol":17,"map":"pl_upward","folder":"tf","game":"Team Fortress","app_id":440,"player_count":24,"max_players":24,"Bots":0,"server_type":"Dedicated","server_os":"Linux","password":true,"vac":true,"version":"7757534","steam_id":85568392924469985,"keywords":["nocrits","nodmgspread","payload","uncletopia"],"game_id":440,"stv_port":27026,"stv_name":"Uncletopia | Chicago | 2 | All Maps | STV","players":[{"user_id":82,"name":"jema","steam_id":76561198276513608,"connected_time":385000000000,"state":"active","ping":165},{"user_id":4,"name":"Spimtmot733","steam_id":76561199029189825,"connected_time":5907000000000,"state":"active","ping":67},{"user_id":67,"name":"Mads","steam_id":76561198126137797,"connected_time":1228000000000,"state":"active","ping":94},{"user_id":68,"name":"femboy slvt :3","steam_id":76561199079810503,"connected_time":1211000000000,"state":"active","ping":99},{"user_id":69,"name":".Cassius.","steam_id":76561199181383832,"connected_time":1189000000000,"state":"active","ping":50},{"user_id":8,"name":"Ignatius J. Reilly","steam_id":76561198066958868,"connected_time":5895000000000,"state":"active","ping":70},{"user_id":79,"name":"Chinese Cabbage","steam_id":76561198311588768,"connected_time":452000000000,"state":"active","ping":71},{"user_id":84,"name":"MEDIC!","steam_id":76561199111430580,"connected_time":153000000000,"state":"active","ping":74},{"user_id":73,"name":"Victor Skull","steam_id":76561198352212864,"connected_time":816000000000,"state":"active","ping":60},{"user_id":58,"name":"waltuh","steam_id":76561198363541736,"connected_time":1828000000000,"state":"active","ping":88},{"user_id":22,"name":"godsdoctor","steam_id":76561198055010413,"connected_time":4972000000000,"state":"active","ping":135},{"user_id":83,"name":"Omni-S","steam_id":76561198082396372,"connected_time":375000000000,"state":"active","ping":77},{"user_id":50,"name":"Monster","steam_id":76561198189429665,"connected_time":3295000000000,"state":"active","ping":71},{"user_id":26,"name":"wally","steam_id":76561198027450079,"connected_time":4843000000000,"state":"active","ping":62},{"user_id":28,"name":"stigma","steam_id":76561197960315263,"connected_time":4812000000000,"state":"active","ping":74},{"user_id":54,"name":"Touch Grass","steam_id":76561199480331257,"connected_time":3028000000000,"state":"active","ping":81},{"user_id":74,"name":"BrainlezBrainiac","steam_id":76561199193942805,"connected_time":812000000000,"state":"active","ping":89},{"user_id":55,"name":"Zymiren","steam_id":76561198054985471,"connected_time":2277000000000,"state":"active","ping":88},{"user_id":77,"name":"FaZe Pumpkin","steam_id":76561197999128868,"connected_time":573000000000,"state":"active","ping":72},{"user_id":78,"name":"Kiss Master","steam_id":76561198289572271,"connected_time":510000000000,"state":"active","ping":76},{"user_id":41,"name":"Metbol","steam_id":76561198001362410,"connected_time":4125000000000,"state":"active","ping":79},{"user_id":52,"name":"WillKill","steam_id":76561197990341180,"connected_time":3247000000000,"state":"active","ping":63},{"user_id":80,"name":"CuSO4","steam_id":76561199278147589,"connected_time":452000000000,"state":"active","ping":68},{"user_id":56,"name":"Lost Arachnid","steam_id":76561199012943912,"connected_time":2276000000000,"state":"active","ping":70}]},{"server_id":402,"name":"Uncletopia | Chicago | 3 | All Maps","name_short":"chi-3","host":"chi-1.us.uncletopia.com","port":27035,"enabled":true,"region":"us-central","cc":"us","latitude":41.881832,"longitude":-87.62318,"reserved":0,"last_update":"0001-01-01T00:00:00Z","name_a2s":"Uncletopia | Chicago | 3 | All Maps","protocol":17,"map":"cp_sunshine","folder":"tf","game":"Team Fortress","app_id":440,"player_count":0,"max_players":24,"Bots":0,"server_type":"Dedicated","server_os":"Linux","password":true,"vac":true,"version":"7757534","steam_id":85568392924515191,"keywords":["cp","nocrits","nodmgspread","uncletopia"],"game_id":440,"stv_port":27036,"stv_name":"Uncletopia | Chicago | 3 | All Maps | STV","players":null},{"server_id":403,"name":"Uncletopia | Chicago | 4 | All Maps","name_short":"chi-4","host":"chi-1.us.uncletopia.com","port":27045,"enabled":true,"region":"us-central","cc":"us","latitude":41.881832,"longitude":-87.62318,"reserved":0,"last_update":"0001-01-01T00:00:00Z","name_a2s":"Uncletopia | Chicago | 4 | All Maps","protocol":17,"map":"koth_lakeside_final","folder":"tf","game":"Team Fortress","app_id":440,"player_count":0,"max_players":24,"Bots":0,"server_type":"Dedicated","server_os":"Linux","password":true,"vac":true,"version":"7757534","steam_id":85568392924515193,"keywords":["cp","nocrits","nodmgspread","uncletopia"],"game_id":440,"stv_port":27046,"stv_name":"Uncletopia | Chicago | 4 | All Maps | STV","players":null},{"server_id":36,"name":"Uncletopia | Chicago | 5 | All Maps","name_short":"chi-5","host":"chi-2.us.uncletopia.com","port":27015,"enabled":true,"region":"us-central","cc":"us","latitude":41.881832,"longitude":-87.62318,"reserved":0,"last_update":"0001-01-01T00:00:00Z","name_a2s":"Uncletopia | Chicago | 5 | All Maps","protocol":17,"map":"koth_cascade","folder":"tf","game":"Team Fortress","app_id":440,"player_count":0,"max_players":24,"Bots":0,"server_type":"Dedicated","server_os":"Linux","password":true,"vac":true,"version":"7757534","steam_id":85568392924866362,"keywords":["cp","nocrits","nodmgspread","uncletopia"],"game_id":440,"stv_port":27016,"stv_name":"Uncletopia | Chicago | 5 | All Maps | STV","players":null},{"server_id":37,"name":"Uncletopia | Chicago | 6 | All Maps","name_short":"chi-6","host":"chi-2.us.uncletopia.com","port":27025,"enabled":true,"region":"us-central","cc":"us","latitude":41.881832,"longitude":-87.62318,"reserved":0,"last_update":"0001-01-01T00:00:00Z","name_a2s":"Uncletopia | Chicago | 6 | All Maps","protocol":17,"map":"pl_borneo","folder":"tf","game":"Team Fortress","app_id":440,"player_count":0,"max_players":24,"Bots":0,"server_type":"Dedicated","server_os":"Linux","password":true,"vac":true,"version":"7757534","steam_id":85568392924866363,"keywords":["nocrits","nodmgspread","payload","uncletopia"],"game_id":440,"stv_port":27026,"stv_name":"Uncletopia | Chicago | 6 | All Maps | STV","players":null},{"server_id":38,"name":"Uncletopia | Chicago | 7 | Stopwatch Beta","name_short":"chi-7","host":"chi-2.us.uncletopia.com","port":27035,"enabled":true,"region":"us-central","cc":"us","latitude":41.881832,"longitude":-87.62318,"reserved":0,"last_update":"0001-01-01T00:00:00Z","name_a2s":"Uncletopia | Chicago | 7 | Stopwatch Beta","protocol":17,"map":"pl_barnblitz","folder":"tf","game":"Team Fortress","app_id":440,"player_count":0,"max_players":24,"Bots":0,"server_type":"Dedicated","server_os":"Linux","password":true,"vac":true,"version":"7757534","steam_id":85568392924866364,"keywords":["nocrits","nodmgspread","payload","uncletopia"],"game_id":440,"stv_port":27036,"stv_name":"Uncletopia | Chicago | 7 | Stopwatch Beta | STV","players":null},{"server_id":39,"name":"Uncletopia | Chicago | 8 | Community","name_short":"chi-8","host":"chi-2.us.uncletopia.com","port":27045,"enabled":true,"region":"us-central","cc":"us","latitude":41.881832,"longitude":-87.62318,"reserved":0,"last_update":"0001-01-01T00:00:00Z","name_a2s":"Uncletopia | Chicago | 8 | Community","protocol":17,"map":"koth_cascade","folder":"tf","game":"Team Fortress","app_id":440,"player_count":0,"max_players":24,"Bots":0,"server_type":"Dedicated","server_os":"Linux","password":true,"vac":true,"version":"7757534","steam_id":85568392924866365,"keywords":["cp","nocrits","nodmgspread","uncletopia"],"game_id":440,"stv_port":27046,"stv_name":"Uncletopia | Chicago | 8 | Community | STV","players":null},{"server_id":8,"name":"Uncletopia | Dallas | 1 | All Maps","name_short":"dal-1","host":"dal-1.us.uncletopia.com","port":27015,"enabled":true,"region":"us-central","cc":"us","latitude":32.779167,"longitude":-96.80889,"reserved":0,"last_update":"0001-01-01T00:00:00Z","name_a2s":"Uncletopia | Dallas | 1 | All Maps","protocol":17,"map":"koth_cascade","folder":"tf","game":"Team Fortress","app_id":440,"player_count":0,"max_players":24,"Bots":0,"server_type":"Dedicated","server_os":"Linux","password":true,"vac":true,"version":"7757534","steam_id":85568392924469986,"keywords":["cp","nocrits","nodmgspread","uncletopia"],"game_id":440,"stv_port":27016,"stv_name":"Uncletopia | Dallas | 1 | All Maps | STV","players":null},{"server_id":108,"name":"Uncletopia | Dallas | 2 | All Maps","name_short":"dal-2","host":"dal-1.us.uncletopia.com","port":27025,"enabled":true,"region":"us-central","cc":"us","latitude":32.779167,"longitude":-96.80889,"reserved":0,"last_update":"0001-01-01T00:00:00Z","name_a2s":"Uncletopia | Dallas | 2 | All Maps","protocol":17,"map":"pl_upward","folder":"tf","game":"Team Fortress","app_id":440,"player_count":0,"max_players":24,"Bots":0,"server_type":"Dedicated","server_os":"Linux","password":true,"vac":true,"version":"7757534","steam_id":85568392924469988,"keywords":["nocrits","nodmgspread","payload","uncletopia"],"game_id":440,"stv_port":27026,"stv_name":"Uncletopia | Dallas | 2 | All Maps | STV","players":null},{"server_id":5,"name":"Uncletopia | Frankfurt | 1 | All Maps","name_short":"frk-1","host":"frk-1.de.uncletopia.com","port":27015,"enabled":true,"region":"eu","cc":"de","latitude":50.110924,"longitude":8.682127,"reserved":0,"last_update":"0001-01-01T00:00:00Z","name_a2s":"Uncletopia | Frankfurt | 1 | All Maps","protocol":17,"map":"pl_upward","folder":"tf","game":"Team Fortress","app_id":440,"player_count":23,"max_players":24,"Bots":0,"server_type":"Dedicated","server_os":"Linux","password":true,"vac":true,"version":"7757534","steam_id":85568392924469989,"keywords":["nocrits","nodmgspread","payload","uncletopia"],"game_id":440,"stv_port":27016,"stv_name":"Uncletopia | Frankfurt | 1 | All Maps | STV","players":[{"user_id":224,"name":"xiiski","steam_id":76561198152387747,"connected_time":2063000000000,"state":"active","ping":98},{"user_id":242,"name":"ambatukam","steam_id":76561199062586342,"connected_time":1036000000000,"state":"active","ping":74},{"user_id":214,"name":"✪ qua ✪","steam_id":76561198066408333,"connected_time":2418000000000,"state":"active","ping":50},{"user_id":231,"name":"knees","steam_id":76561198005924647,"connected_time":1674000000000,"state":"active","ping":72},{"user_id":247,"name":"Krimmblz","steam_id":76561198326488448,"connected_time":951000000000,"state":"active","ping":73},{"user_id":248,"name":"Wat Means?","steam_id":76561197966629582,"connected_time":920000000000,"state":"active","ping":53},{"user_id":251,"name":"Jhesus","steam_id":76561198778605978,"connected_time":835000000000,"state":"active","ping":93},{"user_id":260,"name":"port :o3","steam_id":76561198059151809,"connected_time":510000000000,"state":"active","ping":75},{"user_id":254,"name":"Matznmilian","steam_id":76561198024358403,"connected_time":719000000000,"state":"active","ping":71},{"user_id":161,"name":"Francisco","steam_id":76561198074614581,"connected_time":6144000000000,"state":"active","ping":72},{"user_id":236,"name":"acskama","steam_id":76561198136743845,"connected_time":1130000000000,"state":"active","ping":62},{"user_id":160,"name":"Charles Darwin","steam_id":76561197973496139,"connected_time":6156000000000,"state":"active","ping":60},{"user_id":263,"name":"Glenn Quagmire","steam_id":76561199348527880,"connected_time":15000000000,"state":"active","ping":77},{"user_id":225,"name":"Pastoss","steam_id":76561198379098260,"connected_time":2027000000000,"state":"active","ping":52},{"user_id":256,"name":"Tywhip","steam_id":76561199207545191,"connected_time":701000000000,"state":"active","ping":62},{"user_id":259,"name":"Cave Johnson","steam_id":76561198366456565,"connected_time":549000000000,"state":"active","ping":62},{"user_id":262,"name":"\"Big\" Jack Horner","steam_id":76561199000922074,"connected_time":473000000000,"state":"active","ping":78},{"user_id":257,"name":"\u003c blank \u003e","steam_id":76561198059375315,"connected_time":664000000000,"state":"active","ping":68},{"user_id":198,"name":"maria.","steam_id":76561198398126607,"connected_time":3792000000000,"state":"active","ping":60},{"user_id":258,"name":"Gabys","steam_id":76561198282892553,"connected_time":606000000000,"state":"active","ping":71},{"user_id":213,"name":"Nifi","steam_id":76561198102682566,"connected_time":2452000000000,"state":"active","ping":62},{"user_id":250,"name":"Igames","steam_id":76561198414062544,"connected_time":848000000000,"state":"active","ping":78},{"user_id":229,"name":"T_G_G","steam_id":76561199114568070,"connected_time":1796000000000,"state":"active","ping":100}]},{"server_id":110,"name":"Uncletopia | Frankfurt | 2 | All Maps","name_short":"frk-2","host":"frk-1.de.uncletopia.com","port":27025,"enabled":true,"region":"eu","cc":"de","latitude":50.110924,"longitude":8.682127,"reserved":0,"last_update":"0001-01-01T00:00:00Z","name_a2s":"Uncletopia | Frankfurt | 2 | All Maps","protocol":17,"map":"pl_snowycoast","folder":"tf","game":"Team Fortress","app_id":440,"player_count":24,"max_players":24,"Bots":0,"server_type":"Dedicated","server_os":"Linux","password":true,"vac":true,"version":"7757534","steam_id":85568392924469990,"keywords":["nocrits","nodmgspread","payload","uncletopia"],"game_id":440,"stv_port":27026,"stv_name":"Uncletopia | Frankfurt | 2 | All Maps | STV","players":[{"user_id":150,"name":"Ender az Endre Dragon","steam_id":76561198202235560,"connected_time":3755000000000,"state":"active","ping":102},{"user_id":6,"name":"dash.","steam_id":76561198084796149,"connected_time":12333000000000,"state":"active","ping":47},{"user_id":182,"name":"After8","steam_id":76561198090750865,"connected_time":1125000000000,"state":"active","ping":60},{"user_id":199,"name":"Kretur","steam_id":76561198161086266,"connected_time":505000000000,"state":"active","ping":92},{"user_id":166,"name":"pain train tf2","steam_id":76561198111568728,"connected_time":2647000000000,"state":"active","ping":47},{"user_id":152,"name":"Ziemniaczki z koperkiem","steam_id":76561198829123464,"connected_time":3544000000000,"state":"active","ping":77},{"user_id":161,"name":"Miatthew","steam_id":76561198034102895,"connected_time":3175000000000,"state":"active","ping":61},{"user_id":200,"name":"Potat Master |Potato Industries","steam_id":76561199112380553,"connected_time":477000000000,"state":"active","ping":90},{"user_id":201,"name":"murderwow","steam_id":76561198024566944,"connected_time":467000000000,"state":"active","ping":95},{"user_id":202,"name":"Spieller","steam_id":76561198057197847,"connected_time":462000000000,"state":"active","ping":75},{"user_id":167,"name":"RocketBoy08","steam_id":76561198833978944,"connected_time":1983000000000,"state":"active","ping":94},{"user_id":205,"name":"Gamlader","steam_id":76561198306177608,"connected_time":47000000000,"state":"active","ping":85},{"user_id":181,"name":"Ayden","steam_id":76561198900351978,"connected_time":1192000000000,"state":"active","ping":172},{"user_id":171,"name":"milk and fish gaming \u003e:)","steam_id":76561199203870510,"connected_time":1613000000000,"state":"active","ping":75},{"user_id":172,"name":"SpyGunning27","steam_id":76561199234795819,"connected_time":1607000000000,"state":"active","ping":89},{"user_id":183,"name":"SynthBox3","steam_id":76561199094075745,"connected_time":1115000000000,"state":"active","ping":89},{"user_id":174,"name":"The Wolf Leader","steam_id":76561198038007462,"connected_time":1573000000000,"state":"active","ping":66},{"user_id":187,"name":"theres a bomb in my tea","steam_id":76561199134149296,"connected_time":996000000000,"state":"active","ping":80},{"user_id":203,"name":"Mr. Banana","steam_id":76561199036304786,"connected_time":449000000000,"state":"active","ping":72},{"user_id":204,"name":"Drekadóttir","steam_id":76561198119979169,"connected_time":425000000000,"state":"active","ping":70},{"user_id":177,"name":"AidenQG","steam_id":76561198864678536,"connected_time":1519000000000,"state":"active","ping":68},{"user_id":178,"name":"Rolloden","steam_id":76561198069414404,"connected_time":1499000000000,"state":"active","ping":80},{"user_id":188,"name":"Vitamin Weee","steam_id":76561199183937747,"connected_time":973000000000,"state":"active","ping":83},{"user_id":191,"name":"Trokmanaoul","steam_id":76561199148272568,"connected_time":867000000000,"state":"active","ping":87}]},{"server_id":308,"name":"Uncletopia | Frankfurt | 3 | All Maps","name_short":"frk-3","host":"frk-1.de.uncletopia.com","port":27035,"enabled":true,"region":"eu","cc":"de","latitude":50.110924,"longitude":8.682127,"reserved":0,"last_update":"0001-01-01T00:00:00Z","name_a2s":"Uncletopia | Frankfurt | 3 | All Maps","protocol":17,"map":"koth_cascade","folder":"tf","game":"Team Fortress","app_id":440,"player_count":0,"max_players":24,"Bots":0,"server_type":"Dedicated","server_os":"Linux","password":true,"vac":true,"version":"7757534","steam_id":85568392924504274,"keywords":["cp","nocrits","nodmgspread","uncletopia"],"game_id":440,"stv_port":27036,"stv_name":"Uncletopia | Frankfurt | 3 | All Maps | STV","players":null},{"server_id":309,"name":"Uncletopia | Frankfurt | 4 | All Maps","name_short":"frk-4","host":"frk-1.de.uncletopia.com","port":27045,"enabled":true,"region":"eu","cc":"de","latitude":50.110924,"longitude":8.682127,"reserved":0,"last_update":"0001-01-01T00:00:00Z","name_a2s":"Uncletopia | Frankfurt | 4 | All Maps","protocol":17,"map":"koth_viaduct","folder":"tf","game":"Team Fortress","app_id":440,"player_count":0,"max_players":24,"Bots":0,"server_type":"Dedicated","server_os":"Linux","password":true,"vac":true,"version":"7757534","steam_id":85568392924504275,"keywords":["cp","nocrits","nodmgspread","uncletopia"],"game_id":440,"stv_port":27046,"stv_name":"Uncletopia | Frankfurt | 4 | All Maps | STV","players":null},{"server_id":310,"name":"Uncletopia | Frankfurt | 5 | All Maps","name_short":"frk-5","host":"frk-1.de.uncletopia.com","port":27055,"enabled":true,"region":"eu","cc":"de","latitude":50.110924,"longitude":8.682127,"reserved":0,"last_update":"0001-01-01T00:00:00Z","name_a2s":"Uncletopia | Frankfurt | 5 | All Maps","protocol":17,"map":"pl_badwater","folder":"tf","game":"Team Fortress","app_id":440,"player_count":24,"max_players":24,"Bots":0,"server_type":"Dedicated","server_os":"Linux","password":true,"vac":true,"version":"7757534","steam_id":85568392924504277,"keywords":["nocrits","nodmgspread","payload","uncletopia"],"game_id":440,"stv_port":27056,"stv_name":"Uncletopia | Frankfurt | 5 | All Maps | STV","players":[{"user_id":312,"name":"kallerannar","steam_id":76561199095701143,"connected_time":1714000000000,"state":"active","ping":79},{"user_id":324,"name":"Syd","steam_id":76561198020515027,"connected_time":642000000000,"state":"active","ping":67},{"user_id":319,"name":"goblin (real)","steam_id":76561198868286775,"connected_time":1507000000000,"state":"active","ping":90},{"user_id":299,"name":"Mr. Shadow | Folfie","steam_id":76561198037028507,"connected_time":2380000000000,"state":"active","ping":59},{"user_id":325,"name":"Slazaa","steam_id":76561197993252446,"connected_time":609000000000,"state":"active","ping":53},{"user_id":326,"name":"Timpanojnoj","steam_id":76561197970334448,"connected_time":580000000000,"state":"active","ping":61},{"user_id":304,"name":"milof","steam_id":76561198809199604,"connected_time":2272000000000,"state":"active","ping":74},{"user_id":328,"name":"Xriasp","steam_id":76561198104721321,"connected_time":454000000000,"state":"active","ping":70},{"user_id":335,"name":"metodmiha","steam_id":76561199111498575,"connected_time":258000000000,"state":"active","ping":85},{"user_id":305,"name":"Piteras","steam_id":76561198858532207,"connected_time":2271000000000,"state":"active","ping":85},{"user_id":322,"name":"Lucoa Enjoyer","steam_id":76561198842622419,"connected_time":1390000000000,"state":"active","ping":98},{"user_id":329,"name":"Creative","steam_id":76561198835034247,"connected_time":437000000000,"state":"active","ping":88},{"user_id":331,"name":"slnc","steam_id":76561198041151496,"connected_time":416000000000,"state":"active","ping":60},{"user_id":258,"name":"DarkFloy","steam_id":76561198070650206,"connected_time":5263000000000,"state":"active","ping":84},{"user_id":88,"name":"B.batt","steam_id":76561198998684199,"connected_time":14413000000000,"state":"active","ping":121},{"user_id":306,"name":"$nØw","steam_id":76561198238781028,"connected_time":2204000000000,"state":"active","ping":111},{"user_id":320,"name":"benzu.","steam_id":76561198382671370,"connected_time":1502000000000,"state":"active","ping":89},{"user_id":276,"name":"Wululu","steam_id":76561198180657331,"connected_time":3618000000000,"state":"active","ping":117},{"user_id":337,"name":"Kestrel","steam_id":76561198144033005,"connected_time":98000000000,"state":"active","ping":62},{"user_id":318,"name":"daanvanliempt05","steam_id":76561198355398948,"connected_time":1566000000000,"state":"active","ping":50},{"user_id":333,"name":"sword fights on the heights iv","steam_id":76561198026975734,"connected_time":390000000000,"state":"active","ping":122},{"user_id":321,"name":"somehow danced","steam_id":76561198128250460,"connected_time":1457000000000,"state":"active","ping":104},{"user_id":310,"name":"Don Franches","steam_id":76561198043958772,"connected_time":1883000000000,"state":"active","ping":156}]},{"server_id":311,"name":"Uncletopia | Frankfurt | 6 | All Maps","name_short":"frk-6","host":"frk-1.de.uncletopia.com","port":27065,"enabled":true,"region":"eu","cc":"de","latitude":50.110924,"longitude":8.682127,"reserved":0,"last_update":"0001-01-01T00:00:00Z","name_a2s":"Uncletopia | Frankfurt | 6 | All Maps","protocol":17,"map":"pl_pier","folder":"tf","game":"Team Fortress","app_id":440,"player_count":24,"max_players":24,"Bots":0,"server_type":"Dedicated","server_os":"Linux","password":true,"vac":true,"version":"7757534","steam_id":85568392924504278,"keywords":["nocrits","nodmgspread","payload","uncletopia"],"game_id":440,"stv_port":27066,"stv_name":"Uncletopia | Frankfurt | 6 | All Maps | STV","players":[{"user_id":190,"name":"Latgaul","steam_id":76561199009145544,"connected_time":449000000000,"state":"active","ping":95},{"user_id":33,"name":"Paweł","steam_id":76561198354235190,"connected_time":9880000000000,"state":"active","ping":88},{"user_id":130,"name":"Twisted Logic ∞","steam_id":76561198002245428,"connected_time":4117000000000,"state":"active","ping":56},{"user_id":169,"name":"Chicken","steam_id":76561199039728186,"connected_time":1477000000000,"state":"active","ping":70},{"user_id":195,"name":"MRLOLENO","steam_id":76561198450911838,"connected_time":357000000000,"state":"active","ping":65},{"user_id":160,"name":"radek","steam_id":76561197998883721,"connected_time":1842000000000,"state":"active","ping":70},{"user_id":172,"name":"big poo","steam_id":76561198129157178,"connected_time":1314000000000,"state":"active","ping":90},{"user_id":194,"name":"aolkdi","steam_id":76561198025479415,"connected_time":370000000000,"state":"active","ping":127},{"user_id":196,"name":"csgogem.com opskins.com meatspi","steam_id":76561198154274572,"connected_time":171000000000,"state":"active","ping":73},{"user_id":124,"name":"Crunchips","steam_id":76561198004336818,"connected_time":4430000000000,"state":"active","ping":85},{"user_id":184,"name":"Yuzu","steam_id":76561198121694613,"connected_time":950000000000,"state":"active","ping":55},{"user_id":186,"name":"DJpocalypse","steam_id":76561199230125964,"connected_time":699000000000,"state":"active","ping":187},{"user_id":170,"name":"robsan","steam_id":76561198137375391,"connected_time":1441000000000,"state":"active","ping":74},{"user_id":178,"name":"i sleep","steam_id":76561198130863086,"connected_time":1202000000000,"state":"active","ping":61},{"user_id":174,"name":"Trimping Squire","steam_id":76561198367203640,"connected_time":1280000000000,"state":"active","ping":46},{"user_id":154,"name":"Boki","steam_id":76561198044553351,"connected_time":2221000000000,"state":"active","ping":76},{"user_id":191,"name":"Edla","steam_id":76561198062815315,"connected_time":407000000000,"state":"active","ping":116},{"user_id":176,"name":"Cabbch","steam_id":76561198045955679,"connected_time":1230000000000,"state":"active","ping":58},{"user_id":142,"name":"Luuk","steam_id":76561198088266026,"connected_time":3467000000000,"state":"active","ping":45},{"user_id":192,"name":"brtaba","steam_id":76561198796334790,"connected_time":380000000000,"state":"active","ping":72},{"user_id":183,"name":"bass solo","steam_id":76561199117720299,"connected_time":975000000000,"state":"active","ping":59},{"user_id":180,"name":"Chopperson_","steam_id":76561198873728497,"connected_time":1191000000000,"state":"active","ping":112},{"user_id":185,"name":"Pico","steam_id":76561198063552545,"connected_time":819000000000,"state":"active","ping":96},{"user_id":193,"name":"MyFirstTimeeeeelel","steam_id":76561199235376543,"connected_time":374000000000,"state":"active","ping":69}]},{"server_id":23,"name":"Uncletopia | Frankfurt | 7 | Stopwatch Beta","name_short":"frk-7","host":"frk-1.de.uncletopia.com","port":27075,"enabled":true,"region":"eu","cc":"de","latitude":50.110924,"longitude":8.682127,"reserved":0,"last_update":"0001-01-01T00:00:00Z","name_a2s":"Uncletopia | Frankfurt | 7 | Stopwatch Beta","protocol":17,"map":"cp_sunshine","folder":"tf","game":"Team Fortress","app_id":440,"player_count":0,"max_players":24,"Bots":0,"server_type":"Dedicated","server_os":"Linux","password":true,"vac":true,"version":"7757534","steam_id":85568392924742827,"keywords":["cp","nocrits","nodmgspread","uncletopia"],"game_id":440,"stv_port":27076,"stv_name":"Uncletopia | Frankfurt | 7 | Stopwatch Beta | STV","players":null},{"server_id":24,"name":"Uncletopia | Frankfurt | 8 | Community","name_short":"frk-8","host":"frk-1.de.uncletopia.com","port":27085,"enabled":true,"region":"eu","cc":"de","latitude":50.110924,"longitude":8.682127,"reserved":0,"last_update":"0001-01-01T00:00:00Z","name_a2s":"Uncletopia | Frankfurt | 8 | Community","protocol":17,"map":"workshop/cp_glassworks_rc6a.ugc454118349","folder":"tf","game":"Team Fortress","app_id":440,"player_count":16,"max_players":24,"Bots":0,"server_type":"Dedicated","server_os":"Linux","password":true,"vac":true,"version":"7757534","steam_id":85568392924742828,"keywords":["cp","nocrits","nodmgspread","uncletopia"],"game_id":440,"stv_port":27086,"stv_name":"Uncletopia | Frankfurt | 8 | Community | STV","players":[{"user_id":74,"name":"engineer drip","steam_id":76561198991032570,"connected_time":2506000000000,"state":"active","ping":78},{"user_id":78,"name":"Gamer_X","steam_id":76561198085349286,"connected_time":2085000000000,"state":"active","ping":116},{"user_id":128,"name":"Arcader","steam_id":76561198109860110,"connected_time":18000000000,"state":"spawning","ping":167},{"user_id":22,"name":"worm","steam_id":76561198296497176,"connected_time":4954000000000,"state":"active","ping":56},{"user_id":81,"name":"olf","steam_id":76561198095487438,"connected_time":1807000000000,"state":"active","ping":76},{"user_id":123,"name":"SaltyCupcakes","steam_id":76561198256386417,"connected_time":150000000000,"state":"active","ping":52},{"user_id":96,"name":"Sir Walrus IV","steam_id":76561198229119520,"connected_time":1161000000000,"state":"active","ping":66},{"user_id":114,"name":"swueuws","steam_id":76561198020716743,"connected_time":352000000000,"state":"active","ping":53},{"user_id":127,"name":"JohnnyRakieta","steam_id":76561198855789287,"connected_time":55000000000,"state":"active","ping":64},{"user_id":66,"name":"Radegast the Brown","steam_id":76561198075489505,"connected_time":3253000000000,"state":"active","ping":61},{"user_id":112,"name":"grandpa's post-mortem photo","steam_id":76561198130116078,"connected_time":417000000000,"state":"active","ping":107},{"user_id":124,"name":"Aneťák","steam_id":76561198159294906,"connected_time":145000000000,"state":"spawning","ping":414},{"user_id":87,"name":"pootis sentry","steam_id":76561199225363633,"connected_time":1643000000000,"state":"active","ping":68},{"user_id":90,"name":"SODA!!!!!!!","steam_id":76561198107362485,"connected_time":1444000000000,"state":"active","ping":93},{"user_id":125,"name":"MateMO","steam_id":76561198146180114,"connected_time":109000000000,"state":"active","ping":83},{"user_id":108,"name":"ShellBug","steam_id":76561198144187527,"connected_time":823000000000,"state":"active","ping":161}]},{"server_id":202,"name":"Uncletopia | Hong Kong | 1 | All Maps","name_short":"hgk-1","host":"hgk-1.hk.uncletopia.com","port":27015,"enabled":true,"region":"asia","cc":"hk","latitude":22.302711,"longitude":114.177216,"reserved":0,"last_update":"0001-01-01T00:00:00Z","name_a2s":"Uncletopia | Hong Kong | 1 | All Maps","protocol":17,"map":"pl_rumford_event","folder":"tf","game":"Team Fortress","app_id":440,"player_count":24,"max_players":24,"Bots":0,"server_type":"Dedicated","server_os":"Linux","password":true,"vac":true,"version":"7757534","steam_id":85568392924494504,"keywords":["nocrits","nodmgspread","payload","uncletopia"],"game_id":440,"stv_port":27016,"stv_name":"Uncletopia | Hong Kong | 1 | All Maps | STV","players":[{"user_id":332,"name":"bathtub","steam_id":76561198967804087,"connected_time":4192000000000,"state":"active","ping":145},{"user_id":361,"name":"母の肉団子@hao123.com","steam_id":76561198069561896,"connected_time":901000000000,"state":"active","ping":44},{"user_id":379,"name":"17","steam_id":76561198241530712,"connected_time":198000000000,"state":"active","ping":110},{"user_id":328,"name":"Hay","steam_id":76561199438952901,"connected_time":4719000000000,"state":"active","ping":53},{"user_id":329,"name":"Lelouch","steam_id":76561198828840546,"connected_time":4205000000000,"state":"active","ping":72},{"user_id":377,"name":"happyman","steam_id":76561198045585030,"connected_time":254000000000,"state":"active","ping":67},{"user_id":355,"name":"no vc no c","steam_id":76561197989503095,"connected_time":1578000000000,"state":"active","ping":103},{"user_id":351,"name":"sáu thiện nhân","steam_id":76561199373637717,"connected_time":2454000000000,"state":"active","ping":102},{"user_id":366,"name":"善良の墨","steam_id":76561199102754539,"connected_time":823000000000,"state":"active","ping":84},{"user_id":282,"name":"TonXD","steam_id":76561199024372559,"connected_time":9329000000000,"state":"active","ping":104},{"user_id":319,"name":"KimvyKinsley","steam_id":76561198859745304,"connected_time":5891000000000,"state":"active","ping":86},{"user_id":334,"name":"YourMailisHere","steam_id":76561199222388500,"connected_time":4176000000000,"state":"active","ping":59},{"user_id":179,"name":"Vortex Artemisio","steam_id":76561198833527091,"connected_time":19550000000000,"state":"active","ping":90},{"user_id":376,"name":"spy gaming","steam_id":76561199000482422,"connected_time":258000000000,"state":"active","ping":119},{"user_id":370,"name":"๋","steam_id":76561198413116920,"connected_time":772000000000,"state":"active","ping":75},{"user_id":371,"name":"coakDeLera","steam_id":76561199262817512,"connected_time":515000000000,"state":"active","ping":137},{"user_id":283,"name":"Azi","steam_id":76561198147872523,"connected_time":9261000000000,"state":"active","ping":74},{"user_id":380,"name":"Nice","steam_id":76561199180653046,"connected_time":75000000000,"state":"active","ping":131},{"user_id":381,"name":"Ivy","steam_id":76561198400698408,"connected_time":34000000000,"state":"spawning","ping":94},{"user_id":360,"name":"Saffron","steam_id":76561199025320247,"connected_time":1184000000000,"state":"active","ping":71},{"user_id":359,"name":"Pirate Team Fortress 2","steam_id":76561199198665314,"connected_time":1288000000000,"state":"active","ping":76},{"user_id":261,"name":"ArcticDolphin","steam_id":76561198203626319,"connected_time":11773000000000,"state":"active","ping":192},{"user_id":378,"name":"King Tutel","steam_id":76561198451235659,"connected_time":254000000000,"state":"active","ping":112},{"user_id":343,"name":"Pug_Lord","steam_id":76561199090153442,"connected_time":3524000000000,"state":"active","ping":115}]},{"server_id":1,"name":"Uncletopia | Los Angeles | 1 | All Maps","name_short":"lax-1","host":"lax-1.us.uncletopia.com","port":27015,"enabled":true,"region":"us-west","cc":"us","latitude":33.94279,"longitude":-118.41004,"reserved":0,"last_update":"0001-01-01T00:00:00Z","name_a2s":"Uncletopia | Los Angeles | 1 | All Maps","protocol":17,"map":"cp_altitude","folder":"tf","game":"Team Fortress","app_id":440,"player_count":0,"max_players":24,"Bots":0,"server_type":"Dedicated","server_os":"Linux","password":true,"vac":true,"version":"7757534","steam_id":85568392924469991,"keywords":["cp","nocrits","nodmgspread","uncletopia"],"game_id":440,"stv_port":27016,"stv_name":"Uncletopia | Los Angeles | 1 | All Maps | STV","players":null},{"server_id":112,"name":"Uncletopia | Los Angeles | 2 | All Maps","name_short":"lax-2","host":"lax-1.us.uncletopia.com","port":27025,"enabled":true,"region":"us-west","cc":"us","latitude":33.94279,"longitude":-118.41004,"reserved":0,"last_update":"0001-01-01T00:00:00Z","name_a2s":"Uncletopia | Los Angeles | 2 | All Maps","protocol":17,"map":"pl_upward","folder":"tf","game":"Team Fortress","app_id":440,"player_count":0,"max_players":24,"Bots":0,"server_type":"Dedicated","server_os":"Linux","password":true,"vac":true,"version":"7757534","steam_id":85568392924469992,"keywords":["nocrits","nodmgspread","payload","uncletopia"],"game_id":440,"stv_port":27026,"stv_name":"Uncletopia | Los Angeles | 2 | All Maps | STV","players":null},{"server_id":324,"name":"Uncletopia | Los Angeles | 3 | All Maps","name_short":"lax-3","host":"lax-1.us.uncletopia.com","port":27035,"enabled":true,"region":"us-west","cc":"us","latitude":33.94279,"longitude":-118.41004,"reserved":0,"last_update":"0001-01-01T00:00:00Z","name_a2s":"Uncletopia | Los Angeles | 3 | All Maps","protocol":17,"map":"cp_altitude","folder":"tf","game":"Team Fortress","app_id":440,"player_count":1,"max_players":24,"Bots":0,"server_type":"Dedicated","server_os":"Linux","password":true,"vac":true,"version":"7757534","steam_id":85568392924510198,"keywords":["cp","nocrits","nodmgspread","uncletopia"],"game_id":440,"stv_port":27036,"stv_name":"Uncletopia | Los Angeles | 3 | All Maps | STV","players":[{"user_id":820,"name":"Uncle offical bot","steam_id":76561199480396857,"connected_time":147000000000,"state":"active","ping":203}]},{"server_id":25,"name":"Uncletopia | Los Angeles | 4 | Stopwatch Beta","name_short":"lax-4","host":"lax-1.us.uncletopia.com","port":27045,"enabled":true,"region":"us-west","cc":"us","latitude":33.94279,"longitude":-118.41004,"reserved":0,"last_update":"0001-01-01T00:00:00Z","name_a2s":"Uncletopia | Los Angeles | 4 | Stopwatch Beta","protocol":17,"map":"pl_swiftwater_final1","folder":"tf","game":"Team Fortress","app_id":440,"player_count":0,"max_players":24,"Bots":0,"server_type":"Dedicated","server_os":"Linux","password":true,"vac":true,"version":"7757534","steam_id":85568392924510199,"keywords":["nocrits","nodmgspread","payload","uncletopia"],"game_id":440,"stv_port":27046,"stv_name":"Uncletopia | Los Angeles | 4 | Stopwatch Beta | STV","players":null},{"server_id":11,"name":"Uncletopia | London | 1 | All Maps","name_short":"lon-1","host":"lon-1.uk.uncletopia.com","port":27015,"enabled":true,"region":"eu","cc":"gb","latitude":51.509865,"longitude":-0.118092,"reserved":0,"last_update":"0001-01-01T00:00:00Z","name_a2s":"Uncletopia | London | 1 | All Maps","protocol":17,"map":"cp_snakewater_final1","folder":"tf","game":"Team Fortress","app_id":440,"player_count":24,"max_players":24,"Bots":0,"server_type":"Dedicated","server_os":"Linux","password":true,"vac":true,"version":"7757534","steam_id":85568392924367362,"keywords":["cp","nocrits","nodmgspread","uncletopia"],"game_id":440,"stv_port":27016,"stv_name":"Uncletopia | London | 1 | All Maps | STV","players":[{"user_id":222,"name":"The Coom Assassin","steam_id":76561198437070985,"connected_time":7465000000000,"state":"active","ping":49},{"user_id":304,"name":"Helon","steam_id":76561198050761682,"connected_time":929000000000,"state":"active","ping":60},{"user_id":307,"name":"csnipery","steam_id":76561199435280050,"connected_time":584000000000,"state":"active","ping":63},{"user_id":259,"name":"spxcy","steam_id":76561198080296853,"connected_time":5277000000000,"state":"active","ping":88},{"user_id":230,"name":"Blob","steam_id":76561197971418993,"connected_time":6761000000000,"state":"active","ping":95},{"user_id":221,"name":"A stripper","steam_id":76561198034865891,"connected_time":7531000000000,"state":"active","ping":57},{"user_id":308,"name":"drgreg","steam_id":76561198120363898,"connected_time":530000000000,"state":"active","ping":124},{"user_id":295,"name":"Caruzon - Obismal","steam_id":76561198036211170,"connected_time":1830000000000,"state":"active","ping":77},{"user_id":264,"name":"Toast Nook","steam_id":76561199093949301,"connected_time":4533000000000,"state":"active","ping":88},{"user_id":289,"name":"Polech","steam_id":76561199187916824,"connected_time":2070000000000,"state":"active","ping":89},{"user_id":297,"name":"jimmy bob","steam_id":76561198319583692,"connected_time":1728000000000,"state":"active","ping":57},{"user_id":257,"name":"kojitori","steam_id":76561198838072150,"connected_time":5369000000000,"state":"active","ping":45},{"user_id":282,"name":"︻̷̿ ̿  一 ✧","steam_id":76561198007575097,"connected_time":2406000000000,"state":"active","ping":54},{"user_id":311,"name":"I I","steam_id":76561199101935057,"connected_time":43000000000,"state":"active","ping":92},{"user_id":296,"name":"outlaw","steam_id":76561198323805289,"connected_time":1792000000000,"state":"active","ping":30},{"user_id":275,"name":"Robe Iniesta","steam_id":76561199047081427,"connected_time":2873000000000,"state":"active","ping":80},{"user_id":310,"name":"CAMON ENGELAND","steam_id":76561198054301125,"connected_time":153000000000,"state":"active","ping":84},{"user_id":298,"name":"Flare","steam_id":76561198039098320,"connected_time":1634000000000,"state":"active","ping":48},{"user_id":287,"name":"Mr.O #deletesniper","steam_id":76561198039567498,"connected_time":2178000000000,"state":"active","ping":62},{"user_id":292,"name":"Darko","steam_id":76561198318825528,"connected_time":1936000000000,"state":"active","ping":70},{"user_id":306,"name":"Panda","steam_id":76561198176342325,"connected_time":637000000000,"state":"active","ping":93},{"user_id":285,"name":"Milosz52","steam_id":76561199060940204,"connected_time":2306000000000,"state":"active","ping":84},{"user_id":286,"name":"hud_saytext_time 0","steam_id":76561198010327228,"connected_time":2270000000000,"state":"active","ping":63},{"user_id":294,"name":"Raeschen","steam_id":76561198010188055,"connected_time":1883000000000,"state":"active","ping":53}]},{"server_id":114,"name":"Uncletopia | London | 2 | All Maps","name_short":"lon-2","host":"lon-1.uk.uncletopia.com","port":27025,"enabled":true,"region":"eu","cc":"gb","latitude":51.509865,"longitude":-0.118092,"reserved":0,"last_update":"0001-01-01T00:00:00Z","name_a2s":"Uncletopia | London | 2 | All Maps","protocol":17,"map":"pl_badwater","folder":"tf","game":"Team Fortress","app_id":440,"player_count":23,"max_players":24,"Bots":0,"server_type":"Dedicated","server_os":"Linux","password":true,"vac":true,"version":"7757534","steam_id":85568392924470941,"keywords":["nocrits","nodmgspread","payload","uncletopia"],"game_id":440,"stv_port":27026,"stv_name":"Uncletopia | London | 2 | All Maps | STV","players":[{"user_id":8,"name":"i AM the medic gf","steam_id":76561198247284680,"connected_time":4336000000000,"state":"active","ping":75},{"user_id":14,"name":"Ed","steam_id":76561198135081318,"connected_time":3612000000000,"state":"active","ping":54},{"user_id":76,"name":"Stabbyratbag","steam_id":76561198119531916,"connected_time":1000000000,"state":"spawning","ping":45},{"user_id":15,"name":"Ixsus\u003c3","steam_id":76561198094756869,"connected_time":3527000000000,"state":"active","ping":65},{"user_id":36,"name":"Lil Ari","steam_id":76561198218178180,"connected_time":2599000000000,"state":"active","ping":82},{"user_id":24,"name":"[P-roc] Cmm Bert","steam_id":76561198016658674,"connected_time":2864000000000,"state":"active","ping":65},{"user_id":74,"name":"BIG WATER","steam_id":76561199107659754,"connected_time":54000000000,"state":"active","ping":75},{"user_id":19,"name":"British Disapproval","steam_id":76561198001375260,"connected_time":3230000000000,"state":"active","ping":53},{"user_id":65,"name":"static","steam_id":76561198836825741,"connected_time":643000000000,"state":"active","ping":44},{"user_id":71,"name":"pfear","steam_id":76561197999207328,"connected_time":331000000000,"state":"active","ping":75},{"user_id":48,"name":"hourglass","steam_id":76561198166613799,"connected_time":2159000000000,"state":"active","ping":88},{"user_id":68,"name":"Zy","steam_id":76561198346329494,"connected_time":461000000000,"state":"active","ping":145},{"user_id":62,"name":"SimonTheOverseer","steam_id":76561198957685588,"connected_time":782000000000,"state":"active","ping":66},{"user_id":66,"name":"えななん","steam_id":76561199427679148,"connected_time":592000000000,"state":"active","ping":67},{"user_id":67,"name":"radiation","steam_id":76561198001157602,"connected_time":558000000000,"state":"active","ping":146},{"user_id":31,"name":"Egor Pomidor","steam_id":76561199175688390,"connected_time":2657000000000,"state":"active","ping":87},{"user_id":52,"name":"slightly drunk","steam_id":76561199184873889,"connected_time":1704000000000,"state":"active","ping":59},{"user_id":56,"name":"Lag","steam_id":76561198159360376,"connected_time":1435000000000,"state":"active","ping":51},{"user_id":73,"name":"regen","steam_id":76561198038665095,"connected_time":180000000000,"state":"active","ping":45},{"user_id":35,"name":"Gray","steam_id":76561198449128916,"connected_time":2617000000000,"state":"active","ping":85},{"user_id":75,"name":"yard man","steam_id":76561198019477093,"connected_time":53000000000,"state":"active","ping":75},{"user_id":42,"name":"Pipp Petals2014","steam_id":76561198147668373,"connected_time":2467000000000,"state":"active","ping":63},{"user_id":64,"name":"athenowolf","steam_id":76561198850106994,"connected_time":768000000000,"state":"active","ping":86}]},{"server_id":320,"name":"Uncletopia | London | 3 | All Maps","name_short":"lon-3","host":"lon-1.uk.uncletopia.com","port":27035,"enabled":true,"region":"eu","cc":"gb","latitude":51.509865,"longitude":-0.118092,"reserved":0,"last_update":"0001-01-01T00:00:00Z","name_a2s":"Uncletopia | London | 3 | All Maps","protocol":17,"map":"cp_dustbowl","folder":"tf","game":"Team Fortress","app_id":440,"player_count":0,"max_players":24,"Bots":0,"server_type":"Dedicated","server_os":"Linux","password":true,"vac":true,"version":"7757534","steam_id":85568392924510192,"keywords":["cp","nocrits","nodmgspread","uncletopia"],"game_id":440,"stv_port":27036,"stv_name":"Uncletopia | London | 3 | All Maps | STV","players":null},{"server_id":321,"name":"Uncletopia | London | 4 | All Maps","name_short":"lon-4","host":"lon-1.uk.uncletopia.com","port":27045,"enabled":true,"region":"eu","cc":"gb","latitude":51.509865,"longitude":-0.118092,"reserved":0,"last_update":"0001-01-01T00:00:00Z","name_a2s":"Uncletopia | London | 4 | All Maps","protocol":17,"map":"pl_upward","folder":"tf","game":"Team Fortress","app_id":440,"player_count":2,"max_players":24,"Bots":0,"server_type":"Dedicated","server_os":"Linux","password":true,"vac":true,"version":"7757534","steam_id":85568392924510193,"keywords":["nocrits","nodmgspread","payload","uncletopia"],"game_id":440,"stv_port":27046,"stv_name":"Uncletopia | London | 4 | All Maps | STV","players":[{"user_id":6,"name":"valzecam","steam_id":76561198274352933,"connected_time":148000000000,"state":"active","ping":57},{"user_id":7,"name":"Alfred Schroom","steam_id":76561198117990411,"connected_time":31000000000,"state":"active","ping":106}]},{"server_id":21,"name":"Uncletopia | London | 5 | All Maps","name_short":"lon-5","host":"lon-1.uk.uncletopia.com","port":27055,"enabled":true,"region":"eu","cc":"gb","latitude":51.509865,"longitude":-0.118092,"reserved":0,"last_update":"0001-01-01T00:00:00Z","name_a2s":"Uncletopia | London | 5 | All Maps","protocol":17,"map":"koth_cascade","folder":"tf","game":"Team Fortress","app_id":440,"player_count":0,"max_players":24,"Bots":0,"server_type":"Dedicated","server_os":"Linux","password":true,"vac":true,"version":"7757534","steam_id":85568392924742829,"keywords":["cp","nocrits","nodmgspread","uncletopia"],"game_id":440,"stv_port":27056,"stv_name":"Uncletopia | London | 5 | All Maps | STV","players":null},{"server_id":22,"name":"Uncletopia | London | 6 | All Maps","name_short":"lon-6","host":"lon-1.uk.uncletopia.com","port":27065,"enabled":true,"region":"eu","cc":"gb","latitude":51.509865,"longitude":-0.118092,"reserved":0,"last_update":"0001-01-01T00:00:00Z","name_a2s":"Uncletopia | London | 6 | All Maps","protocol":17,"map":"cp_mountainlab","folder":"tf","game":"Team Fortress","app_id":440,"player_count":0,"max_players":24,"Bots":0,"server_type":"Dedicated","server_os":"Linux","password":true,"vac":true,"version":"7757534","steam_id":85568392924742830,"keywords":["cp","nocrits","nodmgspread","uncletopia"],"game_id":440,"stv_port":27066,"stv_name":"Uncletopia | London | 6 | All Maps | STV","players":null},{"server_id":40,"name":"Uncletopia | London | 7 | No Payload","name_short":"lon-7","host":"lon-1.uk.uncletopia.com","port":27075,"enabled":true,"region":"eu","cc":"gb","latitude":51.509865,"longitude":-0.118092,"reserved":0,"last_update":"0001-01-01T00:00:00Z","name_a2s":"Uncletopia | London | 7 | No Payload","protocol":17,"map":"koth_nucleus","folder":"tf","game":"Team Fortress","app_id":440,"player_count":5,"max_players":24,"Bots":0,"server_type":"Dedicated","server_os":"Linux","password":true,"vac":true,"version":"7757534","steam_id":85568392924964314,"keywords":["cp","nocrits","nodmgspread","uncletopia"],"game_id":440,"stv_port":27076,"stv_name":"Uncletopia | London | 7 | No Payload | STV","players":[{"user_id":4,"name":"Vashontrash99","steam_id":76561199250946319,"connected_time":343000000000,"state":"active","ping":123},{"user_id":5,"name":"TSx* {Demon-Angel}","steam_id":76561198151486463,"connected_time":262000000000,"state":"active","ping":85},{"user_id":6,"name":"TSx* Bargal","steam_id":76561198040266872,"connected_time":248000000000,"state":"active","ping":81},{"user_id":7,"name":"nvmHastee","steam_id":76561199371458295,"connected_time":145000000000,"state":"active","ping":83},{"user_id":8,"name":"Stragnov☆","steam_id":76561198074702465,"connected_time":92000000000,"state":"active","ping":62}]},{"server_id":41,"name":"Uncletopia | London | 8 | Community","name_short":"lon-8","host":"lon-1.uk.uncletopia.com","port":27085,"enabled":true,"region":"eu","cc":"gb","latitude":51.509865,"longitude":-0.118092,"reserved":0,"last_update":"0001-01-01T00:00:00Z","name_a2s":"Uncletopia | London | 8 | Community","protocol":17,"map":"workshop/koth_bagel_rc6.ugc2514036946","folder":"tf","game":"Team Fortress","app_id":440,"player_count":0,"max_players":24,"Bots":0,"server_type":"Dedicated","server_os":"Linux","password":true,"vac":true,"version":"7757534","steam_id":85568392924964315,"keywords":["cp","nocrits","nodmgspread","uncletopia"],"game_id":440,"stv_port":27086,"stv_name":"Uncletopia | London | 8 | Community | STV","players":null},{"server_id":300,"name":"Uncletopia | Montréal | 1 | All Maps","name_short":"mtl-1","host":"mtl-1.ca.uncletopia.com","port":27015,"enabled":true,"region":"us-east","cc":"ca","latitude":45.50889,"longitude":-73.56167,"reserved":0,"last_update":"0001-01-01T00:00:00Z","name_a2s":"Uncletopia | Montréal | 1 | All Maps","protocol":17,"map":"pl_upward","folder":"tf","game":"Team Fortress","app_id":440,"player_count":0,"max_players":24,"Bots":0,"server_type":"Dedicated","server_os":"Linux","password":true,"vac":true,"version":"7757534","steam_id":85568392924500087,"keywords":["nocrits","nodmgspread","payload","uncletopia"],"game_id":440,"stv_port":27016,"stv_name":"Uncletopia | Montréal | 1 | All Maps | STV","players":null},{"server_id":301,"name":"Uncletopia | Montréal | 2 | All Maps","name_short":"mtl-2","host":"mtl-1.ca.uncletopia.com","port":27025,"enabled":true,"region":"us-east","cc":"ca","latitude":45.50889,"longitude":-73.56167,"reserved":0,"last_update":"0001-01-01T00:00:00Z","name_a2s":"Uncletopia | Montréal | 2 | All Maps","protocol":17,"map":"pl_snowycoast","folder":"tf","game":"Team Fortress","app_id":440,"player_count":0,"max_players":24,"Bots":0,"server_type":"Dedicated","server_os":"Linux","password":true,"vac":true,"version":"7757534","steam_id":85568392924500088,"keywords":["nocrits","nodmgspread","payload","uncletopia"],"game_id":440,"stv_port":27026,"stv_name":"Uncletopia | Montréal | 2 | All Maps | STV","players":null},{"server_id":302,"name":"Uncletopia | Montréal | 3 | All Maps","name_short":"mtl-3","host":"mtl-1.ca.uncletopia.com","port":27035,"enabled":true,"region":"us-east","cc":"ca","latitude":45.50889,"longitude":-73.56167,"reserved":0,"last_update":"0001-01-01T00:00:00Z","name_a2s":"Uncletopia | Montréal | 3 | All Maps","protocol":17,"map":"pl_swiftwater_final1","folder":"tf","game":"Team Fortress","app_id":440,"player_count":0,"max_players":24,"Bots":0,"server_type":"Dedicated","server_os":"Linux","password":true,"vac":true,"version":"7757534","steam_id":85568392924500089,"keywords":["nocrits","nodmgspread","payload","uncletopia"],"game_id":440,"stv_port":27036,"stv_name":"Uncletopia | Montréal | 3 | All Maps | STV","players":null},{"server_id":303,"name":"Uncletopia | Montréal | 4 | No Payload","name_short":"mtl-4","host":"mtl-1.ca.uncletopia.com","port":27045,"enabled":true,"region":"us-east","cc":"ca","latitude":45.50889,"longitude":-73.56167,"reserved":0,"last_update":"0001-01-01T00:00:00Z","name_a2s":"Uncletopia | Montréal | 4 | No Payload","protocol":17,"map":"pl_pier","folder":"tf","game":"Team Fortress","app_id":440,"player_count":0,"max_players":24,"Bots":0,"server_type":"Dedicated","server_os":"Linux","password":true,"vac":true,"version":"7757534","steam_id":85568392924500090,"keywords":["nocrits","nodmgspread","payload","uncletopia"],"game_id":440,"stv_port":27046,"stv_name":"Uncletopia | Montréal | 4 | No Payload | STV","players":null},{"server_id":13,"name":"Uncletopia | New York City | 1 | All Maps","name_short":"nyc-1","host":"nyc-1.us.uncletopia.com","port":27015,"enabled":true,"region":"us-east","cc":"us","latitude":40.73061,"longitude":-73.93524,"reserved":0,"last_update":"0001-01-01T00:00:00Z","name_a2s":"Uncletopia | New York City | 1 | All Maps","protocol":17,"map":"koth_viaduct","folder":"tf","game":"Team Fortress","app_id":440,"player_count":0,"max_players":24,"Bots":0,"server_type":"Dedicated","server_os":"Linux","password":true,"vac":true,"version":"7757534","steam_id":85568392924469993,"keywords":["cp","nocrits","nodmgspread","uncletopia"],"game_id":440,"stv_port":27016,"stv_name":"Uncletopia | New York City | 1 | All Maps | STV","players":null},{"server_id":14,"name":"Uncletopia | New York City | 2 | All Maps","name_short":"nyc-2","host":"nyc-1.us.uncletopia.com","port":27025,"enabled":true,"region":"us-east","cc":"us","latitude":40.73061,"longitude":-73.93524,"reserved":0,"last_update":"0001-01-01T00:00:00Z","name_a2s":"Uncletopia | New York City | 2 | All Maps","protocol":17,"map":"pl_badwater","folder":"tf","game":"Team Fortress","app_id":440,"player_count":0,"max_players":24,"Bots":0,"server_type":"Dedicated","server_os":"Linux","password":true,"vac":true,"version":"7757534","steam_id":85568392924469994,"keywords":["nocrits","nodmgspread","payload","uncletopia"],"game_id":440,"stv_port":27026,"stv_name":"Uncletopia | New York City | 2 | All Maps | STV","players":null},{"server_id":15,"name":"Uncletopia | New York City | 3 | Stopwatch Beta","name_short":"nyc-3","host":"nyc-1.us.uncletopia.com","port":27035,"enabled":true,"region":"us-east","cc":"us","latitude":40.73061,"longitude":-73.93524,"reserved":0,"last_update":"0001-01-01T00:00:00Z","name_a2s":"Uncletopia | New York City | 3 | Stopwatch Beta","protocol":17,"map":"pl_upward","folder":"tf","game":"Team Fortress","app_id":440,"player_count":0,"max_players":24,"Bots":0,"server_type":"Dedicated","server_os":"Linux","password":true,"vac":true,"version":"7757534","steam_id":85568392924742820,"keywords":["nocrits","nodmgspread","payload","uncletopia"],"game_id":440,"stv_port":27036,"stv_name":"Uncletopia | New York City | 3 | Stopwatch Beta | STV","players":null},{"server_id":16,"name":"Uncletopia | New York City | 4 | Community","name_short":"nyc-4","host":"nyc-1.us.uncletopia.com","port":27045,"enabled":true,"region":"us-east","cc":"us","latitude":40.73061,"longitude":-73.93524,"reserved":0,"last_update":"0001-01-01T00:00:00Z","name_a2s":"Uncletopia | New York City | 4 | Community","protocol":17,"map":"pl_swiftwater_final1","folder":"tf","game":"Team Fortress","app_id":440,"player_count":0,"max_players":24,"Bots":0,"server_type":"Dedicated","server_os":"Linux","password":true,"vac":true,"version":"7757534","steam_id":85568392924742821,"keywords":["nocrits","nodmgspread","payload","uncletopia"],"game_id":440,"stv_port":27046,"stv_name":"Uncletopia | New York City | 4 | Community | STV","players":null},{"server_id":142,"name":"Uncletopia | São Paulo | 1 | All Maps","name_short":"sao-1","host":"sao-1.br.uncletopia.com","port":27015,"enabled":true,"region":"sa","cc":"br","latitude":-23.533773,"longitude":-46.62529,"reserved":0,"last_update":"0001-01-01T00:00:00Z","name_a2s":"Uncletopia | São Paulo | 1 | All Maps","protocol":17,"map":"cp_snakewater_final1","folder":"tf","game":"Team Fortress","app_id":440,"player_count":1,"max_players":24,"Bots":0,"server_type":"Dedicated","server_os":"Linux","password":true,"vac":true,"version":"7757534","steam_id":85568392924469996,"keywords":["cp","nocrits","nodmgspread","uncletopia"],"game_id":440,"stv_port":27016,"stv_name":"Uncletopia | São Paulo | 1 | All Maps | STV","players":[{"user_id":3,"name":"GabrielNotSoOnline","steam_id":76561199096928424,"connected_time":72000000000,"state":"connecting","ping":101}]},{"server_id":143,"name":"Uncletopia | São Paulo | 2 | All Maps","name_short":"sao-2","host":"sao-2.br.uncletopia.com","port":27015,"enabled":true,"region":"sa","cc":"br","latitude":-23.533773,"longitude":-46.62529,"reserved":0,"last_update":"0001-01-01T00:00:00Z","name_a2s":"Uncletopia | São Paulo | 2 | All Maps","protocol":17,"map":"koth_viaduct","folder":"tf","game":"Team Fortress","app_id":440,"player_count":0,"max_players":24,"Bots":0,"server_type":"Dedicated","server_os":"Linux","password":true,"vac":true,"version":"7757534","steam_id":85568392924485349,"keywords":["cp","nocrits","nodmgspread","uncletopia"],"game_id":440,"stv_port":27016,"stv_name":"Uncletopia | São Paulo | 2 | All Maps | STV","players":null},{"server_id":7,"name":"Uncletopia | Seattle | 1 | All Maps","name_short":"sea-1","host":"sea-1.us.uncletopia.com","port":27015,"enabled":true,"region":"us-west","cc":"us","latitude":47.608013,"longitude":-122.33517,"reserved":0,"last_update":"0001-01-01T00:00:00Z","name_a2s":"Uncletopia | Seattle | 1 | All Maps","protocol":17,"map":"pl_frontier_final","folder":"tf","game":"Team Fortress","app_id":440,"player_count":0,"max_players":24,"Bots":0,"server_type":"Dedicated","server_os":"Linux","password":true,"vac":true,"version":"7757534","steam_id":85568392924469997,"keywords":["nocrits","nodmgspread","payload","uncletopia"],"game_id":440,"stv_port":27016,"stv_name":"Uncletopia | Seattle | 1 | All Maps | STV","players":null},{"server_id":119,"name":"Uncletopia | Seattle | 2 | All Maps","name_short":"sea-2","host":"sea-1.us.uncletopia.com","port":27025,"enabled":true,"region":"us-west","cc":"us","latitude":47.608013,"longitude":-122.33517,"reserved":0,"last_update":"0001-01-01T00:00:00Z","name_a2s":"Uncletopia | Seattle | 2 | All Maps","protocol":17,"map":"pl_swiftwater_final1","folder":"tf","game":"Team Fortress","app_id":440,"player_count":24,"max_players":24,"Bots":0,"server_type":"Dedicated","server_os":"Linux","password":true,"vac":true,"version":"7757534","steam_id":85568392924469998,"keywords":["nocrits","nodmgspread","payload","uncletopia"],"game_id":440,"stv_port":27026,"stv_name":"Uncletopia | Seattle | 2 | All Maps | STV","players":[{"user_id":903,"name":"Simonthebestest","steam_id":76561199093580344,"connected_time":219000000000,"state":"active","ping":81},{"user_id":850,"name":"Jamie(^_^)","steam_id":76561198835286379,"connected_time":3806000000000,"state":"active","ping":129},{"user_id":899,"name":"brea?","steam_id":76561198025130409,"connected_time":378000000000,"state":"active","ping":110},{"user_id":885,"name":"Sir Galahad","steam_id":76561198195999859,"connected_time":1690000000000,"state":"active","ping":54},{"user_id":892,"name":"Vespen","steam_id":76561198259984019,"connected_time":1253000000000,"state":"active","ping":88},{"user_id":871,"name":"selvhat","steam_id":76561198114225509,"connected_time":3199000000000,"state":"active","ping":76},{"user_id":834,"name":"nichts","steam_id":76561198230007548,"connected_time":5416000000000,"state":"active","ping":81},{"user_id":868,"name":"InflatableGuillotine","steam_id":76561198027904731,"connected_time":3306000000000,"state":"active","ping":190},{"user_id":884,"name":"Boredom2013","steam_id":76561198066426686,"connected_time":1944000000000,"state":"active","ping":68},{"user_id":905,"name":"CreativeUsername","steam_id":76561198186045503,"connected_time":109000000000,"state":"active","ping":93},{"user_id":891,"name":"WAFFLES 1billion","steam_id":76561199447136573,"connected_time":1296000000000,"state":"active","ping":126},{"user_id":870,"name":"...","steam_id":76561198312298321,"connected_time":3261000000000,"state":"active","ping":108},{"user_id":904,"name":"Bocchi the Cock","steam_id":76561198152455316,"connected_time":210000000000,"state":"active","ping":161},{"user_id":887,"name":"touka","steam_id":76561198171521806,"connected_time":1382000000000,"state":"active","ping":65},{"user_id":872,"name":"Aggravated Badger Catastrophe","steam_id":76561199105588241,"connected_time":3086000000000,"state":"active","ping":125},{"user_id":873,"name":"LloydMann","steam_id":76561198025392778,"connected_time":3055000000000,"state":"active","ping":112},{"user_id":874,"name":"CollDragon","steam_id":76561198067534450,"connected_time":3048000000000,"state":"active","ping":129},{"user_id":814,"name":"creepycrawler","steam_id":76561198352016831,"connected_time":7525000000000,"state":"active","ping":109},{"user_id":862,"name":"Underscore","steam_id":76561198374209415,"connected_time":3546000000000,"state":"active","ping":111},{"user_id":906,"name":"Kuledud3","steam_id":76561199200566190,"connected_time":103000000000,"state":"active","ping":180},{"user_id":893,"name":"Noodle","steam_id":76561199156137868,"connected_time":1239000000000,"state":"active","ping":123},{"user_id":907,"name":"Quillz","steam_id":76561197996567754,"connected_time":79000000000,"state":"active","ping":118},{"user_id":886,"name":"Just Tyrone","steam_id":76561198031912345,"connected_time":1394000000000,"state":"active","ping":92},{"user_id":883,"name":"精液Blev Blev精液","steam_id":76561198208972565,"connected_time":2019000000000,"state":"active","ping":122}]},{"server_id":406,"name":"Uncletopia | Seattle | 3 | Stopwatch Beta","name_short":"sea-3","host":"sea-1.us.uncletopia.com","port":27035,"enabled":true,"region":"us-west","cc":"us","latitude":47.608013,"longitude":-122.33517,"reserved":0,"last_update":"0001-01-01T00:00:00Z","name_a2s":"Uncletopia | Seattle | 3 | Stopwatch Beta","protocol":17,"map":"koth_highpass","folder":"tf","game":"Team Fortress","app_id":440,"player_count":0,"max_players":24,"Bots":0,"server_type":"Dedicated","server_os":"Linux","password":true,"vac":true,"version":"7757534","steam_id":85568392924515217,"keywords":["cp","nocrits","nodmgspread","uncletopia"],"game_id":440,"stv_port":27036,"stv_name":"Uncletopia | Seattle | 3 | Stopwatch Beta | STV","players":null},{"server_id":17,"name":"Uncletopia | San Francisco | 1 | All Maps","name_short":"sfo-1","host":"sfo-1.us.uncletopia.com","port":27015,"enabled":true,"region":"us-west","cc":"us","latitude":37.77397,"longitude":-122.4313,"reserved":0,"last_update":"0001-01-01T00:00:00Z","name_a2s":"Uncletopia | San Francisco | 1 | All Maps","protocol":17,"map":"cp_snakewater_final1","folder":"tf","game":"Team Fortress","app_id":440,"player_count":0,"max_players":24,"Bots":0,"server_type":"Dedicated","server_os":"Linux","password":true,"vac":true,"version":"7757534","steam_id":85568392924469999,"keywords":["cp","nocrits","nodmgspread","uncletopia"],"game_id":440,"stv_port":27016,"stv_name":"Uncletopia | San Francisco | 1 | All Maps | STV","players":null},{"server_id":18,"name":"Uncletopia | San Francisco | 2 | All Maps","name_short":"sfo-2","host":"sfo-1.us.uncletopia.com","port":27025,"enabled":true,"region":"us-west","cc":"us","latitude":37.77397,"longitude":-122.4313,"reserved":0,"last_update":"0001-01-01T00:00:00Z","name_a2s":"Uncletopia | San Francisco | 2 | All Maps","protocol":17,"map":"pl_snowycoast","folder":"tf","game":"Team Fortress","app_id":440,"player_count":0,"max_players":24,"Bots":0,"server_type":"Dedicated","server_os":"Linux","password":true,"vac":true,"version":"7757534","steam_id":85568392924470000,"keywords":["nocrits","nodmgspread","payload","uncletopia"],"game_id":440,"stv_port":27026,"stv_name":"Uncletopia | San Francisco | 2 | All Maps | STV","players":null},{"server_id":19,"name":"Uncletopia | San Francisco | 3 | Stopwatch Beta","name_short":"sfo-3","host":"sfo-1.us.uncletopia.com","port":27035,"enabled":true,"region":"us-west","cc":"us","latitude":37.77397,"longitude":-122.4313,"reserved":0,"last_update":"0001-01-01T00:00:00Z","name_a2s":"Uncletopia | San Francisco | 3 | Stopwatch Beta","protocol":17,"map":"pl_borneo","folder":"tf","game":"Team Fortress","app_id":440,"player_count":0,"max_players":24,"Bots":0,"server_type":"Dedicated","server_os":"Linux","password":true,"vac":true,"version":"7757534","steam_id":85568392924742824,"keywords":["nocrits","nodmgspread","payload","uncletopia"],"game_id":440,"stv_port":27036,"stv_name":"Uncletopia | San Francisco | 3 | Stopwatch Beta | STV","players":null},{"server_id":20,"name":"Uncletopia | San Francisco | 4 | Community","name_short":"sfo-4","host":"sfo-1.us.uncletopia.com","port":27045,"enabled":true,"region":"us-west","cc":"us","latitude":37.77397,"longitude":-122.4313,"reserved":0,"last_update":"0001-01-01T00:00:00Z","name_a2s":"Uncletopia | San Francisco | 4 | Community","protocol":17,"map":"workshop/koth_product_final.ugc454272353","folder":"tf","game":"Team Fortress","app_id":440,"player_count":0,"max_players":24,"Bots":0,"server_type":"Dedicated","server_os":"Linux","password":true,"vac":true,"version":"7757534","steam_id":85568392924742826,"keywords":["cp","nocrits","nodmgspread","uncletopia"],"game_id":440,"stv_port":27046,"stv_name":"Uncletopia | San Francisco | 4 | Community | STV","players":null},{"server_id":141,"name":"Uncletopia | Sydney | 1 | All Maps","name_short":"syd-1","host":"syd-1.au.uncletopia.com","port":27015,"enabled":true,"region":"au","cc":"au","latitude":-33.865143,"longitude":151.2099,"reserved":0,"last_update":"0001-01-01T00:00:00Z","name_a2s":"Uncletopia | Sydney | 1 | All Maps","protocol":17,"map":"pl_frontier_final","folder":"tf","game":"Team Fortress","app_id":440,"player_count":24,"max_players":24,"Bots":0,"server_type":"Dedicated","server_os":"Linux","password":true,"vac":true,"version":"7757534","steam_id":85568392924470001,"keywords":["nocrits","nodmgspread","payload","uncletopia"],"game_id":440,"stv_port":27016,"stv_name":"Uncletopia | Sydney | 1 | All Maps | STV","players":[{"user_id":417,"name":"WobbliestCrab","steam_id":76561198169923902,"connected_time":1576000000000,"state":"active","ping":103},{"user_id":387,"name":"Destroy Lonely","steam_id":76561198183714687,"connected_time":3946000000000,"state":"active","ping":44},{"user_id":421,"name":"saudi ambassador messi","steam_id":76561198031293430,"connected_time":698000000000,"state":"active","ping":82},{"user_id":418,"name":"thrax","steam_id":76561197992385270,"connected_time":1512000000000,"state":"active","ping":50},{"user_id":287,"name":"Morterkai","steam_id":76561198048247068,"connected_time":10229000000000,"state":"active","ping":49},{"user_id":408,"name":"Soru","steam_id":76561198010844786,"connected_time":2447000000000,"state":"active","ping":72},{"user_id":353,"name":"Jodelkönig Franzl Lang","steam_id":76561198007667830,"connected_time":6567000000000,"state":"active","ping":45},{"user_id":386,"name":"biff","steam_id":76561198069603865,"connected_time":4031000000000,"state":"active","ping":60},{"user_id":414,"name":"helton1 #RemoveCrossbow","steam_id":76561198841855657,"connected_time":1839000000000,"state":"active","ping":52},{"user_id":420,"name":"toblue","steam_id":76561198189137465,"connected_time":1239000000000,"state":"active","ping":84},{"user_id":425,"name":"Tricka •","steam_id":76561197968440123,"connected_time":60000000000,"state":"active","ping":45},{"user_id":343,"name":"helryeginn","steam_id":76561198202750573,"connected_time":6986000000000,"state":"active","ping":53},{"user_id":415,"name":"voxii","steam_id":76561198099698281,"connected_time":1807000000000,"state":"active","ping":65},{"user_id":411,"name":"Winger Only Scout","steam_id":76561198150995080,"connected_time":2277000000000,"state":"active","ping":177},{"user_id":400,"name":"siki","steam_id":76561198088192177,"connected_time":3115000000000,"state":"active","ping":97},{"user_id":376,"name":"Pug","steam_id":76561198136794372,"connected_time":4966000000000,"state":"active","ping":53},{"user_id":422,"name":"tom :D","steam_id":76561198073393715,"connected_time":686000000000,"state":"active","ping":116},{"user_id":423,"name":"Rags","steam_id":76561198179481430,"connected_time":669000000000,"state":"active","ping":102},{"user_id":381,"name":"Captain Canadia","steam_id":76561198167967735,"connected_time":4730000000000,"state":"active","ping":50},{"user_id":419,"name":"Limble","steam_id":76561197990975104,"connected_time":1492000000000,"state":"active","ping":137},{"user_id":398,"name":"hush","steam_id":76561198348492407,"connected_time":3257000000000,"state":"active","ping":59},{"user_id":424,"name":"Tees","steam_id":76561199174602317,"connected_time":429000000000,"state":"active","ping":51},{"user_id":401,"name":"wombatrat","steam_id":76561199375834537,"connected_time":3094000000000,"state":"active","ping":130},{"user_id":413,"name":"paper boat","steam_id":76561198046558051,"connected_time":2068000000000,"state":"active","ping":169}]},{"server_id":123,"name":"Uncletopia | Sydney | 2 | All Maps","name_short":"syd-2","host":"syd-1.au.uncletopia.com","port":27025,"enabled":true,"region":"au","cc":"au","latitude":-33.865143,"longitude":151.2099,"reserved":0,"last_update":"0001-01-01T00:00:00Z","name_a2s":"Uncletopia | Sydney | 2 | All Maps","protocol":17,"map":"cp_snakewater_final1","folder":"tf","game":"Team Fortress","app_id":440,"player_count":0,"max_players":24,"Bots":0,"server_type":"Dedicated","server_os":"Linux","password":true,"vac":true,"version":"7757534","steam_id":85568392924470002,"keywords":["cp","nocrits","nodmgspread","uncletopia"],"game_id":440,"stv_port":27026,"stv_name":"Uncletopia | Sydney | 2 | All Maps | STV","players":null},{"server_id":395,"name":"Uncletopia | Sydney | 3 | All Maps","name_short":"syd-3","host":"syd-1.au.uncletopia.com","port":27035,"enabled":true,"region":"au","cc":"au","latitude":-33.865143,"longitude":151.2099,"reserved":0,"last_update":"0001-01-01T00:00:00Z","name_a2s":"Uncletopia | Sydney | 3 | All Maps","protocol":17,"map":"cp_gorge","folder":"tf","game":"Team Fortress","app_id":440,"player_count":0,"max_players":24,"Bots":0,"server_type":"Dedicated","server_os":"Linux","password":true,"vac":true,"version":"7757534","steam_id":85568392925194467,"keywords":["cp","nocrits","nodmgspread","uncletopia"],"game_id":440,"stv_port":27036,"stv_name":"Uncletopia | Sydney | 3 | All Maps | STV","players":null},{"server_id":396,"name":"Uncletopia | Sydney | 4 | All Maps","name_short":"syd-4","host":"syd-1.au.uncletopia.com","port":27045,"enabled":true,"region":"au","cc":"au","latitude":-33.865143,"longitude":151.2099,"reserved":0,"last_update":"0001-01-01T00:00:00Z","name_a2s":"Uncletopia | Sydney | 4 | All Maps","protocol":17,"map":"pl_upward","folder":"tf","game":"Team Fortress","app_id":440,"player_count":0,"max_players":24,"Bots":0,"server_type":"Dedicated","server_os":"Linux","password":true,"vac":true,"version":"7757534","steam_id":85568392925397958,"keywords":["nocrits","nodmgspread","payload","uncletopia"],"game_id":440,"stv_port":27046,"stv_name":"Uncletopia | Sydney | 4 | All Maps | STV","players":null},{"server_id":58,"name":"Uncletopia | Sydney | 5 | Stopwatch Beta","name_short":"syd-5","host":"syd-1.au.uncletopia.com","port":27055,"enabled":true,"region":"au","cc":"au","latitude":-33.865143,"longitude":151.2099,"reserved":0,"last_update":"0001-01-01T00:00:00Z","name_a2s":"Uncletopia | Sydney | 5 | Stopwatch Beta","protocol":17,"map":"workshop/cp_reckoner_rc6.ugc674719999","folder":"tf","game":"Team Fortress","app_id":440,"player_count":0,"max_players":24,"Bots":0,"server_type":"Dedicated","server_os":"Linux","password":true,"vac":true,"version":"7757534","steam_id":85568392925397959,"keywords":["cp","nocrits","nodmgspread","uncletopia"],"game_id":440,"stv_port":27056,"stv_name":"Uncletopia | Sydney | 5 | Stopwatch Beta | STV","players":null},{"server_id":59,"name":"Uncletopia | Sydney | 6 | Community","name_short":"syd-6","host":"syd-1.au.uncletopia.com","port":27065,"enabled":true,"region":"au","cc":"au","latitude":-33.865143,"longitude":151.2099,"reserved":0,"last_update":"0001-01-01T00:00:00Z","name_a2s":"Uncletopia | Sydney | 6 | Community","protocol":17,"map":"workshop/koth_ramjam_rc1.ugc459778887","folder":"tf","game":"Team Fortress","app_id":440,"player_count":0,"max_players":24,"Bots":0,"server_type":"Dedicated","server_os":"Linux","password":true,"vac":true,"version":"7757534","steam_id":85568392925397960,"keywords":["cp","nocrits","nodmgspread","uncletopia"],"game_id":440,"stv_port":27066,"stv_name":"Uncletopia | Sydney | 6 | Community | STV","players":null},{"server_id":49,"name":"Uncletopia | Warsaw | 1 | All Maps","name_short":"waw-1","host":"waw-1.pl.uncletopia.com","port":27015,"enabled":true,"region":"eu","cc":"pl","latitude":52.2297,"longitude":21.017532,"reserved":0,"last_update":"0001-01-01T00:00:00Z","name_a2s":"","protocol":0,"map":"","folder":"","game":"","app_id":0,"player_count":0,"max_players":0,"Bots":0,"server_type":"","server_os":"","password":false,"vac":false,"version":"","steam_id":0,"keywords":null,"game_id":0,"stv_port":0,"stv_name":"","players":null},{"server_id":50,"name":"Uncletopia | Warsaw | 2 | All Maps","name_short":"waw-2","host":"waw-1.pl.uncletopia.com","port":27025,"enabled":true,"region":"eu","cc":"pl","latitude":52.2297,"longitude":21.017532,"reserved":0,"last_update":"0001-01-01T00:00:00Z","name_a2s":"Uncletopia | Warsaw | 2 | All Maps","protocol":17,"map":"koth_viaduct","folder":"tf","game":"Team Fortress","app_id":440,"player_count":0,"max_players":24,"Bots":0,"server_type":"Dedicated","server_os":"Linux","password":true,"vac":true,"version":"7757534","steam_id":85568392925397851,"keywords":["cp","nocrits","nodmgspread","uncletopia"],"game_id":440,"stv_port":27026,"stv_name":"Uncletopia | Warsaw | 2 | All Maps | STV","players":null},{"server_id":51,"name":"Uncletopia | Warsaw | 3 | All Maps","name_short":"waw-3","host":"waw-1.pl.uncletopia.com","port":27035,"enabled":true,"region":"eu","cc":"pl","latitude":52.2297,"longitude":21.017532,"reserved":0,"last_update":"0001-01-01T00:00:00Z","name_a2s":"Uncletopia | Warsaw | 3 | All Maps","protocol":17,"map":"koth_viaduct","folder":"tf","game":"Team Fortress","app_id":440,"player_count":0,"max_players":24,"Bots":0,"server_type":"Dedicated","server_os":"Linux","password":true,"vac":true,"version":"7757534","steam_id":85568392925397852,"keywords":["cp","nocrits","nodmgspread","uncletopia"],"game_id":440,"stv_port":27036,"stv_name":"Uncletopia | Warsaw | 3 | All Maps | STV","players":null},{"server_id":52,"name":"Uncletopia | Warsaw | 4 | All Maps","name_short":"waw-4","host":"waw-1.pl.uncletopia.com","port":27045,"enabled":true,"region":"eu","cc":"pl","latitude":52.2297,"longitude":21.017532,"reserved":0,"last_update":"0001-01-01T00:00:00Z","name_a2s":"Uncletopia | Warsaw | 4 | All Maps","protocol":17,"map":"koth_lakeside_final","folder":"tf","game":"Team Fortress","app_id":440,"player_count":0,"max_players":24,"Bots":0,"server_type":"Dedicated","server_os":"Linux","password":true,"vac":true,"version":"7757534","steam_id":85568392925397853,"keywords":["cp","nocrits","nodmgspread","uncletopia"],"game_id":440,"stv_port":27046,"stv_name":"Uncletopia | Warsaw | 4 | All Maps | STV","players":null},{"server_id":53,"name":"Uncletopia | Warsaw | 5 | Stopwatch Beta","name_short":"waw-5","host":"waw-1.pl.uncletopia.com","port":27055,"enabled":true,"region":"eu","cc":"pl","latitude":52.2297,"longitude":21.017532,"reserved":0,"last_update":"0001-01-01T00:00:00Z","name_a2s":"Uncletopia | Warsaw | 5 | Stopwatch Beta","protocol":17,"map":"pl_borneo","folder":"tf","game":"Team Fortress","app_id":440,"player_count":0,"max_players":24,"Bots":0,"server_type":"Dedicated","server_os":"Linux","password":true,"vac":true,"version":"7757534","steam_id":85568392925397854,"keywords":["nocrits","nodmgspread","payload","uncletopia"],"game_id":440,"stv_port":27056,"stv_name":"Uncletopia | Warsaw | 5 | Stopwatch Beta | STV","players":null},{"server_id":54,"name":"Uncletopia | Warsaw | 6 | Community","name_short":"waw-6","host":"waw-1.pl.uncletopia.com","port":27065,"enabled":true,"region":"eu","cc":"pl","latitude":52.2297,"longitude":21.017532,"reserved":0,"last_update":"0001-01-01T00:00:00Z","name_a2s":"Uncletopia | Warsaw | 6 | Community","protocol":17,"map":"koth_lakeside_final","folder":"tf","game":"Team Fortress","app_id":440,"player_count":0,"max_players":24,"Bots":0,"server_type":"Dedicated","server_os":"Linux","password":true,"vac":true,"version":"7757534","steam_id":85568392925397856,"keywords":["cp","nocrits","nodmgspread","uncletopia"],"game_id":440,"stv_port":27066,"stv_name":"Uncletopia | Warsaw | 6 | Community | STV","players":null}]}