{"status":true,"message":"","result":[{"server_id":9,"name":"Uncletopia | Atlanta | 1 | All Maps","name_short":"atl-1","host":"atl-1.us.uncletopia.com","port":27015,"enabled":true,"region":"us-east","cc":"us","latitude":33.753746,"longitude":-84.38633,"reserved":0,"last_update":"0001-01-01T00:00:00Z","name_a2s":"Uncletopia | Atlanta | 1 | All Maps","protocol":17,"map":"pl_badwater","folder":"tf","game":"Team Fortress","app_id":440,"player_count":24,"max_players":24,"Bots":0,"server_type":"Dedicated","server_os":"Linux","password":true,"vac":true,"version":"7708610","steam_id":85568392924469982,"keywords":["nocrits","nodmgspread","payload","uncletopia"],"game_id":440,"stv_port":27016,"stv_name":"Uncletopia | Atlanta | 1 | All Maps | STV","players":[{"user_id":273,"name":"Fattened Dessert","steam_id":76561198351008375,"connected_time":5922000000000,"state":"active","ping":45},{"user_id":312,"name":"Shmoopy","steam_id":76561198030459152,"connected_time":2331000000000,"state":"active","ping":60},{"user_id":348,"name":"Josh","steam_id":76561198055691099,"connected_time":457000000000,"state":"active","ping":88},{"user_id":314,"name":"XDKJHom","steam_id":76561199116963922,"connected_time":2145000000000,"state":"active","ping":85},{"user_id":355,"name":"Nerpuge","steam_id":76561198032316546,"connected_time":371000000000,"state":"active","ping":82},{"user_id":297,"name":"TheAilingSword","steam_id":76561198250350844,"connected_time":3435000000000,"state":"active","ping":62},{"user_id":343,"name":"festivities","steam_id":76561198069407799,"connected_time":524000000000,"state":"active","ping":57},{"user_id":345,"name":"spudpickle","steam_id":76561198113923066,"connected_time":505000000000,"state":"active","ping":64},{"user_id":349,"name":"DREW PEACOCK","steam_id":76561198065057392,"connected_time":449000000000,"state":"active","ping":58},{"user_id":357,"name":"catbat","steam_id":76561199006850097,"connected_time":225000000000,"state":"active","ping":76},{"user_id":242,"name":"Lunchboxx","steam_id":76561198079735916,"connected_time":8961000000000,"state":"active","ping":71},{"user_id":331,"name":"Audiphon","steam_id":76561198051340300,"connected_time":1545000000000,"state":"active","ping":125},{"user_id":328,"name":"BigJugHugger","steam_id":76561198142108739,"connected_time":1679000000000,"state":"active","ping":91},{"user_id":358,"name":"Testimony","steam_id":76561198151363063,"connected_time":67000000000,"state":"active","ping":91},{"user_id":350,"name":"Wap Assassin","steam_id":76561198093432863,"connected_time":449000000000,"state":"active","ping":65},{"user_id":278,"name":"toastman","steam_id":76561198207073088,"connected_time":5743000000000,"state":"active","ping":89},{"user_id":332,"name":"Frijolero","steam_id":76561198043770685,"connected_time":1533000000000,"state":"active","ping":138},{"user_id":333,"name":"ÒwÓ","steam_id":76561197997304387,"connected_time":1532000000000,"state":"active","ping":78},{"user_id":256,"name":"FemboyNate","steam_id":76561198146636410,"connected_time":7756000000000,"state":"active","ping":69},{"user_id":294,"name":"PaintMyMeow","steam_id":76561198056860387,"connected_time":3473000000000,"state":"active","ping":86},{"user_id":356,"name":"ZeritoPower","steam_id":76561198215274576,"connected_time":364000000000,"state":"active","ping":83},{"user_id":334,"name":"harmless","steam_id":76561197990799645,"connected_time":1524000000000,"state":"active","ping":66},{"user_id":342,"name":"Doo Doo Fart","steam_id":76561198365590129,"connected_time":672000000000,"state":"active","ping":71},{"user_id":353,"name":"Quansen","steam_id":76561198151594550,"connected_time":443000000000,"state":"active","ping":83}]},{"server_id":400,"name":"Uncletopia | Atlanta | 3 | All Maps","name_short":"atl-3","host":"atl-1.us.uncletopia.com","port":27035,"enabled":true,"region":"us-east","cc":"us","latitude":33.753746,"longitude":-84.38633,"reserved":0,"last_update":"0001-01-01T00:00:00Z","name_a2s":"Uncletopia | Atlanta | 3 | All Maps","protocol":17,"map":"koth_cascade","folder":"tf","game":"Team Fortress","app_id":440,"player_count":0,"max_players":24,"Bots":0,"server_type":"Dedicated","server_os":"Linux","password":true,"vac":true,"version":"7708610","steam_id":85568392924515187,"keywords":["cp","nocrits","nodmgspread","uncletopia"],"game_id":440,"stv_port":27036,"stv_name":"Uncletopia | Atlanta | 3 | All Maps | STV","players":null},{"server_id":401,"name":"Uncletopia | Atlanta | 4 | No Payload","name_short":"atl-4","host":"atl-1.us.uncletopia.com","port":27045,"enabled":true,"region":"us-east","cc":"us","latitude":33.753746,"longitude":-84.38633,"reserved":0,"last_update":"0001-01-01T00:00:00Z","name_a2s":"Uncletopia | Atlanta | 4 | No Payload","protocol":17,"map":"cp_mercenarypark","folder":"tf","game":"Team Fortress","app_id":440,"player_count":19,"max_players":24,"Bots":0,"server_type":"Dedicated","server_os":"Linux","password":true,"vac":true,"version":"7708610","steam_id":85568392924515188,"keywords":["cp","nocrits","nodmgspread","uncletopia"],"game_id":440,"stv_port":27046,"stv_name":"Uncletopia | Atlanta | 4 | No Payload | STV","players":[{"user_id":181,"name":"autumnal.messenger","steam_id":76561199345816635,"connected_time":5291000000000,"state":"active","ping":110},{"user_id":235,"name":"A Bic Lighter","steam_id":76561198070606068,"connected_time":2003000000000,"state":"active","ping":71},{"user_id":256,"name":"Jules","steam_id":76561199065191952,"connected_time":500000000000,"state":"active","ping":90},{"user_id":257,"name":"☯Fabled-Farfetch'd☯","steam_id":76561198353260539,"connected_time":431000000000,"state":"active","ping":102},{"user_id":258,"name":"Iron Argus","steam_id":76561198181088245,"connected_time":336000000000,"state":"active","ping":82},{"user_id":268,"name":"bikerkid207","steam_id":76561198390782783,"connected_time":78000000000,"state":"active","ping":53},{"user_id":261,"name":"poopluvr112","steam_id":76561198082081354,"connected_time":206000000000,"state":"active","ping":62},{"user_id":262,"name":"fool","steam_id":76561198172049831,"connected_time":204000000000,"state":"active","ping":85},{"user_id":245,"name":"ColonelGuy5509","steam_id":76561198050493174,"connected_time":1139000000000,"state":"active","ping":80},{"user_id":228,"name":"chexo4","steam_id":76561198150532531,"connected_time":2321000000000,"state":"active","ping":53},{"user_id":263,"name":"BigKafka420","steam_id":76561198150265040,"connected_time":202000000000,"state":"active","ping":67},{"user_id":265,"name":"Dad 2","steam_id":76561198138546187,"connected_time":184000000000,"state":"active","ping":99},{"user_id":207,"name":"Pal The Palm","steam_id":76561198191507485,"connected_time":4030000000000,"state":"active","ping":85},{"user_id":221,"name":"hop","steam_id":76561198039914843,"connected_time":3143000000000,"state":"active","ping":55},{"user_id":266,"name":"A Puppy","steam_id":76561198828184456,"connected_time":143000000000,"state":"active","ping":53},{"user_id":249,"name":"♥","steam_id":76561198401455467,"connected_time":1067000000000,"state":"active","ping":101},{"user_id":253,"name":"spy","steam_id":76561198240706148,"connected_time":881000000000,"state":"active","ping":77},{"user_id":267,"name":"The Muffin Man","steam_id":76561199088286427,"connected_time":108000000000,"state":"active","ping":124},{"user_id":224,"name":"AlexLovesYou","steam_id":76561199163263543,"connected_time":3008000000000,"state":"active","ping":67}]},{"server_id":2,"name":"Uncletopia | Chicago | 1 | All Maps","name_short":"chi-1","host":"chi-1.us.uncletopia.com","port":27015,"enabled":true,"region":"us-central","cc":"us","latitude":41.881832,"longitude":-87.62318,"reserved":0,"last_update":"0001-01-01T00:00:00Z","name_a2s":"Uncletopia | Chicago | 1 | All Maps","protocol":17,"map":"koth_highpass","folder":"tf","game":"Team Fortress","app_id":440,"player_count":0,"max_players":24,"Bots":0,"server_type":"Dedicated","server_os":"Linux","password":true,"vac":true,"version":"7708610","steam_id":85568392924469984,"keywords":["cp","nocrits","nodmgspread","uncletopia"],"game_id":440,"stv_port":27016,"stv_name":"Uncletopia | Chicago | 1 | All Maps | STV","players":null},{"server_id":106,"name":"Uncletopia | Chicago | 2 | All Maps","name_short":"chi-2","host":"chi-1.us.uncletopia.com","port":27025,"enabled":true,"region":"us-central","cc":"us","latitude":41.881832,"longitude":-87.62318,"reserved":0,"last_update":"0001-01-01T00:00:00Z","name_a2s":"Uncletopia | Chicago | 2 | All Maps","protocol":17,"map":"cp_sunshine","folder":"tf","game":"Team Fortress","app_id":440,"player_count":0,"max_players":24,"Bots":0,"server_type":"Dedicated","server_os":"Linux","password":true,"vac":true,"version":"7708610","steam_id":85568392924469985,"keywords":["cp","nocrits","nodmgspread","uncletopia"],"game_id":440,"stv_port":27026,"stv_name":"Uncletopia | Chicago | 2 | All Maps | STV","players":null},{"server_id":402,"name":"Uncletopia | Chicago | 3 | All Maps","name_short":"chi-3","host":"chi-1.us.uncletopia.com","port":27035,"enabled":true,"region":"us-central","cc":"us","latitude":41.881832,"longitude":-87.62318,"reserved":0,"last_update":"0001-01-01T00:00:00Z","name_a2s":"Uncletopia | Chicago | 3 | All Maps","protocol":17,"map":"pl_snowycoast","folder":"tf","game":"Team Fortress","app_id":440,"player_count":24,"max_players":24,"Bots":0,"server_type":"Dedicated","server_os":"Linux","password":true,"vac":true,"version":"7708610","steam_id":85568392924515191,"keywords":["nocrits","nodmgspread","payload","uncletopia"],"game_id":440,"stv_port":27036,"stv_name":"Uncletopia | Chicago | 3 | All Maps | STV","players":[{"user_id":297,"name":"GreekGoat_Coffee","steam_id":76561198129331088,"connected_time":2304000000000,"state":"active","ping":43},{"user_id":298,"name":"Vivi","steam_id":76561198141001353,"connected_time":2224000000000,"state":"active","ping":45},{"user_id":292,"name":"Funky Buttlovin","steam_id":76561198002807702,"connected_time":2676000000000,"state":"active","ping":57},{"user_id":319,"name":"HyperOrange|#SaveTF2","steam_id":76561198068071327,"connected_time":1767000000000,"state":"active","ping":64},{"user_id":335,"name":"careuwuy","steam_id":76561198077321435,"connected_time":605000000000,"state":"active","ping":75},{"user_id":238,"name":"Lone Dancer","steam_id":76561199096241116,"connected_time":6909000000000,"state":"active","ping":61},{"user_id":299,"name":"Infinitytacos","steam_id":76561198884260211,"connected_time":2051000000000,"state":"active","ping":44},{"user_id":324,"name":"Croxodile","steam_id":76561198215822949,"connected_time":1642000000000,"state":"active","ping":52},{"user_id":328,"name":"Stanv","steam_id":76561198259530604,"connected_time":1268000000000,"state":"active","ping":48},{"user_id":300,"name":"uluna","steam_id":76561198284102821,"connected_time":2034000000000,"state":"active","ping":48},{"user_id":301,"name":"The Absolute P.O.B.E.","steam_id":76561198061130998,"connected_time":2034000000000,"state":"active","ping":58},{"user_id":320,"name":"weeb_whacker #Jenius","steam_id":76561198187098041,"connected_time":1751000000000,"state":"active","ping":55},{"user_id":310,"name":"Klip","steam_id":76561198316254429,"connected_time":1914000000000,"state":"active","ping":75},{"user_id":329,"name":"Rukks","steam_id":76561197993918954,"connected_time":1196000000000,"state":"active","ping":67},{"user_id":308,"name":"The Dumper","steam_id":76561198147302569,"connected_time":1937000000000,"state":"active","ping":105},{"user_id":309,"name":"AJZombieSlayr","steam_id":76561198157802310,"connected_time":1931000000000,"state":"active","ping":80},{"user_id":316,"name":"cappy_blappy","steam_id":76561198339229316,"connected_time":1819000000000,"state":"active","ping":81},{"user_id":341,"name":"TrashBoat","steam_id":76561198356662182,"connected_time":440000000000,"state":"active","ping":63},{"user_id":333,"name":"hierodule","steam_id":76561198023229665,"connected_time":620000000000,"state":"active","ping":75},{"user_id":317,"name":"Liquid Oxycodone","steam_id":76561198154162664,"connected_time":1810000000000,"state":"active","ping":68},{"user_id":336,"name":"Happ","steam_id":76561198043741679,"connected_time":591000000000,"state":"active","ping":51},{"user_id":337,"name":"tkbeast","steam_id":76561198129003004,"connected_time":590000000000,"state":"active","ping":97},{"user_id":331,"name":"Shystie","steam_id":76561198025371440,"connected_time":1068000000000,"state":"active","ping":64},{"user_id":342,"name":"gigacat","steam_id":76561198055638231,"connected_time":431000000000,"state":"active","ping":74}]},{"server_id":403,"name":"Uncletopia | Chicago | 4 | All Maps","name_short":"chi-4","host":"chi-1.us.uncletopia.com","port":27045,"enabled":true,"region":"us-central","cc":"us","latitude":41.881832,"longitude":-87.62318,"reserved":0,"last_update":"0001-01-01T00:00:00Z","name_a2s":"Uncletopia | Chicago | 4 | All Maps","protocol":17,"map":"cp_snakewater_final1","folder":"tf","game":"Team Fortress","app_id":440,"player_count":0,"max_players":24,"Bots":0,"server_type":"Dedicated","server_os":"Linux","password":true,"vac":true,"version":"7708610","steam_id":85568392924515193,"keywords":["cp","nocrits","nodmgspread","uncletopia"],"game_id":440,"stv_port":27046,"stv_name":"Uncletopia | Chicago | 4 | All Maps | STV","players":null},{"server_id":36,"name":"Uncletopia | Chicago | 5 | All Maps","name_short":"chi-5","host":"chi-2.us.uncletopia.com","port":27015,"enabled":true,"region":"us-central","cc":"us","latitude":41.881832,"longitude":-87.62318,"reserved":0,"last_update":"0001-01-01T00:00:00Z","name_a2s":"Uncletopia | Chicago | 5 | All Maps","protocol":17,"map":"pl_borneo","folder":"tf","game":"Team Fortress","app_id":440,"player_count":24,"max_players":24,"Bots":0,"server_type":"Dedicated","server_os":"Linux","password":true,"vac":true,"version":"7708610","steam_id":85568392924866362,"keywords":["nocrits","nodmgspread","payload","uncletopia"],"game_id":440,"stv_port":27016,"stv_name":"Uncletopia | Chicago | 5 | All Maps | STV","players":[{"user_id":254,"name":"skizzy","steam_id":76561199229318347,"connected_time":1138000000000,"state":"active","ping":44},{"user_id":276,"name":"overdosed on yaoi cocaine","steam_id":76561197994492154,"connected_time":310000000000,"state":"active","ping":172},{"user_id":264,"name":"Spiffyo™","steam_id":76561198169937791,"connected_time":668000000000,"state":"active","ping":110},{"user_id":268,"name":"Inevitable","steam_id":76561198210050169,"connected_time":526000000000,"state":"active","ping":60},{"user_id":255,"name":"The Sydney Sleeper Itself","steam_id":76561198180251763,"connected_time":1132000000000,"state":"active","ping":61},{"user_id":252,"name":"Tommy Pickles (Very Cool)","steam_id":76561198391261463,"connected_time":1518000000000,"state":"active","ping":73},{"user_id":269,"name":"Smiling","steam_id":76561198293407075,"connected_time":441000000000,"state":"active","ping":82},{"user_id":231,"name":"Ohhh noo","steam_id":76561198092046536,"connected_time":3830000000000,"state":"active","ping":45},{"user_id":247,"name":"Nate","steam_id":76561198068225765,"connected_time":2477000000000,"state":"active","ping":64},{"user_id":278,"name":"PyroPat","steam_id":76561198042235556,"connected_time":174000000000,"state":"active","ping":107},{"user_id":265,"name":"lamadre07","steam_id":76561198067337453,"connected_time":626000000000,"state":"active","ping":99},{"user_id":256,"name":"pk","steam_id":76561198012945016,"connected_time":1116000000000,"state":"active","ping":47},{"user_id":271,"name":"AugustSkies","steam_id":76561198119544213,"connected_time":394000000000,"state":"active","ping":137},{"user_id":233,"name":"Lady Duckland","steam_id":76561198077092840,"connected_time":3318000000000,"state":"active","ping":52},{"user_id":249,"name":"Spike Bones","steam_id":76561198234926120,"connected_time":2346000000000,"state":"active","ping":76},{"user_id":228,"name":"SleepyJackdaw","steam_id":76561198053520098,"connected_time":4052000000000,"state":"active","ping":45},{"user_id":257,"name":"turnip","steam_id":76561197999375941,"connected_time":1111000000000,"state":"active","ping":73},{"user_id":253,"name":"Mr. Tickle","steam_id":76561198126684647,"connected_time":1150000000000,"state":"active","ping":60},{"user_id":272,"name":"OmniXVII","steam_id":76561198027183394,"connected_time":378000000000,"state":"active","ping":86},{"user_id":260,"name":"King Cotton","steam_id":76561198292444376,"connected_time":1019000000000,"state":"active","ping":78},{"user_id":232,"name":"Happy Yaoi Sunday","steam_id":76561198111290441,"connected_time":3542000000000,"state":"active","ping":53},{"user_id":267,"name":"Tay1Qr","steam_id":76561198082809935,"connected_time":573000000000,"state":"active","ping":61},{"user_id":273,"name":"NateTheGrate2","steam_id":76561198139174784,"connected_time":377000000000,"state":"active","ping":108},{"user_id":274,"name":"Scoot Pilgrim","steam_id":76561198065720462,"connected_time":375000000000,"state":"active","ping":111}]},{"server_id":37,"name":"Uncletopia | Chicago | 6 | All Maps","name_short":"chi-6","host":"chi-2.us.uncletopia.com","port":27025,"enabled":true,"region":"us-central","cc":"us","latitude":41.881832,"longitude":-87.62318,"reserved":0,"last_update":"0001-01-01T00:00:00Z","name_a2s":"Uncletopia | Chicago | 6 | All Maps","protocol":17,"map":"cp_altitude","folder":"tf","game":"Team Fortress","app_id":440,"player_count":0,"max_players":24,"Bots":0,"server_type":"Dedicated","server_os":"Linux","password":true,"vac":true,"version":"7708610","steam_id":85568392924866363,"keywords":["cp","nocrits","nodmgspread","uncletopia"],"game_id":440,"stv_port":27026,"stv_name":"Uncletopia | Chicago | 6 | All Maps | STV","players":null},{"server_id":38,"name":"Uncletopia | Chicago | 7 | No Payload","name_short":"chi-7","host":"chi-2.us.uncletopia.com","port":27035,"enabled":true,"region":"us-central","cc":"us","latitude":41.881832,"longitude":-87.62318,"reserved":0,"last_update":"0001-01-01T00:00:00Z","name_a2s":"Uncletopia | Chicago | 7 | No Payload","protocol":17,"map":"koth_harvest_final","folder":"tf","game":"Team Fortress","app_id":440,"player_count":0,"max_players":24,"Bots":0,"server_type":"Dedicated","server_os":"Linux","password":true,"vac":true,"version":"7708610","steam_id":85568392924866364,"keywords":["cp","nocrits","nodmgspread","uncletopia"],"game_id":440,"stv_port":27036,"stv_name":"Uncletopia | Chicago | 7 | No Payload | STV","players":null},{"server_id":39,"name":"Uncletopia | Chicago | 8 | Community","name_short":"chi-8","host":"chi-2.us.uncletopia.com","port":27045,"enabled":true,"region":"us-central","cc":"us","latitude":41.881832,"longitude":-87.62318,"reserved":0,"last_update":"0001-01-01T00:00:00Z","name_a2s":"Uncletopia | Chicago | 8 | Community","protocol":17,"map":"workshop/koth_product_final.ugc454272353","folder":"tf","game":"Team Fortress","app_id":440,"player_count":5,"max_players":24,"Bots":0,"server_type":"Dedicated","server_os":"Linux","password":true,"vac":true,"version":"7708610","steam_id":85568392924866365,"keywords":["cp","nocrits","nodmgspread","uncletopia"],"game_id":440,"stv_port":27046,"stv_name":"Uncletopia | Chicago | 8 | Community | STV","players":[{"user_id":223,"name":"CrackedSanity","steam_id":76561198279841251,"connected_time":311000000000,"state":"active","ping":89},{"user_id":222,"name":"Fi","steam_id":76561198130388396,"connected_time":895000000000,"state":"active","ping":35},{"user_id":180,"name":"marrimae","steam_id":76561198077579990,"connected_time":4676000000000,"state":"active","ping":117},{"user_id":182,"name":"skaska4","steam_id":76561198080606141,"connected_time":4634000000000,"state":"active","ping":56},{"user_id":167,"name":"Doug Dimmadamndimmadimmadougdim","steam_id":76561198136169355,"connected_time":6479000000000,"state":"active","ping":36}]},{"server_id":8,"name":"Uncletopia | Dallas | 1 | All Maps","name_short":"dal-1","host":"dal-1.us.uncletopia.com","port":27015,"enabled":true,"region":"us-central","cc":"us","latitude":32.779167,"longitude":-96.80889,"reserved":0,"last_update":"0001-01-01T00:00:00Z","name_a2s":"Uncletopia | Dallas | 1 | All Maps","protocol":17,"map":"pl_frontier_final","folder":"tf","game":"Team Fortress","app_id":440,"player_count":24,"max_players":24,"Bots":0,"server_type":"Dedicated","server_os":"Linux","password":true,"vac":true,"version":"7708610","steam_id":85568392924469986,"keywords":["nocrits","nodmgspread","payload","uncletopia"],"game_id":440,"stv_port":27016,"stv_name":"Uncletopia | Dallas | 1 | All Maps | STV","players":[{"user_id":281,"name":"Harold","steam_id":76561198057317770,"connected_time":2810000000000,"state":"active","ping":76},{"user_id":266,"name":"im bladee! drain gang!","steam_id":76561198042600523,"connected_time":3547000000000,"state":"active","ping":48},{"user_id":315,"name":"Gugomo","steam_id":76561198121428316,"connected_time":99000000000,"state":"active","ping":55},{"user_id":308,"name":"Loashes","steam_id":76561198119608299,"connected_time":594000000000,"state":"active","ping":73},{"user_id":307,"name":"I'm Only 4 Inches","steam_id":76561198055542546,"connected_time":795000000000,"state":"active","ping":71},{"user_id":296,"name":"Artistic","steam_id":76561198118159566,"connected_time":1664000000000,"state":"active","ping":70},{"user_id":219,"name":"Berry Festive Vlad","steam_id":76561198149616270,"connected_time":6822000000000,"state":"active","ping":72},{"user_id":293,"name":"BrendenMad","steam_id":76561198031250581,"connected_time":1761000000000,"state":"active","ping":62},{"user_id":267,"name":"Marzbee115","steam_id":76561198095821025,"connected_time":3541000000000,"state":"active","ping":60},{"user_id":280,"name":"Sh3ba Spaniel","steam_id":76561198047412394,"connected_time":2820000000000,"state":"active","ping":85},{"user_id":282,"name":"Lord Vile the Impaler","steam_id":76561198040425096,"connected_time":2739000000000,"state":"active","ping":67},{"user_id":316,"name":"sparkle on!","steam_id":76561198984612489,"connected_time":98000000000,"state":"active","ping":86},{"user_id":256,"name":"XX_gamer2001_XxX","steam_id":76561198105405869,"connected_time":4305000000000,"state":"active","ping":63},{"user_id":294,"name":"mr ploobmeister","steam_id":76561198128908529,"connected_time":1710000000000,"state":"active","ping":52},{"user_id":289,"name":"Dr. Bonair","steam_id":76561198129237487,"connected_time":2458000000000,"state":"active","ping":59},{"user_id":312,"name":"Blink","steam_id":76561197986181277,"connected_time":183000000000,"state":"active","ping":45},{"user_id":305,"name":"MistakesWereMade","steam_id":76561199059220481,"connected_time":915000000000,"state":"active","ping":88},{"user_id":313,"name":"Wildmoo","steam_id":76561198074478554,"connected_time":159000000000,"state":"active","ping":109},{"user_id":286,"name":"_Lusty_","steam_id":76561198876948142,"connected_time":2661000000000,"state":"active","ping":63},{"user_id":302,"name":"Moonadoo","steam_id":76561198133377546,"connected_time":977000000000,"state":"active","ping":86},{"user_id":314,"name":"Σολαρ","steam_id":76561198046964942,"connected_time":111000000000,"state":"active","ping":62},{"user_id":309,"name":"Isometric Pixel","steam_id":76561198029659220,"connected_time":467000000000,"state":"active","ping":75},{"user_id":288,"name":"ChefMike","steam_id":76561198414034069,"connected_time":2609000000000,"state":"active","ping":87}]},{"server_id":108,"name":"Uncletopia | Dallas | 2 | All Maps","name_short":"dal-2","host":"dal-1.us.uncletopia.com","port":27025,"enabled":true,"region":"us-central","cc":"us","latitude":32.779167,"longitude":-96.80889,"reserved":0,"last_update":"0001-01-01T00:00:00Z","name_a2s":"Uncletopia | Dallas | 2 | All Maps","protocol":17,"map":"pl_enclosure_final","folder":"tf","game":"Team Fortress","app_id":440,"player_count":24,"max_players":24,"Bots":0,"server_type":"Dedicated","server_os":"Linux","password":true,"vac":true,"version":"7708610","steam_id":85568392924469988,"keywords":["nocrits","nodmgspread","payload","uncletopia"],"game_id":440,"stv_port":27026,"stv_name":"Uncletopia | Dallas | 2 | All Maps | STV","players":[{"user_id":224,"name":"sweaterfan","steam_id":76561199389567214,"connected_time":3897000000000,"state":"active","ping":56},{"user_id":252,"name":"Medic","steam_id":76561198067869016,"connected_time":1680000000000,"state":"active","ping":72},{"user_id":278,"name":"Birdhorse Of Course","steam_id":76561198038997485,"connected_time":101000000000,"state":"active","ping":85},{"user_id":280,"name":"ArnoldGaming","steam_id":76561198040140247,"connected_time":57000000000,"state":"active","ping":90},{"user_id":81,"name":"atserc","steam_id":76561197997570349,"connected_time":17885000000000,"state":"active","ping":91},{"user_id":255,"name":"facade","steam_id":76561199157009256,"connected_time":858000000000,"state":"active","ping":76},{"user_id":228,"name":"paypur -rng","steam_id":76561198214370515,"connected_time":3864000000000,"state":"active","ping":74},{"user_id":279,"name":"Riff","steam_id":76561198066921423,"connected_time":67000000000,"state":"active","ping":56},{"user_id":225,"name":"Krow","steam_id":76561198010392099,"connected_time":3892000000000,"state":"active","ping":53},{"user_id":211,"name":"bitmappu","steam_id":76561199000786530,"connected_time":5093000000000,"state":"active","ping":70},{"user_id":235,"name":"Yukon Cornelius","steam_id":76561198261512781,"connected_time":3037000000000,"state":"active","ping":57},{"user_id":251,"name":"Lore","steam_id":76561198098407538,"connected_time":1761000000000,"state":"active","ping":73},{"user_id":268,"name":"Grandpa 1MinecraftEmpire","steam_id":76561198069046338,"connected_time":412000000000,"state":"active","ping":112},{"user_id":257,"name":"QueenKira","steam_id":76561198136543848,"connected_time":821000000000,"state":"active","ping":65},{"user_id":246,"name":"Addy \u003c3","steam_id":76561198045819723,"connected_time":1937000000000,"state":"active","ping":82},{"user_id":99,"name":"tofu yum yum","steam_id":76561198026589960,"connected_time":16321000000000,"state":"active","ping":75},{"user_id":277,"name":"Master Of Whales","steam_id":76561198349104889,"connected_time":148000000000,"state":"active","ping":78},{"user_id":273,"name":"Howoriginal","steam_id":76561197993701184,"connected_time":278000000000,"state":"active","ping":78},{"user_id":265,"name":"Quietsharp","steam_id":76561198277968438,"connected_time":604000000000,"state":"active","ping":88},{"user_id":216,"name":"Goofy Goober","steam_id":76561198128299594,"connected_time":4743000000000,"state":"active","ping":96},{"user_id":240,"name":"JeBron Joems","steam_id":76561198097160898,"connected_time":2869000000000,"state":"active","ping":75},{"user_id":263,"name":"Derrence","steam_id":76561198859650583,"connected_time":721000000000,"state":"active","ping":91},{"user_id":261,"name":"Periergos","steam_id":76561198062030412,"connected_time":732000000000,"state":"active","ping":49},{"user_id":267,"name":"ssquare -bt","steam_id":76561198341784551,"connected_time":449000000000,"state":"active","ping":47}]},{"server_id":5,"name":"Uncletopia | Frankfurt | 1 | All Maps","name_short":"frk-1","host":"frk-1.de.uncletopia.com","port":27015,"enabled":true,"region":"eu","cc":"de","latitude":50.110924,"longitude":8.682127,"reserved":0,"last_update":"0001-01-01T00:00:00Z","name_a2s":"Uncletopia | Frankfurt | 1 | All Maps","protocol":17,"map":"koth_cascade","folder":"tf","game":"Team Fortress","app_id":440,"player_count":0,"max_players":24,"Bots":0,"server_type":"Dedicated","server_os":"Linux","password":true,"vac":true,"version":"7708610","steam_id":85568392924469989,"keywords":["cp","nocrits","nodmgspread","uncletopia"],"game_id":440,"stv_port":27016,"stv_name":"Uncletopia | Frankfurt | 1 | All Maps | STV","players":null},{"server_id":110,"name":"Uncletopia | Frankfurt | 2 | All Maps","name_short":"frk-2","host":"frk-1.de.uncletopia.com","port":27025,"enabled":true,"region":"eu","cc":"de","latitude":50.110924,"longitude":8.682127,"reserved":0,"last_update":"0001-01-01T00:00:00Z","name_a2s":"Uncletopia | Frankfurt | 2 | All Maps","protocol":17,"map":"pl_frontier_final","folder":"tf","game":"Team Fortress","app_id":440,"player_count":0,"max_players":24,"Bots":0,"server_type":"Dedicated","server_os":"Linux","password":true,"vac":true,"version":"7708610","steam_id":85568392924469990,"keywords":["nocrits","nodmgspread","payload","uncletopia"],"game_id":440,"stv_port":27026,"stv_name":"Uncletopia | Frankfurt | 2 | All Maps | STV","players":null},{"server_id":308,"name":"Uncletopia | Frankfurt | 3 | All Maps","name_short":"frk-3","host":"frk-1.de.uncletopia.com","port":27035,"enabled":true,"region":"eu","cc":"de","latitude":50.110924,"longitude":8.682127,"reserved":0,"last_update":"0001-01-01T00:00:00Z","name_a2s":"Uncletopia | Frankfurt | 3 | All Maps","protocol":17,"map":"cp_process_final","folder":"tf","game":"Team Fortress","app_id":440,"player_count":0,"max_players":24,"Bots":0,"server_type":"Dedicated","server_os":"Linux","password":true,"vac":true,"version":"7708610","steam_id":85568392924504274,"keywords":["cp","nocrits","nodmgspread","uncletopia"],"game_id":440,"stv_port":27036,"stv_name":"Uncletopia | Frankfurt | 3 | All Maps | STV","players":null},{"server_id":309,"name":"Uncletopia | Frankfurt | 4 | All Maps","name_short":"frk-4","host":"frk-1.de.uncletopia.com","port":27045,"enabled":true,"region":"eu","cc":"de","latitude":50.110924,"longitude":8.682127,"reserved":0,"last_update":"0001-01-01T00:00:00Z","name_a2s":"Uncletopia | Frankfurt | 4 | All Maps","protocol":17,"map":"pl_upward","folder":"tf","game":"Team Fortress","app_id":440,"player_count":0,"max_players":24,"Bots":0,"server_type":"Dedicated","server_os":"Linux","password":true,"vac":true,"version":"7708610","steam_id":85568392924504275,"keywords":["nocrits","nodmgspread","payload","uncletopia"],"game_id":440,"stv_port":27046,"stv_name":"Uncletopia | Frankfurt | 4 | All Maps | STV","players":null},{"server_id":310,"name":"Uncletopia | Frankfurt | 5 | All Maps","name_short":"frk-5","host":"frk-1.de.uncletopia.com","port":27055,"enabled":true,"region":"eu","cc":"de","latitude":50.110924,"longitude":8.682127,"reserved":0,"last_update":"0001-01-01T00:00:00Z","name_a2s":"Uncletopia | Frankfurt | 5 | All Maps","protocol":17,"map":"cp_sunshine","folder":"tf","game":"Team Fortress","app_id":440,"player_count":0,"max_players":24,"Bots":0,"server_type":"Dedicated","server_os":"Linux","password":true,"vac":true,"version":"7708610","steam_id":85568392924504277,"keywords":["cp","nocrits","nodmgspread","uncletopia"],"game_id":440,"stv_port":27056,"stv_name":"Uncletopia | Frankfurt | 5 | All Maps | STV","players":null},{"server_id":311,"name":"Uncletopia | Frankfurt | 6 | All Maps","name_short":"frk-6","host":"frk-1.de.uncletopia.com","port":27065,"enabled":true,"region":"eu","cc":"de","latitude":50.110924,"longitude":8.682127,"reserved":0,"last_update":"0001-01-01T00:00:00Z","name_a2s":"Uncletopia | Frankfurt | 6 | All Maps","protocol":17,"map":"pl_frontier_final","folder":"tf","game":"Team Fortress","app_id":440,"player_count":0,"max_players":24,"Bots":0,"server_type":"Dedicated","server_os":"Linux","password":true,"vac":true,"version":"7708610","steam_id":85568392924504278,"keywords":["nocrits","nodmgspread","payload","uncletopia"],"game_id":440,"stv_port":27066,"stv_name":"Uncletopia | Frankfurt | 6 | All Maps | STV","players":null},{"server_id":23,"name":"Uncletopia | Frankfurt | 7 | No Payload","name_short":"frk-7","host":"frk-1.de.uncletopia.com","port":27075,"enabled":true,"region":"eu","cc":"de","latitude":50.110924,"longitude":8.682127,"reserved":0,"last_update":"0001-01-01T00:00:00Z","name_a2s":"Uncletopia | Frankfurt | 7 | No Payload","protocol":17,"map":"koth_viaduct","folder":"tf","game":"Team Fortress","app_id":440,"player_count":0,"max_players":24,"Bots":0,"server_type":"Dedicated","server_os":"Linux","password":true,"vac":true,"version":"7708610","steam_id":85568392924742827,"keywords":["cp","nocrits","nodmgspread","uncletopia"],"game_id":440,"stv_port":27076,"stv_name":"Uncletopia | Frankfurt | 7 | No Payload | STV","players":null},{"server_id":24,"name":"Uncletopia | Frankfurt | 8 | Community","name_short":"frk-8","host":"frk-1.de.uncletopia.com","port":27085,"enabled":true,"region":"eu","cc":"de","latitude":50.110924,"longitude":8.682127,"reserved":0,"last_update":"0001-01-01T00:00:00Z","name_a2s":"Uncletopia | Frankfurt | 8 | Community","protocol":17,"map":"pl_borneo","folder":"tf","game":"Team Fortress","app_id":440,"player_count":0,"max_players":24,"Bots":0,"server_type":"Dedicated","server_os":"Linux","password":true,"vac":true,"version":"7708610","steam_id":85568392924742828,"keywords":["nocrits","nodmgspread","payload","uncletopia"],"game_id":440,"stv_port":27086,"stv_name":"Uncletopia | Frankfurt | 8 | Community | STV","players":null},{"server_id":202,"name":"Uncletopia | Hong Kong | 1 | All Maps","name_short":"hgk-1","host":"hgk-1.hk.uncletopia.com","port":27015,"enabled":true,"region":"asia","cc":"hk","latitude":22.302711,"longitude":114.177216,"reserved":0,"last_update":"0001-01-01T00:00:00Z","name_a2s":"Uncletopia | Hong Kong | 1 | All Maps","protocol":17,"map":"pl_badwater","folder":"tf","game":"Team Fortress","app_id":440,"player_count":17,"max_players":24,"Bots":0,"server_type":"Dedicated","server_os":"Linux","password":true,"vac":true,"version":"7708610","steam_id":85568392924494504,"keywords":["nocrits","nodmgspread","payload","uncletopia"],"game_id":440,"stv_port":27016,"stv_name":"Uncletopia | Hong Kong | 1 | All Maps | STV","players":[{"user_id":91,"name":"refused","steam_id":76561199384914690,"connected_time":2631000000000,"state":"active","ping":100},{"user_id":116,"name":"datumon21","steam_id":76561199075654533,"connected_time":472000000000,"state":"active","ping":105},{"user_id":117,"name":"Nevergonnagiveyouup","steam_id":76561199366985069,"connected_time":366000000000,"state":"active","ping":59},{"user_id":93,"name":"This is Elon Musk","steam_id":76561198429235506,"connected_time":2485000000000,"state":"active","ping":77},{"user_id":126,"name":"CosmoLighting101","steam_id":76561199217309000,"connected_time":58000000000,"state":"active","ping":60},{"user_id":94,"name":"Lir","steam_id":76561198980563251,"connected_time":2349000000000,"state":"active","ping":82},{"user_id":98,"name":"Dane (but sad)","steam_id":76561199158060229,"connected_time":2073000000000,"state":"active","ping":51},{"user_id":119,"name":"Exoyino","steam_id":76561198268214783,"connected_time":348000000000,"state":"active","ping":64},{"user_id":104,"name":"Hydracolor","steam_id":76561198908111942,"connected_time":1153000000000,"state":"active","ping":118},{"user_id":122,"name":"17","steam_id":76561198241530712,"connected_time":231000000000,"state":"active","ping":53},{"user_id":121,"name":"NeutralSkeptic","steam_id":76561199277426176,"connected_time":298000000000,"state":"active","ping":94},{"user_id":123,"name":"¿か さ?","steam_id":76561198390893986,"connected_time":197000000000,"state":"active","ping":78},{"user_id":113,"name":"fuck it we balls","steam_id":76561199086487373,"connected_time":555000000000,"state":"active","ping":70},{"user_id":115,"name":"Ctrl+Alt+Del","steam_id":76561198930014337,"connected_time":492000000000,"state":"active","ping":89},{"user_id":111,"name":"Windmill","steam_id":76561199230997986,"connected_time":674000000000,"state":"active","ping":84},{"user_id":110,"name":"RandomGuy1085","steam_id":76561199053910995,"connected_time":714000000000,"state":"active","ping":91},{"user_id":124,"name":"Crippling Depression","steam_id":76561199198723894,"connected_time":160000000000,"state":"active","ping":89}]},{"server_id":1,"name":"Uncletopia | Los Angeles | 1 | All Maps","name_short":"lax-1","host":"lax-1.us.uncletopia.com","port":27015,"enabled":true,"region":"us-west","cc":"us","latitude":33.94279,"longitude":-118.41004,"reserved":0,"last_update":"0001-01-01T00:00:00Z","name_a2s":"Uncletopia | Los Angeles | 1 | All Maps","protocol":17,"map":"pl_borneo","folder":"tf","game":"Team Fortress","app_id":440,"player_count":0,"max_players":24,"Bots":0,"server_type":"Dedicated","server_os":"Linux","password":true,"vac":true,"version":"7708610","steam_id":85568392924469991,"keywords":["nocrits","nodmgspread","payload","uncletopia"],"game_id":440,"stv_port":27016,"stv_name":"Uncletopia | Los Angeles | 1 | All Maps | STV","players":null},{"server_id":112,"name":"Uncletopia | Los Angeles | 2 | All Maps","name_short":"lax-2","host":"lax-1.us.uncletopia.com","port":27025,"enabled":true,"region":"us-west","cc":"us","latitude":33.94279,"longitude":-118.41004,"reserved":0,"last_update":"0001-01-01T00:00:00Z","name_a2s":"Uncletopia | Los Angeles | 2 | All Maps","protocol":17,"map":"koth_viaduct","folder":"tf","game":"Team Fortress","app_id":440,"player_count":0,"max_players":24,"Bots":0,"server_type":"Dedicated","server_os":"Linux","password":true,"vac":true,"version":"7708610","steam_id":85568392924469992,"keywords":["cp","nocrits","nodmgspread","uncletopia"],"game_id":440,"stv_port":27026,"stv_name":"Uncletopia | Los Angeles | 2 | All Maps | STV","players":null},{"server_id":324,"name":"Uncletopia | Los Angeles | 3 | All Maps","name_short":"lax-3","host":"lax-1.us.uncletopia.com","port":27035,"enabled":true,"region":"us-west","cc":"us","latitude":33.94279,"longitude":-118.41004,"reserved":0,"last_update":"0001-01-01T00:00:00Z","name_a2s":"Uncletopia | Los Angeles | 3 | All Maps","protocol":17,"map":"cp_sunshine","folder":"tf","game":"Team Fortress","app_id":440,"player_count":24,"max_players":24,"Bots":0,"server_type":"Dedicated","server_os":"Linux","password":true,"vac":true,"version":"7708610","steam_id":85568392924510198,"keywords":["cp","nocrits","nodmgspread","uncletopia"],"game_id":440,"stv_port":27036,"stv_name":"Uncletopia | Los Angeles | 3 | All Maps | STV","players":[{"user_id":292,"name":"jacix3 [gay wolfgirl]{she/it}","steam_id":76561198205004165,"connected_time":3898000000000,"state":"active","ping":81},{"user_id":341,"name":"wubber","steam_id":76561198286627157,"connected_time":1180000000000,"state":"active","ping":52},{"user_id":306,"name":"A Can of Arizona Green Tea","steam_id":76561198062481133,"connected_time":3316000000000,"state":"active","ping":80},{"user_id":331,"name":"Rx Auntie","steam_id":76561198051618393,"connected_time":1457000000000,"state":"active","ping":59},{"user_id":316,"name":"Jacasola","steam_id":76561198055460402,"connected_time":2128000000000,"state":"active","ping":43},{"user_id":339,"name":"uskthedwarf","steam_id":76561199076096095,"connected_time":1292000000000,"state":"active","ping":86},{"user_id":334,"name":"c0wmanglr","steam_id":76561198025342064,"connected_time":1401000000000,"state":"active","ping":50},{"user_id":289,"name":"[K.Y.L.L.]Lyka","steam_id":76561198027321950,"connected_time":4547000000000,"state":"active","ping":70},{"user_id":347,"name":"An Arrogant Child","steam_id":76561198178228075,"connected_time":305000000000,"state":"active","ping":49},{"user_id":335,"name":"For Whom The Taco Bell Tolls","steam_id":76561198418288939,"connected_time":1400000000000,"state":"active","ping":78},{"user_id":317,"name":"whale","steam_id":76561198094043919,"connected_time":2122000000000,"state":"active","ping":91},{"user_id":310,"name":"Ace Chromatica","steam_id":76561198042211131,"connected_time":3072000000000,"state":"active","ping":111},{"user_id":318,"name":"Spicy","steam_id":76561198811513755,"connected_time":2114000000000,"state":"active","ping":86},{"user_id":348,"name":"Peak","steam_id":76561198118772175,"connected_time":262000000000,"state":"active","ping":45},{"user_id":312,"name":"Be Gay, Do Crimes, Smoke Weed!","steam_id":76561198092419868,"connected_time":2387000000000,"state":"active","ping":63},{"user_id":324,"name":"The Foolish Samurai","steam_id":76561198094494945,"connected_time":1730000000000,"state":"active","ping":73},{"user_id":319,"name":"zelkova :3","steam_id":76561198985952504,"connected_time":1993000000000,"state":"active","ping":45},{"user_id":345,"name":"FatCuddlyBear","steam_id":76561198133613253,"connected_time":846000000000,"state":"active","ping":106},{"user_id":297,"name":"old punk","steam_id":76561198841729555,"connected_time":3830000000000,"state":"active","ping":108},{"user_id":329,"name":"Larry Gooseman","steam_id":76561198018696922,"connected_time":1674000000000,"state":"active","ping":56},{"user_id":325,"name":"Cactus™ ♥","steam_id":76561198036441270,"connected_time":1727000000000,"state":"active","ping":80},{"user_id":336,"name":"B    U    N    T    A","steam_id":76561198827726493,"connected_time":1374000000000,"state":"active","ping":79},{"user_id":344,"name":"friendly on uncletopia :)","steam_id":76561198064194222,"connected_time":893000000000,"state":"active","ping":71},{"user_id":275,"name":"Super Mighty G","steam_id":76561198020932806,"connected_time":6225000000000,"state":"active","ping":46}]},{"server_id":25,"name":"Uncletopia | Los Angeles | 4 | No Payload","name_short":"lax-4","host":"lax-1.us.uncletopia.com","port":27045,"enabled":true,"region":"us-west","cc":"us","latitude":33.94279,"longitude":-118.41004,"reserved":0,"last_update":"0001-01-01T00:00:00Z","name_a2s":"Uncletopia | Los Angeles | 4 | No Payload","protocol":17,"map":"cp_coldfront","folder":"tf","game":"Team Fortress","app_id":440,"player_count":0,"max_players":24,"Bots":0,"server_type":"Dedicated","server_os":"Linux","password":true,"vac":true,"version":"7708610","steam_id":85568392924510199,"keywords":["cp","nocrits","nodmgspread","uncletopia"],"game_id":440,"stv_port":27046,"stv_name":"Uncletopia | Los Angeles | 4 | No Payload | STV","players":null},{"server_id":11,"name":"Uncletopia | London | 1 | All Maps","name_short":"lon-1","host":"lon-1.uk.uncletopia.com","port":27015,"enabled":true,"region":"eu","cc":"gb","latitude":51.509865,"longitude":-0.118092,"reserved":0,"last_update":"0001-01-01T00:00:00Z","name_a2s":"Uncletopia | London | 1 | All Maps","protocol":17,"map":"koth_lakeside_final","folder":"tf","game":"Team Fortress","app_id":440,"player_count":4,"max_players":24,"Bots":0,"server_type":"Dedicated","server_os":"Linux","password":true,"vac":true,"version":"7708610","steam_id":85568392924367362,"keywords":["cp","nocrits","nodmgspread","uncletopia"],"game_id":440,"stv_port":27016,"stv_name":"Uncletopia | London | 1 | All Maps | STV","players":[{"user_id":234,"name":"Vitamin Weee","steam_id":76561199183937747,"connected_time":3420000000000,"state":"active","ping":99},{"user_id":248,"name":"The New Bob","steam_id":76561199122072556,"connected_time":2314000000000,"state":"active","ping":146},{"user_id":252,"name":"Machivode","steam_id":76561198361749967,"connected_time":1049000000000,"state":"active","ping":204},{"user_id":254,"name":"PastaGuy","steam_id":76561198452806487,"connected_time":857000000000,"state":"active","ping":196}]},{"server_id":114,"name":"Uncletopia | London | 2 | All Maps","name_short":"lon-2","host":"lon-1.uk.uncletopia.com","port":27025,"enabled":true,"region":"eu","cc":"gb","latitude":51.509865,"longitude":-0.118092,"reserved":0,"last_update":"0001-01-01T00:00:00Z","name_a2s":"Uncletopia | London | 2 | All Maps","protocol":17,"map":"cp_process_final","folder":"tf","game":"Team Fortress","app_id":440,"player_count":0,"max_players":24,"Bots":0,"server_type":"Dedicated","server_os":"Linux","password":true,"vac":true,"version":"7708610","steam_id":85568392924470941,"keywords":["cp","nocrits","nodmgspread","uncletopia"],"game_id":440,"stv_port":27026,"stv_name":"Uncletopia | London | 2 | All Maps | STV","players":null},{"server_id":320,"name":"Uncletopia | London | 3 | All Maps","name_short":"lon-3","host":"lon-1.uk.uncletopia.com","port":27035,"enabled":true,"region":"eu","cc":"gb","latitude":51.509865,"longitude":-0.118092,"reserved":0,"last_update":"0001-01-01T00:00:00Z","name_a2s":"Uncletopia | London | 3 | All Maps","protocol":17,"map":"koth_cascade","folder":"tf","game":"Team Fortress","app_id":440,"player_count":0,"max_players":24,"Bots":0,"server_type":"Dedicated","server_os":"Linux","password":true,"vac":true,"version":"7708610","steam_id":85568392924510192,"keywords":["cp","nocrits","nodmgspread","uncletopia"],"game_id":440,"stv_port":27036,"stv_name":"Uncletopia | London | 3 | All Maps | STV","players":null},{"server_id":321,"name":"Uncletopia | London | 4 | All Maps","name_short":"lon-4","host":"lon-1.uk.uncletopia.com","port":27045,"enabled":true,"region":"eu","cc":"gb","latitude":51.509865,"longitude":-0.118092,"reserved":0,"last_update":"0001-01-01T00:00:00Z","name_a2s":"Uncletopia | London | 4 | All Maps","protocol":17,"map":"pl_upward","folder":"tf","game":"Team Fortress","app_id":440,"player_count":0,"max_players":24,"Bots":0,"server_type":"Dedicated","server_os":"Linux","password":true,"vac":true,"version":"7708610","steam_id":85568392924510193,"keywords":["nocrits","nodmgspread","payload","uncletopia"],"game_id":440,"stv_port":27046,"stv_name":"Uncletopia | London | 4 | All Maps | STV","players":null},{"server_id":21,"name":"Uncletopia | London | 5 | All Maps","name_short":"lon-5","host":"lon-1.uk.uncletopia.com","port":27055,"enabled":true,"region":"eu","cc":"gb","latitude":51.509865,"longitude":-0.118092,"reserved":0,"last_update":"0001-01-01T00:00:00Z","name_a2s":"Uncletopia | London | 5 | All Maps","protocol":17,"map":"cp_sunshine","folder":"tf","game":"Team Fortress","app_id":440,"player_count":0,"max_players":24,"Bots":0,"server_type":"Dedicated","server_os":"Linux","password":true,"vac":true,"version":"7708610","steam_id":85568392924742829,"keywords":["cp","nocrits","nodmgspread","uncletopia"],"game_id":440,"stv_port":27056,"stv_name":"Uncletopia | London | 5 | All Maps | STV","players":null},{"server_id":22,"name":"Uncletopia | London | 6 | All Maps","name_short":"lon-6","host":"lon-1.uk.uncletopia.com","port":27065,"enabled":true,"region":"eu","cc":"gb","latitude":51.509865,"longitude":-0.118092,"reserved":0,"last_update":"0001-01-01T00:00:00Z","name_a2s":"Uncletopia | London | 6 | All Maps","protocol":17,"map":"pl_pier","folder":"tf","game":"Team Fortress","app_id":440,"player_count":0,"max_players":24,"Bots":0,"server_type":"Dedicated","server_os":"Linux","password":true,"vac":true,"version":"7708610","steam_id":85568392924742830,"keywords":["nocrits","nodmgspread","payload","uncletopia"],"game_id":440,"stv_port":27066,"stv_name":"Uncletopia | London | 6 | All Maps | STV","players":null},{"server_id":40,"name":"Uncletopia | London | 7 | No Payload","name_short":"lon-7","host":"lon-1.uk.uncletopia.com","port":27075,"enabled":true,"region":"eu","cc":"gb","latitude":51.509865,"longitude":-0.118092,"reserved":0,"last_update":"0001-01-01T00:00:00Z","name_a2s":"Uncletopia | London | 7 | No Payload","protocol":17,"map":"pl_barnblitz","folder":"tf","game":"Team Fortress","app_id":440,"player_count":0,"max_players":24,"Bots":0,"server_type":"Dedicated","server_os":"Linux","password":true,"vac":true,"version":"7708610","steam_id":85568392924964314,"keywords":["nocrits","nodmgspread","payload","uncletopia"],"game_id":440,"stv_port":27076,"stv_name":"Uncletopia | London | 7 | No Payload | STV","players":null},{"server_id":41,"name":"Uncletopia | London | 8 | Community","name_short":"lon-8","host":"lon-1.uk.uncletopia.com","port":27085,"enabled":true,"region":"eu","cc":"gb","latitude":51.509865,"longitude":-0.118092,"reserved":0,"last_update":"0001-01-01T00:00:00Z","name_a2s":"Uncletopia | London | 8 | Community","protocol":17,"map":"pl_pier","folder":"tf","game":"Team Fortress","app_id":440,"player_count":0,"max_players":24,"Bots":0,"server_type":"Dedicated","server_os":"Linux","password":true,"vac":true,"version":"7708610","steam_id":85568392924964315,"keywords":["nocrits","nodmgspread","payload","uncletopia"],"game_id":440,"stv_port":27086,"stv_name":"Uncletopia | London | 8 | Community | STV","players":null},{"server_id":300,"name":"Uncletopia | Montréal | 1 | All Maps","name_short":"mtl-1","host":"mtl-1.ca.uncletopia.com","port":27015,"enabled":true,"region":"us-east","cc":"ca","latitude":45.50889,"longitude":-73.56167,"reserved":0,"last_update":"0001-01-01T00:00:00Z","name_a2s":"Uncletopia | Montréal | 1 | All Maps","protocol":17,"map":"cp_dustbowl","folder":"tf","game":"Team Fortress","app_id":440,"player_count":0,"max_players":24,"Bots":0,"server_type":"Dedicated","server_os":"Linux","password":true,"vac":true,"version":"7708610","steam_id":85568392924500087,"keywords":["cp","nocrits","nodmgspread","uncletopia"],"game_id":440,"stv_port":27016,"stv_name":"Uncletopia | Montréal | 1 | All Maps | STV","players":null},{"server_id":301,"name":"Uncletopia | Montréal | 2 | All Maps","name_short":"mtl-2","host":"mtl-1.ca.uncletopia.com","port":27025,"enabled":true,"region":"us-east","cc":"ca","latitude":45.50889,"longitude":-73.56167,"reserved":0,"last_update":"0001-01-01T00:00:00Z","name_a2s":"Uncletopia | Montréal | 2 | All Maps","protocol":17,"map":"pl_swiftwater_final1","folder":"tf","game":"Team Fortress","app_id":440,"player_count":0,"max_players":24,"Bots":0,"server_type":"Dedicated","server_os":"Linux","password":true,"vac":true,"version":"7708610","steam_id":85568392924500088,"keywords":["nocrits","nodmgspread","payload","uncletopia"],"game_id":440,"stv_port":27026,"stv_name":"Uncletopia | Montréal | 2 | All Maps | STV","players":null},{"server_id":302,"name":"Uncletopia | Montréal | 3 | All Maps","name_short":"mtl-3","host":"mtl-1.ca.uncletopia.com","port":27035,"enabled":true,"region":"us-east","cc":"ca","latitude":45.50889,"longitude":-73.56167,"reserved":0,"last_update":"0001-01-01T00:00:00Z","name_a2s":"Uncletopia | Montréal | 3 | All Maps","protocol":17,"map":"cp_snakewater_final1","folder":"tf","game":"Team Fortress","app_id":440,"player_count":0,"max_players":24,"Bots":0,"server_type":"Dedicated","server_os":"Linux","password":true,"vac":true,"version":"7708610","steam_id":85568392924500089,"keywords":["cp","nocrits","nodmgspread","uncletopia"],"game_id":440,"stv_port":27036,"stv_name":"Uncletopia | Montréal | 3 | All Maps | STV","players":null},{"server_id":303,"name":"Uncletopia | Montréal | 4 | No Payload","name_short":"mtl-4","host":"mtl-1.ca.uncletopia.com","port":27045,"enabled":true,"region":"us-east","cc":"ca","latitude":45.50889,"longitude":-73.56167,"reserved":0,"last_update":"0001-01-01T00:00:00Z","name_a2s":"Uncletopia | Montréal | 4 | No Payload","protocol":17,"map":"cp_process_final","folder":"tf","game":"Team Fortress","app_id":440,"player_count":0,"max_players":24,"Bots":0,"server_type":"Dedicated","server_os":"Linux","password":true,"vac":true,"version":"7708610","steam_id":85568392924500090,"keywords":["cp","nocrits","nodmgspread","uncletopia"],"game_id":440,"stv_port":27046,"stv_name":"Uncletopia | Montréal | 4 | No Payload | STV","players":null},{"server_id":13,"name":"Uncletopia | New York City | 1 | All Maps","name_short":"nyc-1","host":"nyc-1.us.uncletopia.com","port":27015,"enabled":true,"region":"us-east","cc":"us","latitude":40.73061,"longitude":-73.93524,"reserved":0,"last_update":"0001-01-01T00:00:00Z","name_a2s":"Uncletopia | New York City | 1 | All Maps","protocol":17,"map":"pl_swiftwater_final1","folder":"tf","game":"Team Fortress","app_id":440,"player_count":24,"max_players":24,"Bots":0,"server_type":"Dedicated","server_os":"Linux","password":true,"vac":true,"version":"7708610","steam_id":85568392924469993,"keywords":["nocrits","nodmgspread","payload","uncletopia"],"game_id":440,"stv_port":27016,"stv_name":"Uncletopia | New York City | 1 | All Maps | STV","players":[{"user_id":298,"name":"Do Moose go Moo?","steam_id":76561198073550620,"connected_time":866000000000,"state":"active","ping":61},{"user_id":282,"name":"Binky Den","steam_id":76561198164035863,"connected_time":1897000000000,"state":"active","ping":87},{"user_id":276,"name":"410,757,864,530 missed crits","steam_id":76561198035619419,"connected_time":2529000000000,"state":"active","ping":57},{"user_id":283,"name":"Lifial","steam_id":76561198271885819,"connected_time":1887000000000,"state":"active","ping":57},{"user_id":303,"name":"Money Collector","steam_id":76561198046249467,"connected_time":716000000000,"state":"active","ping":76},{"user_id":238,"name":"M.L.JEW","steam_id":76561198997375055,"connected_time":4933000000000,"state":"active","ping":81},{"user_id":258,"name":"A used self heating flesh-light","steam_id":76561198069918221,"connected_time":3114000000000,"state":"active","ping":51},{"user_id":299,"name":"terrapieseven","steam_id":76561198072062415,"connected_time":826000000000,"state":"active","ping":61},{"user_id":279,"name":"Lemur","steam_id":76561198065300466,"connected_time":2173000000000,"state":"active","ping":66},{"user_id":287,"name":"Jebadiah Springfield","steam_id":76561199079783630,"connected_time":1758000000000,"state":"active","ping":80},{"user_id":309,"name":"Skrungly","steam_id":76561198072550443,"connected_time":357000000000,"state":"active","ping":41},{"user_id":300,"name":"studdedscot","steam_id":76561198069118787,"connected_time":821000000000,"state":"active","ping":123},{"user_id":295,"name":"ROAD TO ZERO","steam_id":76561198049945735,"connected_time":1246000000000,"state":"active","ping":53},{"user_id":307,"name":"Earthpig","steam_id":76561198373842725,"connected_time":401000000000,"state":"active","ping":65},{"user_id":280,"name":"Amaretto Sour","steam_id":76561198063112844,"connected_time":1922000000000,"state":"active","ping":66},{"user_id":304,"name":"reddrummerguy","steam_id":76561198059220458,"connected_time":587000000000,"state":"active","ping":61},{"user_id":306,"name":"Smuggs","steam_id":76561197999456003,"connected_time":511000000000,"state":"active","ping":119},{"user_id":265,"name":"Scorpsy","steam_id":76561198024477688,"connected_time":2974000000000,"state":"active","ping":64},{"user_id":245,"name":"MontellWilliams","steam_id":76561198172143015,"connected_time":4525000000000,"state":"active","ping":62},{"user_id":290,"name":"DONKIN","steam_id":76561198028870700,"connected_time":1680000000000,"state":"active","ping":45},{"user_id":267,"name":"astron","steam_id":76561198058546328,"connected_time":2958000000000,"state":"active","ping":74},{"user_id":215,"name":"wack","steam_id":76561198095697330,"connected_time":6267000000000,"state":"active","ping":100},{"user_id":308,"name":"hoots","steam_id":76561198015609525,"connected_time":398000000000,"state":"active","ping":52},{"user_id":269,"name":"Adolf The Toast Jesus™","steam_id":76561198024553767,"connected_time":2952000000000,"state":"active","ping":92}]},{"server_id":14,"name":"Uncletopia | New York City | 2 | All Maps","name_short":"nyc-2","host":"nyc-1.us.uncletopia.com","port":27025,"enabled":true,"region":"us-east","cc":"us","latitude":40.73061,"longitude":-73.93524,"reserved":0,"last_update":"0001-01-01T00:00:00Z","name_a2s":"Uncletopia | New York City | 2 | All Maps","protocol":17,"map":"pl_barnblitz","folder":"tf","game":"Team Fortress","app_id":440,"player_count":24,"max_players":24,"Bots":0,"server_type":"Dedicated","server_os":"Linux","password":true,"vac":true,"version":"7708610","steam_id":85568392924469994,"keywords":["nocrits","nodmgspread","payload","uncletopia"],"game_id":440,"stv_port":27026,"stv_name":"Uncletopia | New York City | 2 | All Maps | STV","players":[{"user_id":25,"name":"UNIT 220","steam_id":76561198042243497,"connected_time":6820000000000,"state":"active","ping":65},{"user_id":91,"name":"FCV96","steam_id":76561198059068377,"connected_time":620000000000,"state":"active","ping":66},{"user_id":32,"name":"eXprey","steam_id":76561198086348328,"connected_time":6667000000000,"state":"active","ping":81},{"user_id":28,"name":"Importality","steam_id":76561198049943127,"connected_time":6794000000000,"state":"active","ping":77},{"user_id":33,"name":"jaqalope","steam_id":76561198152144009,"connected_time":6655000000000,"state":"active","ping":78},{"user_id":101,"name":"Somebody","steam_id":76561198146535845,"connected_time":234000000000,"state":"active","ping":137},{"user_id":87,"name":"Croissant Guy","steam_id":76561198077719901,"connected_time":1198000000000,"state":"active","ping":67},{"user_id":36,"name":"Anyar","steam_id":76561198160174097,"connected_time":5567000000000,"state":"active","ping":81},{"user_id":37,"name":"MiddleC","steam_id":76561198170332855,"connected_time":5523000000000,"state":"active","ping":83},{"user_id":73,"name":"zzz","steam_id":76561198351895498,"connected_time":2140000000000,"state":"active","ping":41},{"user_id":77,"name":"tac","steam_id":76561198155113345,"connected_time":1772000000000,"state":"active","ping":75},{"user_id":96,"name":"Pizza Party","steam_id":76561198165730754,"connected_time":420000000000,"state":"active","ping":63},{"user_id":41,"name":"the real babytron","steam_id":76561197989627918,"connected_time":5373000000000,"state":"active","ping":76},{"user_id":67,"name":"Piyono","steam_id":76561197962188504,"connected_time":2521000000000,"state":"active","ping":72},{"user_id":93,"name":"DankCatMemes","steam_id":76561198067385830,"connected_time":564000000000,"state":"active","ping":63},{"user_id":100,"name":"alec","steam_id":76561198106522197,"connected_time":298000000000,"state":"active","ping":78},{"user_id":46,"name":"CherryYeti","steam_id":76561199221441151,"connected_time":5284000000000,"state":"active","ping":113},{"user_id":66,"name":"Fudge_Cake","steam_id":76561198059218167,"connected_time":2529000000000,"state":"active","ping":78},{"user_id":102,"name":"The Rambler","steam_id":76561198109648603,"connected_time":110000000000,"state":"active","ping":93},{"user_id":97,"name":"Lucretiel","steam_id":76561197983490423,"connected_time":419000000000,"state":"active","ping":55},{"user_id":84,"name":"Greg | trade.tf","steam_id":76561198111875038,"connected_time":1377000000000,"state":"active","ping":94},{"user_id":99,"name":"Nassu","steam_id":76561198147367577,"connected_time":327000000000,"state":"active","ping":85},{"user_id":64,"name":"GλBE | blw.tf","steam_id":76561198798673272,"connected_time":3280000000000,"state":"active","ping":74},{"user_id":90,"name":"Gigabars","steam_id":76561198119267479,"connected_time":727000000000,"state":"active","ping":84}]},{"server_id":15,"name":"Uncletopia | New York City | 3 | All Maps","name_short":"nyc-3","host":"nyc-1.us.uncletopia.com","port":27035,"enabled":true,"region":"us-east","cc":"us","latitude":40.73061,"longitude":-73.93524,"reserved":0,"last_update":"0001-01-01T00:00:00Z","name_a2s":"Uncletopia | New York City | 3 | All Maps","protocol":17,"map":"cp_dustbowl","folder":"tf","game":"Team Fortress","app_id":440,"player_count":24,"max_players":24,"Bots":0,"server_type":"Dedicated","server_os":"Linux","password":true,"vac":true,"version":"7708610","steam_id":85568392924742820,"keywords":["cp","nocrits","nodmgspread","uncletopia"],"game_id":440,"stv_port":27036,"stv_name":"Uncletopia | New York City | 3 | All Maps | STV","players":[{"user_id":252,"name":"Bee_Pirate","steam_id":76561199000599111,"connected_time":4711000000000,"state":"active","ping":70},{"user_id":274,"name":"McNamJam","steam_id":76561198028128686,"connected_time":3176000000000,"state":"active","ping":118},{"user_id":300,"name":"nalapl3","steam_id":76561198197607383,"connected_time":1199000000000,"state":"active","ping":137},{"user_id":292,"name":"TommySalami69","steam_id":76561198180275926,"connected_time":1862000000000,"state":"active","ping":79},{"user_id":228,"name":"LalitoTV","steam_id":76561198334302951,"connected_time":6422000000000,"state":"active","ping":129},{"user_id":284,"name":"SE X","steam_id":76561198094525829,"connected_time":2090000000000,"state":"active","ping":50},{"user_id":294,"name":"stenev","steam_id":76561198877081179,"connected_time":1826000000000,"state":"active","ping":68},{"user_id":307,"name":"ZenkoZSprite","steam_id":76561198190132250,"connected_time":9000000000,"state":"active","ping":170},{"user_id":305,"name":"The Engie","steam_id":76561198049418537,"connected_time":46000000000,"state":"active","ping":89},{"user_id":278,"name":"JoshBanana","steam_id":76561198087537095,"connected_time":2488000000000,"state":"active","ping":54},{"user_id":297,"name":"Minion Bob","steam_id":76561198023938170,"connected_time":1667000000000,"state":"active","ping":101},{"user_id":306,"name":"Fish Fisherman","steam_id":76561198018656022,"connected_time":21000000000,"state":"spawning","ping":102},{"user_id":277,"name":"AceDeuce","steam_id":76561198049904924,"connected_time":2701000000000,"state":"active","ping":62},{"user_id":308,"name":"Sableye","steam_id":76561198061247147,"connected_time":6000000000,"state":"spawning","ping":81},{"user_id":283,"name":"parsee","steam_id":76561198095139889,"connected_time":2113000000000,"state":"active","ping":49},{"user_id":287,"name":"Joker Joestar","steam_id":76561198115696839,"connected_time":2040000000000,"state":"active","ping":85},{"user_id":304,"name":"sawrik","steam_id":76561198018808213,"connected_time":208000000000,"state":"active","ping":65},{"user_id":244,"name":"Wique","steam_id":76561198071217597,"connected_time":5732000000000,"state":"active","ping":60},{"user_id":288,"name":"Katzenwerfer","steam_id":76561198345464748,"connected_time":2038000000000,"state":"active","ping":122},{"user_id":270,"name":"Zeemii","steam_id":76561198809299581,"connected_time":3559000000000,"state":"active","ping":46},{"user_id":302,"name":"Sàke","steam_id":76561198056007990,"connected_time":1158000000000,"state":"active","ping":83},{"user_id":303,"name":"_BOBE","steam_id":76561198004578255,"connected_time":1157000000000,"state":"active","ping":124},{"user_id":272,"name":"larsvik","steam_id":76561198077948794,"connected_time":3402000000000,"state":"active","ping":50},{"user_id":309,"name":"Bearbean323","steam_id":76561199442443058,"connected_time":4000000000,"state":"spawning","ping":56}]},{"server_id":16,"name":"Uncletopia | New York City | 4 | Community","name_short":"nyc-4","host":"nyc-1.us.uncletopia.com","port":27045,"enabled":true,"region":"us-east","cc":"us","latitude":40.73061,"longitude":-73.93524,"reserved":0,"last_update":"0001-01-01T00:00:00Z","name_a2s":"Uncletopia | New York City | 4 | Community","protocol":17,"map":"workshop/koth_slaughter_rc1.ugc1712845210","folder":"tf","game":"Team Fortress","app_id":440,"player_count":0,"max_players":24,"Bots":0,"server_type":"Dedicated","server_os":"Linux","password":true,"vac":true,"version":"7708610","steam_id":85568392924742821,"keywords":["cp","nocrits","nodmgspread","uncletopia"],"game_id":440,"stv_port":27046,"stv_name":"Uncletopia | New York City | 4 | Community | STV","players":null},{"server_id":142,"name":"Uncletopia | São Paulo | 1 | All Maps","name_short":"sao-1","host":"sao-1.br.uncletopia.com","port":27015,"enabled":true,"region":"sa","cc":"br","latitude":-23.533773,"longitude":-46.62529,"reserved":0,"last_update":"0001-01-01T00:00:00Z","name_a2s":"Uncletopia | São Paulo | 1 | All Maps","protocol":17,"map":"koth_viaduct","folder":"tf","game":"Team Fortress","app_id":440,"player_count":0,"max_players":24,"Bots":0,"server_type":"Dedicated","server_os":"Linux","password":true,"vac":true,"version":"7708610","steam_id":85568392924469996,"keywords":["cp","nocrits","nodmgspread","uncletopia"],"game_id":440,"stv_port":27016,"stv_name":"Uncletopia | São Paulo | 1 | All Maps | STV","players":null},{"server_id":143,"name":"Uncletopia | São Paulo | 2 | All Maps","name_short":"sao-2","host":"sao-2.br.uncletopia.com","port":27015,"enabled":true,"region":"sa","cc":"br","latitude":-23.533773,"longitude":-46.62529,"reserved":0,"last_update":"0001-01-01T00:00:00Z","name_a2s":"Uncletopia | São Paulo | 2 | All Maps","protocol":17,"map":"koth_viaduct","folder":"tf","game":"Team Fortress","app_id":440,"player_count":0,"max_players":24,"Bots":0,"server_type":"Dedicated","server_os":"Linux","password":true,"vac":true,"version":"7708610","steam_id":85568392924485349,"keywords":["cp","nocrits","nodmgspread","uncletopia"],"game_id":440,"stv_port":27016,"stv_name":"Uncletopia | São Paulo | 2 | All Maps | STV","players":null},{"server_id":7,"name":"Uncletopia | Seattle | 1 | All Maps","name_short":"sea-1","host":"sea-1.us.uncletopia.com","port":27015,"enabled":true,"region":"us-west","cc":"us","latitude":47.608013,"longitude":-122.33517,"reserved":0,"last_update":"0001-01-01T00:00:00Z","name_a2s":"Uncletopia | Seattle | 1 | All Maps","protocol":17,"map":"cp_powerhouse","folder":"tf","game":"Team Fortress","app_id":440,"player_count":24,"max_players":24,"Bots":0,"server_type":"Dedicated","server_os":"Linux","password":true,"vac":true,"version":"7708610","steam_id":85568392924469997,"keywords":["cp","nocrits","nodmgspread","uncletopia"],"game_id":440,"stv_port":27016,"stv_name":"Uncletopia | Seattle | 1 | All Maps | STV","players":[{"user_id":294,"name":"boxy443","steam_id":76561199386363103,"connected_time":923000000000,"state":"active","ping":52},{"user_id":292,"name":"spenca","steam_id":76561198025371154,"connected_time":1288000000000,"state":"active","ping":77},{"user_id":298,"name":"セイバー","steam_id":76561198169223408,"connected_time":565000000000,"state":"active","ping":55},{"user_id":267,"name":"Jei","steam_id":76561198151596927,"connected_time":2678000000000,"state":"active","ping":108},{"user_id":238,"name":"Damn","steam_id":76561198133741201,"connected_time":5391000000000,"state":"active","ping":49},{"user_id":269,"name":"doomshroom","steam_id":76561198092827250,"connected_time":2671000000000,"state":"active","ping":55},{"user_id":296,"name":"Amogous Supreme","steam_id":76561198025476774,"connected_time":844000000000,"state":"active","ping":74},{"user_id":270,"name":"brain worms","steam_id":76561198841721149,"connected_time":2665000000000,"state":"active","ping":72},{"user_id":266,"name":"Madrox Who?","steam_id":76561197988859134,"connected_time":2970000000000,"state":"active","ping":123},{"user_id":299,"name":"mub","steam_id":76561197961943948,"connected_time":183000000000,"state":"active","ping":45},{"user_id":283,"name":"Arsonist Goose","steam_id":76561198147441830,"connected_time":1736000000000,"state":"active","ping":73},{"user_id":286,"name":"CassandraRC7 (She/her)","steam_id":76561198094123940,"connected_time":1486000000000,"state":"active","ping":118},{"user_id":293,"name":"MUSTARD!!!!!!!!!!!!!!","steam_id":76561199245556843,"connected_time":1099000000000,"state":"active","ping":59},{"user_id":287,"name":"Amateur Glaswegian","steam_id":76561198030851956,"connected_time":1450000000000,"state":"active","ping":48},{"user_id":288,"name":"cmoffs シ","steam_id":76561198050505566,"connected_time":1428000000000,"state":"active","ping":41},{"user_id":291,"name":"CodeZero","steam_id":76561198135272294,"connected_time":1393000000000,"state":"active","ping":96},{"user_id":216,"name":"Ayayahuasca","steam_id":76561199002906056,"connected_time":8177000000000,"state":"active","ping":62},{"user_id":289,"name":"Sharmat","steam_id":76561198103492042,"connected_time":1423000000000,"state":"active","ping":108},{"user_id":224,"name":"Goldbug","steam_id":76561198025221202,"connected_time":7421000000000,"state":"active","ping":64},{"user_id":297,"name":"shredded cheese","steam_id":76561198825214098,"connected_time":779000000000,"state":"active","ping":64},{"user_id":199,"name":"rat gets the cheese","steam_id":76561198031234032,"connected_time":9545000000000,"state":"active","ping":108},{"user_id":271,"name":"DeadlyAnomalies","steam_id":76561198125818085,"connected_time":2631000000000,"state":"active","ping":78},{"user_id":160,"name":"Korey","steam_id":76561198210734407,"connected_time":13709000000000,"state":"active","ping":120},{"user_id":275,"name":"DSM-IVCE","steam_id":76561199438515797,"connected_time":2404000000000,"state":"active","ping":160}]},{"server_id":119,"name":"Uncletopia | Seattle | 2 | All Maps","name_short":"sea-2","host":"sea-1.us.uncletopia.com","port":27025,"enabled":true,"region":"us-west","cc":"us","latitude":47.608013,"longitude":-122.33517,"reserved":0,"last_update":"0001-01-01T00:00:00Z","name_a2s":"Uncletopia | Seattle | 2 | All Maps","protocol":17,"map":"pl_pier","folder":"tf","game":"Team Fortress","app_id":440,"player_count":24,"max_players":24,"Bots":0,"server_type":"Dedicated","server_os":"Linux","password":true,"vac":true,"version":"7708610","steam_id":85568392924469998,"keywords":["nocrits","nodmgspread","payload","uncletopia"],"game_id":440,"stv_port":27026,"stv_name":"Uncletopia | Seattle | 2 | All Maps | STV","players":[{"user_id":275,"name":"Clemont007","steam_id":76561198030935625,"connected_time":1795000000000,"state":"active","ping":78},{"user_id":277,"name":"User Interface","steam_id":76561198049238840,"connected_time":1585000000000,"state":"active","ping":80},{"user_id":290,"name":"the biggest bird","steam_id":76561198026393621,"connected_time":143000000000,"state":"active","ping":136},{"user_id":240,"name":"Phoenix","steam_id":76561197971265992,"connected_time":4758000000000,"state":"active","ping":45},{"user_id":282,"name":"jbggs","steam_id":76561198011204750,"connected_time":1118000000000,"state":"active","ping":95},{"user_id":270,"name":"FireQuiz","steam_id":76561198107357249,"connected_time":2548000000000,"state":"active","ping":61},{"user_id":283,"name":"Frongus","steam_id":76561197979056451,"connected_time":1095000000000,"state":"active","ping":46},{"user_id":239,"name":"Lambchop","steam_id":76561198043900363,"connected_time":4953000000000,"state":"active","ping":75},{"user_id":274,"name":"KellyKapoor","steam_id":76561198040828123,"connected_time":1959000000000,"state":"active","ping":52},{"user_id":284,"name":"cofferhead","steam_id":76561199191108449,"connected_time":1091000000000,"state":"active","ping":78},{"user_id":276,"name":"General Fisticuffs","steam_id":76561198255721392,"connected_time":1703000000000,"state":"active","ping":125},{"user_id":291,"name":"Trow","steam_id":76561198033918106,"connected_time":110000000000,"state":"active","ping":78},{"user_id":278,"name":"ejschild745","steam_id":76561199013388867,"connected_time":1487000000000,"state":"active","ping":63},{"user_id":286,"name":"____hamter","steam_id":76561198062763756,"connected_time":958000000000,"state":"active","ping":104},{"user_id":280,"name":"Stev the Prurient Oxymoron","steam_id":76561197999442625,"connected_time":1260000000000,"state":"active","ping":63},{"user_id":261,"name":"Greskrendtregk","steam_id":76561197969553142,"connected_time":3627000000000,"state":"active","ping":63},{"user_id":288,"name":"Sailor","steam_id":76561199081983517,"connected_time":173000000000,"state":"active","ping":95},{"user_id":251,"name":"gerg","steam_id":76561197997127387,"connected_time":4006000000000,"state":"active","ping":70},{"user_id":252,"name":"Chiaki Nanami","steam_id":76561198164782653,"connected_time":3952000000000,"state":"active","ping":130},{"user_id":222,"name":"AceSea","steam_id":76561198851176490,"connected_time":6657000000000,"state":"active","ping":51},{"user_id":287,"name":"Reptile DysFunktion","steam_id":76561198018725250,"connected_time":936000000000,"state":"active","ping":63},{"user_id":289,"name":"yup","steam_id":76561199190800520,"connected_time":172000000000,"state":"active","ping":43},{"user_id":255,"name":"social distance warrior","steam_id":76561198128992994,"connected_time":3929000000000,"state":"active","ping":45},{"user_id":256,"name":"Communist Killing Candy Cactus\ufffd","steam_id":76561198074980635,"connected_time":3927000000000,"state":"active","ping":97}]},{"server_id":17,"name":"Uncletopia | San Francisco | 1 | All Maps","name_short":"sfo-1","host":"sfo-1.us.uncletopia.com","port":27015,"enabled":true,"region":"us-west","cc":"us","latitude":37.77397,"longitude":-122.4313,"reserved":0,"last_update":"0001-01-01T00:00:00Z","name_a2s":"Uncletopia | San Francisco | 1 | All Maps","protocol":17,"map":"koth_viaduct","folder":"tf","game":"Team Fortress","app_id":440,"player_count":0,"max_players":24,"Bots":0,"server_type":"Dedicated","server_os":"Linux","password":true,"vac":true,"version":"7708610","steam_id":85568392924469999,"keywords":["cp","nocrits","nodmgspread","uncletopia"],"game_id":440,"stv_port":27016,"stv_name":"Uncletopia | San Francisco | 1 | All Maps | STV","players":null},{"server_id":18,"name":"Uncletopia | San Francisco | 2 | All Maps","name_short":"sfo-2","host":"sfo-1.us.uncletopia.com","port":27025,"enabled":true,"region":"us-west","cc":"us","latitude":37.77397,"longitude":-122.4313,"reserved":0,"last_update":"0001-01-01T00:00:00Z","name_a2s":"Uncletopia | San Francisco | 2 | All Maps","protocol":17,"map":"pl_upward","folder":"tf","game":"Team Fortress","app_id":440,"player_count":24,"max_players":24,"Bots":0,"server_type":"Dedicated","server_os":"Linux","password":true,"vac":true,"version":"7708610","steam_id":85568392924470000,"keywords":["nocrits","nodmgspread","payload","uncletopia"],"game_id":440,"stv_port":27026,"stv_name":"Uncletopia | San Francisco | 2 | All Maps | STV","players":[{"user_id":164,"name":"hemper","steam_id":76561198159477619,"connected_time":2597000000000,"state":"active","ping":81},{"user_id":189,"name":"NotAWeeb","steam_id":76561198165530739,"connected_time":72000000000,"state":"active","ping":45},{"user_id":151,"name":"K-2","steam_id":76561198322606535,"connected_time":3211000000000,"state":"active","ping":93},{"user_id":158,"name":"bunkers","steam_id":76561199047144019,"connected_time":2746000000000,"state":"active","ping":49},{"user_id":139,"name":"lol","steam_id":76561198026491738,"connected_time":4424000000000,"state":"active","ping":62},{"user_id":174,"name":"Livin' Like Larry","steam_id":76561198313360974,"connected_time":995000000000,"state":"active","ping":40},{"user_id":159,"name":"maniacalcoast0","steam_id":76561198982540746,"connected_time":2720000000000,"state":"active","ping":89},{"user_id":93,"name":"Mom","steam_id":76561198207936000,"connected_time":7751000000000,"state":"active","ping":54},{"user_id":161,"name":"NooBHatteR","steam_id":76561198077662703,"connected_time":2670000000000,"state":"active","ping":68},{"user_id":182,"name":"WindexWaffles™","steam_id":76561198299752184,"connected_time":696000000000,"state":"active","ping":111},{"user_id":142,"name":"Computron","steam_id":76561198066091050,"connected_time":4011000000000,"state":"active","ping":77},{"user_id":150,"name":"mommy grinch","steam_id":76561199230929836,"connected_time":3262000000000,"state":"active","ping":108},{"user_id":172,"name":"goldhed","steam_id":76561198051751133,"connected_time":1045000000000,"state":"active","ping":73},{"user_id":154,"name":"MASSIVE HOG","steam_id":76561198079923652,"connected_time":3004000000000,"state":"active","ping":95},{"user_id":184,"name":"Haunted","steam_id":76561199049154642,"connected_time":427000000000,"state":"active","ping":140},{"user_id":186,"name":"ヒュイスター","steam_id":76561198146408444,"connected_time":343000000000,"state":"active","ping":65},{"user_id":108,"name":"Taste Of Pancakes","steam_id":76561198158784641,"connected_time":6773000000000,"state":"active","ping":70},{"user_id":173,"name":"Divine Kitty","steam_id":76561198293490689,"connected_time":1038000000000,"state":"active","ping":93},{"user_id":185,"name":"served","steam_id":76561199438267625,"connected_time":388000000000,"state":"active","ping":68},{"user_id":166,"name":"Pneumo.","steam_id":76561197987911883,"connected_time":2346000000000,"state":"active","ping":84},{"user_id":188,"name":"GameGuru the Green Gryphon","steam_id":76561198118495354,"connected_time":137000000000,"state":"active","ping":65},{"user_id":125,"name":"Sivinus","steam_id":76561198025589541,"connected_time":6247000000000,"state":"active","ping":73},{"user_id":179,"name":"StarKeeper","steam_id":76561198111518480,"connected_time":921000000000,"state":"active","ping":109},{"user_id":162,"name":"Nintendo DSi XL","steam_id":76561198280682611,"connected_time":2669000000000,"state":"active","ping":56}]},{"server_id":19,"name":"Uncletopia | San Francisco | 3 | No Payload","name_short":"sfo-3","host":"sfo-1.us.uncletopia.com","port":27035,"enabled":true,"region":"us-west","cc":"us","latitude":37.77397,"longitude":-122.4313,"reserved":0,"last_update":"0001-01-01T00:00:00Z","name_a2s":"Uncletopia | San Francisco | 3 | No Payload","protocol":17,"map":"ctf_doublecross","folder":"tf","game":"Team Fortress","app_id":440,"player_count":24,"max_players":24,"Bots":0,"server_type":"Dedicated","server_os":"Linux","password":true,"vac":true,"version":"7708610","steam_id":85568392924742824,"keywords":["ctf","nocrits","nodmgspread","uncletopia"],"game_id":440,"stv_port":27036,"stv_name":"Uncletopia | San Francisco | 3 | No Payload | STV","players":[{"user_id":188,"name":"gamer in rehab","steam_id":76561198858328080,"connected_time":9965000000000,"state":"active","ping":61},{"user_id":218,"name":"Schnitz","steam_id":76561198265484253,"connected_time":7225000000000,"state":"active","ping":58},{"user_id":300,"name":"Ziggy Q","steam_id":76561197995360978,"connected_time":3833000000000,"state":"active","ping":112},{"user_id":346,"name":"BURTMCSLURP","steam_id":76561198026118940,"connected_time":875000000000,"state":"active","ping":72},{"user_id":339,"name":"Is Mauii","steam_id":76561198153786501,"connected_time":1494000000000,"state":"active","ping":63},{"user_id":349,"name":"Hydroxianchaos","steam_id":76561198043786828,"connected_time":273000000000,"state":"active","ping":109},{"user_id":350,"name":"squashbone","steam_id":76561197999466442,"connected_time":228000000000,"state":"active","ping":60},{"user_id":357,"name":"Sir Severus","steam_id":76561198061295188,"connected_time":113000000000,"state":"active","ping":89},{"user_id":347,"name":"GeneralDoggo","steam_id":76561198132607657,"connected_time":680000000000,"state":"active","ping":110},{"user_id":351,"name":"Crazy Hungarian","steam_id":76561198025498172,"connected_time":204000000000,"state":"active","ping":63},{"user_id":352,"name":"FullAces","steam_id":76561198064679948,"connected_time":195000000000,"state":"active","ping":76},{"user_id":348,"name":"You are Spray Banned","steam_id":76561197970111837,"connected_time":624000000000,"state":"active","ping":87},{"user_id":237,"name":"Gay Cake","steam_id":76561198004388831,"connected_time":6136000000000,"state":"active","ping":108},{"user_id":334,"name":"PunishedCrab","steam_id":76561198079650017,"connected_time":1702000000000,"state":"active","ping":66},{"user_id":353,"name":"Murk Wahlberg","steam_id":76561198131467867,"connected_time":194000000000,"state":"active","ping":30},{"user_id":354,"name":"jboi","steam_id":76561198967909005,"connected_time":167000000000,"state":"active","ping":79},{"user_id":325,"name":"GW4D","steam_id":76561198268791283,"connected_time":2332000000000,"state":"active","ping":63},{"user_id":321,"name":"yplay4hrs","steam_id":76561199006302597,"connected_time":2677000000000,"state":"active","ping":51},{"user_id":356,"name":"Brison","steam_id":76561197993377761,"connected_time":137000000000,"state":"active","ping":37},{"user_id":359,"name":"DagyDin","steam_id":76561199212257554,"connected_time":68000000000,"state":"active","ping":98},{"user_id":341,"name":"Bob the Builder","steam_id":76561199069029812,"connected_time":1228000000000,"state":"active","ping":54},{"user_id":361,"name":"cozmo","steam_id":76561198043167542,"connected_time":11000000000,"state":"spawning","ping":59},{"user_id":326,"name":"Perididdle","steam_id":76561198056864606,"connected_time":2261000000000,"state":"active","ping":98}]},{"server_id":20,"name":"Uncletopia | San Francisco | 4 | Community","name_short":"sfo-4","host":"sfo-1.us.uncletopia.com","port":27045,"enabled":true,"region":"us-west","cc":"us","latitude":37.77397,"longitude":-122.4313,"reserved":0,"last_update":"0001-01-01T00:00:00Z","name_a2s":"Uncletopia | San Francisco | 4 | Community","protocol":17,"map":"workshop/rd_asteroid_redux_rc9.ugc2154902912","folder":"tf","game":"Team Fortress","app_id":440,"player_count":0,"max_players":24,"Bots":0,"server_type":"Dedicated","server_os":"Linux","password":true,"vac":true,"version":"7708610","steam_id":85568392924742826,"keywords":["beta","nocrits","nodmgspread","rd","uncletopia"],"game_id":440,"stv_port":27046,"stv_name":"Uncletopia | San Francisco | 4 | Community | STV","players":null},{"server_id":141,"name":"Uncletopia | Sydney | 1 | All Maps","name_short":"syd-1","host":"syd-1.au.uncletopia.com","port":27015,"enabled":true,"region":"au","cc":"au","latitude":-33.865143,"longitude":151.2099,"reserved":0,"last_update":"0001-01-01T00:00:00Z","name_a2s":"Uncletopia | Sydney | 1 | All Maps","protocol":17,"map":"pl_upward","folder":"tf","game":"Team Fortress","app_id":440,"player_count":24,"max_players":24,"Bots":0,"server_type":"Dedicated","server_os":"Linux","password":true,"vac":true,"version":"7708610","steam_id":85568392924470001,"keywords":["nocrits","nodmgspread","payload","uncletopia"],"game_id":440,"stv_port":27016,"stv_name":"Uncletopia | Sydney | 1 | All Maps | STV","players":[{"user_id":174,"name":"Pseudoman","steam_id":76561198131158447,"connected_time":1530000000000,"state":"active","ping":89},{"user_id":153,"name":"Fireflame","steam_id":76561199163486788,"connected_time":2420000000000,"state":"active","ping":76},{"user_id":193,"name":"TigerThorn","steam_id":76561198930701873,"connected_time":295000000000,"state":"active","ping":58},{"user_id":165,"name":"HyperDelic","steam_id":76561198296916652,"connected_time":1882000000000,"state":"active","ping":54},{"user_id":175,"name":"krandlez` (Any/All)","steam_id":76561198044839726,"connected_time":1262000000000,"state":"active","ping":43},{"user_id":173,"name":"Sherpa","steam_id":76561198018913829,"connected_time":1618000000000,"state":"active","ping":55},{"user_id":189,"name":"jcoll444","steam_id":76561198143025380,"connected_time":566000000000,"state":"active","ping":59},{"user_id":187,"name":"hive","steam_id":76561199099744527,"connected_time":680000000000,"state":"active","ping":52},{"user_id":182,"name":"Recoil","steam_id":76561198431260184,"connected_time":818000000000,"state":"active","ping":51},{"user_id":196,"name":"jd","steam_id":76561198047063515,"connected_time":89000000000,"state":"active","ping":58},{"user_id":156,"name":"billy loomis","steam_id":76561198032687714,"connected_time":2192000000000,"state":"active","ping":93},{"user_id":191,"name":"Autumn ❤","steam_id":76561198085812423,"connected_time":484000000000,"state":"active","ping":74},{"user_id":195,"name":"Border Control","steam_id":76561198247672302,"connected_time":224000000000,"state":"active","ping":66},{"user_id":178,"name":"clout","steam_id":76561198073310502,"connected_time":1134000000000,"state":"active","ping":73},{"user_id":190,"name":"Azzy","steam_id":76561198096245286,"connected_time":518000000000,"state":"active","ping":43},{"user_id":159,"name":"highschool audio monster","steam_id":76561198836003115,"connected_time":2097000000000,"state":"active","ping":65},{"user_id":169,"name":"hawk","steam_id":76561198135164277,"connected_time":1769000000000,"state":"active","ping":60},{"user_id":183,"name":"Hona","steam_id":76561198221809496,"connected_time":808000000000,"state":"active","ping":50},{"user_id":162,"name":"yaero","steam_id":76561198047462865,"connected_time":1949000000000,"state":"active","ping":54},{"user_id":179,"name":"ree boy","steam_id":76561199024189820,"connected_time":1107000000000,"state":"active","ping":86},{"user_id":167,"name":"man ahhh","steam_id":76561198129577552,"connected_time":1841000000000,"state":"active","ping":80},{"user_id":194,"name":"yeezy","steam_id":76561198317072182,"connected_time":270000000000,"state":"active","ping":84},{"user_id":172,"name":"blackmanblack","steam_id":76561198309279405,"connected_time":1679000000000,"state":"active","ping":58},{"user_id":184,"name":"Hot Yoga Instructor","steam_id":76561199163801558,"connected_time":802000000000,"state":"active","ping":42}]},{"server_id":123,"name":"Uncletopia | Sydney | 2 | All Maps","name_short":"syd-2","host":"syd-1.au.uncletopia.com","port":27025,"enabled":true,"region":"au","cc":"au","latitude":-33.865143,"longitude":151.2099,"reserved":0,"last_update":"0001-01-01T00:00:00Z","name_a2s":"Uncletopia | Sydney | 2 | All Maps","protocol":17,"map":"koth_cascade","folder":"tf","game":"Team Fortress","app_id":440,"player_count":0,"max_players":24,"Bots":0,"server_type":"Dedicated","server_os":"Linux","password":true,"vac":true,"version":"7708610","steam_id":85568392924470002,"keywords":["cp","nocrits","nodmgspread","uncletopia"],"game_id":440,"stv_port":27026,"stv_name":"Uncletopia | Sydney | 2 | All Maps | STV","players":null},{"server_id":395,"name":"Uncletopia | Sydney | 3 | All Maps","name_short":"syd-3","host":"syd-1.au.uncletopia.com","port":27035,"enabled":true,"region":"au","cc":"au","latitude":-33.865143,"longitude":151.2099,"reserved":0,"last_update":"0001-01-01T00:00:00Z","name_a2s":"Uncletopia | Sydney | 3 | All Maps","protocol":17,"map":"koth_viaduct","folder":"tf","game":"Team Fortress","app_id":440,"player_count":0,"max_players":24,"Bots":0,"server_type":"Dedicated","server_os":"Linux","password":true,"vac":true,"version":"7708610","steam_id":85568392925194467,"keywords":["cp","nocrits","nodmgspread","uncletopia"],"game_id":440,"stv_port":27036,"stv_name":"Uncletopia | Sydney | 3 | All Maps | STV","players":null},{"server_id":396,"name":"Uncletopia | Sydney | 4 | All Maps","name_short":"syd-4","host":"syd-1.au.uncletopia.com","port":27045,"enabled":true,"region":"au","cc":"au","latitude":-33.865143,"longitude":151.2099,"reserved":0,"last_update":"0001-01-01T00:00:00Z","name_a2s":"Uncletopia | Sydney | 4 | All Maps","protocol":17,"map":"pl_frontier_final","folder":"tf","game":"Team Fortress","app_id":440,"player_count":0,"max_players":24,"Bots":0,"server_type":"Dedicated","server_os":"Linux","password":true,"vac":true,"version":"7708610","steam_id":85568392925397958,"keywords":["nocrits","nodmgspread","payload","uncletopia"],"game_id":440,"stv_port":27046,"stv_name":"Uncletopia | Sydney | 4 | All Maps | STV","players":null},{"server_id":58,"name":"Uncletopia | Sydney | 5 | No Payload","name_short":"syd-5","host":"syd-1.au.uncletopia.com","port":27055,"enabled":true,"region":"au","cc":"au","latitude":-33.865143,"longitude":151.2099,"reserved":0,"last_update":"0001-01-01T00:00:00Z","name_a2s":"Uncletopia | Sydney | 5 | No Payload","protocol":17,"map":"pl_pier","folder":"tf","game":"Team Fortress","app_id":440,"player_count":0,"max_players":24,"Bots":0,"server_type":"Dedicated","server_os":"Linux","password":true,"vac":true,"version":"7708610","steam_id":85568392925397959,"keywords":["nocrits","nodmgspread","payload","uncletopia"],"game_id":440,"stv_port":27056,"stv_name":"Uncletopia | Sydney | 5 | No Payload | STV","players":null},{"server_id":59,"name":"Uncletopia | Sydney | 6 | Community","name_short":"syd-6","host":"syd-1.au.uncletopia.com","port":27065,"enabled":true,"region":"au","cc":"au","latitude":-33.865143,"longitude":151.2099,"reserved":0,"last_update":"0001-01-01T00:00:00Z","name_a2s":"Uncletopia | Sydney | 6 | Community","protocol":17,"map":"workshop/koth_ashville_final.ugc2130459942","folder":"tf","game":"Team Fortress","app_id":440,"player_count":4,"max_players":24,"Bots":0,"server_type":"Dedicated","server_os":"Linux","password":true,"vac":true,"version":"7708610","steam_id":85568392925397960,"keywords":["cp","nocrits","nodmgspread","uncletopia"],"game_id":440,"stv_port":27066,"stv_name":"Uncletopia | Sydney | 6 | Community | STV","players":[{"user_id":18,"name":"starfinder","steam_id":76561199071758773,"connected_time":1406000000000,"state":"active","ping":82},{"user_id":19,"name":"Underrocks","steam_id":76561198134725167,"connected_time":1401000000000,"state":"active","ping":76},{"user_id":20,"name":"RedEyes","steam_id":76561197973698135,"connected_time":83000000000,"state":"active","ping":63},{"user_id":21,"name":"bread","steam_id":76561198213961469,"connected_time":2000000000,"state":"spawning","ping":50}]},{"server_id":49,"name":"Uncletopia | Warsaw | 1 | All Maps","name_short":"waw-1","host":"waw-1.pl.uncletopia.com","port":27015,"enabled":true,"region":"eu","cc":"pl","latitude":52.2297,"longitude":21.017532,"reserved":0,"last_update":"0001-01-01T00:00:00Z","name_a2s":"Uncletopia | Warsaw | 1 | All Maps","protocol":17,"map":"pl_snowycoast","folder":"tf","game":"Team Fortress","app_id":440,"player_count":0,"max_players":24,"Bots":0,"server_type":"Dedicated","server_os":"Linux","password":true,"vac":true,"version":"7708610","steam_id":85568392925397850,"keywords":["nocrits","nodmgspread","payload","uncletopia"],"game_id":440,"stv_port":27016,"stv_name":"Uncletopia | Warsaw | 1 | All Maps | STV","players":null},{"server_id":50,"name":"Uncletopia | Warsaw | 2 | All Maps","name_short":"waw-2","host":"waw-1.pl.uncletopia.com","port":27025,"enabled":true,"region":"eu","cc":"pl","latitude":52.2297,"longitude":21.017532,"reserved":0,"last_update":"0001-01-01T00:00:00Z","name_a2s":"Uncletopia | Warsaw | 2 | All Maps","protocol":17,"map":"pl_barnblitz","folder":"tf","game":"Team Fortress","app_id":440,"player_count":0,"max_players":24,"Bots":0,"server_type":"Dedicated","server_os":"Linux","password":true,"vac":true,"version":"7708610","steam_id":85568392925397851,"keywords":["nocrits","nodmgspread","payload","uncletopia"],"game_id":440,"stv_port":27026,"stv_name":"Uncletopia | Warsaw | 2 | All Maps | STV","players":null},{"server_id":51,"name":"Uncletopia | Warsaw | 3 | All Maps","name_short":"waw-3","host":"waw-1.pl.uncletopia.com","port":27035,"enabled":true,"region":"eu","cc":"pl","latitude":52.2297,"longitude":21.017532,"reserved":0,"last_update":"0001-01-01T00:00:00Z","name_a2s":"Uncletopia | Warsaw | 3 | All Maps","protocol":17,"map":"pl_badwater","folder":"tf","game":"Team Fortress","app_id":440,"player_count":0,"max_players":24,"Bots":0,"server_type":"Dedicated","server_os":"Linux","password":true,"vac":true,"version":"7708610","steam_id":85568392925397852,"keywords":["nocrits","nodmgspread","payload","uncletopia"],"game_id":440,"stv_port":27036,"stv_name":"Uncletopia | Warsaw | 3 | All Maps | STV","players":null},{"server_id":52,"name":"Uncletopia | Warsaw | 4 | All Maps","name_short":"waw-4","host":"waw-1.pl.uncletopia.com","port":27045,"enabled":true,"region":"eu","cc":"pl","latitude":52.2297,"longitude":21.017532,"reserved":0,"last_update":"0001-01-01T00:00:00Z","name_a2s":"Uncletopia | Warsaw | 4 | All Maps","protocol":17,"map":"pl_pier","folder":"tf","game":"Team Fortress","app_id":440,"player_count":0,"max_players":24,"Bots":0,"server_type":"Dedicated","server_os":"Linux","password":true,"vac":true,"version":"7708610","steam_id":85568392925397853,"keywords":["nocrits","nodmgspread","payload","uncletopia"],"game_id":440,"stv_port":27046,"stv_name":"Uncletopia | Warsaw | 4 | All Maps | STV","players":null},{"server_id":53,"name":"Uncletopia | Warsaw | 5 | No Payload","name_short":"waw-5","host":"waw-1.pl.uncletopia.com","port":27055,"enabled":true,"region":"eu","cc":"pl","latitude":52.2297,"longitude":21.017532,"reserved":0,"last_update":"0001-01-01T00:00:00Z","name_a2s":"Uncletopia | Warsaw | 5 | No Payload","protocol":17,"map":"pl_borneo","folder":"tf","game":"Team Fortress","app_id":440,"player_count":0,"max_players":24,"Bots":0,"server_type":"Dedicated","server_os":"Linux","password":true,"vac":true,"version":"7708610","steam_id":85568392925397854,"keywords":["nocrits","nodmgspread","payload","uncletopia"],"game_id":440,"stv_port":27056,"stv_name":"Uncletopia | Warsaw | 5 | No Payload | STV","players":null},{"server_id":54,"name":"Uncletopia | Warsaw | 6 | Community","name_short":"waw-6","host":"waw-1.pl.uncletopia.com","port":27065,"enabled":true,"region":"eu","cc":"pl","latitude":52.2297,"longitude":21.017532,"reserved":0,"last_update":"0001-01-01T00:00:00Z","name_a2s":"Uncletopia | Warsaw | 6 | Community","protocol":17,"map":"pl_swiftwater_final1","folder":"tf","game":"Team Fortress","app_id":440,"player_count":0,"max_players":24,"Bots":0,"server_type":"Dedicated","server_os":"Linux","password":true,"vac":true,"version":"7708610","steam_id":85568392925397856,"keywords":["nocrits","nodmgspread","payload","uncletopia"],"game_id":440,"stv_port":27066,"stv_name":"Uncletopia | Warsaw | 6 | Community | STV","players":null}]}