{"status":true,"message":"","result":[{"server_id":9,"name":"Uncletopia | Atlanta | 1 | All Maps","name_short":"atl-1","host":"atl-1.us.uncletopia.com","port":27015,"enabled":true,"region":"us-east","cc":"us","latitude":33.753746,"longitude":-84.38633,"reserved":0,"last_update":"0001-01-01T00:00:00Z","name_a2s":"Uncletopia | Atlanta | 1 | All Maps","protocol":17,"map":"pl_swiftwater_final1","folder":"tf","game":"Team Fortress","app_id":440,"player_count":19,"max_players":24,"Bots":0,"server_type":"Dedicated","server_os":"Linux","password":true,"vac":true,"version":"7742253","steam_id":85568392924469982,"keywords":["nocrits","nodmgspread","payload","uncletopia"],"game_id":440,"stv_port":27016,"stv_name":"Uncletopia | Atlanta | 1 | All Maps | STV","players":[{"user_id":797,"name":"ATL1 | Rat","steam_id":76561198137925582,"connected_time":129000000000,"state":"active","ping":60},{"user_id":790,"name":"Kawflynn","steam_id":76561198029885678,"connected_time":609000000000,"state":"active","ping":78},{"user_id":776,"name":"ATL1 | Lancer Fan Club","steam_id":76561198355495948,"connected_time":1122000000000,"state":"active","ping":80},{"user_id":775,"name":"Inky (Coolest)","steam_id":76561198968337022,"connected_time":1128000000000,"state":"active","ping":42},{"user_id":796,"name":"popper","steam_id":76561199316542602,"connected_time":235000000000,"state":"active","ping":127},{"user_id":791,"name":"CaucasianShaq","steam_id":76561198351623516,"connected_time":553000000000,"state":"active","ping":54},{"user_id":772,"name":"Bitt","steam_id":76561198286765318,"connected_time":2015000000000,"state":"active","ping":67},{"user_id":784,"name":"ArnoldGaming","steam_id":76561198040140247,"connected_time":1021000000000,"state":"active","ping":98},{"user_id":762,"name":"Brass beast heavy","steam_id":76561198274197623,"connected_time":2630000000000,"state":"active","ping":145},{"user_id":773,"name":"I'm sorry mom","steam_id":76561199013246048,"connected_time":1928000000000,"state":"active","ping":60},{"user_id":688,"name":"Limbo_Darkness","steam_id":76561198127411819,"connected_time":9628000000000,"state":"active","ping":59},{"user_id":739,"name":"ATL1 | vid_","steam_id":76561198065159053,"connected_time":4945000000000,"state":"active","ping":32},{"user_id":777,"name":"ATL1 | SparkStorm","steam_id":76561198095817025,"connected_time":1121000000000,"state":"active","ping":34},{"user_id":768,"name":"(penis reference)","steam_id":76561198135452478,"connected_time":2360000000000,"state":"active","ping":61},{"user_id":764,"name":"enlite","steam_id":76561198884284647,"connected_time":2517000000000,"state":"active","ping":64},{"user_id":799,"name":"Zelumie","steam_id":76561198147335801,"connected_time":33000000000,"state":"active","ping":71},{"user_id":798,"name":"mos","steam_id":76561198146126212,"connected_time":113000000000,"state":"active","ping":53},{"user_id":793,"name":"Boop","steam_id":76561198376703875,"connected_time":534000000000,"state":"active","ping":66}]},{"server_id":400,"name":"Uncletopia | Atlanta | 3 | Stopwatch Beta","name_short":"atl-3","host":"atl-1.us.uncletopia.com","port":27035,"enabled":true,"region":"us-east","cc":"us","latitude":33.753746,"longitude":-84.38633,"reserved":0,"last_update":"0001-01-01T00:00:00Z","name_a2s":"Uncletopia | Atlanta | 3 | Stopwatch Beta","protocol":17,"map":"pl_borneo","folder":"tf","game":"Team Fortress","app_id":440,"player_count":2,"max_players":24,"Bots":0,"server_type":"Dedicated","server_os":"Linux","password":true,"vac":true,"version":"7742253","steam_id":85568392924515187,"keywords":["nocrits","nodmgspread","payload","uncletopia"],"game_id":440,"stv_port":27036,"stv_name":"Uncletopia | Atlanta | 3 | Stopwatch Beta | STV","players":[{"user_id":584,"name":"ÍßÅViViÍßÇ („Å£‚óî‚ó°‚óî)„Å£","steam_id":76561198799904827,"connected_time":395000000000,"state":"active","ping":64},{"user_id":585,"name":"A Ç ÇŒ± Ç ÇŒπ…≥ WœÉ Öœù","steam_id":76561198890541012,"connected_time":385000000000,"state":"active","ping":60}]},{"server_id":401,"name":"Uncletopia | Atlanta | 4 | No Payload","name_short":"atl-4","host":"atl-1.us.uncletopia.com","port":27045,"enabled":true,"region":"us-east","cc":"us","latitude":33.753746,"longitude":-84.38633,"reserved":0,"last_update":"0001-01-01T00:00:00Z","name_a2s":"Uncletopia | Atlanta | 4 | No Payload","protocol":17,"map":"pl_pier","folder":"tf","game":"Team Fortress","app_id":440,"player_count":0,"max_players":24,"Bots":0,"server_type":"Dedicated","server_os":"Linux","password":true,"vac":true,"version":"7723704","steam_id":85568392924515188,"keywords":["nocrits","nodmgspread","payload","uncletopia"],"game_id":440,"stv_port":27046,"stv_name":"Uncletopia | Atlanta | 4 | No Payload | STV","players":null},{"server_id":2,"name":"Uncletopia | Chicago | 1 | All Maps","name_short":"chi-1","host":"chi-1.us.uncletopia.com","port":27015,"enabled":true,"region":"us-central","cc":"us","latitude":41.881832,"longitude":-87.62318,"reserved":0,"last_update":"0001-01-01T00:00:00Z","name_a2s":"Uncletopia | Chicago | 1 | All Maps","protocol":17,"map":"pl_snowycoast","folder":"tf","game":"Team Fortress","app_id":440,"player_count":24,"max_players":24,"Bots":0,"server_type":"Dedicated","server_os":"Linux","password":true,"vac":true,"version":"7742253","steam_id":85568392924469984,"keywords":["nocrits","nodmgspread","payload","uncletopia"],"game_id":440,"stv_port":27016,"stv_name":"Uncletopia | Chicago | 1 | All Maps | STV","players":[{"user_id":531,"name":"BooshBuster","steam_id":76561198237192090,"connected_time":2402000000000,"state":"active","ping":50},{"user_id":534,"name":"girlboss","steam_id":76561198039758987,"connected_time":1996000000000,"state":"active","ping":90},{"user_id":504,"name":"CAdaverOusPRophet","steam_id":76561198045304110,"connected_time":4608000000000,"state":"active","ping":42},{"user_id":557,"name":"Sarbanes-Oxley","steam_id":76561197975898479,"connected_time":883000000000,"state":"active","ping":79},{"user_id":413,"name":"jingle.JIFF","steam_id":76561198045181760,"connected_time":12137000000000,"state":"active","ping":59},{"user_id":562,"name":"Busto","steam_id":76561198322674075,"connected_time":640000000000,"state":"active","ping":108},{"user_id":558,"name":"ZeN","steam_id":76561199098746585,"connected_time":872000000000,"state":"active","ping":55},{"user_id":527,"name":"Howster002","steam_id":76561198323965902,"connected_time":2517000000000,"state":"active","ping":87},{"user_id":555,"name":"Coolyo1313","steam_id":76561198158772227,"connected_time":919000000000,"state":"active","ping":58},{"user_id":560,"name":"pworple","steam_id":76561199189877104,"connected_time":756000000000,"state":"active","ping":52},{"user_id":563,"name":"asbestos taste tester","steam_id":76561198161043251,"connected_time":619000000000,"state":"active","ping":91},{"user_id":549,"name":"EmeraldCola","steam_id":76561198066663687,"connected_time":1479000000000,"state":"active","ping":79},{"user_id":547,"name":"Scout Cuomo","steam_id":76561198345950408,"connected_time":1546000000000,"state":"active","ping":72},{"user_id":561,"name":"savagedachshund","steam_id":76561199208468955,"connected_time":658000000000,"state":"active","ping":143},{"user_id":564,"name":"crankshaft","steam_id":76561197992798282,"connected_time":605000000000,"state":"active","ping":122},{"user_id":552,"name":"CaveMann","steam_id":76561198063049297,"connected_time":1291000000000,"state":"active","ping":104},{"user_id":510,"name":"Susan","steam_id":76561198045705049,"connected_time":4074000000000,"state":"active","ping":109},{"user_id":548,"name":"Ace Chromatica","steam_id":76561198042211131,"connected_time":1541000000000,"state":"active","ping":58},{"user_id":565,"name":"The Foolish Samurai","steam_id":76561198094494945,"connected_time":591000000000,"state":"active","ping":107},{"user_id":499,"name":"ScreamCram","steam_id":76561199114068524,"connected_time":5081000000000,"state":"active","ping":56},{"user_id":543,"name":"yvngbvshvvookie","steam_id":76561198054354674,"connected_time":1616000000000,"state":"active","ping":67},{"user_id":544,"name":"Mycelion","steam_id":76561198024999530,"connected_time":1613000000000,"state":"active","ping":86},{"user_id":566,"name":"Blond Putain","steam_id":76561198144097470,"connected_time":579000000000,"state":"active","ping":61},{"user_id":546,"name":"carloseolartec","steam_id":76561198396648023,"connected_time":1603000000000,"state":"active","ping":66}]},{"server_id":106,"name":"Uncletopia | Chicago | 2 | All Maps","name_short":"chi-2","host":"chi-1.us.uncletopia.com","port":27025,"enabled":true,"region":"us-central","cc":"us","latitude":41.881832,"longitude":-87.62318,"reserved":0,"last_update":"0001-01-01T00:00:00Z","name_a2s":"Uncletopia | Chicago | 2 | All Maps","protocol":17,"map":"pl_swiftwater_final1","folder":"tf","game":"Team Fortress","app_id":440,"player_count":18,"max_players":24,"Bots":0,"server_type":"Dedicated","server_os":"Linux","password":true,"vac":true,"version":"7742253","steam_id":85568392924469985,"keywords":["nocrits","nodmgspread","payload","uncletopia"],"game_id":440,"stv_port":27026,"stv_name":"Uncletopia | Chicago | 2 | All Maps | STV","players":[{"user_id":302,"name":"Minion Bob","steam_id":76561198023938170,"connected_time":2342000000000,"state":"active","ping":97},{"user_id":322,"name":"Pyromanncer TF","steam_id":76561198018508494,"connected_time":0,"state":"spawning","ping":28},{"user_id":321,"name":"MeatShield 2000","steam_id":76561199375192850,"connected_time":47000000000,"state":"active","ping":75},{"user_id":314,"name":"Big G","steam_id":76561198067496197,"connected_time":806000000000,"state":"active","ping":45},{"user_id":303,"name":"United Bank of M O N E Y","steam_id":76561198251647556,"connected_time":2330000000000,"state":"active","ping":97},{"user_id":310,"name":"honja","steam_id":76561197999343534,"connected_time":1165000000000,"state":"active","ping":67},{"user_id":287,"name":"Typical Gentleman","steam_id":76561199229771413,"connected_time":3545000000000,"state":"active","ping":84},{"user_id":282,"name":"ToughGuy311","steam_id":76561198131458027,"connected_time":3804000000000,"state":"active","ping":67},{"user_id":277,"name":"Cursed.jpg","steam_id":76561198164146325,"connected_time":3926000000000,"state":"active","ping":75},{"user_id":304,"name":"goatz","steam_id":76561198163662622,"connected_time":2321000000000,"state":"active","ping":104},{"user_id":320,"name":"RaddahRaddah","steam_id":76561198194462829,"connected_time":381000000000,"state":"spawning","ping":51},{"user_id":285,"name":"drift.r2","steam_id":76561198093781093,"connected_time":3756000000000,"state":"active","ping":49},{"user_id":319,"name":"Marlboro Menthol 100s","steam_id":76561198263631055,"connected_time":513000000000,"state":"active","ping":61},{"user_id":307,"name":"Michael Jordan","steam_id":76561198306393090,"connected_time":2016000000000,"state":"active","ping":37},{"user_id":317,"name":"totally not a pile of beans","steam_id":76561198119851931,"connected_time":756000000000,"state":"active","ping":73},{"user_id":270,"name":"Soap Man","steam_id":76561198000490235,"connected_time":4614000000000,"state":"active","ping":109},{"user_id":308,"name":"BernardBull","steam_id":76561198036138813,"connected_time":1599000000000,"state":"active","ping":79},{"user_id":306,"name":"Aerox","steam_id":76561198871081935,"connected_time":2225000000000,"state":"active","ping":66}]},{"server_id":402,"name":"Uncletopia | Chicago | 3 | All Maps","name_short":"chi-3","host":"chi-1.us.uncletopia.com","port":27035,"enabled":true,"region":"us-central","cc":"us","latitude":41.881832,"longitude":-87.62318,"reserved":0,"last_update":"0001-01-01T00:00:00Z","name_a2s":"Uncletopia | Chicago | 3 | All Maps","protocol":17,"map":"pl_swiftwater_final1","folder":"tf","game":"Team Fortress","app_id":440,"player_count":24,"max_players":24,"Bots":0,"server_type":"Dedicated","server_os":"Linux","password":true,"vac":true,"version":"7742253","steam_id":85568392924515191,"keywords":["nocrits","nodmgspread","payload","uncletopia"],"game_id":440,"stv_port":27036,"stv_name":"Uncletopia | Chicago | 3 | All Maps | STV","players":[{"user_id":933,"name":"ghostedghost","steam_id":76561198111410905,"connected_time":704000000000,"state":"active","ping":86},{"user_id":913,"name":"DeadErebus","steam_id":76561198286117045,"connected_time":2492000000000,"state":"active","ping":36},{"user_id":822,"name":"peachy","steam_id":76561198026664629,"connected_time":8660000000000,"state":"active","ping":60},{"user_id":940,"name":"leumas","steam_id":76561198240408540,"connected_time":322000000000,"state":"active","ping":108},{"user_id":924,"name":"SpyShark","steam_id":76561198064973839,"connected_time":1488000000000,"state":"active","ping":69},{"user_id":915,"name":"i will unheal your scars","steam_id":76561198067994868,"connected_time":2467000000000,"state":"active","ping":62},{"user_id":939,"name":"SliFox115","steam_id":76561198006657143,"connected_time":456000000000,"state":"active","ping":74},{"user_id":945,"name":"DarcoYouKnow","steam_id":76561198148885233,"connected_time":174000000000,"state":"active","ping":68},{"user_id":942,"name":"FlakkerSaber","steam_id":76561198103503066,"connected_time":308000000000,"state":"active","ping":85},{"user_id":909,"name":"Space-E","steam_id":76561198799417313,"connected_time":2944000000000,"state":"active","ping":69},{"user_id":941,"name":"TheFlyingTortis","steam_id":76561198071576016,"connected_time":320000000000,"state":"active","ping":57},{"user_id":928,"name":"SirDigbyChickenCaesar","steam_id":76561197998612788,"connected_time":1391000000000,"state":"active","ping":48},{"user_id":922,"name":"Medic","steam_id":76561198067869016,"connected_time":2106000000000,"state":"active","ping":45},{"user_id":919,"name":"Raniel Dicciardo","steam_id":76561198053859538,"connected_time":2267000000000,"state":"active","ping":59},{"user_id":849,"name":"miles","steam_id":76561199029019040,"connected_time":7419000000000,"state":"active","ping":80},{"user_id":943,"name":"Eins","steam_id":76561199030343810,"connected_time":291000000000,"state":"active","ping":55},{"user_id":929,"name":"amazing","steam_id":76561198386233160,"connected_time":1315000000000,"state":"active","ping":84},{"user_id":877,"name":"-flagellum","steam_id":76561198006297974,"connected_time":4695000000000,"state":"active","ping":51},{"user_id":934,"name":"Big Fig","steam_id":76561198035454162,"connected_time":682000000000,"state":"active","ping":74},{"user_id":935,"name":"pyro_zee","steam_id":76561198014403177,"connected_time":675000000000,"state":"active","ping":73},{"user_id":944,"name":"Rudy","steam_id":76561198013456828,"connected_time":249000000000,"state":"active","ping":59},{"user_id":936,"name":"dzcreeper","steam_id":76561198072250723,"connected_time":628000000000,"state":"active","ping":86},{"user_id":931,"name":"Weerk","steam_id":76561199209543551,"connected_time":1068000000000,"state":"active","ping":86},{"user_id":889,"name":"Doc Romie","steam_id":76561198953778878,"connected_time":4141000000000,"state":"active","ping":51}]},{"server_id":403,"name":"Uncletopia | Chicago | 4 | All Maps","name_short":"chi-4","host":"chi-1.us.uncletopia.com","port":27045,"enabled":true,"region":"us-central","cc":"us","latitude":41.881832,"longitude":-87.62318,"reserved":0,"last_update":"0001-01-01T00:00:00Z","name_a2s":"Uncletopia | Chicago | 4 | All Maps","protocol":17,"map":"pl_badwater","folder":"tf","game":"Team Fortress","app_id":440,"player_count":24,"max_players":24,"Bots":0,"server_type":"Dedicated","server_os":"Linux","password":true,"vac":true,"version":"7742253","steam_id":85568392924515193,"keywords":["nocrits","nodmgspread","payload","uncletopia"],"game_id":440,"stv_port":27046,"stv_name":"Uncletopia | Chicago | 4 | All Maps | STV","players":[{"user_id":338,"name":"derdds","steam_id":76561198034339940,"connected_time":1843000000000,"state":"active","ping":54},{"user_id":346,"name":"java","steam_id":76561198030276792,"connected_time":1074000000000,"state":"active","ping":63},{"user_id":300,"name":"Dill","steam_id":76561197985091914,"connected_time":4600000000000,"state":"active","ping":61},{"user_id":295,"name":"Neil Degrassy","steam_id":76561198132980934,"connected_time":4789000000000,"state":"active","ping":57},{"user_id":291,"name":"Colin102004","steam_id":76561198202384334,"connected_time":5221000000000,"state":"active","ping":59},{"user_id":325,"name":"BrendenMad","steam_id":76561198031250581,"connected_time":2475000000000,"state":"active","ping":55},{"user_id":171,"name":"SuperJagops","steam_id":76561198034689716,"connected_time":15236000000000,"state":"active","ping":59},{"user_id":345,"name":"Lawnmower","steam_id":76561198186680197,"connected_time":1319000000000,"state":"active","ping":84},{"user_id":326,"name":"Winter the Witchie","steam_id":76561198151971178,"connected_time":2443000000000,"state":"active","ping":79},{"user_id":348,"name":"Walking Eye!","steam_id":76561198059501252,"connected_time":1017000000000,"state":"active","ping":58},{"user_id":334,"name":"King","steam_id":76561198010019214,"connected_time":2131000000000,"state":"active","ping":47},{"user_id":303,"name":"little man","steam_id":76561198865971290,"connected_time":4003000000000,"state":"active","ping":85},{"user_id":352,"name":"Roz257","steam_id":76561198842844532,"connected_time":740000000000,"state":"active","ping":70},{"user_id":344,"name":"Assassin","steam_id":76561199129374922,"connected_time":1417000000000,"state":"active","ping":76},{"user_id":287,"name":"Zeora","steam_id":76561198799145251,"connected_time":5279000000000,"state":"active","ping":67},{"user_id":353,"name":"sithreis","steam_id":76561198000564263,"connected_time":405000000000,"state":"active","ping":65},{"user_id":354,"name":"Pavv","steam_id":76561199054772576,"connected_time":41000000000,"state":"active","ping":77},{"user_id":355,"name":"AlecTheNefarious","steam_id":76561198035291230,"connected_time":29000000000,"state":"active","ping":84},{"user_id":340,"name":"Katzenwerfer","steam_id":76561198345464748,"connected_time":1799000000000,"state":"active","ping":113},{"user_id":343,"name":"bubbles","steam_id":76561198054693706,"connected_time":1432000000000,"state":"active","ping":64},{"user_id":341,"name":"The Beast Within","steam_id":76561198298416058,"connected_time":1560000000000,"state":"active","ping":72},{"user_id":349,"name":"Mr.Dr.Prof.Patrick","steam_id":76561198062855055,"connected_time":983000000000,"state":"active","ping":55},{"user_id":350,"name":"Quenuen","steam_id":76561199431198011,"connected_time":956000000000,"state":"active","ping":83},{"user_id":342,"name":"YoshaBoss","steam_id":76561198449656454,"connected_time":1443000000000,"state":"active","ping":77}]},{"server_id":36,"name":"Uncletopia | Chicago | 5 | All Maps","name_short":"chi-5","host":"chi-2.us.uncletopia.com","port":27015,"enabled":true,"region":"us-central","cc":"us","latitude":41.881832,"longitude":-87.62318,"reserved":0,"last_update":"0001-01-01T00:00:00Z","name_a2s":"Uncletopia | Chicago | 5 | All Maps","protocol":17,"map":"pl_upward","folder":"tf","game":"Team Fortress","app_id":440,"player_count":23,"max_players":24,"Bots":0,"server_type":"Dedicated","server_os":"Linux","password":true,"vac":true,"version":"7742253","steam_id":85568392924866362,"keywords":["nocrits","nodmgspread","payload","uncletopia"],"game_id":440,"stv_port":27016,"stv_name":"Uncletopia | Chicago | 5 | All Maps | STV","players":[{"user_id":86,"name":"Crabbymic","steam_id":76561197979418745,"connected_time":3919000000000,"state":"active","ping":52},{"user_id":128,"name":"Queefaholic‚Ñ¢","steam_id":76561198201698086,"connected_time":391000000000,"state":"active","ping":98},{"user_id":127,"name":"Gray","steam_id":76561198275796773,"connected_time":407000000000,"state":"active","ping":100},{"user_id":130,"name":"kametro4","steam_id":76561198835430429,"connected_time":271000000000,"state":"active","ping":89},{"user_id":97,"name":"atserc","steam_id":76561197997570349,"connected_time":2447000000000,"state":"active","ping":95},{"user_id":124,"name":"som1_3ls3","steam_id":76561199434191526,"connected_time":455000000000,"state":"active","ping":70},{"user_id":109,"name":"SquirrelAway‚Ñ¢","steam_id":76561197998828619,"connected_time":1679000000000,"state":"active","ping":74},{"user_id":84,"name":"gtec229","steam_id":76561198026589960,"connected_time":4538000000000,"state":"active","ping":46},{"user_id":125,"name":"golia","steam_id":76561198000264266,"connected_time":444000000000,"state":"active","ping":95},{"user_id":129,"name":"Kipernicus","steam_id":76561197998180212,"connected_time":296000000000,"state":"active","ping":61},{"user_id":118,"name":"Josiesmaru","steam_id":76561199447174956,"connected_time":808000000000,"state":"active","ping":90},{"user_id":119,"name":"memento morri üî™","steam_id":76561198014589691,"connected_time":753000000000,"state":"active","ping":57},{"user_id":73,"name":"RokkitFrog","steam_id":76561198046465850,"connected_time":5199000000000,"state":"active","ping":77},{"user_id":134,"name":"beats","steam_id":76561199245717718,"connected_time":60000000000,"state":"active","ping":53},{"user_id":111,"name":"faxxy","steam_id":76561198079621240,"connected_time":1628000000000,"state":"active","ping":52},{"user_id":85,"name":"Ford Truck Gaming","steam_id":76561199042674833,"connected_time":3934000000000,"state":"active","ping":84},{"user_id":131,"name":"TastyWheat","steam_id":76561198855061918,"connected_time":246000000000,"state":"active","ping":109},{"user_id":75,"name":"JohnGodfrey","steam_id":76561198271652253,"connected_time":5191000000000,"state":"active","ping":75},{"user_id":81,"name":"Tom","steam_id":76561198070630154,"connected_time":5049000000000,"state":"active","ping":89},{"user_id":63,"name":"Bringer of Gibbs","steam_id":76561198035700041,"connected_time":5556000000000,"state":"active","ping":92},{"user_id":114,"name":"toast","steam_id":76561197996321118,"connected_time":1443000000000,"state":"active","ping":50},{"user_id":133,"name":"coco","steam_id":76561198050564490,"connected_time":185000000000,"state":"active","ping":103},{"user_id":122,"name":"tim-","steam_id":76561199119101315,"connected_time":691000000000,"state":"active","ping":72}]},{"server_id":37,"name":"Uncletopia | Chicago | 6 | All Maps","name_short":"chi-6","host":"chi-2.us.uncletopia.com","port":27025,"enabled":true,"region":"us-central","cc":"us","latitude":41.881832,"longitude":-87.62318,"reserved":0,"last_update":"0001-01-01T00:00:00Z","name_a2s":"Uncletopia | Chicago | 6 | All Maps","protocol":17,"map":"cp_snakewater_final1","folder":"tf","game":"Team Fortress","app_id":440,"player_count":13,"max_players":24,"Bots":0,"server_type":"Dedicated","server_os":"Linux","password":true,"vac":true,"version":"7742253","steam_id":85568392924866363,"keywords":["cp","nocrits","nodmgspread","uncletopia"],"game_id":440,"stv_port":27026,"stv_name":"Uncletopia | Chicago | 6 | All Maps | STV","players":[{"user_id":238,"name":"maniacalcoast0","steam_id":76561198982540746,"connected_time":358000000000,"state":"active","ping":76},{"user_id":241,"name":"Red Heavy The Sandwich Slayer","steam_id":76561199187226776,"connected_time":126000000000,"state":"active","ping":304},{"user_id":239,"name":"MidSobbes08","steam_id":76561199013101925,"connected_time":304000000000,"state":"active","ping":156},{"user_id":234,"name":"xXcLaImEd__ReApErXx [F2P]","steam_id":76561198067232540,"connected_time":651000000000,"state":"active","ping":71},{"user_id":240,"name":"LalitoTV","steam_id":76561198334302951,"connected_time":287000000000,"state":"active","ping":116},{"user_id":242,"name":"ham bone","steam_id":76561198351143785,"connected_time":17000000000,"state":"spawning","ping":60},{"user_id":212,"name":"CBTgaeming","steam_id":76561199089290128,"connected_time":2510000000000,"state":"active","ping":119},{"user_id":219,"name":"¬øskitt1eS?","steam_id":76561198330093211,"connected_time":2144000000000,"state":"active","ping":60},{"user_id":189,"name":"dj_Beanland","steam_id":76561198047500009,"connected_time":4657000000000,"state":"active","ping":93},{"user_id":225,"name":"SCP-1689","steam_id":76561198077900121,"connected_time":1298000000000,"state":"active","ping":122},{"user_id":226,"name":"Dug","steam_id":76561198017691029,"connected_time":1144000000000,"state":"active","ping":49},{"user_id":233,"name":"Lord Scrubling","steam_id":76561198263744445,"connected_time":818000000000,"state":"active","ping":70},{"user_id":235,"name":"jodie.blend","steam_id":76561198140701807,"connected_time":638000000000,"state":"active","ping":65}]},{"server_id":38,"name":"Uncletopia | Chicago | 7 | Stopwatch Beta","name_short":"chi-7","host":"chi-2.us.uncletopia.com","port":27035,"enabled":true,"region":"us-central","cc":"us","latitude":41.881832,"longitude":-87.62318,"reserved":0,"last_update":"0001-01-01T00:00:00Z","name_a2s":"Uncletopia | Chicago | 7 | Stopwatch Beta","protocol":17,"map":"cp_metalworks","folder":"tf","game":"Team Fortress","app_id":440,"player_count":0,"max_players":24,"Bots":0,"server_type":"Dedicated","server_os":"Linux","password":true,"vac":true,"version":"7742253","steam_id":85568392924866364,"keywords":["cp","nocrits","nodmgspread","uncletopia"],"game_id":440,"stv_port":27036,"stv_name":"Uncletopia | Chicago | 7 | Stopwatch Beta | STV","players":null},{"server_id":39,"name":"Uncletopia | Chicago | 8 | Community","name_short":"chi-8","host":"chi-2.us.uncletopia.com","port":27045,"enabled":true,"region":"us-central","cc":"us","latitude":41.881832,"longitude":-87.62318,"reserved":0,"last_update":"0001-01-01T00:00:00Z","name_a2s":"Uncletopia | Chicago | 8 | Community","protocol":17,"map":"workshop/koth_bagel_rc5.ugc2514036946","folder":"tf","game":"Team Fortress","app_id":440,"player_count":24,"max_players":24,"Bots":0,"server_type":"Dedicated","server_os":"Linux","password":true,"vac":true,"version":"7742253","steam_id":85568392924866365,"keywords":["cp","nocrits","nodmgspread","uncletopia"],"game_id":440,"stv_port":27046,"stv_name":"Uncletopia | Chicago | 8 | Community | STV","players":[{"user_id":76,"name":"Lt. Dan's Legs","steam_id":76561198043851584,"connected_time":148000000000,"state":"active","ping":131},{"user_id":56,"name":"Wug","steam_id":76561198084112264,"connected_time":1206000000000,"state":"active","ping":77},{"user_id":77,"name":"Cafe Alpha","steam_id":76561197965022076,"connected_time":31000000000,"state":"active","ping":59},{"user_id":39,"name":"vinny6","steam_id":76561198386735728,"connected_time":2028000000000,"state":"active","ping":60},{"user_id":40,"name":"walking__man","steam_id":76561199012480620,"connected_time":1724000000000,"state":"active","ping":82},{"user_id":41,"name":"Aidan R","steam_id":76561198089848273,"connected_time":1689000000000,"state":"active","ping":154},{"user_id":42,"name":"SoupBoyBlue","steam_id":76561198118836350,"connected_time":1662000000000,"state":"active","ping":103},{"user_id":43,"name":"Vacillator9000","steam_id":76561198208127059,"connected_time":1652000000000,"state":"active","ping":75},{"user_id":48,"name":"Cube From Geometry Dash","steam_id":76561198112196381,"connected_time":1367000000000,"state":"active","ping":70},{"user_id":44,"name":"toof","steam_id":76561198074917043,"connected_time":1651000000000,"state":"active","ping":71},{"user_id":45,"name":"Data","steam_id":76561197996329548,"connected_time":1625000000000,"state":"active","ping":66},{"user_id":46,"name":"scaup","steam_id":76561198349283519,"connected_time":1615000000000,"state":"active","ping":109},{"user_id":49,"name":"grifwich","steam_id":76561197982380250,"connected_time":1324000000000,"state":"active","ping":70},{"user_id":50,"name":"Mr. Dr. Proffessor Patrick","steam_id":76561198025706190,"connected_time":1318000000000,"state":"active","ping":72},{"user_id":51,"name":"Windmills","steam_id":76561198035299715,"connected_time":1315000000000,"state":"active","ping":65},{"user_id":73,"name":"Pertinax","steam_id":76561198000753987,"connected_time":459000000000,"state":"active","ping":60},{"user_id":78,"name":"Dante","steam_id":76561198382380353,"connected_time":15000000000,"state":"spawning","ping":142},{"user_id":54,"name":"rainbowmaster25!","steam_id":76561199215255414,"connected_time":1217000000000,"state":"active","ping":79},{"user_id":55,"name":"(TTV) The_Astrum_Guardian","steam_id":76561198130134103,"connected_time":1216000000000,"state":"active","ping":73},{"user_id":57,"name":"D_Doxxed","steam_id":76561198276498805,"connected_time":1204000000000,"state":"active","ping":90},{"user_id":59,"name":"Tacobell_nugget","steam_id":76561199248567851,"connected_time":1196000000000,"state":"active","ping":133},{"user_id":70,"name":"Gay Cake","steam_id":76561198004388831,"connected_time":986000000000,"state":"active","ping":62},{"user_id":72,"name":"Featherless Biped","steam_id":76561198034171721,"connected_time":492000000000,"state":"active","ping":62},{"user_id":75,"name":"Goofball","steam_id":76561198061211537,"connected_time":192000000000,"state":"active","ping":72}]},{"server_id":8,"name":"Uncletopia | Dallas | 1 | All Maps","name_short":"dal-1","host":"dal-1.us.uncletopia.com","port":27015,"enabled":true,"region":"us-central","cc":"us","latitude":32.779167,"longitude":-96.80889,"reserved":0,"last_update":"0001-01-01T00:00:00Z","name_a2s":"Uncletopia | Dallas | 1 | All Maps","protocol":17,"map":"pl_snowycoast","folder":"tf","game":"Team Fortress","app_id":440,"player_count":23,"max_players":24,"Bots":0,"server_type":"Dedicated","server_os":"Linux","password":true,"vac":true,"version":"7742253","steam_id":85568392924469986,"keywords":["nocrits","nodmgspread","payload","uncletopia"],"game_id":440,"stv_port":27016,"stv_name":"Uncletopia | Dallas | 1 | All Maps | STV","players":[{"user_id":619,"name":"SL1T","steam_id":76561198069380992,"connected_time":508000000000,"state":"active","ping":58},{"user_id":603,"name":"Fostrel","steam_id":76561198152160601,"connected_time":1984000000000,"state":"active","ping":53},{"user_id":604,"name":"remedu","steam_id":76561198005152587,"connected_time":1984000000000,"state":"active","ping":44},{"user_id":618,"name":"Yu Plush","steam_id":76561198800891125,"connected_time":921000000000,"state":"active","ping":110},{"user_id":539,"name":"Dr. Louisers","steam_id":76561198155531390,"connected_time":5953000000000,"state":"active","ping":78},{"user_id":572,"name":"Smiles","steam_id":76561198107197973,"connected_time":3337000000000,"state":"active","ping":105},{"user_id":622,"name":"PizzaFratello","steam_id":76561199059951970,"connected_time":217000000000,"state":"active","ping":60},{"user_id":627,"name":"wyatt","steam_id":76561198035096199,"connected_time":35000000000,"state":"active","ping":63},{"user_id":623,"name":"Elizabeth truss","steam_id":76561198058250979,"connected_time":193000000000,"state":"active","ping":72},{"user_id":576,"name":"Ascendance","steam_id":76561198065357068,"connected_time":3207000000000,"state":"active","ping":110},{"user_id":594,"name":"sex defender","steam_id":76561199122152458,"connected_time":2774000000000,"state":"active","ping":60},{"user_id":626,"name":"everythingrhymeswithorange","steam_id":76561198010306193,"connected_time":126000000000,"state":"active","ping":83},{"user_id":597,"name":"FallHole","steam_id":76561198402856408,"connected_time":2653000000000,"state":"active","ping":59},{"user_id":624,"name":"Quantum Sauce","steam_id":76561198164034337,"connected_time":189000000000,"state":"active","ping":103},{"user_id":606,"name":"viscodolante","steam_id":76561198013650292,"connected_time":1958000000000,"state":"active","ping":102},{"user_id":583,"name":"Fierian","steam_id":76561198132771619,"connected_time":3069000000000,"state":"active","ping":83},{"user_id":625,"name":"[PROFILE REDACTED]","steam_id":76561198817953928,"connected_time":165000000000,"state":"active","ping":85},{"user_id":602,"name":"Xmas Xtar","steam_id":76561198301774048,"connected_time":2094000000000,"state":"active","ping":105},{"user_id":614,"name":"CampinCarl","steam_id":76561197997373624,"connected_time":1322000000000,"state":"active","ping":89},{"user_id":586,"name":"captainspatklz","steam_id":76561198432167270,"connected_time":3029000000000,"state":"active","ping":67},{"user_id":628,"name":"trash beast","steam_id":76561198015792736,"connected_time":7000000000,"state":"spawning","ping":96},{"user_id":608,"name":"am","steam_id":76561198345528370,"connected_time":1954000000000,"state":"active","ping":75},{"user_id":616,"name":"Peak","steam_id":76561198118772175,"connected_time":1132000000000,"state":"active","ping":73}]},{"server_id":108,"name":"Uncletopia | Dallas | 2 | All Maps","name_short":"dal-2","host":"dal-1.us.uncletopia.com","port":27025,"enabled":true,"region":"us-central","cc":"us","latitude":32.779167,"longitude":-96.80889,"reserved":0,"last_update":"0001-01-01T00:00:00Z","name_a2s":"Uncletopia | Dallas | 2 | All Maps","protocol":17,"map":"pl_barnblitz","folder":"tf","game":"Team Fortress","app_id":440,"player_count":24,"max_players":24,"Bots":0,"server_type":"Dedicated","server_os":"Linux","password":true,"vac":true,"version":"7742253","steam_id":85568392924469988,"keywords":["nocrits","nodmgspread","payload","uncletopia"],"game_id":440,"stv_port":27026,"stv_name":"Uncletopia | Dallas | 2 | All Maps | STV","players":[{"user_id":610,"name":"dw4rf","steam_id":76561198046953937,"connected_time":1107000000000,"state":"active","ping":108},{"user_id":556,"name":"Polaco","steam_id":76561198176326523,"connected_time":5996000000000,"state":"active","ping":49},{"user_id":598,"name":"plink","steam_id":76561198057829889,"connected_time":3057000000000,"state":"active","ping":105},{"user_id":607,"name":"[LINUX] F2P=S*(M/B)+H || Spy!","steam_id":76561198093538786,"connected_time":1177000000000,"state":"active","ping":45},{"user_id":564,"name":"Bonesala","steam_id":76561199052450127,"connected_time":5584000000000,"state":"active","ping":70},{"user_id":486,"name":"45 Cent","steam_id":76561198048690188,"connected_time":11471000000000,"state":"active","ping":92},{"user_id":550,"name":"Marc Antony","steam_id":76561198011366517,"connected_time":6993000000000,"state":"active","ping":75},{"user_id":621,"name":"GIGANTIC HOG","steam_id":76561198079923652,"connected_time":615000000000,"state":"active","ping":61},{"user_id":600,"name":"‚ú©BONGO‚ú©","steam_id":76561198018040930,"connected_time":3049000000000,"state":"active","ping":40},{"user_id":555,"name":"doing my best","steam_id":76561198323491654,"connected_time":6446000000000,"state":"active","ping":42},{"user_id":611,"name":"gonurlight","steam_id":76561198935839416,"connected_time":1105000000000,"state":"active","ping":67},{"user_id":626,"name":"YAGOO GAMING","steam_id":76561198219019875,"connected_time":106000000000,"state":"active","ping":80},{"user_id":608,"name":"damiankiller1243","steam_id":76561198868885090,"connected_time":1156000000000,"state":"active","ping":64},{"user_id":597,"name":"???","steam_id":76561198200155343,"connected_time":3061000000000,"state":"active","ping":46},{"user_id":612,"name":"Ko - „Åì - ÏΩî","steam_id":76561198035726982,"connected_time":1100000000000,"state":"active","ping":59},{"user_id":613,"name":"Nugakku","steam_id":76561198082346219,"connected_time":1038000000000,"state":"active","ping":86},{"user_id":625,"name":"KabOOm","steam_id":76561198844235450,"connected_time":159000000000,"state":"active","ping":154},{"user_id":624,"name":"Oatmeal","steam_id":76561199378924674,"connected_time":426000000000,"state":"active","ping":82},{"user_id":615,"name":"Miner2495","steam_id":76561198445904523,"connected_time":986000000000,"state":"active","ping":86},{"user_id":533,"name":"mommy hog","steam_id":76561199230929836,"connected_time":7921000000000,"state":"active","ping":67},{"user_id":571,"name":"Wicket","steam_id":76561198044023036,"connected_time":5437000000000,"state":"active","ping":75},{"user_id":605,"name":"AlphaTwo3","steam_id":76561198034696854,"connected_time":1236000000000,"state":"active","ping":77},{"user_id":627,"name":"Andro","steam_id":76561198149936388,"connected_time":42000000000,"state":"active","ping":60},{"user_id":618,"name":"VixianUwU","steam_id":76561198948815060,"connected_time":904000000000,"state":"active","ping":111}]},{"server_id":5,"name":"Uncletopia | Frankfurt | 1 | All Maps","name_short":"frk-1","host":"frk-1.de.uncletopia.com","port":27015,"enabled":true,"region":"eu","cc":"de","latitude":50.110924,"longitude":8.682127,"reserved":0,"last_update":"0001-01-01T00:00:00Z","name_a2s":"Uncletopia | Frankfurt | 1 | All Maps","protocol":17,"map":"cp_snakewater_final1","folder":"tf","game":"Team Fortress","app_id":440,"player_count":0,"max_players":24,"Bots":0,"server_type":"Dedicated","server_os":"Linux","password":true,"vac":true,"version":"7742253","steam_id":85568392924469989,"keywords":["cp","nocrits","nodmgspread","uncletopia"],"game_id":440,"stv_port":27016,"stv_name":"Uncletopia | Frankfurt | 1 | All Maps | STV","players":null},{"server_id":110,"name":"Uncletopia | Frankfurt | 2 | All Maps","name_short":"frk-2","host":"frk-1.de.uncletopia.com","port":27025,"enabled":true,"region":"eu","cc":"de","latitude":50.110924,"longitude":8.682127,"reserved":0,"last_update":"0001-01-01T00:00:00Z","name_a2s":"Uncletopia | Frankfurt | 2 | All Maps","protocol":17,"map":"cp_mountainlab","folder":"tf","game":"Team Fortress","app_id":440,"player_count":0,"max_players":24,"Bots":0,"server_type":"Dedicated","server_os":"Linux","password":true,"vac":true,"version":"7742253","steam_id":85568392924469990,"keywords":["cp","nocrits","nodmgspread","uncletopia"],"game_id":440,"stv_port":27026,"stv_name":"Uncletopia | Frankfurt | 2 | All Maps | STV","players":null},{"server_id":308,"name":"Uncletopia | Frankfurt | 3 | All Maps","name_short":"frk-3","host":"frk-1.de.uncletopia.com","port":27035,"enabled":true,"region":"eu","cc":"de","latitude":50.110924,"longitude":8.682127,"reserved":0,"last_update":"0001-01-01T00:00:00Z","name_a2s":"Uncletopia | Frankfurt | 3 | All Maps","protocol":17,"map":"cp_sunshine","folder":"tf","game":"Team Fortress","app_id":440,"player_count":0,"max_players":24,"Bots":0,"server_type":"Dedicated","server_os":"Linux","password":true,"vac":true,"version":"7742253","steam_id":85568392924504274,"keywords":["cp","nocrits","nodmgspread","uncletopia"],"game_id":440,"stv_port":27036,"stv_name":"Uncletopia | Frankfurt | 3 | All Maps | STV","players":null},{"server_id":309,"name":"Uncletopia | Frankfurt | 4 | All Maps","name_short":"frk-4","host":"frk-1.de.uncletopia.com","port":27045,"enabled":true,"region":"eu","cc":"de","latitude":50.110924,"longitude":8.682127,"reserved":0,"last_update":"0001-01-01T00:00:00Z","name_a2s":"Uncletopia | Frankfurt | 4 | All Maps","protocol":17,"map":"pl_pier","folder":"tf","game":"Team Fortress","app_id":440,"player_count":6,"max_players":24,"Bots":0,"server_type":"Dedicated","server_os":"Linux","password":true,"vac":true,"version":"7742253","steam_id":85568392924504275,"keywords":["nocrits","nodmgspread","payload","uncletopia"],"game_id":440,"stv_port":27046,"stv_name":"Uncletopia | Frankfurt | 4 | All Maps | STV","players":[{"user_id":571,"name":"Pybro Gaming","steam_id":76561199185692465,"connected_time":1140000000000,"state":"active","ping":161},{"user_id":576,"name":"SuperBob103","steam_id":76561199175360012,"connected_time":802000000000,"state":"active","ping":62},{"user_id":575,"name":"Kanny","steam_id":76561198058810184,"connected_time":947000000000,"state":"active","ping":56},{"user_id":577,"name":"SynthBox3","steam_id":76561199094075745,"connected_time":366000000000,"state":"active","ping":92},{"user_id":568,"name":"‚úß Ghosty ‚úß","steam_id":76561198312022168,"connected_time":1384000000000,"state":"active","ping":63},{"user_id":556,"name":"Pvt. Grichmann","steam_id":76561197977589522,"connected_time":3152000000000,"state":"active","ping":69}]},{"server_id":310,"name":"Uncletopia | Frankfurt | 5 | All Maps","name_short":"frk-5","host":"frk-1.de.uncletopia.com","port":27055,"enabled":true,"region":"eu","cc":"de","latitude":50.110924,"longitude":8.682127,"reserved":0,"last_update":"0001-01-01T00:00:00Z","name_a2s":"Uncletopia | Frankfurt | 5 | All Maps","protocol":17,"map":"cp_sunshine","folder":"tf","game":"Team Fortress","app_id":440,"player_count":0,"max_players":24,"Bots":0,"server_type":"Dedicated","server_os":"Linux","password":true,"vac":true,"version":"7742253","steam_id":85568392924504277,"keywords":["cp","nocrits","nodmgspread","uncletopia"],"game_id":440,"stv_port":27056,"stv_name":"Uncletopia | Frankfurt | 5 | All Maps | STV","players":null},{"server_id":311,"name":"Uncletopia | Frankfurt | 6 | All Maps","name_short":"frk-6","host":"frk-1.de.uncletopia.com","port":27065,"enabled":true,"region":"eu","cc":"de","latitude":50.110924,"longitude":8.682127,"reserved":0,"last_update":"0001-01-01T00:00:00Z","name_a2s":"Uncletopia | Frankfurt | 6 | All Maps","protocol":17,"map":"koth_harvest_final","folder":"tf","game":"Team Fortress","app_id":440,"player_count":0,"max_players":24,"Bots":0,"server_type":"Dedicated","server_os":"Linux","password":true,"vac":true,"version":"7742253","steam_id":85568392924504278,"keywords":["cp","nocrits","nodmgspread","uncletopia"],"game_id":440,"stv_port":27066,"stv_name":"Uncletopia | Frankfurt | 6 | All Maps | STV","players":null},{"server_id":23,"name":"Uncletopia | Frankfurt | 7 | Stopwatch Beta","name_short":"frk-7","host":"frk-1.de.uncletopia.com","port":27075,"enabled":true,"region":"eu","cc":"de","latitude":50.110924,"longitude":8.682127,"reserved":0,"last_update":"0001-01-01T00:00:00Z","name_a2s":"Uncletopia | Frankfurt | 7 | Stopwatch Beta","protocol":17,"map":"koth_lakeside_final","folder":"tf","game":"Team Fortress","app_id":440,"player_count":0,"max_players":24,"Bots":0,"server_type":"Dedicated","server_os":"Linux","password":true,"vac":true,"version":"7742253","steam_id":85568392924742827,"keywords":["cp","nocrits","nodmgspread","uncletopia"],"game_id":440,"stv_port":27076,"stv_name":"Uncletopia | Frankfurt | 7 | Stopwatch Beta | STV","players":null},{"server_id":24,"name":"Uncletopia | Frankfurt | 8 | Community","name_short":"frk-8","host":"frk-1.de.uncletopia.com","port":27085,"enabled":true,"region":"eu","cc":"de","latitude":50.110924,"longitude":8.682127,"reserved":0,"last_update":"0001-01-01T00:00:00Z","name_a2s":"Uncletopia | Frankfurt | 8 | Community","protocol":17,"map":"workshop/koth_slaughter_rc1.ugc1712845210","folder":"tf","game":"Team Fortress","app_id":440,"player_count":0,"max_players":24,"Bots":0,"server_type":"Dedicated","server_os":"Linux","password":true,"vac":true,"version":"7742253","steam_id":85568392924742828,"keywords":["cp","nocrits","nodmgspread","uncletopia"],"game_id":440,"stv_port":27086,"stv_name":"Uncletopia | Frankfurt | 8 | Community | STV","players":null},{"server_id":202,"name":"Uncletopia | Hong Kong | 1 | All Maps","name_short":"hgk-1","host":"hgk-1.hk.uncletopia.com","port":27015,"enabled":true,"region":"asia","cc":"hk","latitude":22.302711,"longitude":114.177216,"reserved":0,"last_update":"0001-01-01T00:00:00Z","name_a2s":"Uncletopia | Hong Kong | 1 | All Maps","protocol":17,"map":"pl_upward","folder":"tf","game":"Team Fortress","app_id":440,"player_count":20,"max_players":24,"Bots":0,"server_type":"Dedicated","server_os":"Linux","password":true,"vac":true,"version":"7742253","steam_id":85568392924494504,"keywords":["cp","nocrits","nodmgspread","uncletopia"],"game_id":440,"stv_port":27016,"stv_name":"Uncletopia | Hong Kong | 1 | All Maps | STV","players":[{"user_id":123,"name":"sex","steam_id":76561198153440975,"connected_time":760000000000,"state":"connecting","ping":122},{"user_id":112,"name":"r/leroy","steam_id":76561199137927625,"connected_time":1664000000000,"state":"spawning","ping":146},{"user_id":95,"name":"saglim8","steam_id":76561198811024417,"connected_time":2962000000000,"state":"connecting","ping":90},{"user_id":128,"name":"Fluffy","steam_id":76561198316671856,"connected_time":724000000000,"state":"connecting","ping":136},{"user_id":132,"name":"Elerpo","steam_id":76561199080411319,"connected_time":242000000000,"state":"spawning","ping":94},{"user_id":64,"name":"Windmill","steam_id":76561199230997986,"connected_time":4558000000000,"state":"spawning","ping":95},{"user_id":129,"name":"Exclamator","steam_id":76561199065048552,"connected_time":532000000000,"state":"connecting","ping":88},{"user_id":115,"name":"AmaiToxic","steam_id":76561199122491157,"connected_time":1074000000000,"state":"connecting","ping":87},{"user_id":121,"name":"ÁÖôÊµ∑ | Enkai","steam_id":76561198050460825,"connected_time":929000000000,"state":"spawning","ping":102},{"user_id":130,"name":"I'm inside your walls","steam_id":76561199404958139,"connected_time":470000000000,"state":"connecting","ping":151},{"user_id":104,"name":"heronthebird","steam_id":76561198964411581,"connected_time":2034000000000,"state":"connecting","ping":96},{"user_id":131,"name":"Reisen ·óúÀ¨·óú","steam_id":76561198374227173,"connected_time":441000000000,"state":"spawning","ping":85},{"user_id":75,"name":"o2","steam_id":76561199262570913,"connected_time":4031000000000,"state":"spawning","ping":86},{"user_id":98,"name":"P","steam_id":76561198304514505,"connected_time":2288000000000,"state":"spawning","ping":91},{"user_id":103,"name":"Water Weed Dune Hair","steam_id":76561198090087072,"connected_time":2178000000000,"state":"connecting","ping":137},{"user_id":89,"name":"Kall","steam_id":76561197993608660,"connected_time":3749000000000,"state":"spawning","ping":117},{"user_id":109,"name":"lilla laxum","steam_id":76561198230213828,"connected_time":1842000000000,"state":"spawning","ping":90},{"user_id":116,"name":"LudE","steam_id":76561198828840546,"connected_time":1071000000000,"state":"spawning","ping":89},{"user_id":91,"name":"SissyFemboy‚ô°","steam_id":76561198841376347,"connected_time":3609000000000,"state":"spawning","ping":75}]},{"server_id":1,"name":"Uncletopia | Los Angeles | 1 | All Maps","name_short":"lax-1","host":"lax-1.us.uncletopia.com","port":27015,"enabled":true,"region":"us-west","cc":"us","latitude":33.94279,"longitude":-118.41004,"reserved":0,"last_update":"0001-01-01T00:00:00Z","name_a2s":"Uncletopia | Los Angeles | 1 | All Maps","protocol":17,"map":"cp_dustbowl","folder":"tf","game":"Team Fortress","app_id":440,"player_count":24,"max_players":24,"Bots":0,"server_type":"Dedicated","server_os":"Linux","password":true,"vac":true,"version":"7742253","steam_id":85568392924469991,"keywords":["cp","nocrits","nodmgspread","uncletopia"],"game_id":440,"stv_port":27016,"stv_name":"Uncletopia | Los Angeles | 1 | All Maps | STV","players":[{"user_id":155,"name":"¬¶{‚àí‚àíD@t Sc√ú‚ãÇ‚ä§‚àí‚àí}\ufffd","steam_id":76561199218110014,"connected_time":2769000000000,"state":"active","ping":98},{"user_id":193,"name":"db","steam_id":76561199366968526,"connected_time":528000000000,"state":"active","ping":50},{"user_id":194,"name":"Mugen","steam_id":76561198411174773,"connected_time":440000000000,"state":"active","ping":45},{"user_id":172,"name":"CoherentCarpet („Éé‡≤†Áõä‡≤†)\ufffd\ufffd","steam_id":76561198045625360,"connected_time":1768000000000,"state":"active","ping":108},{"user_id":195,"name":"JustaTroll","steam_id":76561198351004116,"connected_time":400000000000,"state":"active","ping":55},{"user_id":141,"name":"Y'all are Garage","steam_id":76561198012829324,"connected_time":3974000000000,"state":"active","ping":64},{"user_id":175,"name":"Seriously Bruh","steam_id":76561198070408485,"connected_time":1665000000000,"state":"active","ping":90},{"user_id":174,"name":"bappo del taco","steam_id":76561199068510270,"connected_time":1709000000000,"state":"active","ping":55},{"user_id":183,"name":"Noelle Holiday","steam_id":76561198359994674,"connected_time":1135000000000,"state":"active","ping":98},{"user_id":185,"name":"Sol","steam_id":76561198803824764,"connected_time":1061000000000,"state":"active","ping":91},{"user_id":144,"name":"meow_the_cat","steam_id":76561198294347721,"connected_time":3858000000000,"state":"active","ping":60},{"user_id":145,"name":"kr1tsurf3r","steam_id":76561198076402476,"connected_time":3831000000000,"state":"active","ping":58},{"user_id":196,"name":"ShredMaan","steam_id":76561198429982138,"connected_time":396000000000,"state":"active","ping":52},{"user_id":146,"name":"chucknut","steam_id":76561199329553584,"connected_time":3813000000000,"state":"active","ping":96},{"user_id":191,"name":"Rammu :)","steam_id":76561198078584678,"connected_time":873000000000,"state":"active","ping":84},{"user_id":164,"name":"Owl_eyes","steam_id":76561198066199203,"connected_time":2257000000000,"state":"active","ping":57},{"user_id":188,"name":"kimin","steam_id":76561198263393063,"connected_time":1030000000000,"state":"active","ping":106},{"user_id":197,"name":"satdarn","steam_id":76561199091760468,"connected_time":396000000000,"state":"active","ping":50},{"user_id":169,"name":"lilSpooky","steam_id":76561198210815879,"connected_time":2113000000000,"state":"active","ping":75},{"user_id":198,"name":"kab789","steam_id":76561198069842202,"connected_time":389000000000,"state":"active","ping":108},{"user_id":199,"name":"Rakk","steam_id":76561198855176174,"connected_time":365000000000,"state":"active","ping":49},{"user_id":168,"name":"Lennie Longfinger","steam_id":76561198276959460,"connected_time":2173000000000,"state":"active","ping":63},{"user_id":190,"name":"Tmiracle","steam_id":76561198052375275,"connected_time":1008000000000,"state":"active","ping":41},{"user_id":148,"name":"darkhelmet2202","steam_id":76561199143168398,"connected_time":3786000000000,"state":"active","ping":111}]},{"server_id":112,"name":"Uncletopia | Los Angeles | 2 | All Maps","name_short":"lax-2","host":"lax-1.us.uncletopia.com","port":27025,"enabled":true,"region":"us-west","cc":"us","latitude":33.94279,"longitude":-118.41004,"reserved":0,"last_update":"0001-01-01T00:00:00Z","name_a2s":"Uncletopia | Los Angeles | 2 | All Maps","protocol":17,"map":"pl_frontier_final","folder":"tf","game":"Team Fortress","app_id":440,"player_count":0,"max_players":24,"Bots":0,"server_type":"Dedicated","server_os":"Linux","password":true,"vac":true,"version":"7742253","steam_id":85568392924469992,"keywords":["nocrits","nodmgspread","payload","uncletopia"],"game_id":440,"stv_port":27026,"stv_name":"Uncletopia | Los Angeles | 2 | All Maps | STV","players":null},{"server_id":324,"name":"Uncletopia | Los Angeles | 3 | All Maps","name_short":"lax-3","host":"lax-1.us.uncletopia.com","port":27035,"enabled":true,"region":"us-west","cc":"us","latitude":33.94279,"longitude":-118.41004,"reserved":0,"last_update":"0001-01-01T00:00:00Z","name_a2s":"Uncletopia | Los Angeles | 3 | All Maps","protocol":17,"map":"pl_pier","folder":"tf","game":"Team Fortress","app_id":440,"player_count":0,"max_players":24,"Bots":0,"server_type":"Dedicated","server_os":"Linux","password":true,"vac":true,"version":"7742253","steam_id":85568392924510198,"keywords":["nocrits","nodmgspread","payload","uncletopia"],"game_id":440,"stv_port":27036,"stv_name":"Uncletopia | Los Angeles | 3 | All Maps | STV","players":null},{"server_id":25,"name":"Uncletopia | Los Angeles | 4 | Stopwatch Beta","name_short":"lax-4","host":"lax-1.us.uncletopia.com","port":27045,"enabled":true,"region":"us-west","cc":"us","latitude":33.94279,"longitude":-118.41004,"reserved":0,"last_update":"0001-01-01T00:00:00Z","name_a2s":"Uncletopia | Los Angeles | 4 | Stopwatch Beta","protocol":17,"map":"koth_lakeside_final","folder":"tf","game":"Team Fortress","app_id":440,"player_count":6,"max_players":24,"Bots":0,"server_type":"Dedicated","server_os":"Linux","password":true,"vac":true,"version":"7742253","steam_id":85568392924510199,"keywords":["cp","nocrits","nodmgspread","uncletopia"],"game_id":440,"stv_port":27046,"stv_name":"Uncletopia | Los Angeles | 4 | Stopwatch Beta | STV","players":[{"user_id":13,"name":"FROYO doug","steam_id":76561198041849544,"connected_time":1562000000000,"state":"active","ping":89},{"user_id":12,"name":"Sanctius","steam_id":76561198082048768,"connected_time":1571000000000,"state":"active","ping":174},{"user_id":15,"name":"Mr.Beast","steam_id":76561198021514044,"connected_time":1508000000000,"state":"active","ping":112},{"user_id":17,"name":"johnman gooberguy","steam_id":76561199014859764,"connected_time":1265000000000,"state":"active","ping":61},{"user_id":20,"name":"Mom","steam_id":76561198207936000,"connected_time":1056000000000,"state":"active","ping":42},{"user_id":21,"name":"Pyrolimited","steam_id":76561198195455657,"connected_time":899000000000,"state":"active","ping":75}]},{"server_id":11,"name":"Uncletopia | London | 1 | All Maps","name_short":"lon-1","host":"lon-1.uk.uncletopia.com","port":27015,"enabled":true,"region":"eu","cc":"gb","latitude":51.509865,"longitude":-0.118092,"reserved":0,"last_update":"0001-01-01T00:00:00Z","name_a2s":"Uncletopia | London | 1 | All Maps","protocol":17,"map":"koth_lakeside_final","folder":"tf","game":"Team Fortress","app_id":440,"player_count":0,"max_players":24,"Bots":0,"server_type":"Dedicated","server_os":"Linux","password":true,"vac":true,"version":"7742253","steam_id":85568392924367362,"keywords":["cp","nocrits","nodmgspread","uncletopia"],"game_id":440,"stv_port":27016,"stv_name":"Uncletopia | London | 1 | All Maps | STV","players":null},{"server_id":114,"name":"Uncletopia | London | 2 | All Maps","name_short":"lon-2","host":"lon-1.uk.uncletopia.com","port":27025,"enabled":true,"region":"eu","cc":"gb","latitude":51.509865,"longitude":-0.118092,"reserved":0,"last_update":"0001-01-01T00:00:00Z","name_a2s":"Uncletopia | London | 2 | All Maps","protocol":17,"map":"koth_highpass","folder":"tf","game":"Team Fortress","app_id":440,"player_count":0,"max_players":24,"Bots":0,"server_type":"Dedicated","server_os":"Linux","password":true,"vac":true,"version":"7742253","steam_id":85568392924470941,"keywords":["cp","nocrits","nodmgspread","uncletopia"],"game_id":440,"stv_port":27026,"stv_name":"Uncletopia | London | 2 | All Maps | STV","players":null},{"server_id":320,"name":"Uncletopia | London | 3 | All Maps","name_short":"lon-3","host":"lon-1.uk.uncletopia.com","port":27035,"enabled":true,"region":"eu","cc":"gb","latitude":51.509865,"longitude":-0.118092,"reserved":0,"last_update":"0001-01-01T00:00:00Z","name_a2s":"Uncletopia | London | 3 | All Maps","protocol":17,"map":"koth_viaduct","folder":"tf","game":"Team Fortress","app_id":440,"player_count":0,"max_players":24,"Bots":0,"server_type":"Dedicated","server_os":"Linux","password":true,"vac":true,"version":"7742253","steam_id":85568392924510192,"keywords":["cp","nocrits","nodmgspread","uncletopia"],"game_id":440,"stv_port":27036,"stv_name":"Uncletopia | London | 3 | All Maps | STV","players":null},{"server_id":321,"name":"Uncletopia | London | 4 | All Maps","name_short":"lon-4","host":"lon-1.uk.uncletopia.com","port":27045,"enabled":true,"region":"eu","cc":"gb","latitude":51.509865,"longitude":-0.118092,"reserved":0,"last_update":"0001-01-01T00:00:00Z","name_a2s":"Uncletopia | London | 4 | All Maps","protocol":17,"map":"pl_borneo","folder":"tf","game":"Team Fortress","app_id":440,"player_count":0,"max_players":24,"Bots":0,"server_type":"Dedicated","server_os":"Linux","password":true,"vac":true,"version":"7742253","steam_id":85568392924510193,"keywords":["nocrits","nodmgspread","payload","uncletopia"],"game_id":440,"stv_port":27046,"stv_name":"Uncletopia | London | 4 | All Maps | STV","players":null},{"server_id":21,"name":"Uncletopia | London | 5 | All Maps","name_short":"lon-5","host":"lon-1.uk.uncletopia.com","port":27055,"enabled":true,"region":"eu","cc":"gb","latitude":51.509865,"longitude":-0.118092,"reserved":0,"last_update":"0001-01-01T00:00:00Z","name_a2s":"Uncletopia | London | 5 | All Maps","protocol":17,"map":"pl_pier","folder":"tf","game":"Team Fortress","app_id":440,"player_count":0,"max_players":24,"Bots":0,"server_type":"Dedicated","server_os":"Linux","password":true,"vac":true,"version":"7742253","steam_id":85568392924742829,"keywords":["nocrits","nodmgspread","payload","uncletopia"],"game_id":440,"stv_port":27056,"stv_name":"Uncletopia | London | 5 | All Maps | STV","players":null},{"server_id":22,"name":"Uncletopia | London | 6 | All Maps","name_short":"lon-6","host":"lon-1.uk.uncletopia.com","port":27065,"enabled":true,"region":"eu","cc":"gb","latitude":51.509865,"longitude":-0.118092,"reserved":0,"last_update":"0001-01-01T00:00:00Z","name_a2s":"Uncletopia | London | 6 | All Maps","protocol":17,"map":"cp_dustbowl","folder":"tf","game":"Team Fortress","app_id":440,"player_count":0,"max_players":24,"Bots":0,"server_type":"Dedicated","server_os":"Linux","password":true,"vac":true,"version":"7742253","steam_id":85568392924742830,"keywords":["cp","nocrits","nodmgspread","uncletopia"],"game_id":440,"stv_port":27066,"stv_name":"Uncletopia | London | 6 | All Maps | STV","players":null},{"server_id":40,"name":"Uncletopia | London | 7 | No Payload","name_short":"lon-7","host":"lon-1.uk.uncletopia.com","port":27075,"enabled":true,"region":"eu","cc":"gb","latitude":51.509865,"longitude":-0.118092,"reserved":0,"last_update":"0001-01-01T00:00:00Z","name_a2s":"Uncletopia | London | 7 | No Payload","protocol":17,"map":"cp_dustbowl","folder":"tf","game":"Team Fortress","app_id":440,"player_count":0,"max_players":24,"Bots":0,"server_type":"Dedicated","server_os":"Linux","password":true,"vac":true,"version":"7742253","steam_id":85568392924964314,"keywords":["cp","nocrits","nodmgspread","uncletopia"],"game_id":440,"stv_port":27076,"stv_name":"Uncletopia | London | 7 | No Payload | STV","players":null},{"server_id":41,"name":"Uncletopia | London | 8 | Community","name_short":"lon-8","host":"lon-1.uk.uncletopia.com","port":27085,"enabled":true,"region":"eu","cc":"gb","latitude":51.509865,"longitude":-0.118092,"reserved":0,"last_update":"0001-01-01T00:00:00Z","name_a2s":"Uncletopia | London | 8 | Community","protocol":17,"map":"workshop/koth_bagel_rc5.ugc2514036946","folder":"tf","game":"Team Fortress","app_id":440,"player_count":0,"max_players":24,"Bots":0,"server_type":"Dedicated","server_os":"Linux","password":true,"vac":true,"version":"7742253","steam_id":85568392924964315,"keywords":["cp","nocrits","nodmgspread","uncletopia"],"game_id":440,"stv_port":27086,"stv_name":"Uncletopia | London | 8 | Community | STV","players":null},{"server_id":300,"name":"Uncletopia | Montr√©al | 1 | All Maps","name_short":"mtl-1","host":"mtl-1.ca.uncletopia.com","port":27015,"enabled":true,"region":"us-east","cc":"ca","latitude":45.50889,"longitude":-73.56167,"reserved":0,"last_update":"0001-01-01T00:00:00Z","name_a2s":"Uncletopia | Montr√©al | 1 | All Maps","protocol":17,"map":"koth_lakeside_final","folder":"tf","game":"Team Fortress","app_id":440,"player_count":0,"max_players":24,"Bots":0,"server_type":"Dedicated","server_os":"Linux","password":true,"vac":true,"version":"7742253","steam_id":85568392924500087,"keywords":["cp","nocrits","nodmgspread","uncletopia"],"game_id":440,"stv_port":27016,"stv_name":"Uncletopia | Montr√©al | 1 | All Maps | STV","players":null},{"server_id":301,"name":"Uncletopia | Montr√©al | 2 | All Maps","name_short":"mtl-2","host":"mtl-1.ca.uncletopia.com","port":27025,"enabled":true,"region":"us-east","cc":"ca","latitude":45.50889,"longitude":-73.56167,"reserved":0,"last_update":"0001-01-01T00:00:00Z","name_a2s":"Uncletopia | Montr√©al | 2 | All Maps","protocol":17,"map":"koth_lakeside_final","folder":"tf","game":"Team Fortress","app_id":440,"player_count":0,"max_players":24,"Bots":0,"server_type":"Dedicated","server_os":"Linux","password":true,"vac":true,"version":"7742253","steam_id":85568392924500088,"keywords":["cp","nocrits","nodmgspread","uncletopia"],"game_id":440,"stv_port":27026,"stv_name":"Uncletopia | Montr√©al | 2 | All Maps | STV","players":null},{"server_id":302,"name":"Uncletopia | Montr√©al | 3 | All Maps","name_short":"mtl-3","host":"mtl-1.ca.uncletopia.com","port":27035,"enabled":true,"region":"us-east","cc":"ca","latitude":45.50889,"longitude":-73.56167,"reserved":0,"last_update":"0001-01-01T00:00:00Z","name_a2s":"Uncletopia | Montr√©al | 3 | All Maps","protocol":17,"map":"koth_cascade","folder":"tf","game":"Team Fortress","app_id":440,"player_count":0,"max_players":24,"Bots":0,"server_type":"Dedicated","server_os":"Linux","password":true,"vac":true,"version":"7742253","steam_id":85568392924500089,"keywords":["cp","nocrits","nodmgspread","uncletopia"],"game_id":440,"stv_port":27036,"stv_name":"Uncletopia | Montr√©al | 3 | All Maps | STV","players":null},{"server_id":303,"name":"Uncletopia | Montr√©al | 4 | No Payload","name_short":"mtl-4","host":"mtl-1.ca.uncletopia.com","port":27045,"enabled":true,"region":"us-east","cc":"ca","latitude":45.50889,"longitude":-73.56167,"reserved":0,"last_update":"0001-01-01T00:00:00Z","name_a2s":"Uncletopia | Montr√©al | 4 | No Payload","protocol":17,"map":"koth_harvest_final","folder":"tf","game":"Team Fortress","app_id":440,"player_count":0,"max_players":24,"Bots":0,"server_type":"Dedicated","server_os":"Linux","password":true,"vac":true,"version":"7742253","steam_id":85568392924500090,"keywords":["cp","nocrits","nodmgspread","uncletopia"],"game_id":440,"stv_port":27046,"stv_name":"Uncletopia | Montr√©al | 4 | No Payload | STV","players":null},{"server_id":13,"name":"Uncletopia | New York City | 1 | All Maps","name_short":"nyc-1","host":"nyc-1.us.uncletopia.com","port":27015,"enabled":true,"region":"us-east","cc":"us","latitude":40.73061,"longitude":-73.93524,"reserved":0,"last_update":"0001-01-01T00:00:00Z","name_a2s":"Uncletopia | New York City | 1 | All Maps","protocol":17,"map":"cp_dustbowl","folder":"tf","game":"Team Fortress","app_id":440,"player_count":23,"max_players":24,"Bots":0,"server_type":"Dedicated","server_os":"Linux","password":true,"vac":true,"version":"7742253","steam_id":85568392924469993,"keywords":["cp","nocrits","nodmgspread","uncletopia"],"game_id":440,"stv_port":27016,"stv_name":"Uncletopia | New York City | 1 | All Maps | STV","players":[{"user_id":541,"name":"DJ BAGUETTE!!!","steam_id":76561198145727778,"connected_time":777000000000,"state":"active","ping":65},{"user_id":544,"name":"DJ Pierce","steam_id":76561198394241466,"connected_time":155000000000,"state":"active","ping":47},{"user_id":507,"name":"Cthulwho?","steam_id":76561198165550810,"connected_time":2851000000000,"state":"active","ping":71},{"user_id":537,"name":"jnv1013","steam_id":76561198965549228,"connected_time":1014000000000,"state":"active","ping":51},{"user_id":519,"name":"xd Clover","steam_id":76561198038905361,"connected_time":2376000000000,"state":"active","ping":53},{"user_id":381,"name":"layabout","steam_id":76561198130892117,"connected_time":11858000000000,"state":"active","ping":63},{"user_id":548,"name":"theancientnut","steam_id":76561199396708880,"connected_time":14000000000,"state":"active","ping":69},{"user_id":545,"name":"Buttons :)","steam_id":76561198139478534,"connected_time":74000000000,"state":"active","ping":118},{"user_id":533,"name":"coal","steam_id":76561198027252280,"connected_time":1571000000000,"state":"active","ping":63},{"user_id":509,"name":"TheConchinator","steam_id":76561199388149092,"connected_time":2825000000000,"state":"active","ping":80},{"user_id":473,"name":"CrispyToes","steam_id":76561198173624978,"connected_time":6726000000000,"state":"active","ping":101},{"user_id":535,"name":"Uncle Majic the Hip Hop Magicia","steam_id":76561198107924303,"connected_time":1418000000000,"state":"active","ping":58},{"user_id":518,"name":"CheeseCake488","steam_id":76561199407617942,"connected_time":2465000000000,"state":"active","ping":140},{"user_id":523,"name":"Diamond Jack","steam_id":76561198321304762,"connected_time":2173000000000,"state":"active","ping":41},{"user_id":546,"name":"iL","steam_id":76561198086331015,"connected_time":34000000000,"state":"active","ping":36},{"user_id":542,"name":"fish","steam_id":76561198274534190,"connected_time":556000000000,"state":"active","ping":74},{"user_id":540,"name":"Room","steam_id":76561199174579733,"connected_time":876000000000,"state":"active","ping":63},{"user_id":536,"name":"big guapo","steam_id":76561198103228695,"connected_time":1382000000000,"state":"active","ping":53},{"user_id":467,"name":"he's angry","steam_id":76561198069065342,"connected_time":6882000000000,"state":"active","ping":58},{"user_id":547,"name":"Braamklauw","steam_id":76561198283287697,"connected_time":30000000000,"state":"spawning","ping":123},{"user_id":538,"name":"Kriegsman","steam_id":76561198398761223,"connected_time":952000000000,"state":"active","ping":56},{"user_id":549,"name":"G-G-G-GAMERSHOT","steam_id":76561198798980951,"connected_time":9000000000,"state":"spawning","ping":31},{"user_id":531,"name":"al.vasiglev","steam_id":76561198307359545,"connected_time":1896000000000,"state":"active","ping":156}]},{"server_id":14,"name":"Uncletopia | New York City | 2 | All Maps","name_short":"nyc-2","host":"nyc-1.us.uncletopia.com","port":27025,"enabled":true,"region":"us-east","cc":"us","latitude":40.73061,"longitude":-73.93524,"reserved":0,"last_update":"0001-01-01T00:00:00Z","name_a2s":"Uncletopia | New York City | 2 | All Maps","protocol":17,"map":"pl_badwater","folder":"tf","game":"Team Fortress","app_id":440,"player_count":24,"max_players":24,"Bots":0,"server_type":"Dedicated","server_os":"Linux","password":true,"vac":true,"version":"7742253","steam_id":85568392924469994,"keywords":["nocrits","nodmgspread","payload","uncletopia"],"game_id":440,"stv_port":27026,"stv_name":"Uncletopia | New York City | 2 | All Maps | STV","players":[{"user_id":355,"name":"Lumpy","steam_id":76561198058840585,"connected_time":3831000000000,"state":"active","ping":50},{"user_id":352,"name":"comet sooicidy","steam_id":76561198025173479,"connected_time":3983000000000,"state":"active","ping":77},{"user_id":339,"name":"CreeperCatBengal","steam_id":76561198213193221,"connected_time":5185000000000,"state":"active","ping":62},{"user_id":407,"name":"OneFestiveCorvid","steam_id":76561199012953221,"connected_time":530000000000,"state":"active","ping":105},{"user_id":384,"name":"the deadliest pyroshark","steam_id":76561198374227766,"connected_time":2031000000000,"state":"active","ping":50},{"user_id":410,"name":"asian","steam_id":76561198082561695,"connected_time":141000000000,"state":"active","ping":60},{"user_id":377,"name":"Liguy owo","steam_id":76561199013763755,"connected_time":2147000000000,"state":"active","ping":44},{"user_id":406,"name":"frank","steam_id":76561198045436159,"connected_time":861000000000,"state":"active","ping":77},{"user_id":372,"name":"VerSaKa","steam_id":76561198052392540,"connected_time":2726000000000,"state":"active","ping":59},{"user_id":408,"name":"SoggyOreos","steam_id":76561198139240925,"connected_time":506000000000,"state":"active","ping":56},{"user_id":379,"name":"Cass256","steam_id":76561198061188829,"connected_time":2062000000000,"state":"active","ping":68},{"user_id":380,"name":"SSJB FunkyBoy","steam_id":76561198098327555,"connected_time":2054000000000,"state":"active","ping":99},{"user_id":381,"name":"Menachem","steam_id":76561198041226420,"connected_time":2041000000000,"state":"active","ping":72},{"user_id":409,"name":"FlashGamer420","steam_id":76561199063103261,"connected_time":188000000000,"state":"active","ping":73},{"user_id":383,"name":"N1CC","steam_id":76561198045177406,"connected_time":2036000000000,"state":"active","ping":68},{"user_id":395,"name":"Bonzo_isSpy1227","steam_id":76561199400877959,"connected_time":1633000000000,"state":"active","ping":118},{"user_id":399,"name":"murderous deer","steam_id":76561198350832152,"connected_time":1248000000000,"state":"active","ping":54},{"user_id":388,"name":"The Lonely Croc","steam_id":76561198123241396,"connected_time":1915000000000,"state":"active","ping":92},{"user_id":402,"name":"Moss Goat","steam_id":76561198316756477,"connected_time":1096000000000,"state":"active","ping":73},{"user_id":401,"name":"crabapples","steam_id":76561198075818655,"connected_time":1210000000000,"state":"active","ping":58},{"user_id":400,"name":"nnoby","steam_id":76561198878729277,"connected_time":1247000000000,"state":"active","ping":85},{"user_id":392,"name":"ADHDking","steam_id":76561198116099017,"connected_time":1850000000000,"state":"active","ping":44},{"user_id":397,"name":"Mr. Squidward","steam_id":76561198103821671,"connected_time":1338000000000,"state":"active","ping":59},{"user_id":405,"name":"violetcassette","steam_id":76561199028224555,"connected_time":1000000000000,"state":"active","ping":113}]},{"server_id":15,"name":"Uncletopia | New York City | 3 | Stopwatch Beta","name_short":"nyc-3","host":"nyc-1.us.uncletopia.com","port":27035,"enabled":true,"region":"us-east","cc":"us","latitude":40.73061,"longitude":-73.93524,"reserved":0,"last_update":"0001-01-01T00:00:00Z","name_a2s":"Uncletopia | New York City | 3 | Stopwatch Beta","protocol":17,"map":"cp_altitude","folder":"tf","game":"Team Fortress","app_id":440,"player_count":0,"max_players":24,"Bots":0,"server_type":"Dedicated","server_os":"Linux","password":true,"vac":true,"version":"7742253","steam_id":85568392924742820,"keywords":["cp","nocrits","nodmgspread","uncletopia"],"game_id":440,"stv_port":27036,"stv_name":"Uncletopia | New York City | 3 | Stopwatch Beta | STV","players":null},{"server_id":16,"name":"Uncletopia | New York City | 4 | Community","name_short":"nyc-4","host":"nyc-1.us.uncletopia.com","port":27045,"enabled":true,"region":"us-east","cc":"us","latitude":40.73061,"longitude":-73.93524,"reserved":0,"last_update":"0001-01-01T00:00:00Z","name_a2s":"Uncletopia | New York City | 4 | Community","protocol":17,"map":"workshop/koth_synthetic_rc6a.ugc1549817316","folder":"tf","game":"Team Fortress","app_id":440,"player_count":0,"max_players":24,"Bots":0,"server_type":"Dedicated","server_os":"Linux","password":true,"vac":true,"version":"7742253","steam_id":85568392924742821,"keywords":["cp","nocrits","nodmgspread","uncletopia"],"game_id":440,"stv_port":27046,"stv_name":"Uncletopia | New York City | 4 | Community | STV","players":null},{"server_id":142,"name":"Uncletopia | S√£o Paulo | 1 | All Maps","name_short":"sao-1","host":"sao-1.br.uncletopia.com","port":27015,"enabled":true,"region":"sa","cc":"br","latitude":-23.533773,"longitude":-46.62529,"reserved":0,"last_update":"0001-01-01T00:00:00Z","name_a2s":"Uncletopia | S√£o Paulo | 1 | All Maps","protocol":17,"map":"koth_cascade","folder":"tf","game":"Team Fortress","app_id":440,"player_count":0,"max_players":24,"Bots":0,"server_type":"Dedicated","server_os":"Linux","password":true,"vac":true,"version":"7742253","steam_id":85568392924469996,"keywords":["cp","nocrits","nodmgspread","uncletopia"],"game_id":440,"stv_port":27016,"stv_name":"Uncletopia | S√£o Paulo | 1 | All Maps | STV","players":null},{"server_id":143,"name":"Uncletopia | S√£o Paulo | 2 | All Maps","name_short":"sao-2","host":"sao-2.br.uncletopia.com","port":27015,"enabled":true,"region":"sa","cc":"br","latitude":-23.533773,"longitude":-46.62529,"reserved":0,"last_update":"0001-01-01T00:00:00Z","name_a2s":"Uncletopia | S√£o Paulo | 2 | All Maps","protocol":17,"map":"koth_viaduct","folder":"tf","game":"Team Fortress","app_id":440,"player_count":0,"max_players":24,"Bots":0,"server_type":"Dedicated","server_os":"Linux","password":true,"vac":true,"version":"7742253","steam_id":85568392924485349,"keywords":["cp","nocrits","nodmgspread","uncletopia"],"game_id":440,"stv_port":27016,"stv_name":"Uncletopia | S√£o Paulo | 2 | All Maps | STV","players":null},{"server_id":7,"name":"Uncletopia | Seattle | 1 | All Maps","name_short":"sea-1","host":"sea-1.us.uncletopia.com","port":27015,"enabled":true,"region":"us-west","cc":"us","latitude":47.608013,"longitude":-122.33517,"reserved":0,"last_update":"0001-01-01T00:00:00Z","name_a2s":"Uncletopia | Seattle | 1 | All Maps","protocol":17,"map":"koth_cascade","folder":"tf","game":"Team Fortress","app_id":440,"player_count":23,"max_players":24,"Bots":0,"server_type":"Dedicated","server_os":"Linux","password":true,"vac":true,"version":"7742253","steam_id":85568392924469997,"keywords":["cp","nocrits","nodmgspread","uncletopia"],"game_id":440,"stv_port":27016,"stv_name":"Uncletopia | Seattle | 1 | All Maps | STV","players":[{"user_id":356,"name":"rat gets the cheese","steam_id":76561198031234032,"connected_time":6606000000000,"state":"active","ping":98},{"user_id":416,"name":"Gaming","steam_id":76561198327632113,"connected_time":433000000000,"state":"active","ping":50},{"user_id":362,"name":"Level 99 Mudcrab","steam_id":76561198077452771,"connected_time":6355000000000,"state":"active","ping":53},{"user_id":428,"name":"Agentnickel","steam_id":76561199186723516,"connected_time":15000000000,"state":"active","ping":110},{"user_id":424,"name":"Bob the Builder","steam_id":76561199069029812,"connected_time":178000000000,"state":"active","ping":70},{"user_id":408,"name":"resh","steam_id":76561198239598834,"connected_time":1667000000000,"state":"active","ping":127},{"user_id":419,"name":"Ghee Gingersnaps","steam_id":76561199225708271,"connected_time":387000000000,"state":"active","ping":63},{"user_id":422,"name":"viciousbellringer","steam_id":76561198086876652,"connected_time":349000000000,"state":"active","ping":82},{"user_id":366,"name":"Klone","steam_id":76561198854485605,"connected_time":4917000000000,"state":"active","ping":81},{"user_id":412,"name":"William P. Ennis","steam_id":76561198073464877,"connected_time":606000000000,"state":"active","ping":90},{"user_id":420,"name":"BONG THREAT","steam_id":76561197988234127,"connected_time":384000000000,"state":"active","ping":35},{"user_id":421,"name":"Ch4rl33","steam_id":76561198037008621,"connected_time":383000000000,"state":"active","ping":102},{"user_id":414,"name":"resting neutral face","steam_id":76561197999259502,"connected_time":449000000000,"state":"active","ping":84},{"user_id":410,"name":"House","steam_id":76561198308405663,"connected_time":670000000000,"state":"active","ping":61},{"user_id":409,"name":"Seagoll","steam_id":76561198017953606,"connected_time":1366000000000,"state":"active","ping":57},{"user_id":406,"name":"PorgyPork","steam_id":76561198824399078,"connected_time":1695000000000,"state":"active","ping":62},{"user_id":417,"name":"Shah","steam_id":76561198047508851,"connected_time":433000000000,"state":"active","ping":44},{"user_id":427,"name":"Shon","steam_id":76561198170116342,"connected_time":35000000000,"state":"spawning","ping":80},{"user_id":425,"name":"Aux","steam_id":76561199091651065,"connected_time":157000000000,"state":"active","ping":65},{"user_id":401,"name":"Zee‚ù§","steam_id":76561198274550638,"connected_time":2275000000000,"state":"active","ping":105},{"user_id":415,"name":"Can of Oranges (Festive)","steam_id":76561199121813529,"connected_time":444000000000,"state":"active","ping":44},{"user_id":426,"name":"JacenHan","steam_id":76561198077796718,"connected_time":157000000000,"state":"active","ping":47},{"user_id":405,"name":"big car","steam_id":76561198067082350,"connected_time":1812000000000,"state":"active","ping":60}]},{"server_id":119,"name":"Uncletopia | Seattle | 2 | All Maps","name_short":"sea-2","host":"sea-1.us.uncletopia.com","port":27025,"enabled":true,"region":"us-west","cc":"us","latitude":47.608013,"longitude":-122.33517,"reserved":0,"last_update":"0001-01-01T00:00:00Z","name_a2s":"Uncletopia | Seattle | 2 | All Maps","protocol":17,"map":"pl_goldrush","folder":"tf","game":"Team Fortress","app_id":440,"player_count":24,"max_players":24,"Bots":0,"server_type":"Dedicated","server_os":"Linux","password":true,"vac":true,"version":"7742253","steam_id":85568392924469998,"keywords":["nocrits","nodmgspread","payload","uncletopia"],"game_id":440,"stv_port":27026,"stv_name":"Uncletopia | Seattle | 2 | All Maps | STV","players":[{"user_id":506,"name":"KingTinkerer","steam_id":76561198226856548,"connected_time":961000000000,"state":"active","ping":71},{"user_id":492,"name":"thunderous prophet","steam_id":76561198131166135,"connected_time":2032000000000,"state":"active","ping":36},{"user_id":477,"name":"brobtlcehc","steam_id":76561198043558709,"connected_time":3079000000000,"state":"active","ping":50},{"user_id":510,"name":"pizza","steam_id":76561199389584938,"connected_time":394000000000,"state":"active","ping":44},{"user_id":499,"name":"The Best Healer","steam_id":76561198079452621,"connected_time":1162000000000,"state":"active","ping":51},{"user_id":476,"name":"Tom Skirrett","steam_id":76561198014600788,"connected_time":3141000000000,"state":"active","ping":70},{"user_id":508,"name":"Holy Mary Mother of Joseph!","steam_id":76561199160246785,"connected_time":676000000000,"state":"active","ping":127},{"user_id":509,"name":"pops_up_whn","steam_id":76561199126128197,"connected_time":570000000000,"state":"active","ping":55},{"user_id":463,"name":"Court Wizard, Sir Dr. Clydesdal","steam_id":76561198149267697,"connected_time":3933000000000,"state":"active","ping":54},{"user_id":498,"name":"HO MY GOD HELP ME","steam_id":76561198119150842,"connected_time":1372000000000,"state":"active","ping":60},{"user_id":504,"name":"3.dlc","steam_id":76561198234377776,"connected_time":1017000000000,"state":"active","ping":82},{"user_id":505,"name":"Whomsticot","steam_id":76561198406721885,"connected_time":986000000000,"state":"active","ping":69},{"user_id":493,"name":"General Fisticuffs","steam_id":76561198255721392,"connected_time":1859000000000,"state":"active","ping":105},{"user_id":496,"name":"enderantics","steam_id":76561198388495246,"connected_time":1697000000000,"state":"active","ping":47},{"user_id":503,"name":"Florist","steam_id":76561198009121060,"connected_time":1033000000000,"state":"active","ping":45},{"user_id":464,"name":"Noxus","steam_id":76561199009820852,"connected_time":3931000000000,"state":"active","ping":87},{"user_id":468,"name":"EatSomeBEES","steam_id":76561198047334307,"connected_time":3903000000000,"state":"active","ping":76},{"user_id":470,"name":"Nibotshooter","steam_id":76561199284825579,"connected_time":3849000000000,"state":"active","ping":93},{"user_id":466,"name":"TROY","steam_id":76561197983852176,"connected_time":3925000000000,"state":"active","ping":82},{"user_id":495,"name":"squash","steam_id":76561198150281353,"connected_time":1720000000000,"state":"active","ping":57},{"user_id":501,"name":"rorytherednosedreindeer","steam_id":76561198065825165,"connected_time":1055000000000,"state":"active","ping":103},{"user_id":511,"name":"hardfork","steam_id":76561197960958019,"connected_time":184000000000,"state":"active","ping":48},{"user_id":497,"name":"Dali","steam_id":76561198077593486,"connected_time":1665000000000,"state":"active","ping":90},{"user_id":475,"name":"MCman","steam_id":76561198412110305,"connected_time":3449000000000,"state":"active","ping":82}]},{"server_id":406,"name":"Uncletopia | Seattle | 3 | Stopwatch Beta","name_short":"sea-3","host":"sea-1.us.uncletopia.com","port":27035,"enabled":true,"region":"us-west","cc":"us","latitude":47.608013,"longitude":-122.33517,"reserved":0,"last_update":"0001-01-01T00:00:00Z","name_a2s":"Uncletopia | Seattle | 3 | Stopwatch Beta","protocol":17,"map":"cp_gullywash_final1","folder":"tf","game":"Team Fortress","app_id":440,"player_count":4,"max_players":24,"Bots":0,"server_type":"Dedicated","server_os":"Linux","password":true,"vac":false,"version":"7742253","steam_id":0,"keywords":["cp","nocrits","nodmgspread","uncletopia"],"game_id":440,"stv_port":27036,"stv_name":"Uncletopia | Seattle | 3 | Stopwatch Beta | STV","players":[{"user_id":12,"name":"Elite_Friendly","steam_id":76561198819972127,"connected_time":346000000000,"state":"active","ping":50},{"user_id":9,"name":"Anti-Buffer","steam_id":76561198202023350,"connected_time":1288000000000,"state":"active","ping":145},{"user_id":10,"name":"WELCOME TO WARIO WORLD!!!","steam_id":76561199118711243,"connected_time":1216000000000,"state":"active","ping":80},{"user_id":11,"name":"Your Local Festive Furry","steam_id":76561199030190462,"connected_time":572000000000,"state":"active","ping":96}]},{"server_id":17,"name":"Uncletopia | San Francisco | 1 | All Maps","name_short":"sfo-1","host":"sfo-1.us.uncletopia.com","port":27015,"enabled":true,"region":"us-west","cc":"us","latitude":37.77397,"longitude":-122.4313,"reserved":0,"last_update":"0001-01-01T00:00:00Z","name_a2s":"Uncletopia | San Francisco | 1 | All Maps","protocol":17,"map":"koth_lakeside_final","folder":"tf","game":"Team Fortress","app_id":440,"player_count":0,"max_players":24,"Bots":0,"server_type":"Dedicated","server_os":"Linux","password":true,"vac":true,"version":"7742253","steam_id":85568392924469999,"keywords":["cp","nocrits","nodmgspread","uncletopia"],"game_id":440,"stv_port":27016,"stv_name":"Uncletopia | San Francisco | 1 | All Maps | STV","players":null},{"server_id":18,"name":"Uncletopia | San Francisco | 2 | All Maps","name_short":"sfo-2","host":"sfo-1.us.uncletopia.com","port":27025,"enabled":true,"region":"us-west","cc":"us","latitude":37.77397,"longitude":-122.4313,"reserved":0,"last_update":"0001-01-01T00:00:00Z","name_a2s":"Uncletopia | San Francisco | 2 | All Maps","protocol":17,"map":"koth_cascade","folder":"tf","game":"Team Fortress","app_id":440,"player_count":0,"max_players":24,"Bots":0,"server_type":"Dedicated","server_os":"Linux","password":true,"vac":true,"version":"7742253","steam_id":85568392924470000,"keywords":["cp","nocrits","nodmgspread","uncletopia"],"game_id":440,"stv_port":27026,"stv_name":"Uncletopia | San Francisco | 2 | All Maps | STV","players":null},{"server_id":19,"name":"Uncletopia | San Francisco | 3 | Stopwatch Beta","name_short":"sfo-3","host":"sfo-1.us.uncletopia.com","port":27035,"enabled":true,"region":"us-west","cc":"us","latitude":37.77397,"longitude":-122.4313,"reserved":0,"last_update":"0001-01-01T00:00:00Z","name_a2s":"Uncletopia | San Francisco | 3 | Stopwatch Beta","protocol":17,"map":"cp_snakewater_final1","folder":"tf","game":"Team Fortress","app_id":440,"player_count":0,"max_players":24,"Bots":0,"server_type":"Dedicated","server_os":"Linux","password":true,"vac":true,"version":"7742253","steam_id":85568392924742824,"keywords":["cp","nocrits","nodmgspread","uncletopia"],"game_id":440,"stv_port":27036,"stv_name":"Uncletopia | San Francisco | 3 | Stopwatch Beta | STV","players":null},{"server_id":20,"name":"Uncletopia | San Francisco | 4 | Community","name_short":"sfo-4","host":"sfo-1.us.uncletopia.com","port":27045,"enabled":true,"region":"us-west","cc":"us","latitude":37.77397,"longitude":-122.4313,"reserved":0,"last_update":"0001-01-01T00:00:00Z","name_a2s":"Uncletopia | San Francisco | 4 | Community","protocol":17,"map":"workshop/koth_ramjam_v2_b2.ugc2865676487","folder":"tf","game":"Team Fortress","app_id":440,"player_count":0,"max_players":24,"Bots":0,"server_type":"Dedicated","server_os":"Linux","password":true,"vac":true,"version":"7742253","steam_id":85568392924742826,"keywords":["cp","nocrits","nodmgspread","uncletopia"],"game_id":440,"stv_port":27046,"stv_name":"Uncletopia | San Francisco | 4 | Community | STV","players":null},{"server_id":141,"name":"Uncletopia | Sydney | 1 | All Maps","name_short":"syd-1","host":"syd-1.au.uncletopia.com","port":27015,"enabled":true,"region":"au","cc":"au","latitude":-33.865143,"longitude":151.2099,"reserved":0,"last_update":"0001-01-01T00:00:00Z","name_a2s":"Uncletopia | Sydney | 1 | All Maps","protocol":17,"map":"cp_altitude","folder":"tf","game":"Team Fortress","app_id":440,"player_count":9,"max_players":24,"Bots":0,"server_type":"Dedicated","server_os":"Linux","password":true,"vac":true,"version":"7742253","steam_id":85568392924470001,"keywords":["cp","nocrits","nodmgspread","uncletopia"],"game_id":440,"stv_port":27016,"stv_name":"Uncletopia | Sydney | 1 | All Maps | STV","players":[{"user_id":177,"name":"Muffin‚Ñ¢","steam_id":76561198819353439,"connected_time":228000000000,"state":"active","ping":45},{"user_id":28,"name":"Nyda","steam_id":76561198152311904,"connected_time":12226000000000,"state":"active","ping":69},{"user_id":91,"name":"‡∏∏bifcheg","steam_id":76561198319806610,"connected_time":7481000000000,"state":"active","ping":58},{"user_id":178,"name":"Charikarp","steam_id":76561198132766743,"connected_time":76000000000,"state":"active","ping":89},{"user_id":40,"name":"Maxamus","steam_id":76561198343953317,"connected_time":10686000000000,"state":"active","ping":61},{"user_id":152,"name":"TW_light2022","steam_id":76561199393566784,"connected_time":2269000000000,"state":"active","ping":61},{"user_id":170,"name":"*akolai","steam_id":76561198075366402,"connected_time":685000000000,"state":"active","ping":49},{"user_id":179,"name":"ToadFungus","steam_id":76561199219667039,"connected_time":32000000000,"state":"active","ping":93},{"user_id":172,"name":"terrablade_master","steam_id":76561198997249192,"connected_time":589000000000,"state":"active","ping":61}]},{"server_id":123,"name":"Uncletopia | Sydney | 2 | All Maps","name_short":"syd-2","host":"syd-1.au.uncletopia.com","port":27025,"enabled":true,"region":"au","cc":"au","latitude":-33.865143,"longitude":151.2099,"reserved":0,"last_update":"0001-01-01T00:00:00Z","name_a2s":"Uncletopia | Sydney | 2 | All Maps","protocol":17,"map":"pl_pier","folder":"tf","game":"Team Fortress","app_id":440,"player_count":25,"max_players":24,"Bots":0,"server_type":"Dedicated","server_os":"Linux","password":true,"vac":true,"version":"7742253","steam_id":85568392924470002,"keywords":["nocrits","nodmgspread","payload","uncletopia"],"game_id":440,"stv_port":27026,"stv_name":"Uncletopia | Sydney | 2 | All Maps | STV","players":[{"user_id":94,"name":"electro599","steam_id":76561198058148858,"connected_time":772000000000,"state":"active","ping":54},{"user_id":76,"name":"Rizeo","steam_id":76561198147901488,"connected_time":1500000000000,"state":"active","ping":61},{"user_id":47,"name":"CuzzyCuz","steam_id":76561198069054697,"connected_time":3249000000000,"state":"active","ping":63},{"user_id":49,"name":"john","steam_id":76561199222027878,"connected_time":3196000000000,"state":"active","ping":61},{"user_id":79,"name":"braddles [HF]","steam_id":76561198153854876,"connected_time":1368000000000,"state":"active","ping":43},{"user_id":37,"name":"Branko","steam_id":76561199262196710,"connected_time":3959000000000,"state":"active","ping":45},{"user_id":103,"name":"Jack","steam_id":76561198041716013,"connected_time":307000000000,"state":"active","ping":45},{"user_id":104,"name":"The Goodnight Kiwi","steam_id":76561198866433807,"connected_time":300000000000,"state":"active","ping":61},{"user_id":77,"name":"Angel Sherling","steam_id":76561198374293303,"connected_time":1482000000000,"state":"active","ping":47},{"user_id":78,"name":"Google Chrome","steam_id":76561198042064910,"connected_time":1423000000000,"state":"active","ping":45},{"user_id":92,"name":"Dr Barry Mundy PhD","steam_id":76561198034512686,"connected_time":893000000000,"state":"active","ping":77},{"user_id":62,"name":"Dingo","steam_id":76561198315774295,"connected_time":2391000000000,"state":"active","ping":56},{"user_id":80,"name":"2200","steam_id":76561198048634605,"connected_time":1326000000000,"state":"active","ping":45},{"user_id":48,"name":"Courage","steam_id":76561198051379740,"connected_time":3218000000000,"state":"active","ping":55},{"user_id":72,"name":"ZaEpicScout205","steam_id":76561198170693338,"connected_time":1579000000000,"state":"active","ping":83},{"user_id":73,"name":"Batboy","steam_id":76561198152618612,"connected_time":1570000000000,"state":"active","ping":67},{"user_id":69,"name":"Michaelsoft Binbows","steam_id":76561198422847304,"connected_time":1884000000000,"state":"active","ping":62},{"user_id":57,"name":"Teamfighting","steam_id":76561198160135508,"connected_time":2829000000000,"state":"active","ping":58},{"user_id":110,"name":"ITS FUCKING FEMBOY FRIDAY","steam_id":76561199090168813,"connected_time":29000000000,"state":"spawning","ping":60},{"user_id":109,"name":"one by none","steam_id":76561199085043597,"connected_time":79000000000,"state":"active","ping":54},{"user_id":87,"name":"Tnttoad","steam_id":76561198297360775,"connected_time":1083000000000,"state":"active","ping":43},{"user_id":93,"name":"wombraider","steam_id":76561199375834537,"connected_time":893000000000,"state":"active","ping":127},{"user_id":95,"name":"Shilohyolo","steam_id":76561198308167279,"connected_time":714000000000,"state":"active","ping":50},{"user_id":105,"name":"Evojr","steam_id":76561198211512664,"connected_time":259000000000,"state":"active","ping":45},{"user_id":102,"name":"Mr.Deathclaw","steam_id":76561198025419320,"connected_time":366000000000,"state":"active","ping":44}]},{"server_id":395,"name":"Uncletopia | Sydney | 3 | All Maps","name_short":"syd-3","host":"syd-1.au.uncletopia.com","port":27035,"enabled":true,"region":"au","cc":"au","latitude":-33.865143,"longitude":151.2099,"reserved":0,"last_update":"0001-01-01T00:00:00Z","name_a2s":"Uncletopia | Sydney | 3 | All Maps","protocol":17,"map":"cp_snakewater_final1","folder":"tf","game":"Team Fortress","app_id":440,"player_count":0,"max_players":24,"Bots":0,"server_type":"Dedicated","server_os":"Linux","password":true,"vac":true,"version":"7742253","steam_id":85568392925194467,"keywords":["cp","nocrits","nodmgspread","uncletopia"],"game_id":440,"stv_port":27036,"stv_name":"Uncletopia | Sydney | 3 | All Maps | STV","players":null},{"server_id":396,"name":"Uncletopia | Sydney | 4 | All Maps","name_short":"syd-4","host":"syd-1.au.uncletopia.com","port":27045,"enabled":true,"region":"au","cc":"au","latitude":-33.865143,"longitude":151.2099,"reserved":0,"last_update":"0001-01-01T00:00:00Z","name_a2s":"Uncletopia | Sydney | 4 | All Maps","protocol":17,"map":"pl_borneo","folder":"tf","game":"Team Fortress","app_id":440,"player_count":0,"max_players":24,"Bots":0,"server_type":"Dedicated","server_os":"Linux","password":true,"vac":true,"version":"7742253","steam_id":85568392925397958,"keywords":["nocrits","nodmgspread","payload","uncletopia"],"game_id":440,"stv_port":27046,"stv_name":"Uncletopia | Sydney | 4 | All Maps | STV","players":null},{"server_id":58,"name":"Uncletopia | Sydney | 5 | Stopwatch Beta","name_short":"syd-5","host":"syd-1.au.uncletopia.com","port":27055,"enabled":true,"region":"au","cc":"au","latitude":-33.865143,"longitude":151.2099,"reserved":0,"last_update":"0001-01-01T00:00:00Z","name_a2s":"Uncletopia | Sydney | 5 | Stopwatch Beta","protocol":17,"map":"cp_snakewater_final1","folder":"tf","game":"Team Fortress","app_id":440,"player_count":0,"max_players":24,"Bots":0,"server_type":"Dedicated","server_os":"Linux","password":true,"vac":true,"version":"7742253","steam_id":85568392925397959,"keywords":["cp","nocrits","nodmgspread","uncletopia"],"game_id":440,"stv_port":27056,"stv_name":"Uncletopia | Sydney | 5 | Stopwatch Beta | STV","players":null},{"server_id":59,"name":"Uncletopia | Sydney | 6 | Community","name_short":"syd-6","host":"syd-1.au.uncletopia.com","port":27065,"enabled":true,"region":"au","cc":"au","latitude":-33.865143,"longitude":151.2099,"reserved":0,"last_update":"0001-01-01T00:00:00Z","name_a2s":"Uncletopia | Sydney | 6 | Community","protocol":17,"map":"workshop/koth_product_final.ugc454272353","folder":"tf","game":"Team Fortress","app_id":440,"player_count":0,"max_players":24,"Bots":0,"server_type":"Dedicated","server_os":"Linux","password":true,"vac":true,"version":"7742253","steam_id":85568392925397960,"keywords":["cp","nocrits","nodmgspread","uncletopia"],"game_id":440,"stv_port":27066,"stv_name":"Uncletopia | Sydney | 6 | Community | STV","players":null},{"server_id":49,"name":"Uncletopia | Warsaw | 1 | All Maps","name_short":"waw-1","host":"waw-1.pl.uncletopia.com","port":27015,"enabled":true,"region":"eu","cc":"pl","latitude":52.2297,"longitude":21.017532,"reserved":0,"last_update":"0001-01-01T00:00:00Z","name_a2s":"Uncletopia | Warsaw | 1 | All Maps","protocol":17,"map":"koth_lakeside_final","folder":"tf","game":"Team Fortress","app_id":440,"player_count":0,"max_players":24,"Bots":0,"server_type":"Dedicated","server_os":"Linux","password":true,"vac":true,"version":"7723704","steam_id":85568392925397850,"keywords":["cp","nocrits","nodmgspread","uncletopia"],"game_id":440,"stv_port":27016,"stv_name":"Uncletopia | Warsaw | 1 | All Maps | STV","players":null},{"server_id":50,"name":"Uncletopia | Warsaw | 2 | All Maps","name_short":"waw-2","host":"waw-1.pl.uncletopia.com","port":27025,"enabled":true,"region":"eu","cc":"pl","latitude":52.2297,"longitude":21.017532,"reserved":0,"last_update":"0001-01-01T00:00:00Z","name_a2s":"Uncletopia | Warsaw | 2 | All Maps","protocol":17,"map":"koth_cascade","folder":"tf","game":"Team Fortress","app_id":440,"player_count":0,"max_players":24,"Bots":0,"server_type":"Dedicated","server_os":"Linux","password":true,"vac":true,"version":"7742253","steam_id":85568392925397851,"keywords":["cp","nocrits","nodmgspread","uncletopia"],"game_id":440,"stv_port":27026,"stv_name":"Uncletopia | Warsaw | 2 | All Maps | STV","players":null},{"server_id":51,"name":"Uncletopia | Warsaw | 3 | All Maps","name_short":"waw-3","host":"waw-1.pl.uncletopia.com","port":27035,"enabled":true,"region":"eu","cc":"pl","latitude":52.2297,"longitude":21.017532,"reserved":0,"last_update":"0001-01-01T00:00:00Z","name_a2s":"Uncletopia | Warsaw | 3 | All Maps","protocol":17,"map":"koth_cascade","folder":"tf","game":"Team Fortress","app_id":440,"player_count":0,"max_players":24,"Bots":0,"server_type":"Dedicated","server_os":"Linux","password":true,"vac":true,"version":"7742253","steam_id":85568392925397852,"keywords":["cp","nocrits","nodmgspread","uncletopia"],"game_id":440,"stv_port":27036,"stv_name":"Uncletopia | Warsaw | 3 | All Maps | STV","players":null},{"server_id":52,"name":"Uncletopia | Warsaw | 4 | All Maps","name_short":"waw-4","host":"waw-1.pl.uncletopia.com","port":27045,"enabled":true,"region":"eu","cc":"pl","latitude":52.2297,"longitude":21.017532,"reserved":0,"last_update":"0001-01-01T00:00:00Z","name_a2s":"Uncletopia | Warsaw | 4 | All Maps","protocol":17,"map":"pl_swiftwater_final1","folder":"tf","game":"Team Fortress","app_id":440,"player_count":0,"max_players":24,"Bots":0,"server_type":"Dedicated","server_os":"Linux","password":true,"vac":true,"version":"7742253","steam_id":85568392925397853,"keywords":["nocrits","nodmgspread","payload","uncletopia"],"game_id":440,"stv_port":27046,"stv_name":"Uncletopia | Warsaw | 4 | All Maps | STV","players":null},{"server_id":53,"name":"Uncletopia | Warsaw | 5 | Stopwatch Beta","name_short":"waw-5","host":"waw-1.pl.uncletopia.com","port":27055,"enabled":true,"region":"eu","cc":"pl","latitude":52.2297,"longitude":21.017532,"reserved":0,"last_update":"0001-01-01T00:00:00Z","name_a2s":"Uncletopia | Warsaw | 5 | Stopwatch Beta","protocol":17,"map":"pl_pier","folder":"tf","game":"Team Fortress","app_id":440,"player_count":0,"max_players":24,"Bots":0,"server_type":"Dedicated","server_os":"Linux","password":true,"vac":true,"version":"7742253","steam_id":85568392925397854,"keywords":["nocrits","nodmgspread","payload","uncletopia"],"game_id":440,"stv_port":27056,"stv_name":"Uncletopia | Warsaw | 5 | Stopwatch Beta | STV","players":null},{"server_id":54,"name":"Uncletopia | Warsaw | 6 | Community","name_short":"waw-6","host":"waw-1.pl.uncletopia.com","port":27065,"enabled":true,"region":"eu","cc":"pl","latitude":52.2297,"longitude":21.017532,"reserved":0,"last_update":"0001-01-01T00:00:00Z","name_a2s":"Uncletopia | Warsaw | 6 | Community","protocol":17,"map":"workshop/rd_asteroid_redux_rc9.ugc2154902912","folder":"tf","game":"Team Fortress","app_id":440,"player_count":0,"max_players":24,"Bots":0,"server_type":"Dedicated","server_os":"Linux","password":true,"vac":true,"version":"7742253","steam_id":85568392925397856,"keywords":["beta","nocrits","nodmgspread","rd","uncletopia"],"game_id":440,"stv_port":27066,"stv_name":"Uncletopia | Warsaw | 6 | Community | STV","players":null}]}