{"status":true,"message":"","result":[{"server_id":9,"name":"Uncletopia | Atlanta | 1 | All Maps","name_short":"atl-1","host":"atl-1.us.uncletopia.com","port":27015,"enabled":true,"region":"us-east","cc":"us","latitude":33.753746,"longitude":-84.38633,"reserved":0,"last_update":"0001-01-01T00:00:00Z","name_a2s":"Uncletopia | Atlanta | 1 | All Maps","protocol":17,"map":"koth_lakeside_final","folder":"tf","game":"Team Fortress","app_id":440,"player_count":1,"max_players":24,"Bots":0,"server_type":"Dedicated","server_os":"Linux","password":true,"vac":true,"version":"7961495","steam_id":85568392924469982,"keywords":["cp","nocrits","nodmgspread","uncletopia"],"game_id":440,"stv_port":27016,"stv_name":"Uncletopia | Atlanta | 1 | All Maps | STV","players":null},{"server_id":104,"name":"Uncletopia | Atlanta | 2 | All Maps","name_short":"atl-2","host":"atl-1.us.uncletopia.com","port":27025,"enabled":true,"region":"us-east","cc":"us","latitude":33.753746,"longitude":-84.38633,"reserved":0,"last_update":"0001-01-01T00:00:00Z","name_a2s":"Uncletopia | Atlanta | 2 | All Maps","protocol":17,"map":"koth_highpass","folder":"tf","game":"Team Fortress","app_id":440,"player_count":0,"max_players":24,"Bots":0,"server_type":"Dedicated","server_os":"Linux","password":true,"vac":true,"version":"7961495","steam_id":85568392924469983,"keywords":["cp","nocrits","nodmgspread","uncletopia"],"game_id":440,"stv_port":27026,"stv_name":"Uncletopia | Atlanta | 2 | All Maps | STV","players":null},{"server_id":400,"name":"Uncletopia | Atlanta | 3 | All Maps","name_short":"atl-3","host":"atl-1.us.uncletopia.com","port":27035,"enabled":true,"region":"us-east","cc":"us","latitude":33.753746,"longitude":-84.38633,"reserved":0,"last_update":"0001-01-01T00:00:00Z","name_a2s":"Uncletopia | Atlanta | 3 | All Maps","protocol":17,"map":"koth_cascade","folder":"tf","game":"Team Fortress","app_id":440,"player_count":0,"max_players":24,"Bots":0,"server_type":"Dedicated","server_os":"Linux","password":true,"vac":true,"version":"7961495","steam_id":85568392924515187,"keywords":["cp","nocrits","nodmgspread","uncletopia"],"game_id":440,"stv_port":27036,"stv_name":"Uncletopia | Atlanta | 3 | All Maps | STV","players":null},{"server_id":401,"name":"Uncletopia | Atlanta | 4 | Community","name_short":"atl-4","host":"atl-1.us.uncletopia.com","port":27045,"enabled":true,"region":"us-east","cc":"us","latitude":33.753746,"longitude":-84.38633,"reserved":0,"last_update":"0001-01-01T00:00:00Z","name_a2s":"Uncletopia | Atlanta | 4 | Community","protocol":17,"map":"cp_sunshine","folder":"tf","game":"Team Fortress","app_id":440,"player_count":0,"max_players":24,"Bots":0,"server_type":"Dedicated","server_os":"Linux","password":true,"vac":true,"version":"7961495","steam_id":85568392924515188,"keywords":["cp","nocrits","nodmgspread","uncletopia"],"game_id":440,"stv_port":27046,"stv_name":"Uncletopia | Atlanta | 4 | Community | STV","players":null},{"server_id":2,"name":"Uncletopia | Chicago | 1 | All Maps","name_short":"chi-1","host":"chi-1.us.uncletopia.com","port":27015,"enabled":true,"region":"us-central","cc":"us","latitude":41.881832,"longitude":-87.62318,"reserved":0,"last_update":"0001-01-01T00:00:00Z","name_a2s":"Uncletopia | Chicago | 1 | All Maps","protocol":17,"map":"pl_upward","folder":"tf","game":"Team Fortress","app_id":440,"player_count":24,"max_players":24,"Bots":0,"server_type":"Dedicated","server_os":"Linux","password":true,"vac":true,"version":"7961495","steam_id":85568392924469984,"keywords":["nocrits","nodmgspread","payload","uncletopia"],"game_id":440,"stv_port":27016,"stv_name":"Uncletopia | Chicago | 1 | All Maps | STV","players":[{"user_id":146,"name":"asbestos","steam_id":76561198079178866,"connected_time":97000000000,"state":"active","ping":60},{"user_id":113,"name":"Looking for BBW in stanfield nc","steam_id":76561199207371234,"connected_time":2505000000000,"state":"active","ping":74},{"user_id":141,"name":"Lv3 Kobold Shadow Sorcerer","steam_id":76561198042068995,"connected_time":627000000000,"state":"active","ping":77},{"user_id":135,"name":"Vanaduke","steam_id":76561198285311264,"connected_time":1178000000000,"state":"active","ping":89},{"user_id":143,"name":"Mog","steam_id":76561198025575870,"connected_time":112000000000,"state":"active","ping":92},{"user_id":136,"name":"superbad","steam_id":76561198065913973,"connected_time":1170000000000,"state":"active","ping":102},{"user_id":93,"name":"Braindawg","steam_id":76561197988531991,"connected_time":4477000000000,"state":"active","ping":93},{"user_id":50,"name":"Magma Leader Maxie","steam_id":76561198341537452,"connected_time":5397000000000,"state":"active","ping":79},{"user_id":137,"name":"google docs extraordinaire","steam_id":76561198124174061,"connected_time":1150000000000,"state":"active","ping":56},{"user_id":138,"name":"AkimboAoki","steam_id":76561198158323058,"connected_time":981000000000,"state":"active","ping":91},{"user_id":129,"name":"FunGi","steam_id":76561198881418662,"connected_time":1659000000000,"state":"active","ping":90},{"user_id":111,"name":"Barbados Slim","steam_id":76561199483183459,"connected_time":2509000000000,"state":"active","ping":88},{"user_id":132,"name":"Garfield","steam_id":76561198147300599,"connected_time":1367000000000,"state":"active","ping":62},{"user_id":144,"name":"DrBadAim","steam_id":76561198382369742,"connected_time":108000000000,"state":"active","ping":67},{"user_id":126,"name":"BlueTubeBlue","steam_id":76561198394326200,"connected_time":2304000000000,"state":"active","ping":84},{"user_id":102,"name":"Soy","steam_id":76561198050605191,"connected_time":3510000000000,"state":"active","ping":79},{"user_id":140,"name":"󠁳 ⁧Argo","steam_id":76561198353725622,"connected_time":650000000000,"state":"active","ping":82},{"user_id":124,"name":"Cellus","steam_id":76561198067204847,"connected_time":2405000000000,"state":"active","ping":67},{"user_id":37,"name":"Ice Queen","steam_id":76561198012747028,"connected_time":6608000000000,"state":"active","ping":61},{"user_id":76,"name":"ุ","steam_id":76561198118480346,"connected_time":4801000000000,"state":"active","ping":73},{"user_id":147,"name":"Astoriae!","steam_id":76561199090168858,"connected_time":96000000000,"state":"active","ping":67},{"user_id":133,"name":"Glue Gulper","steam_id":76561198158014525,"connected_time":1201000000000,"state":"active","ping":60},{"user_id":145,"name":"Whatever404","steam_id":76561198300273120,"connected_time":107000000000,"state":"active","ping":101},{"user_id":89,"name":"Maverick","steam_id":76561198322829814,"connected_time":4529000000000,"state":"active","ping":76}]},{"server_id":106,"name":"Uncletopia | Chicago | 2 | All Maps","name_short":"chi-2","host":"chi-1.us.uncletopia.com","port":27025,"enabled":true,"region":"us-central","cc":"us","latitude":41.881832,"longitude":-87.62318,"reserved":0,"last_update":"0001-01-01T00:00:00Z","name_a2s":"Uncletopia | Chicago | 2 | All Maps","protocol":17,"map":"cp_sunshine","folder":"tf","game":"Team Fortress","app_id":440,"player_count":0,"max_players":24,"Bots":0,"server_type":"Dedicated","server_os":"Linux","password":true,"vac":true,"version":"7961495","steam_id":85568392924469985,"keywords":["cp","nocrits","nodmgspread","uncletopia"],"game_id":440,"stv_port":27026,"stv_name":"Uncletopia | Chicago | 2 | All Maps | STV","players":null},{"server_id":402,"name":"Uncletopia | Chicago | 3 | All Maps","name_short":"chi-3","host":"chi-1.us.uncletopia.com","port":27035,"enabled":true,"region":"us-central","cc":"us","latitude":41.881832,"longitude":-87.62318,"reserved":0,"last_update":"0001-01-01T00:00:00Z","name_a2s":"Uncletopia | Chicago | 3 | All Maps","protocol":17,"map":"pl_barnblitz","folder":"tf","game":"Team Fortress","app_id":440,"player_count":24,"max_players":24,"Bots":0,"server_type":"Dedicated","server_os":"Linux","password":true,"vac":true,"version":"7961495","steam_id":85568392924515191,"keywords":["nocrits","nodmgspread","payload","uncletopia"],"game_id":440,"stv_port":27036,"stv_name":"Uncletopia | Chicago | 3 | All Maps | STV","players":[{"user_id":50,"name":"Mikhaila (She/Her)","steam_id":76561198065005979,"connected_time":2066000000000,"state":"active","ping":85},{"user_id":7,"name":"BrickDiggity","steam_id":76561198297548684,"connected_time":4407000000000,"state":"active","ping":86},{"user_id":44,"name":"Mr. Tickle","steam_id":76561198126684647,"connected_time":2513000000000,"state":"active","ping":60},{"user_id":63,"name":"King's Disease","steam_id":76561198076639682,"connected_time":895000000000,"state":"active","ping":70},{"user_id":40,"name":"Mavrick","steam_id":76561198039678150,"connected_time":2937000000000,"state":"active","ping":61},{"user_id":74,"name":"Squirrel with a Wrench","steam_id":76561198334035413,"connected_time":376000000000,"state":"active","ping":47},{"user_id":69,"name":"yomommasabitch","steam_id":76561198323217150,"connected_time":449000000000,"state":"active","ping":63},{"user_id":75,"name":"Combatspok","steam_id":76561197971598115,"connected_time":343000000000,"state":"active","ping":58},{"user_id":51,"name":"crackwhorexplosion","steam_id":76561199043015477,"connected_time":1682000000000,"state":"active","ping":54},{"user_id":53,"name":"MILKY","steam_id":76561198073114061,"connected_time":1098000000000,"state":"active","ping":70},{"user_id":21,"name":"Lucon","steam_id":76561198067147724,"connected_time":3664000000000,"state":"active","ping":56},{"user_id":22,"name":"mr.sapyoursentry","steam_id":76561199202571828,"connected_time":3639000000000,"state":"active","ping":86},{"user_id":66,"name":"Turtlin'","steam_id":76561198885096042,"connected_time":697000000000,"state":"active","ping":66},{"user_id":25,"name":"november","steam_id":76561198368460175,"connected_time":3593000000000,"state":"active","ping":70},{"user_id":73,"name":"Lia_Rein TTV","steam_id":76561198151569597,"connected_time":419000000000,"state":"active","ping":149},{"user_id":78,"name":"congrats on the divorce","steam_id":76561198255436011,"connected_time":138000000000,"state":"active","ping":69},{"user_id":77,"name":"hej","steam_id":76561197996366940,"connected_time":198000000000,"state":"active","ping":59},{"user_id":54,"name":"Let ε \u003e 0","steam_id":76561198111790388,"connected_time":1086000000000,"state":"active","ping":104},{"user_id":56,"name":"rad killl raccoon","steam_id":76561198980975595,"connected_time":1074000000000,"state":"active","ping":113},{"user_id":72,"name":"gods hungriest pitbull","steam_id":76561198111669774,"connected_time":425000000000,"state":"active","ping":49},{"user_id":76,"name":"Yam Jazzy Jim","steam_id":76561198000788950,"connected_time":202000000000,"state":"active","ping":68},{"user_id":79,"name":"Dr Dino D. Diplodocus","steam_id":76561198269645882,"connected_time":3000000000,"state":"spawning","ping":85},{"user_id":57,"name":"Candy Sparkles","steam_id":76561198126871264,"connected_time":1068000000000,"state":"active","ping":83},{"user_id":71,"name":"Bibleboy","steam_id":76561198049289869,"connected_time":447000000000,"state":"active","ping":78}]},{"server_id":403,"name":"Uncletopia | Chicago | 4 | All Maps","name_short":"chi-4","host":"chi-1.us.uncletopia.com","port":27045,"enabled":true,"region":"us-central","cc":"us","latitude":41.881832,"longitude":-87.62318,"reserved":0,"last_update":"0001-01-01T00:00:00Z","name_a2s":"Uncletopia | Chicago | 4 | All Maps","protocol":17,"map":"cp_altitude","folder":"tf","game":"Team Fortress","app_id":440,"player_count":0,"max_players":24,"Bots":0,"server_type":"Dedicated","server_os":"Linux","password":true,"vac":true,"version":"7961495","steam_id":85568392924515193,"keywords":["cp","nocrits","nodmgspread","uncletopia"],"game_id":440,"stv_port":27046,"stv_name":"Uncletopia | Chicago | 4 | All Maps | STV","players":null},{"server_id":36,"name":"Uncletopia | Chicago | 5 | All Maps","name_short":"chi-5","host":"chi-2.us.uncletopia.com","port":27015,"enabled":true,"region":"us-central","cc":"us","latitude":41.881832,"longitude":-87.62318,"reserved":0,"last_update":"0001-01-01T00:00:00Z","name_a2s":"Uncletopia | Chicago | 5 | All Maps","protocol":17,"map":"pl_barnblitz","folder":"tf","game":"Team Fortress","app_id":440,"player_count":0,"max_players":24,"Bots":0,"server_type":"Dedicated","server_os":"Linux","password":true,"vac":true,"version":"7961495","steam_id":85568392924866362,"keywords":["nocrits","nodmgspread","payload","uncletopia"],"game_id":440,"stv_port":27016,"stv_name":"Uncletopia | Chicago | 5 | All Maps | STV","players":null},{"server_id":37,"name":"Uncletopia | Chicago | 6 | All Maps","name_short":"chi-6","host":"chi-2.us.uncletopia.com","port":27025,"enabled":true,"region":"us-central","cc":"us","latitude":41.881832,"longitude":-87.62318,"reserved":0,"last_update":"0001-01-01T00:00:00Z","name_a2s":"Uncletopia | Chicago | 6 | All Maps","protocol":17,"map":"pl_pier","folder":"tf","game":"Team Fortress","app_id":440,"player_count":0,"max_players":24,"Bots":0,"server_type":"Dedicated","server_os":"Linux","password":true,"vac":true,"version":"7961495","steam_id":85568392924866363,"keywords":["nocrits","nodmgspread","payload","uncletopia"],"game_id":440,"stv_port":27026,"stv_name":"Uncletopia | Chicago | 6 | All Maps | STV","players":null},{"server_id":38,"name":"Uncletopia | Chicago | 7 | Stopwatch Beta","name_short":"chi-7","host":"chi-2.us.uncletopia.com","port":27035,"enabled":true,"region":"us-central","cc":"us","latitude":41.881832,"longitude":-87.62318,"reserved":0,"last_update":"0001-01-01T00:00:00Z","name_a2s":"Uncletopia | Chicago | 7 | Stopwatch Beta","protocol":17,"map":"pl_badwater","folder":"tf","game":"Team Fortress","app_id":440,"player_count":0,"max_players":24,"Bots":0,"server_type":"Dedicated","server_os":"Linux","password":true,"vac":true,"version":"7961495","steam_id":85568392924866364,"keywords":["nocrits","nodmgspread","payload","uncletopia"],"game_id":440,"stv_port":27036,"stv_name":"Uncletopia | Chicago | 7 | Stopwatch Beta | STV","players":null},{"server_id":39,"name":"Uncletopia | Chicago | 8 | Community","name_short":"chi-8","host":"chi-2.us.uncletopia.com","port":27045,"enabled":true,"region":"us-central","cc":"us","latitude":41.881832,"longitude":-87.62318,"reserved":0,"last_update":"0001-01-01T00:00:00Z","name_a2s":"Uncletopia | Chicago | 8 | Community","protocol":17,"map":"workshop/pl_cashworks_final1.ugc2904065412","folder":"tf","game":"Team Fortress","app_id":440,"player_count":24,"max_players":24,"Bots":0,"server_type":"Dedicated","server_os":"Linux","password":true,"vac":true,"version":"7961495","steam_id":85568392924866365,"keywords":["nocrits","nodmgspread","payload","uncletopia"],"game_id":440,"stv_port":27046,"stv_name":"Uncletopia | Chicago | 8 | Community | STV","players":[{"user_id":86,"name":"your local forecast","steam_id":76561198042243083,"connected_time":747000000000,"state":"active","ping":73},{"user_id":68,"name":"PieTheMan","steam_id":76561198027825469,"connected_time":1669000000000,"state":"active","ping":99},{"user_id":69,"name":"Zhenaj","steam_id":76561199209016136,"connected_time":1645000000000,"state":"active","ping":59},{"user_id":91,"name":"HaphazardHazel","steam_id":76561198316812693,"connected_time":32000000000,"state":"spawning","ping":220},{"user_id":90,"name":"Ciaphas Cain","steam_id":76561198185598330,"connected_time":221000000000,"state":"active","ping":84},{"user_id":54,"name":"[]{}#^*+=","steam_id":76561198127039453,"connected_time":2601000000000,"state":"active","ping":103},{"user_id":61,"name":"zeeette","steam_id":76561198325344637,"connected_time":2111000000000,"state":"active","ping":88},{"user_id":76,"name":"LWebb","steam_id":76561199162936929,"connected_time":1382000000000,"state":"active","ping":80},{"user_id":65,"name":"Squope","steam_id":76561198983129293,"connected_time":1914000000000,"state":"active","ping":72},{"user_id":87,"name":"Tr1pleABattery","steam_id":76561198028848587,"connected_time":595000000000,"state":"active","ping":77},{"user_id":83,"name":"Epifiny","steam_id":76561198027958086,"connected_time":911000000000,"state":"active","ping":78},{"user_id":19,"name":"GalacticHero2068","steam_id":76561199063612661,"connected_time":4644000000000,"state":"active","ping":95},{"user_id":20,"name":"summerlis","steam_id":76561198165324438,"connected_time":4590000000000,"state":"active","ping":104},{"user_id":84,"name":"Darkmaen","steam_id":76561198060543390,"connected_time":878000000000,"state":"active","ping":142},{"user_id":66,"name":"La Tabda","steam_id":76561198120364620,"connected_time":1701000000000,"state":"active","ping":104},{"user_id":51,"name":"pop7up","steam_id":76561198159869674,"connected_time":2858000000000,"state":"active","ping":75},{"user_id":31,"name":"jon.cinnamon","steam_id":76561198127316418,"connected_time":4044000000000,"state":"active","ping":68},{"user_id":70,"name":"Erndoo","steam_id":76561198031106685,"connected_time":1643000000000,"state":"active","ping":60},{"user_id":81,"name":"Butters495","steam_id":76561197998689042,"connected_time":991000000000,"state":"active","ping":81},{"user_id":88,"name":"BirBinGo","steam_id":76561198356529600,"connected_time":553000000000,"state":"active","ping":76},{"user_id":73,"name":"Master of Trolling","steam_id":76561198861356537,"connected_time":1525000000000,"state":"active","ping":155},{"user_id":74,"name":"CourierZero","steam_id":76561198118449828,"connected_time":1508000000000,"state":"active","ping":67},{"user_id":89,"name":"ChickenShred","steam_id":76561198867897841,"connected_time":503000000000,"state":"active","ping":99},{"user_id":78,"name":"Whompert","steam_id":76561198042939624,"connected_time":1139000000000,"state":"active","ping":96}]},{"server_id":8,"name":"Uncletopia | Dallas | 1 | All Maps","name_short":"dal-1","host":"dal-1.us.uncletopia.com","port":27015,"enabled":true,"region":"us-central","cc":"us","latitude":32.779167,"longitude":-96.80889,"reserved":0,"last_update":"0001-01-01T00:00:00Z","name_a2s":"Uncletopia | Dallas | 1 | All Maps","protocol":17,"map":"koth_nucleus","folder":"tf","game":"Team Fortress","app_id":440,"player_count":24,"max_players":24,"Bots":0,"server_type":"Dedicated","server_os":"Linux","password":true,"vac":true,"version":"7961495","steam_id":85568392924469986,"keywords":["cp","nocrits","nodmgspread","uncletopia"],"game_id":440,"stv_port":27016,"stv_name":"Uncletopia | Dallas | 1 | All Maps | STV","players":[{"user_id":4,"name":"Jerk Tryhard (roleplay)","steam_id":76561199470538309,"connected_time":10305000000000,"state":"active","ping":75},{"user_id":112,"name":"Ryzema","steam_id":76561198165594229,"connected_time":215000000000,"state":"active","ping":88},{"user_id":6,"name":"leesh","steam_id":76561198079603938,"connected_time":10208000000000,"state":"active","ping":59},{"user_id":78,"name":"ATL1 | on my hunting trip","steam_id":76561198315341646,"connected_time":2936000000000,"state":"active","ping":88},{"user_id":106,"name":"Stick","steam_id":76561198987222560,"connected_time":774000000000,"state":"active","ping":63},{"user_id":95,"name":"Unlock The Shock (She/They)","steam_id":76561198823616667,"connected_time":1149000000000,"state":"active","ping":58},{"user_id":98,"name":"BicycleTube","steam_id":76561198078311430,"connected_time":1115000000000,"state":"active","ping":75},{"user_id":94,"name":"GLG.Liz","steam_id":76561198021957956,"connected_time":1154000000000,"state":"active","ping":45},{"user_id":114,"name":"KentuckyFriedPossum","steam_id":76561198930277086,"connected_time":53000000000,"state":"active","ping":74},{"user_id":51,"name":"Outta Kenya","steam_id":76561198153604875,"connected_time":5553000000000,"state":"active","ping":81},{"user_id":75,"name":"Sleuth","steam_id":76561198418288939,"connected_time":3121000000000,"state":"active","ping":110},{"user_id":90,"name":"Rob","steam_id":76561199187786660,"connected_time":2114000000000,"state":"active","ping":56},{"user_id":113,"name":"GX thedittoguy","steam_id":76561199013129784,"connected_time":78000000000,"state":"active","ping":50},{"user_id":77,"name":"scout gaming","steam_id":76561199314496252,"connected_time":2952000000000,"state":"active","ping":107},{"user_id":102,"name":"oncologist","steam_id":76561197997321386,"connected_time":1054000000000,"state":"active","ping":56},{"user_id":93,"name":"DJThunderHeart","steam_id":76561198274197575,"connected_time":1598000000000,"state":"active","ping":88},{"user_id":91,"name":"Fightin Cow","steam_id":76561198080941486,"connected_time":1794000000000,"state":"active","ping":60},{"user_id":101,"name":"panic","steam_id":76561198870308563,"connected_time":1062000000000,"state":"active","ping":177},{"user_id":66,"name":"40K","steam_id":76561198070599668,"connected_time":4163000000000,"state":"active","ping":103},{"user_id":84,"name":"Shmizzy","steam_id":76561198189418762,"connected_time":2528000000000,"state":"active","ping":73},{"user_id":103,"name":"doku","steam_id":76561199186072324,"connected_time":1032000000000,"state":"active","ping":58},{"user_id":71,"name":"FI LO","steam_id":76561198976530881,"connected_time":3283000000000,"state":"active","ping":72},{"user_id":111,"name":"Hyper Alien","steam_id":76561198183211513,"connected_time":302000000000,"state":"active","ping":36},{"user_id":96,"name":"♡RiTz♡","steam_id":76561199014354305,"connected_time":1145000000000,"state":"active","ping":58}]},{"server_id":108,"name":"Uncletopia | Dallas | 2 | All Maps","name_short":"dal-2","host":"dal-1.us.uncletopia.com","port":27025,"enabled":true,"region":"us-central","cc":"us","latitude":32.779167,"longitude":-96.80889,"reserved":0,"last_update":"0001-01-01T00:00:00Z","name_a2s":"Uncletopia | Dallas | 2 | All Maps","protocol":17,"map":"koth_cascade","folder":"tf","game":"Team Fortress","app_id":440,"player_count":24,"max_players":24,"Bots":0,"server_type":"Dedicated","server_os":"Linux","password":true,"vac":true,"version":"7961495","steam_id":85568392924469988,"keywords":["cp","nocrits","nodmgspread","uncletopia"],"game_id":440,"stv_port":27026,"stv_name":"Uncletopia | Dallas | 2 | All Maps | STV","players":[{"user_id":3,"name":"dicksnip","steam_id":76561198356515396,"connected_time":1792000000000,"state":"active","ping":55},{"user_id":4,"name":"Boot Mcstink","steam_id":76561199226873917,"connected_time":1600000000000,"state":"active","ping":87},{"user_id":5,"name":"Lazy Bones","steam_id":76561198198928941,"connected_time":1397000000000,"state":"active","ping":84},{"user_id":6,"name":"andyiscolorless","steam_id":76561199239870921,"connected_time":1292000000000,"state":"active","ping":131},{"user_id":7,"name":"NastyGumbo","steam_id":76561198211943176,"connected_time":1253000000000,"state":"active","ping":78},{"user_id":11,"name":"Whatrus","steam_id":76561198340908301,"connected_time":1049000000000,"state":"active","ping":106},{"user_id":9,"name":"beans","steam_id":76561199082781884,"connected_time":1181000000000,"state":"active","ping":69},{"user_id":10,"name":"Zyrok","steam_id":76561198271348982,"connected_time":1125000000000,"state":"active","ping":54},{"user_id":12,"name":"Mocanthl","steam_id":76561198043778324,"connected_time":1026000000000,"state":"active","ping":70},{"user_id":13,"name":"GreatTimBones","steam_id":76561198409145748,"connected_time":892000000000,"state":"active","ping":95},{"user_id":14,"name":"w7j14","steam_id":76561199194856245,"connected_time":834000000000,"state":"active","ping":75},{"user_id":15,"name":"40s on the jeep","steam_id":76561198893301630,"connected_time":828000000000,"state":"active","ping":85},{"user_id":33,"name":"Mcfighter2","steam_id":76561198168073956,"connected_time":79000000000,"state":"active","ping":85},{"user_id":19,"name":"HUESO","steam_id":76561198276383681,"connected_time":665000000000,"state":"active","ping":82},{"user_id":20,"name":"name me pls","steam_id":76561199273576072,"connected_time":565000000000,"state":"active","ping":167},{"user_id":31,"name":"Grumby","steam_id":76561198149175262,"connected_time":107000000000,"state":"active","ping":54},{"user_id":22,"name":"FIREPOW","steam_id":76561198111259720,"connected_time":470000000000,"state":"active","ping":83},{"user_id":32,"name":"when gritty","steam_id":76561198165567310,"connected_time":103000000000,"state":"active","ping":79},{"user_id":25,"name":"Pinhead Dipshit","steam_id":76561198986491180,"connected_time":286000000000,"state":"active","ping":106},{"user_id":26,"name":"HAT-WEARING™ Maggot Gamer Cat","steam_id":76561197973992705,"connected_time":268000000000,"state":"active","ping":93},{"user_id":27,"name":"100FootTallGoose","steam_id":76561198056611082,"connected_time":265000000000,"state":"active","ping":74},{"user_id":28,"name":"glankinator","steam_id":76561198354077256,"connected_time":235000000000,"state":"active","ping":70},{"user_id":29,"name":"Winter the Witchie","steam_id":76561198151971178,"connected_time":215000000000,"state":"active","ping":98},{"user_id":34,"name":"Fred","steam_id":76561197983870604,"connected_time":70000000000,"state":"active","ping":61}]},{"server_id":404,"name":"Uncletopia | Dallas | 3 | All Maps","name_short":"dal-3","host":"dal-1.us.uncletopia.com","port":27035,"enabled":true,"region":"us-central","cc":"us","latitude":32.779167,"longitude":-96.80889,"reserved":0,"last_update":"0001-01-01T00:00:00Z","name_a2s":"Uncletopia | Dallas | 3 | All Maps","protocol":17,"map":"pl_upward","folder":"tf","game":"Team Fortress","app_id":440,"player_count":0,"max_players":24,"Bots":0,"server_type":"Dedicated","server_os":"Linux","password":true,"vac":true,"version":"7961495","steam_id":85568392924515219,"keywords":["nocrits","nodmgspread","payload","uncletopia"],"game_id":440,"stv_port":27036,"stv_name":"Uncletopia | Dallas | 3 | All Maps | STV","players":null},{"server_id":405,"name":"Uncletopia | Dallas | 4 | Community","name_short":"dal-4","host":"dal-1.us.uncletopia.com","port":27045,"enabled":true,"region":"us-central","cc":"us","latitude":32.779167,"longitude":-96.80889,"reserved":0,"last_update":"0001-01-01T00:00:00Z","name_a2s":"Uncletopia | Dallas | 4 | Community","protocol":17,"map":"pl_badwater","folder":"tf","game":"Team Fortress","app_id":440,"player_count":0,"max_players":24,"Bots":0,"server_type":"Dedicated","server_os":"Linux","password":true,"vac":true,"version":"7961495","steam_id":85568392924515220,"keywords":["nocrits","nodmgspread","payload","uncletopia"],"game_id":440,"stv_port":27046,"stv_name":"Uncletopia | Dallas | 4 | Community | STV","players":null},{"server_id":5,"name":"Uncletopia | Frankfurt | 1 | All Maps","name_short":"frk-1","host":"frk-1.de.uncletopia.com","port":27015,"enabled":true,"region":"eu","cc":"de","latitude":50.110924,"longitude":8.682127,"reserved":0,"last_update":"0001-01-01T00:00:00Z","name_a2s":"Uncletopia | Frankfurt | 1 | All Maps","protocol":17,"map":"pl_badwater","folder":"tf","game":"Team Fortress","app_id":440,"player_count":24,"max_players":24,"Bots":0,"server_type":"Dedicated","server_os":"Linux","password":true,"vac":true,"version":"7961495","steam_id":85568392924469989,"keywords":["nocrits","nodmgspread","payload","uncletopia"],"game_id":440,"stv_port":27016,"stv_name":"Uncletopia | Frankfurt | 1 | All Maps | STV","players":[{"user_id":400,"name":"spilskinanka","steam_id":76561198047390799,"connected_time":870000000000,"state":"active","ping":72},{"user_id":425,"name":"lexe","steam_id":76561198009811197,"connected_time":93000000000,"state":"active","ping":110},{"user_id":401,"name":"NOOB","steam_id":76561198236099496,"connected_time":587000000000,"state":"active","ping":100},{"user_id":409,"name":"tealoverr.190","steam_id":76561199028497703,"connected_time":344000000000,"state":"active","ping":116},{"user_id":404,"name":"heisenberg","steam_id":76561198988867951,"connected_time":493000000000,"state":"active","ping":73},{"user_id":406,"name":"duplicated","steam_id":76561198344952248,"connected_time":399000000000,"state":"active","ping":83},{"user_id":386,"name":"Stinker_05","steam_id":76561198058320327,"connected_time":1783000000000,"state":"active","ping":95},{"user_id":407,"name":"hopperthebox","steam_id":76561198053418437,"connected_time":395000000000,"state":"active","ping":82},{"user_id":355,"name":"Optimist 50","steam_id":76561198039631442,"connected_time":3728000000000,"state":"active","ping":78},{"user_id":408,"name":"Keho","steam_id":76561198087962709,"connected_time":370000000000,"state":"active","ping":84},{"user_id":410,"name":"kyaing goat","steam_id":76561198407184838,"connected_time":344000000000,"state":"active","ping":139},{"user_id":411,"name":"Lalo","steam_id":76561198096997069,"connected_time":331000000000,"state":"active","ping":75},{"user_id":413,"name":"Portal79","steam_id":76561198095499584,"connected_time":294000000000,"state":"active","ping":72},{"user_id":423,"name":"Old Beavis","steam_id":76561198065951617,"connected_time":161000000000,"state":"active","ping":64},{"user_id":422,"name":"valentin","steam_id":76561199066513442,"connected_time":181000000000,"state":"active","ping":87},{"user_id":363,"name":"LivEssense","steam_id":76561198052476979,"connected_time":2798000000000,"state":"active","ping":75},{"user_id":398,"name":"Mébh Óg MacTíre","steam_id":76561198346399624,"connected_time":1271000000000,"state":"active","ping":77},{"user_id":383,"name":"♂ Animan ♂ Studios ♂","steam_id":76561198308302932,"connected_time":1934000000000,"state":"active","ping":103},{"user_id":418,"name":"mewowaw","steam_id":76561198238207074,"connected_time":242000000000,"state":"active","ping":138},{"user_id":426,"name":"Nanope","steam_id":76561198040056071,"connected_time":44000000000,"state":"active","ping":67},{"user_id":346,"name":"Tails8521","steam_id":76561198051747164,"connected_time":4124000000000,"state":"active","ping":60},{"user_id":387,"name":"iiiiiii","steam_id":76561199082156030,"connected_time":1771000000000,"state":"active","ping":70},{"user_id":419,"name":"ifih","steam_id":76561199493567777,"connected_time":237000000000,"state":"active","ping":58},{"user_id":421,"name":"realvaly","steam_id":76561199360202624,"connected_time":229000000000,"state":"active","ping":69}]},{"server_id":110,"name":"Uncletopia | Frankfurt | 2 | All Maps","name_short":"frk-2","host":"frk-1.de.uncletopia.com","port":27025,"enabled":true,"region":"eu","cc":"de","latitude":50.110924,"longitude":8.682127,"reserved":0,"last_update":"0001-01-01T00:00:00Z","name_a2s":"Uncletopia | Frankfurt | 2 | All Maps","protocol":17,"map":"pl_upward","folder":"tf","game":"Team Fortress","app_id":440,"player_count":21,"max_players":24,"Bots":0,"server_type":"Dedicated","server_os":"Linux","password":true,"vac":true,"version":"7961495","steam_id":85568392924469990,"keywords":["nocrits","nodmgspread","payload","uncletopia"],"game_id":440,"stv_port":27026,"stv_name":"Uncletopia | Frankfurt | 2 | All Maps | STV","players":[{"user_id":180,"name":"Intimatt","steam_id":76561198066393546,"connected_time":2734000000000,"state":"active","ping":67},{"user_id":201,"name":"B19-PP","steam_id":76561198057733920,"connected_time":109000000000,"state":"active","ping":101},{"user_id":202,"name":"Jone","steam_id":76561198955248352,"connected_time":99000000000,"state":"active","ping":69},{"user_id":203,"name":"Scruga","steam_id":76561197993476998,"connected_time":92000000000,"state":"active","ping":56},{"user_id":183,"name":"Penis Contortionist","steam_id":76561198073663784,"connected_time":2543000000000,"state":"active","ping":53},{"user_id":155,"name":"przksk","steam_id":76561198450284221,"connected_time":3495000000000,"state":"active","ping":70},{"user_id":204,"name":"alien","steam_id":76561197968892194,"connected_time":85000000000,"state":"active","ping":48},{"user_id":195,"name":"boi","steam_id":76561198323494379,"connected_time":982000000000,"state":"active","ping":84},{"user_id":176,"name":"Krisu","steam_id":76561198158792510,"connected_time":2934000000000,"state":"active","ping":81},{"user_id":165,"name":"redder","steam_id":76561198168231617,"connected_time":3298000000000,"state":"active","ping":53},{"user_id":200,"name":"$teomy :3","steam_id":76561199129423422,"connected_time":428000000000,"state":"active","ping":99},{"user_id":198,"name":"Mr_Pulse_","steam_id":76561198095001602,"connected_time":646000000000,"state":"active","ping":90},{"user_id":188,"name":"Cotton Eye Joe","steam_id":76561198080594207,"connected_time":1680000000000,"state":"active","ping":67},{"user_id":184,"name":"Kollegvla","steam_id":76561198058268742,"connected_time":2523000000000,"state":"active","ping":56},{"user_id":149,"name":"Rengii76","steam_id":76561198869802076,"connected_time":3711000000000,"state":"active","ping":74},{"user_id":205,"name":"SoupER","steam_id":76561198063056668,"connected_time":50000000000,"state":"spawning","ping":199},{"user_id":187,"name":"hhhhhh","steam_id":76561198031982574,"connected_time":2144000000000,"state":"active","ping":60},{"user_id":186,"name":"Bill_nye","steam_id":76561199216249214,"connected_time":2506000000000,"state":"active","ping":134},{"user_id":158,"name":"BallinScout","steam_id":76561198152443697,"connected_time":3449000000000,"state":"active","ping":60},{"user_id":197,"name":"\u003cJACK\u003e","steam_id":76561198090405664,"connected_time":776000000000,"state":"active","ping":60},{"user_id":189,"name":"Towercat","steam_id":76561198013141793,"connected_time":1614000000000,"state":"active","ping":68}]},{"server_id":308,"name":"Uncletopia | Frankfurt | 3 | All Maps","name_short":"frk-3","host":"frk-1.de.uncletopia.com","port":27035,"enabled":true,"region":"eu","cc":"de","latitude":50.110924,"longitude":8.682127,"reserved":0,"last_update":"0001-01-01T00:00:00Z","name_a2s":"Uncletopia | Frankfurt | 3 | All Maps","protocol":17,"map":"pl_borneo","folder":"tf","game":"Team Fortress","app_id":440,"player_count":24,"max_players":24,"Bots":0,"server_type":"Dedicated","server_os":"Linux","password":true,"vac":true,"version":"7961495","steam_id":85568392924504274,"keywords":["nocrits","nodmgspread","payload","uncletopia"],"game_id":440,"stv_port":27036,"stv_name":"Uncletopia | Frankfurt | 3 | All Maps | STV","players":[{"user_id":34,"name":"hyvakii705","steam_id":76561198086630552,"connected_time":20885000000000,"state":"active","ping":104},{"user_id":354,"name":"Cosmetic brain","steam_id":76561198055936410,"connected_time":885000000000,"state":"active","ping":88},{"user_id":323,"name":"Lyncurion","steam_id":76561199260022725,"connected_time":2368000000000,"state":"active","ping":70},{"user_id":343,"name":"[SQ UA] MartianDill","steam_id":76561198405382822,"connected_time":1625000000000,"state":"active","ping":62},{"user_id":345,"name":"armadillo","steam_id":76561198324656652,"connected_time":1483000000000,"state":"active","ping":62},{"user_id":313,"name":"Пихсили","steam_id":76561198870763698,"connected_time":3402000000000,"state":"active","ping":103},{"user_id":353,"name":"Jon (ebic gamer)","steam_id":76561199380849468,"connected_time":1137000000000,"state":"active","ping":60},{"user_id":337,"name":"neJ","steam_id":76561198003397488,"connected_time":2030000000000,"state":"active","ping":69},{"user_id":358,"name":"Plin Plin Plon","steam_id":76561198148359093,"connected_time":692000000000,"state":"active","ping":45},{"user_id":362,"name":"Miss Bari (epik gamer)","steam_id":76561198365286092,"connected_time":204000000000,"state":"active","ping":50},{"user_id":360,"name":"smrk","steam_id":76561198066926098,"connected_time":500000000000,"state":"active","ping":47},{"user_id":364,"name":"Riordan","steam_id":76561198001346236,"connected_time":158000000000,"state":"active","ping":62},{"user_id":355,"name":"pizda.com","steam_id":76561198179392402,"connected_time":858000000000,"state":"active","ping":53},{"user_id":316,"name":"Redmond Nagisa","steam_id":76561198339056295,"connected_time":2958000000000,"state":"active","ping":70},{"user_id":356,"name":"fronin","steam_id":76561198189553021,"connected_time":853000000000,"state":"active","ping":60},{"user_id":365,"name":"Ziy???","steam_id":76561197995765491,"connected_time":152000000000,"state":"active","ping":74},{"user_id":366,"name":"MitzoAtlas","steam_id":76561198160890702,"connected_time":148000000000,"state":"active","ping":152},{"user_id":369,"name":"mark","steam_id":76561198309246388,"connected_time":13000000000,"state":"active","ping":45},{"user_id":348,"name":"Walk","steam_id":76561198883883110,"connected_time":1419000000000,"state":"active","ping":77},{"user_id":363,"name":"Leif GW","steam_id":76561197995131526,"connected_time":195000000000,"state":"active","ping":79},{"user_id":349,"name":"SuntanPikachu","steam_id":76561198121242476,"connected_time":1418000000000,"state":"active","ping":71},{"user_id":361,"name":"Fat Pigeon","steam_id":76561198817940142,"connected_time":233000000000,"state":"active","ping":50},{"user_id":352,"name":"Spurt","steam_id":76561198078523852,"connected_time":1180000000000,"state":"active","ping":51},{"user_id":307,"name":"Salamdar","steam_id":76561198061910407,"connected_time":3743000000000,"state":"active","ping":51}]},{"server_id":309,"name":"Uncletopia | Frankfurt | 4 | All Maps","name_short":"frk-4","host":"frk-1.de.uncletopia.com","port":27045,"enabled":true,"region":"eu","cc":"de","latitude":50.110924,"longitude":8.682127,"reserved":0,"last_update":"0001-01-01T00:00:00Z","name_a2s":"Uncletopia | Frankfurt | 4 | All Maps","protocol":17,"map":"pl_badwater","folder":"tf","game":"Team Fortress","app_id":440,"player_count":24,"max_players":24,"Bots":0,"server_type":"Dedicated","server_os":"Linux","password":true,"vac":true,"version":"7961495","steam_id":85568392924504275,"keywords":["nocrits","nodmgspread","payload","uncletopia"],"game_id":440,"stv_port":27046,"stv_name":"Uncletopia | Frankfurt | 4 | All Maps | STV","players":[{"user_id":268,"name":"fiddlesticks","steam_id":76561198155229347,"connected_time":277000000000,"state":"active","ping":55},{"user_id":235,"name":"leonardini.w","steam_id":76561199097963071,"connected_time":2474000000000,"state":"active","ping":85},{"user_id":189,"name":"Pico","steam_id":76561198063552545,"connected_time":5832000000000,"state":"active","ping":97},{"user_id":259,"name":"mesλ","steam_id":76561198324582918,"connected_time":974000000000,"state":"active","ping":101},{"user_id":210,"name":"Numb3r5421","steam_id":76561199183216118,"connected_time":4127000000000,"state":"active","ping":154},{"user_id":223,"name":"UNDORA","steam_id":76561198852456692,"connected_time":2777000000000,"state":"active","ping":85},{"user_id":205,"name":"choob303","steam_id":76561198206375860,"connected_time":4395000000000,"state":"active","ping":73},{"user_id":265,"name":"Mingo","steam_id":76561199191245650,"connected_time":662000000000,"state":"active","ping":77},{"user_id":260,"name":"Ecy","steam_id":76561198110756682,"connected_time":887000000000,"state":"active","ping":54},{"user_id":261,"name":"Hornet","steam_id":76561199184759575,"connected_time":837000000000,"state":"active","ping":190},{"user_id":212,"name":"TheEventGuy","steam_id":76561197972797744,"connected_time":3645000000000,"state":"active","ping":62},{"user_id":256,"name":"Vinexx","steam_id":76561198044024405,"connected_time":1386000000000,"state":"active","ping":63},{"user_id":163,"name":"guh","steam_id":76561198257158275,"connected_time":7135000000000,"state":"active","ping":137},{"user_id":269,"name":"Acanda","steam_id":76561198123246537,"connected_time":270000000000,"state":"active","ping":53},{"user_id":273,"name":"twpsyn","steam_id":76561198057121917,"connected_time":18000000000,"state":"active","ping":64},{"user_id":230,"name":"Master Of Noob","steam_id":76561198217926783,"connected_time":2602000000000,"state":"active","ping":71},{"user_id":194,"name":"Schmack","steam_id":76561198026535437,"connected_time":5771000000000,"state":"active","ping":59},{"user_id":207,"name":"holy moly","steam_id":76561198163081194,"connected_time":4377000000000,"state":"active","ping":60},{"user_id":272,"name":"panakid","steam_id":76561198364121077,"connected_time":86000000000,"state":"active","ping":90},{"user_id":232,"name":"-15 Social Credit","steam_id":76561199013107775,"connected_time":2537000000000,"state":"active","ping":74},{"user_id":233,"name":"Amdu","steam_id":76561198939711234,"connected_time":2524000000000,"state":"active","ping":104},{"user_id":244,"name":"electrical orangutan","steam_id":76561198031573426,"connected_time":1698000000000,"state":"active","ping":67},{"user_id":267,"name":"Antondi","steam_id":76561198123140065,"connected_time":424000000000,"state":"active","ping":56},{"user_id":266,"name":"Max Power","steam_id":76561198019269089,"connected_time":458000000000,"state":"active","ping":49}]},{"server_id":310,"name":"Uncletopia | Frankfurt | 5 | All Maps","name_short":"frk-5","host":"frk-1.de.uncletopia.com","port":27055,"enabled":true,"region":"eu","cc":"de","latitude":50.110924,"longitude":8.682127,"reserved":0,"last_update":"0001-01-01T00:00:00Z","name_a2s":"Uncletopia | Frankfurt | 5 | All Maps","protocol":17,"map":"pl_borneo","folder":"tf","game":"Team Fortress","app_id":440,"player_count":24,"max_players":24,"Bots":0,"server_type":"Dedicated","server_os":"Linux","password":true,"vac":true,"version":"7961495","steam_id":85568392924504277,"keywords":["nocrits","nodmgspread","payload","uncletopia"],"game_id":440,"stv_port":27056,"stv_name":"Uncletopia | Frankfurt | 5 | All Maps | STV","players":[{"user_id":80,"name":"Hitotsume","steam_id":76561198129157178,"connected_time":1168000000000,"state":"active","ping":89},{"user_id":9,"name":"walluu","steam_id":76561198121830870,"connected_time":6019000000000,"state":"active","ping":61},{"user_id":109,"name":"Thors","steam_id":76561197968739075,"connected_time":35000000000,"state":"active","ping":30},{"user_id":81,"name":"Hammer","steam_id":76561198149187199,"connected_time":1135000000000,"state":"active","ping":66},{"user_id":87,"name":"Miss American PIe","steam_id":76561198867108476,"connected_time":844000000000,"state":"active","ping":61},{"user_id":91,"name":"paguro","steam_id":76561198119560871,"connected_time":718000000000,"state":"active","ping":67},{"user_id":111,"name":"GamerPanda","steam_id":76561198061454277,"connected_time":7000000000,"state":"spawning","ping":61},{"user_id":57,"name":"András","steam_id":76561198272546996,"connected_time":3389000000000,"state":"active","ping":63},{"user_id":108,"name":"vurtun","steam_id":76561198857395274,"connected_time":64000000000,"state":"active","ping":49},{"user_id":66,"name":"cotroD","steam_id":76561198130063938,"connected_time":2424000000000,"state":"active","ping":113},{"user_id":24,"name":"4kku","steam_id":76561198315976800,"connected_time":5159000000000,"state":"active","ping":89},{"user_id":98,"name":"mallo15","steam_id":76561198022725506,"connected_time":464000000000,"state":"active","ping":59},{"user_id":102,"name":"Doriian","steam_id":76561198071438810,"connected_time":243000000000,"state":"active","ping":79},{"user_id":27,"name":"Çanak yalayıcı","steam_id":76561198113677852,"connected_time":5137000000000,"state":"active","ping":83},{"user_id":112,"name":"why rum gone","steam_id":76561198158484784,"connected_time":2000000000,"state":"spawning","ping":55},{"user_id":106,"name":"Frogger on Gameboy Color","steam_id":76561198031917404,"connected_time":202000000000,"state":"active","ping":45},{"user_id":99,"name":"miiko22","steam_id":76561198296394929,"connected_time":384000000000,"state":"active","ping":122},{"user_id":90,"name":"thorstianer","steam_id":76561199090304505,"connected_time":811000000000,"state":"active","ping":58},{"user_id":93,"name":"Crowned Invertebrate","steam_id":76561198892148015,"connected_time":686000000000,"state":"active","ping":81},{"user_id":96,"name":"Dead_Face","steam_id":76561198390809419,"connected_time":553000000000,"state":"active","ping":77},{"user_id":60,"name":"XPullaHiiri","steam_id":76561198031652375,"connected_time":2929000000000,"state":"active","ping":77},{"user_id":54,"name":"T_G_G","steam_id":76561199114568070,"connected_time":3891000000000,"state":"active","ping":96},{"user_id":103,"name":"Eric Catman","steam_id":76561198802117294,"connected_time":228000000000,"state":"active","ping":83},{"user_id":104,"name":"flr","steam_id":76561198249327786,"connected_time":215000000000,"state":"active","ping":75}]},{"server_id":311,"name":"Uncletopia | Frankfurt | 6 | All Maps","name_short":"frk-6","host":"frk-1.de.uncletopia.com","port":27065,"enabled":true,"region":"eu","cc":"de","latitude":50.110924,"longitude":8.682127,"reserved":0,"last_update":"0001-01-01T00:00:00Z","name_a2s":"Uncletopia | Frankfurt | 6 | All Maps","protocol":17,"map":"koth_cascade","folder":"tf","game":"Team Fortress","app_id":440,"player_count":2,"max_players":24,"Bots":0,"server_type":"Dedicated","server_os":"Linux","password":true,"vac":true,"version":"7961495","steam_id":85568392924504278,"keywords":["cp","nocrits","nodmgspread","uncletopia"],"game_id":440,"stv_port":27066,"stv_name":"Uncletopia | Frankfurt | 6 | All Maps | STV","players":[{"user_id":12,"name":"ran is running","steam_id":76561199443185667,"connected_time":460000000000,"state":"active","ping":140},{"user_id":13,"name":"piss man (real)","steam_id":76561198839843428,"connected_time":450000000000,"state":"active","ping":139}]},{"server_id":23,"name":"Uncletopia | Frankfurt | 7 | Stopwatch Beta","name_short":"frk-7","host":"frk-1.de.uncletopia.com","port":27075,"enabled":true,"region":"eu","cc":"de","latitude":50.110924,"longitude":8.682127,"reserved":0,"last_update":"0001-01-01T00:00:00Z","name_a2s":"Uncletopia | Frankfurt | 7 | Stopwatch Beta","protocol":17,"map":"pl_borneo","folder":"tf","game":"Team Fortress","app_id":440,"player_count":0,"max_players":24,"Bots":0,"server_type":"Dedicated","server_os":"Linux","password":true,"vac":true,"version":"7961495","steam_id":85568392924742827,"keywords":["nocrits","nodmgspread","payload","uncletopia"],"game_id":440,"stv_port":27076,"stv_name":"Uncletopia | Frankfurt | 7 | Stopwatch Beta | STV","players":null},{"server_id":24,"name":"Uncletopia | Frankfurt | 8 | Community","name_short":"frk-8","host":"frk-1.de.uncletopia.com","port":27085,"enabled":true,"region":"eu","cc":"de","latitude":50.110924,"longitude":8.682127,"reserved":0,"last_update":"0001-01-01T00:00:00Z","name_a2s":"Uncletopia | Frankfurt | 8 | Community","protocol":17,"map":"workshop/koth_product_final.ugc454272353","folder":"tf","game":"Team Fortress","app_id":440,"player_count":0,"max_players":24,"Bots":0,"server_type":"Dedicated","server_os":"Linux","password":true,"vac":true,"version":"7961495","steam_id":85568392924742828,"keywords":["cp","nocrits","nodmgspread","uncletopia"],"game_id":440,"stv_port":27086,"stv_name":"Uncletopia | Frankfurt | 8 | Community | STV","players":null},{"server_id":202,"name":"Uncletopia | Hong Kong | 1 | All Maps","name_short":"hgk-1","host":"hgk-1.hk.uncletopia.com","port":27015,"enabled":true,"region":"asia","cc":"hk","latitude":22.302711,"longitude":114.177216,"reserved":0,"last_update":"0001-01-01T00:00:00Z","name_a2s":"Uncletopia | Hong Kong | 1 | All Maps","protocol":17,"map":"pl_borneo","folder":"tf","game":"Team Fortress","app_id":440,"player_count":24,"max_players":24,"Bots":0,"server_type":"Dedicated","server_os":"Linux","password":true,"vac":true,"version":"7961495","steam_id":85568392924494504,"keywords":["nocrits","nodmgspread","payload","uncletopia"],"game_id":440,"stv_port":27016,"stv_name":"Uncletopia | Hong Kong | 1 | All Maps | STV","players":[{"user_id":439,"name":"lost child at disneyland","steam_id":76561198286261614,"connected_time":2240000000000,"state":"active","ping":114},{"user_id":440,"name":"Zizman","steam_id":76561198446562910,"connected_time":1856000000000,"state":"active","ping":146},{"user_id":371,"name":"TomCat","steam_id":76561198133744053,"connected_time":7171000000000,"state":"active","ping":116},{"user_id":451,"name":"NOPE","steam_id":76561199244543572,"connected_time":749000000000,"state":"active","ping":62},{"user_id":443,"name":"i am a F2P and my aim is shit","steam_id":76561199475974790,"connected_time":1379000000000,"state":"active","ping":84},{"user_id":456,"name":"ego lifting is good","steam_id":76561198287931508,"connected_time":28000000000,"state":"active","ping":60},{"user_id":394,"name":"mrfreeman","steam_id":76561199189735185,"connected_time":5907000000000,"state":"active","ping":72},{"user_id":452,"name":"senti","steam_id":76561199209380070,"connected_time":591000000000,"state":"active","ping":70},{"user_id":345,"name":"diss","steam_id":76561199085668965,"connected_time":9131000000000,"state":"active","ping":67},{"user_id":428,"name":"Stewb","steam_id":76561198131423270,"connected_time":3056000000000,"state":"active","ping":65},{"user_id":201,"name":"Milf (The fan O'Milk)","steam_id":76561198213031155,"connected_time":22280000000000,"state":"active","ping":100},{"user_id":212,"name":"p1st0n","steam_id":76561198992723983,"connected_time":20012000000000,"state":"active","ping":100},{"user_id":455,"name":"Lebron Nguyen","steam_id":76561199010058387,"connected_time":162000000000,"state":"active","ping":82},{"user_id":434,"name":"val | dragon arc","steam_id":76561198981897135,"connected_time":2451000000000,"state":"active","ping":74},{"user_id":405,"name":"Pillboi","steam_id":76561198011172886,"connected_time":4532000000000,"state":"active","ping":43},{"user_id":450,"name":"malkuth","steam_id":76561198230213828,"connected_time":875000000000,"state":"active","ping":65},{"user_id":445,"name":"Ƨunny","steam_id":76561198138924373,"connected_time":1253000000000,"state":"active","ping":41},{"user_id":337,"name":"nicky manage","steam_id":76561198055553140,"connected_time":9961000000000,"state":"active","ping":77},{"user_id":448,"name":"ponta","steam_id":76561198090819518,"connected_time":918000000000,"state":"active","ping":102},{"user_id":368,"name":"母の肉団子@hao123.com","steam_id":76561198069561896,"connected_time":7865000000000,"state":"active","ping":45},{"user_id":418,"name":"arona (devbuild v0.69.2)","steam_id":76561199487160658,"connected_time":4450000000000,"state":"active","ping":66},{"user_id":454,"name":"samgyeopsal","steam_id":76561198989168133,"connected_time":325000000000,"state":"active","ping":86},{"user_id":357,"name":"Asüra","steam_id":76561198320939701,"connected_time":8416000000000,"state":"active","ping":76},{"user_id":453,"name":"17","steam_id":76561198241530712,"connected_time":514000000000,"state":"active","ping":59}]},{"server_id":1,"name":"Uncletopia | Los Angeles | 1 | All Maps","name_short":"lax-1","host":"lax-1.us.uncletopia.com","port":27015,"enabled":true,"region":"us-west","cc":"us","latitude":33.94279,"longitude":-118.41004,"reserved":0,"last_update":"0001-01-01T00:00:00Z","name_a2s":"Uncletopia | Los Angeles | 1 | All Maps","protocol":17,"map":"cp_mountainlab","folder":"tf","game":"Team Fortress","app_id":440,"player_count":0,"max_players":24,"Bots":0,"server_type":"Dedicated","server_os":"Linux","password":true,"vac":true,"version":"7961495","steam_id":85568392924469991,"keywords":["cp","nocrits","nodmgspread","uncletopia"],"game_id":440,"stv_port":27016,"stv_name":"Uncletopia | Los Angeles | 1 | All Maps | STV","players":null},{"server_id":112,"name":"Uncletopia | Los Angeles | 2 | All Maps","name_short":"lax-2","host":"lax-1.us.uncletopia.com","port":27025,"enabled":true,"region":"us-west","cc":"us","latitude":33.94279,"longitude":-118.41004,"reserved":0,"last_update":"0001-01-01T00:00:00Z","name_a2s":"Uncletopia | Los Angeles | 2 | All Maps","protocol":17,"map":"pl_borneo","folder":"tf","game":"Team Fortress","app_id":440,"player_count":0,"max_players":24,"Bots":0,"server_type":"Dedicated","server_os":"Linux","password":true,"vac":true,"version":"7961495","steam_id":85568392924469992,"keywords":["nocrits","nodmgspread","payload","uncletopia"],"game_id":440,"stv_port":27026,"stv_name":"Uncletopia | Los Angeles | 2 | All Maps | STV","players":null},{"server_id":324,"name":"Uncletopia | Los Angeles | 3 | All Maps","name_short":"lax-3","host":"lax-1.us.uncletopia.com","port":27035,"enabled":true,"region":"us-west","cc":"us","latitude":33.94279,"longitude":-118.41004,"reserved":0,"last_update":"0001-01-01T00:00:00Z","name_a2s":"Uncletopia | Los Angeles | 3 | All Maps","protocol":17,"map":"koth_viaduct","folder":"tf","game":"Team Fortress","app_id":440,"player_count":20,"max_players":24,"Bots":0,"server_type":"Dedicated","server_os":"Linux","password":true,"vac":true,"version":"7961495","steam_id":85568392924510198,"keywords":["cp","nocrits","nodmgspread","uncletopia"],"game_id":440,"stv_port":27036,"stv_name":"Uncletopia | Los Angeles | 3 | All Maps | STV","players":[{"user_id":4,"name":"Toadwinter","steam_id":76561198329216601,"connected_time":2182000000000,"state":"active","ping":54},{"user_id":9,"name":"Xnopyt","steam_id":76561198052516404,"connected_time":1425000000000,"state":"active","ping":50},{"user_id":12,"name":"zinnk","steam_id":76561198092081825,"connected_time":1122000000000,"state":"active","ping":45},{"user_id":32,"name":"KingSteve42","steam_id":76561198409455888,"connected_time":111000000000,"state":"active","ping":101},{"user_id":17,"name":"The Woman Disrespecter","steam_id":76561198964373968,"connected_time":888000000000,"state":"active","ping":56},{"user_id":18,"name":"In Soviet America","steam_id":76561197998261826,"connected_time":716000000000,"state":"active","ping":101},{"user_id":33,"name":"2pac","steam_id":76561198010287518,"connected_time":90000000000,"state":"active","ping":55},{"user_id":15,"name":"Nico The Cheese","steam_id":76561199065272792,"connected_time":1079000000000,"state":"active","ping":91},{"user_id":34,"name":"Speedycat","steam_id":76561198024821259,"connected_time":38000000000,"state":"active","ping":43},{"user_id":19,"name":"Mom","steam_id":76561198207936000,"connected_time":712000000000,"state":"active","ping":35},{"user_id":20,"name":"Tired of this Meta","steam_id":76561198091034468,"connected_time":698000000000,"state":"active","ping":30},{"user_id":35,"name":"fried water","steam_id":76561198360311110,"connected_time":31000000000,"state":"spawning","ping":78},{"user_id":22,"name":"Soupcan","steam_id":76561198012807915,"connected_time":652000000000,"state":"active","ping":104},{"user_id":36,"name":"RocketofPanda(It/They)","steam_id":76561198133133187,"connected_time":29000000000,"state":"active","ping":61},{"user_id":24,"name":"Some Genius","steam_id":76561198101868089,"connected_time":630000000000,"state":"active","ping":56},{"user_id":27,"name":"Petrivus","steam_id":76561198202152453,"connected_time":584000000000,"state":"active","ping":70},{"user_id":37,"name":"SmearierGold7","steam_id":76561198065689410,"connected_time":4000000000,"state":"spawning","ping":165},{"user_id":28,"name":"Garfield (Real)","steam_id":76561199077027954,"connected_time":542000000000,"state":"active","ping":73},{"user_id":30,"name":"Aztea","steam_id":76561198982089893,"connected_time":473000000000,"state":"active","ping":92},{"user_id":31,"name":"UserGavin","steam_id":76561199122031388,"connected_time":447000000000,"state":"active","ping":142}]},{"server_id":25,"name":"Uncletopia | Los Angeles | 4 | Stopwatch Beta","name_short":"lax-4","host":"lax-1.us.uncletopia.com","port":27045,"enabled":true,"region":"us-west","cc":"us","latitude":33.94279,"longitude":-118.41004,"reserved":0,"last_update":"0001-01-01T00:00:00Z","name_a2s":"Uncletopia | Los Angeles | 4 | Stopwatch Beta","protocol":17,"map":"pl_upward","folder":"tf","game":"Team Fortress","app_id":440,"player_count":0,"max_players":24,"Bots":0,"server_type":"Dedicated","server_os":"Linux","password":true,"vac":true,"version":"7961495","steam_id":85568392924510199,"keywords":["nocrits","nodmgspread","payload","uncletopia"],"game_id":440,"stv_port":27046,"stv_name":"Uncletopia | Los Angeles | 4 | Stopwatch Beta | STV","players":null},{"server_id":11,"name":"Uncletopia | London | 1 | All Maps","name_short":"lon-1","host":"lon-1.uk.uncletopia.com","port":27015,"enabled":true,"region":"eu","cc":"gb","latitude":51.509865,"longitude":-0.118092,"reserved":0,"last_update":"0001-01-01T00:00:00Z","name_a2s":"Uncletopia | London | 1 | All Maps","protocol":17,"map":"cp_mossrock","folder":"tf","game":"Team Fortress","app_id":440,"player_count":24,"max_players":24,"Bots":0,"server_type":"Dedicated","server_os":"Linux","password":true,"vac":true,"version":"7961495","steam_id":85568392924367362,"keywords":["cp","nocrits","nodmgspread","uncletopia"],"game_id":440,"stv_port":27016,"stv_name":"Uncletopia | London | 1 | All Maps | STV","players":[{"user_id":271,"name":"Snake-chan","steam_id":76561199044755854,"connected_time":12823000000000,"state":"active","ping":74},{"user_id":421,"name":"breakfast bandit","steam_id":76561198013502376,"connected_time":1171000000000,"state":"active","ping":55},{"user_id":384,"name":"unconditional love","steam_id":76561199026097466,"connected_time":3420000000000,"state":"active","ping":73},{"user_id":432,"name":"An_Amber_Light","steam_id":76561198414716741,"connected_time":632000000000,"state":"active","ping":68},{"user_id":418,"name":"Bonkovich","steam_id":76561198256800084,"connected_time":1234000000000,"state":"active","ping":121},{"user_id":437,"name":"Jonathan","steam_id":76561198087988880,"connected_time":329000000000,"state":"active","ping":60},{"user_id":430,"name":"krayy (she/her)","steam_id":76561198035037830,"connected_time":710000000000,"state":"active","ping":47},{"user_id":426,"name":"Anton Stormbreaker","steam_id":76561198041426778,"connected_time":1042000000000,"state":"active","ping":70},{"user_id":433,"name":"hipster_doofus","steam_id":76561197970902697,"connected_time":596000000000,"state":"active","ping":59},{"user_id":386,"name":"KnugenIV","steam_id":76561198127091993,"connected_time":3286000000000,"state":"active","ping":62},{"user_id":434,"name":"Yakub","steam_id":76561198014279521,"connected_time":587000000000,"state":"active","ping":113},{"user_id":429,"name":"7Tales","steam_id":76561198121572869,"connected_time":806000000000,"state":"active","ping":50},{"user_id":423,"name":"Tekkro","steam_id":76561198063383080,"connected_time":1117000000000,"state":"active","ping":68},{"user_id":435,"name":"msh","steam_id":76561198367669395,"connected_time":561000000000,"state":"active","ping":45},{"user_id":436,"name":"Jake","steam_id":76561198842243984,"connected_time":552000000000,"state":"active","ping":61},{"user_id":305,"name":":3","steam_id":76561198169471853,"connected_time":10340000000000,"state":"active","ping":40},{"user_id":370,"name":"Mr.O #deletesniper","steam_id":76561198039567498,"connected_time":4824000000000,"state":"active","ping":58},{"user_id":425,"name":"Eighth Route","steam_id":76561198531978435,"connected_time":1067000000000,"state":"active","ping":54},{"user_id":415,"name":"hedon/","steam_id":76561198249832770,"connected_time":1439000000000,"state":"active","ping":49},{"user_id":358,"name":"jermany","steam_id":76561198126599355,"connected_time":5673000000000,"state":"active","ping":509},{"user_id":427,"name":"primordialheath","steam_id":76561199386942638,"connected_time":1028000000000,"state":"active","ping":141},{"user_id":428,"name":"Marl Karx","steam_id":76561198396797516,"connected_time":961000000000,"state":"active","ping":70},{"user_id":372,"name":"hammertime","steam_id":76561199097714393,"connected_time":4787000000000,"state":"active","ping":169},{"user_id":379,"name":"gr3821","steam_id":76561198091531010,"connected_time":3923000000000,"state":"active","ping":42}]},{"server_id":114,"name":"Uncletopia | London | 2 | All Maps","name_short":"lon-2","host":"lon-1.uk.uncletopia.com","port":27025,"enabled":true,"region":"eu","cc":"gb","latitude":51.509865,"longitude":-0.118092,"reserved":0,"last_update":"0001-01-01T00:00:00Z","name_a2s":"Uncletopia | London | 2 | All Maps","protocol":17,"map":"pl_upward","folder":"tf","game":"Team Fortress","app_id":440,"player_count":24,"max_players":24,"Bots":0,"server_type":"Dedicated","server_os":"Linux","password":true,"vac":true,"version":"7961495","steam_id":85568392924470941,"keywords":["nocrits","nodmgspread","payload","uncletopia"],"game_id":440,"stv_port":27026,"stv_name":"Uncletopia | London | 2 | All Maps | STV","players":[{"user_id":343,"name":"RiX","steam_id":76561197969053733,"connected_time":1755000000000,"state":"active","ping":65},{"user_id":346,"name":"quickfast","steam_id":76561199438900919,"connected_time":1479000000000,"state":"active","ping":45},{"user_id":342,"name":"Juhkuu","steam_id":76561198079326000,"connected_time":1969000000000,"state":"active","ping":93},{"user_id":360,"name":"non_ai","steam_id":76561198270951938,"connected_time":937000000000,"state":"active","ping":109},{"user_id":323,"name":"simeswipe","steam_id":76561198188471097,"connected_time":3016000000000,"state":"active","ping":83},{"user_id":356,"name":"jj","steam_id":76561198079200985,"connected_time":1149000000000,"state":"active","ping":55},{"user_id":349,"name":"RedFog","steam_id":76561198284713081,"connected_time":1323000000000,"state":"active","ping":47},{"user_id":364,"name":"boo_thefeared","steam_id":76561198127967685,"connected_time":171000000000,"state":"active","ping":49},{"user_id":316,"name":"Marabosha","steam_id":76561198137599173,"connected_time":3578000000000,"state":"active","ping":112},{"user_id":345,"name":"Vectillion","steam_id":76561198074292454,"connected_time":1530000000000,"state":"active","ping":66},{"user_id":241,"name":"AleXandriX","steam_id":76561198035203950,"connected_time":8153000000000,"state":"active","ping":64},{"user_id":357,"name":"Tohtori Kranix","steam_id":76561198278853900,"connected_time":1105000000000,"state":"active","ping":98},{"user_id":351,"name":"Pronton","steam_id":76561198082502910,"connected_time":1310000000000,"state":"active","ping":64},{"user_id":358,"name":"MANBOYBOYBOYMAN","steam_id":76561198097612561,"connected_time":1098000000000,"state":"active","ping":62},{"user_id":354,"name":"s a i","steam_id":76561197970379754,"connected_time":1246000000000,"state":"active","ping":63},{"user_id":355,"name":"Eme","steam_id":76561198171619442,"connected_time":1240000000000,"state":"active","ping":116},{"user_id":305,"name":"MaeMae","steam_id":76561198252524452,"connected_time":4786000000000,"state":"active","ping":47},{"user_id":299,"name":"Jalapeño","steam_id":76561198113373333,"connected_time":4876000000000,"state":"active","ping":83},{"user_id":321,"name":"Dispenser(Dispenser)","steam_id":76561199211831658,"connected_time":3134000000000,"state":"active","ping":64},{"user_id":361,"name":"Dark ^^","steam_id":76561198036241064,"connected_time":811000000000,"state":"active","ping":71},{"user_id":306,"name":"gagalak","steam_id":76561198089979108,"connected_time":4760000000000,"state":"active","ping":104},{"user_id":359,"name":"shr1mple","steam_id":76561198173537027,"connected_time":1052000000000,"state":"active","ping":55},{"user_id":335,"name":"Aspxts","steam_id":76561199125254746,"connected_time":2776000000000,"state":"active","ping":148},{"user_id":363,"name":"woodenpcwarlord","steam_id":76561198037938833,"connected_time":416000000000,"state":"active","ping":56}]},{"server_id":320,"name":"Uncletopia | London | 3 | All Maps","name_short":"lon-3","host":"lon-1.uk.uncletopia.com","port":27035,"enabled":true,"region":"eu","cc":"gb","latitude":51.509865,"longitude":-0.118092,"reserved":0,"last_update":"0001-01-01T00:00:00Z","name_a2s":"Uncletopia | London | 3 | All Maps","protocol":17,"map":"pl_barnblitz","folder":"tf","game":"Team Fortress","app_id":440,"player_count":21,"max_players":24,"Bots":0,"server_type":"Dedicated","server_os":"Linux","password":true,"vac":true,"version":"7961495","steam_id":85568392924510192,"keywords":["nocrits","nodmgspread","payload","uncletopia"],"game_id":440,"stv_port":27036,"stv_name":"Uncletopia | London | 3 | All Maps | STV","players":[{"user_id":174,"name":"Hrrr","steam_id":76561198106920678,"connected_time":415000000000,"state":"active","ping":45},{"user_id":175,"name":"Thobias18","steam_id":76561198232561380,"connected_time":348000000000,"state":"active","ping":90},{"user_id":152,"name":"nemelex","steam_id":76561198958005865,"connected_time":1170000000000,"state":"active","ping":54},{"user_id":153,"name":"Hexagon","steam_id":76561198151205758,"connected_time":1166000000000,"state":"active","ping":60},{"user_id":173,"name":"ppprc","steam_id":76561199100663886,"connected_time":474000000000,"state":"active","ping":89},{"user_id":39,"name":"mohemmedmokhter2005","steam_id":76561199197650506,"connected_time":8119000000000,"state":"active","ping":102},{"user_id":168,"name":"looking for a cute roamer gf","steam_id":76561198101292843,"connected_time":670000000000,"state":"active","ping":50},{"user_id":140,"name":"Sande","steam_id":76561198275239290,"connected_time":2195000000000,"state":"active","ping":78},{"user_id":146,"name":"System","steam_id":76561199442503973,"connected_time":1793000000000,"state":"active","ping":62},{"user_id":176,"name":"mr gaming","steam_id":76561198110103308,"connected_time":310000000000,"state":"active","ping":45},{"user_id":177,"name":"obscure","steam_id":76561198119532381,"connected_time":99000000000,"state":"active","ping":43},{"user_id":125,"name":"WomenBeardLike","steam_id":76561198390184314,"connected_time":3158000000000,"state":"active","ping":59},{"user_id":155,"name":"Popop","steam_id":76561198004793795,"connected_time":1037000000000,"state":"active","ping":45},{"user_id":156,"name":"jovi_","steam_id":76561198449280552,"connected_time":1029000000000,"state":"active","ping":50},{"user_id":157,"name":"Pinochet","steam_id":76561198194042394,"connected_time":988000000000,"state":"active","ping":157},{"user_id":109,"name":"fartcollector","steam_id":76561198048304703,"connected_time":3930000000000,"state":"active","ping":56},{"user_id":117,"name":"joachym","steam_id":76561198428579761,"connected_time":3372000000000,"state":"active","ping":68},{"user_id":171,"name":"MudFlap","steam_id":76561198257541676,"connected_time":552000000000,"state":"active","ping":106},{"user_id":149,"name":"Neo","steam_id":76561198029381039,"connected_time":1505000000000,"state":"active","ping":45},{"user_id":160,"name":"büdös cigány","steam_id":76561198988882521,"connected_time":954000000000,"state":"active","ping":118},{"user_id":163,"name":"cookiemonsterhun","steam_id":76561198354068976,"connected_time":901000000000,"state":"active","ping":74}]},{"server_id":321,"name":"Uncletopia | London | 4 | All Maps","name_short":"lon-4","host":"lon-1.uk.uncletopia.com","port":27045,"enabled":true,"region":"eu","cc":"gb","latitude":51.509865,"longitude":-0.118092,"reserved":0,"last_update":"0001-01-01T00:00:00Z","name_a2s":"Uncletopia | London | 4 | All Maps","protocol":17,"map":"cp_snakewater_final1","folder":"tf","game":"Team Fortress","app_id":440,"player_count":0,"max_players":24,"Bots":0,"server_type":"Dedicated","server_os":"Linux","password":true,"vac":true,"version":"7961495","steam_id":85568392924510193,"keywords":["cp","nocrits","nodmgspread","uncletopia"],"game_id":440,"stv_port":27046,"stv_name":"Uncletopia | London | 4 | All Maps | STV","players":null},{"server_id":21,"name":"Uncletopia | London | 5 | All Maps","name_short":"lon-5","host":"lon-1.uk.uncletopia.com","port":27055,"enabled":true,"region":"eu","cc":"gb","latitude":51.509865,"longitude":-0.118092,"reserved":0,"last_update":"0001-01-01T00:00:00Z","name_a2s":"Uncletopia | London | 5 | All Maps","protocol":17,"map":"cp_badlands","folder":"tf","game":"Team Fortress","app_id":440,"player_count":24,"max_players":24,"Bots":0,"server_type":"Dedicated","server_os":"Linux","password":true,"vac":true,"version":"7961495","steam_id":85568392924742829,"keywords":["cp","nocrits","nodmgspread","uncletopia"],"game_id":440,"stv_port":27056,"stv_name":"Uncletopia | London | 5 | All Maps | STV","players":[{"user_id":351,"name":"DoomerDodie","steam_id":76561198177853490,"connected_time":1590000000000,"state":"active","ping":64},{"user_id":373,"name":"Basil","steam_id":76561198046832312,"connected_time":634000000000,"state":"active","ping":71},{"user_id":342,"name":"JAZZ COMMANDO","steam_id":76561198031766068,"connected_time":1846000000000,"state":"active","ping":55},{"user_id":363,"name":"I_Forgot_My_Name","steam_id":76561198173424578,"connected_time":1165000000000,"state":"active","ping":75},{"user_id":339,"name":"Nobaddy","steam_id":76561198037871007,"connected_time":1951000000000,"state":"active","ping":84},{"user_id":375,"name":"Alfred","steam_id":76561198348799252,"connected_time":451000000000,"state":"active","ping":45},{"user_id":352,"name":"Genesis","steam_id":76561198999652040,"connected_time":1554000000000,"state":"active","ping":50},{"user_id":376,"name":"FrOGgY FrOg ԅ(⊙Д⊙)","steam_id":76561199008884088,"connected_time":387000000000,"state":"active","ping":129},{"user_id":366,"name":"Ascended Noob","steam_id":76561198079411460,"connected_time":1026000000000,"state":"active","ping":54},{"user_id":367,"name":"silicon based life form","steam_id":76561199127121346,"connected_time":906000000000,"state":"active","ping":51},{"user_id":365,"name":"Fr1Zer","steam_id":76561198357086270,"connected_time":1074000000000,"state":"active","ping":94},{"user_id":368,"name":"Mailer","steam_id":76561198062690074,"connected_time":890000000000,"state":"active","ping":59},{"user_id":379,"name":"Spooky","steam_id":76561199045446879,"connected_time":134000000000,"state":"active","ping":64},{"user_id":361,"name":"chickenoidi","steam_id":76561198449498382,"connected_time":1315000000000,"state":"active","ping":87},{"user_id":340,"name":"Tekky☻","steam_id":76561197990987315,"connected_time":1859000000000,"state":"active","ping":44},{"user_id":341,"name":"Bartツ","steam_id":76561198164718893,"connected_time":1848000000000,"state":"active","ping":41},{"user_id":349,"name":"orneps489","steam_id":76561199124755916,"connected_time":1671000000000,"state":"active","ping":127},{"user_id":377,"name":"Purple Soup :D","steam_id":76561198985100366,"connected_time":361000000000,"state":"active","ping":84},{"user_id":370,"name":"Jimmy","steam_id":76561198236833426,"connected_time":814000000000,"state":"active","ping":84},{"user_id":317,"name":"YunikkoN","steam_id":76561198211962412,"connected_time":3565000000000,"state":"active","ping":98},{"user_id":364,"name":"jona3838","steam_id":76561199097658195,"connected_time":1115000000000,"state":"active","ping":105},{"user_id":350,"name":"I I","steam_id":76561199101935057,"connected_time":1663000000000,"state":"active","ping":102},{"user_id":380,"name":"Frog.obj","steam_id":76561198303931377,"connected_time":86000000000,"state":"active","ping":75},{"user_id":372,"name":"Timmy","steam_id":76561198078559771,"connected_time":805000000000,"state":"active","ping":85}]},{"server_id":22,"name":"Uncletopia | London | 6 | All Maps","name_short":"lon-6","host":"lon-1.uk.uncletopia.com","port":27065,"enabled":true,"region":"eu","cc":"gb","latitude":51.509865,"longitude":-0.118092,"reserved":0,"last_update":"0001-01-01T00:00:00Z","name_a2s":"Uncletopia | London | 6 | All Maps","protocol":17,"map":"pl_upward","folder":"tf","game":"Team Fortress","app_id":440,"player_count":22,"max_players":24,"Bots":0,"server_type":"Dedicated","server_os":"Linux","password":true,"vac":true,"version":"7961495","steam_id":85568392924742830,"keywords":["nocrits","nodmgspread","payload","uncletopia"],"game_id":440,"stv_port":27066,"stv_name":"Uncletopia | London | 6 | All Maps | STV","players":[{"user_id":223,"name":"Liamish11","steam_id":76561198176235318,"connected_time":703000000000,"state":"active","ping":94},{"user_id":220,"name":"Boki","steam_id":76561198044553351,"connected_time":799000000000,"state":"active","ping":60},{"user_id":212,"name":"officer she was 17","steam_id":76561198281256009,"connected_time":1384000000000,"state":"active","ping":117},{"user_id":225,"name":"pyro gaming","steam_id":76561199063325086,"connected_time":41000000000,"state":"active","ping":68},{"user_id":211,"name":"Proud Jojo Fan #TF2SP","steam_id":76561198847327216,"connected_time":2105000000000,"state":"active","ping":67},{"user_id":219,"name":"Blayne","steam_id":76561198050663858,"connected_time":865000000000,"state":"active","ping":64},{"user_id":166,"name":"bailey","steam_id":76561198327418768,"connected_time":5626000000000,"state":"active","ping":44},{"user_id":204,"name":"Grillem Dafoe","steam_id":76561198306874574,"connected_time":2412000000000,"state":"active","ping":66},{"user_id":193,"name":"bad_egg","steam_id":76561198870666753,"connected_time":3111000000000,"state":"active","ping":84},{"user_id":190,"name":"cansado","steam_id":76561198003898089,"connected_time":3479000000000,"state":"active","ping":70},{"user_id":221,"name":"Luuk","steam_id":76561198088266026,"connected_time":789000000000,"state":"active","ping":41},{"user_id":130,"name":"Ch4bby","steam_id":76561198058792875,"connected_time":6960000000000,"state":"active","ping":54},{"user_id":213,"name":"mitical uknown","steam_id":76561198844852761,"connected_time":1260000000000,"state":"active","ping":74},{"user_id":194,"name":"Pirkage #transrights","steam_id":76561198323002691,"connected_time":3068000000000,"state":"active","ping":69},{"user_id":222,"name":"mq","steam_id":76561198091888948,"connected_time":776000000000,"state":"active","ping":45},{"user_id":205,"name":"s .-word word sword","steam_id":76561198060849026,"connected_time":2391000000000,"state":"active","ping":54},{"user_id":195,"name":"Ixsus\u003c3","steam_id":76561198094756869,"connected_time":3062000000000,"state":"active","ping":60},{"user_id":206,"name":"yuri is my part time job","steam_id":76561198274631806,"connected_time":2361000000000,"state":"active","ping":46},{"user_id":208,"name":"Captkirk_dcs the kids","steam_id":76561197995237976,"connected_time":2303000000000,"state":"active","ping":41},{"user_id":224,"name":"harper","steam_id":76561198188642265,"connected_time":685000000000,"state":"active","ping":53},{"user_id":207,"name":"maymaymaster","steam_id":76561198180896059,"connected_time":2336000000000,"state":"active","ping":49},{"user_id":209,"name":"stedhead","steam_id":76561198049176681,"connected_time":2208000000000,"state":"active","ping":71}]},{"server_id":40,"name":"Uncletopia | London | 7 | No Payload","name_short":"lon-7","host":"lon-1.uk.uncletopia.com","port":27075,"enabled":true,"region":"eu","cc":"gb","latitude":51.509865,"longitude":-0.118092,"reserved":0,"last_update":"0001-01-01T00:00:00Z","name_a2s":"Uncletopia | London | 7 | No Payload","protocol":17,"map":"plr_hightower","folder":"tf","game":"Team Fortress","app_id":440,"player_count":9,"max_players":24,"Bots":0,"server_type":"Dedicated","server_os":"Linux","password":true,"vac":true,"version":"7961495","steam_id":85568392924964314,"keywords":["nocrits","nodmgspread","payload","uncletopia"],"game_id":440,"stv_port":27076,"stv_name":"Uncletopia | London | 7 | No Payload | STV","players":[{"user_id":9,"name":"wils","steam_id":76561198047522626,"connected_time":2246000000000,"state":"active","ping":61},{"user_id":20,"name":"mista white","steam_id":76561199387233667,"connected_time":171000000000,"state":"active","ping":64},{"user_id":11,"name":"Lukey","steam_id":76561198052076168,"connected_time":2139000000000,"state":"active","ping":68},{"user_id":12,"name":"Traylie","steam_id":76561198050797796,"connected_time":2103000000000,"state":"active","ping":67},{"user_id":14,"name":"superd0074","steam_id":76561199440927207,"connected_time":1749000000000,"state":"active","ping":66},{"user_id":19,"name":"Petight","steam_id":76561197999438798,"connected_time":289000000000,"state":"active","ping":31},{"user_id":17,"name":"Nerdicus","steam_id":76561199245111258,"connected_time":543000000000,"state":"active","ping":235},{"user_id":21,"name":"๖ۣۜBarry_Fish3R","steam_id":76561198127543553,"connected_time":161000000000,"state":"active","ping":108},{"user_id":22,"name":"zethprototype1","steam_id":76561198080484239,"connected_time":24000000000,"state":"active","ping":61}]},{"server_id":41,"name":"Uncletopia | London | 8 | Community","name_short":"lon-8","host":"lon-1.uk.uncletopia.com","port":27085,"enabled":true,"region":"eu","cc":"gb","latitude":51.509865,"longitude":-0.118092,"reserved":0,"last_update":"0001-01-01T00:00:00Z","name_a2s":"Uncletopia | London | 8 | Community","protocol":17,"map":"workshop/cp_glacier_rc6.ugc2905735376","folder":"tf","game":"Team Fortress","app_id":440,"player_count":0,"max_players":24,"Bots":0,"server_type":"Dedicated","server_os":"Linux","password":true,"vac":true,"version":"7961495","steam_id":85568392924964315,"keywords":["cp","nocrits","nodmgspread","uncletopia"],"game_id":440,"stv_port":27086,"stv_name":"Uncletopia | London | 8 | Community | STV","players":null},{"server_id":300,"name":"Uncletopia | Montréal | 1 | All Maps","name_short":"mtl-1","host":"mtl-1.ca.uncletopia.com","port":27015,"enabled":true,"region":"us-east","cc":"ca","latitude":45.50889,"longitude":-73.56167,"reserved":0,"last_update":"0001-01-01T00:00:00Z","name_a2s":"","protocol":0,"map":"","folder":"","game":"","app_id":0,"player_count":24,"max_players":0,"Bots":0,"server_type":"","server_os":"","password":false,"vac":false,"version":"","steam_id":0,"keywords":null,"game_id":0,"stv_port":0,"stv_name":"","players":[{"user_id":3,"name":"Evillou","steam_id":76561198010395648,"connected_time":19197000000000,"state":"active","ping":54},{"user_id":171,"name":"SnootDroops","steam_id":76561199003750689,"connected_time":162000000000,"state":"active","ping":84},{"user_id":110,"name":"joebot","steam_id":76561197975606100,"connected_time":3627000000000,"state":"active","ping":61},{"user_id":100,"name":"AMBVURT","steam_id":76561198910561700,"connected_time":4859000000000,"state":"active","ping":84},{"user_id":125,"name":"The Sydney Sleeper Itself","steam_id":76561198180251763,"connected_time":2285000000000,"state":"active","ping":88},{"user_id":149,"name":"Nephi","steam_id":76561198031525122,"connected_time":1217000000000,"state":"active","ping":66},{"user_id":173,"name":"Yodakage Kira","steam_id":76561198440570859,"connected_time":45000000000,"state":"active","ping":111},{"user_id":164,"name":"crabapples","steam_id":76561198075818655,"connected_time":442000000000,"state":"active","ping":73},{"user_id":145,"name":"totally not a pile of beans","steam_id":76561198119851931,"connected_time":1453000000000,"state":"active","ping":76},{"user_id":150,"name":"Fuzzy","steam_id":76561199100612353,"connected_time":1132000000000,"state":"active","ping":74},{"user_id":158,"name":"Yummy Kabobz","steam_id":76561198067661705,"connected_time":637000000000,"state":"active","ping":57},{"user_id":170,"name":"LittleFieryOne","steam_id":76561198107463724,"connected_time":207000000000,"state":"active","ping":74},{"user_id":151,"name":"Buppy","steam_id":76561199182586547,"connected_time":1130000000000,"state":"active","ping":80},{"user_id":160,"name":"Lil Bo L33T","steam_id":76561198041843704,"connected_time":617000000000,"state":"active","ping":75},{"user_id":172,"name":"Spooky","steam_id":76561198317988296,"connected_time":135000000000,"state":"active","ping":38},{"user_id":154,"name":"Deep Curly","steam_id":76561197981290558,"connected_time":842000000000,"state":"active","ping":46},{"user_id":153,"name":"very powerful spoon","steam_id":76561199039152146,"connected_time":953000000000,"state":"active","ping":48},{"user_id":136,"name":"Crouching Noob Hidden Sniper","steam_id":76561197971328473,"connected_time":2034000000000,"state":"active","ping":71},{"user_id":155,"name":"Manta","steam_id":76561199387348152,"connected_time":758000000000,"state":"active","ping":118},{"user_id":138,"name":"TheVikingTheRed","steam_id":76561199221731253,"connected_time":1971000000000,"state":"active","ping":132},{"user_id":152,"name":"schlingo","steam_id":76561199087243980,"connected_time":1117000000000,"state":"active","ping":113},{"user_id":161,"name":"Apetometrist","steam_id":76561198045391635,"connected_time":614000000000,"state":"active","ping":69},{"user_id":140,"name":":3","steam_id":76561198166606953,"connected_time":1923000000000,"state":"active","ping":55},{"user_id":165,"name":"Sergeant Snowflake","steam_id":76561198041474489,"connected_time":441000000000,"state":"active","ping":71}]},{"server_id":301,"name":"Uncletopia | Montréal | 2 | All Maps","name_short":"mtl-2","host":"mtl-1.ca.uncletopia.com","port":27025,"enabled":true,"region":"us-east","cc":"ca","latitude":45.50889,"longitude":-73.56167,"reserved":0,"last_update":"0001-01-01T00:00:00Z","name_a2s":"","protocol":0,"map":"","folder":"","game":"","app_id":0,"player_count":0,"max_players":0,"Bots":0,"server_type":"","server_os":"","password":false,"vac":false,"version":"","steam_id":0,"keywords":null,"game_id":0,"stv_port":0,"stv_name":"","players":null},{"server_id":302,"name":"Uncletopia | Montréal | 3 | All Maps","name_short":"mtl-3","host":"mtl-1.ca.uncletopia.com","port":27035,"enabled":true,"region":"us-east","cc":"ca","latitude":45.50889,"longitude":-73.56167,"reserved":0,"last_update":"0001-01-01T00:00:00Z","name_a2s":"","protocol":0,"map":"","folder":"","game":"","app_id":0,"player_count":0,"max_players":0,"Bots":0,"server_type":"","server_os":"","password":false,"vac":false,"version":"","steam_id":0,"keywords":null,"game_id":0,"stv_port":0,"stv_name":"","players":null},{"server_id":303,"name":"Uncletopia | Montréal | 4 | No Payload","name_short":"mtl-4","host":"mtl-1.ca.uncletopia.com","port":27045,"enabled":true,"region":"us-east","cc":"ca","latitude":45.50889,"longitude":-73.56167,"reserved":0,"last_update":"0001-01-01T00:00:00Z","name_a2s":"","protocol":0,"map":"","folder":"","game":"","app_id":0,"player_count":0,"max_players":0,"Bots":0,"server_type":"","server_os":"","password":false,"vac":false,"version":"","steam_id":0,"keywords":null,"game_id":0,"stv_port":0,"stv_name":"","players":null},{"server_id":13,"name":"Uncletopia | New York City | 1 | All Maps","name_short":"nyc-1","host":"nyc-1.us.uncletopia.com","port":27015,"enabled":true,"region":"us-east","cc":"us","latitude":40.73061,"longitude":-73.93524,"reserved":0,"last_update":"0001-01-01T00:00:00Z","name_a2s":"Uncletopia | New York City | 1 | All Maps","protocol":17,"map":"pl_barnblitz","folder":"tf","game":"Team Fortress","app_id":440,"player_count":24,"max_players":24,"Bots":0,"server_type":"Dedicated","server_os":"Linux","password":true,"vac":true,"version":"7961495","steam_id":85568392924469993,"keywords":["nocrits","nodmgspread","payload","uncletopia"],"game_id":440,"stv_port":27016,"stv_name":"Uncletopia | New York City | 1 | All Maps | STV","players":[{"user_id":110,"name":"Al Cabone","steam_id":76561198956823243,"connected_time":73000000000,"state":"active","ping":46},{"user_id":111,"name":"dr peppah chug!","steam_id":76561198068835693,"connected_time":54000000000,"state":"active","ping":75},{"user_id":103,"name":"tacofever","steam_id":76561198010966507,"connected_time":1131000000000,"state":"active","ping":103},{"user_id":106,"name":"Provocator","steam_id":76561197961830410,"connected_time":918000000000,"state":"active","ping":97},{"user_id":60,"name":"feenman","steam_id":76561199383834799,"connected_time":5305000000000,"state":"active","ping":117},{"user_id":37,"name":"BRO_TEIN_SHAKE","steam_id":76561198035547173,"connected_time":6019000000000,"state":"active","ping":87},{"user_id":102,"name":"Obama","steam_id":76561198194065283,"connected_time":1154000000000,"state":"active","ping":108},{"user_id":101,"name":"ahegao dude","steam_id":76561199220611274,"connected_time":1344000000000,"state":"active","ping":55},{"user_id":112,"name":"hamberlin","steam_id":76561198055419255,"connected_time":43000000000,"state":"active","ping":62},{"user_id":108,"name":"WhazhisfacePC","steam_id":76561198321796408,"connected_time":525000000000,"state":"active","ping":49},{"user_id":113,"name":"cess183","steam_id":76561198953972459,"connected_time":11000000000,"state":"spawning","ping":72},{"user_id":104,"name":"Sneetch [sRb]","steam_id":76561197996693506,"connected_time":1115000000000,"state":"active","ping":90},{"user_id":88,"name":"Estrogen Bundle","steam_id":76561198086733903,"connected_time":3127000000000,"state":"active","ping":54},{"user_id":105,"name":"Ata","steam_id":76561198349085545,"connected_time":1082000000000,"state":"active","ping":74},{"user_id":97,"name":"Urbanzpinapple","steam_id":76561198115426938,"connected_time":1991000000000,"state":"active","ping":82},{"user_id":100,"name":"Tots","steam_id":76561198027485007,"connected_time":1361000000000,"state":"active","ping":60},{"user_id":82,"name":"rattlin' bog","steam_id":76561198224551028,"connected_time":3650000000000,"state":"active","ping":54},{"user_id":109,"name":"Doey","steam_id":76561198356353805,"connected_time":327000000000,"state":"active","ping":68},{"user_id":114,"name":"ma0re","steam_id":76561199231971506,"connected_time":2000000000,"state":"spawning","ping":59},{"user_id":94,"name":"top 10 worst games #1 tf2","steam_id":76561199445629071,"connected_time":2709000000000,"state":"active","ping":41},{"user_id":77,"name":"Doubie","steam_id":76561198104492019,"connected_time":4711000000000,"state":"active","ping":64},{"user_id":107,"name":"cowboy","steam_id":76561199079124758,"connected_time":820000000000,"state":"active","ping":76},{"user_id":84,"name":"Sockhead","steam_id":76561198253181773,"connected_time":3216000000000,"state":"active","ping":76},{"user_id":96,"name":"Eraserhead Baby","steam_id":76561198010968514,"connected_time":2290000000000,"state":"active","ping":104}]},{"server_id":14,"name":"Uncletopia | New York City | 2 | All Maps","name_short":"nyc-2","host":"nyc-1.us.uncletopia.com","port":27025,"enabled":true,"region":"us-east","cc":"us","latitude":40.73061,"longitude":-73.93524,"reserved":0,"last_update":"0001-01-01T00:00:00Z","name_a2s":"Uncletopia | New York City | 2 | All Maps","protocol":17,"map":"cp_sunshine","folder":"tf","game":"Team Fortress","app_id":440,"player_count":19,"max_players":24,"Bots":0,"server_type":"Dedicated","server_os":"Linux","password":true,"vac":true,"version":"7961495","steam_id":85568392924469994,"keywords":["cp","nocrits","nodmgspread","uncletopia"],"game_id":440,"stv_port":27026,"stv_name":"Uncletopia | New York City | 2 | All Maps | STV","players":[{"user_id":134,"name":"e","steam_id":76561198137759797,"connected_time":41000000000,"state":"active","ping":106},{"user_id":130,"name":"Ballistic","steam_id":76561197992355477,"connected_time":620000000000,"state":"active","ping":66},{"user_id":135,"name":"3hunna56k.n3t","steam_id":76561198404564240,"connected_time":34000000000,"state":"active","ping":43},{"user_id":94,"name":"1000 Gigglebytes of clown girls","steam_id":76561198290719848,"connected_time":2987000000000,"state":"active","ping":90},{"user_id":137,"name":"RuinLucky","steam_id":76561199481172481,"connected_time":9000000000,"state":"active","ping":393},{"user_id":136,"name":"JoeFalco","steam_id":76561198064005012,"connected_time":30000000000,"state":"active","ping":89},{"user_id":126,"name":"glass eater","steam_id":76561199229710761,"connected_time":839000000000,"state":"active","ping":53},{"user_id":129,"name":"FliturbiousRex","steam_id":76561199217583334,"connected_time":642000000000,"state":"active","ping":63},{"user_id":121,"name":"1-800-GHOST-DANCE","steam_id":76561198835430429,"connected_time":1240000000000,"state":"active","ping":60},{"user_id":114,"name":"Okpar","steam_id":76561199221067945,"connected_time":1824000000000,"state":"active","ping":86},{"user_id":133,"name":"marshmellowguy","steam_id":76561199008710694,"connected_time":61000000000,"state":"active","ping":105},{"user_id":82,"name":"the gay bud light can","steam_id":76561199491889281,"connected_time":3749000000000,"state":"active","ping":74},{"user_id":131,"name":"cavelife","steam_id":76561198091369097,"connected_time":248000000000,"state":"active","ping":52},{"user_id":59,"name":"Fredfredfood","steam_id":76561198072824802,"connected_time":6133000000000,"state":"active","ping":70},{"user_id":110,"name":"BU   O","steam_id":76561198871738546,"connected_time":2314000000000,"state":"active","ping":64},{"user_id":123,"name":"hitchuwithdawork","steam_id":76561198074687094,"connected_time":1086000000000,"state":"active","ping":58},{"user_id":132,"name":"DELTRON ZERO","steam_id":76561198081123470,"connected_time":234000000000,"state":"active","ping":76},{"user_id":56,"name":"ＥｎｄｅｒＮｅｃｒｏ","steam_id":76561198044304293,"connected_time":6573000000000,"state":"active","ping":165},{"user_id":100,"name":"off the ZAZA","steam_id":76561198327322690,"connected_time":2883000000000,"state":"active","ping":44}]},{"server_id":15,"name":"Uncletopia | New York City | 3 | Stopwatch Beta","name_short":"nyc-3","host":"nyc-1.us.uncletopia.com","port":27035,"enabled":true,"region":"us-east","cc":"us","latitude":40.73061,"longitude":-73.93524,"reserved":0,"last_update":"0001-01-01T00:00:00Z","name_a2s":"Uncletopia | New York City | 3 | Stopwatch Beta","protocol":17,"map":"workshop/koth_product_final.ugc454272353","folder":"tf","game":"Team Fortress","app_id":440,"player_count":0,"max_players":24,"Bots":0,"server_type":"Dedicated","server_os":"Linux","password":true,"vac":true,"version":"7961495","steam_id":85568392924742820,"keywords":["cp","nocrits","nodmgspread","uncletopia"],"game_id":440,"stv_port":27036,"stv_name":"Uncletopia | New York City | 3 | Stopwatch Beta | STV","players":null},{"server_id":16,"name":"Uncletopia | New York City | 4 | Community","name_short":"nyc-4","host":"nyc-1.us.uncletopia.com","port":27045,"enabled":true,"region":"us-east","cc":"us","latitude":40.73061,"longitude":-73.93524,"reserved":0,"last_update":"0001-01-01T00:00:00Z","name_a2s":"Uncletopia | New York City | 4 | Community","protocol":17,"map":"koth_lakeside_final","folder":"tf","game":"Team Fortress","app_id":440,"player_count":0,"max_players":24,"Bots":0,"server_type":"Dedicated","server_os":"Linux","password":true,"vac":true,"version":"7961495","steam_id":85568392924742821,"keywords":["cp","nocrits","nodmgspread","uncletopia"],"game_id":440,"stv_port":27046,"stv_name":"Uncletopia | New York City | 4 | Community | STV","players":null},{"server_id":142,"name":"Uncletopia | São Paulo | 1 | All Maps","name_short":"sao-1","host":"sao-1.br.uncletopia.com","port":27015,"enabled":true,"region":"sa","cc":"br","latitude":-23.533773,"longitude":-46.62529,"reserved":0,"last_update":"0001-01-01T00:00:00Z","name_a2s":"Uncletopia | São Paulo | 1 | All Maps","protocol":17,"map":"koth_highpass","folder":"tf","game":"Team Fortress","app_id":440,"player_count":0,"max_players":24,"Bots":0,"server_type":"Dedicated","server_os":"Linux","password":true,"vac":true,"version":"7961495","steam_id":85568392924469996,"keywords":["cp","nocrits","nodmgspread","uncletopia"],"game_id":440,"stv_port":27016,"stv_name":"Uncletopia | São Paulo | 1 | All Maps | STV","players":null},{"server_id":143,"name":"Uncletopia | São Paulo | 2 | Community","name_short":"sao-2","host":"sao-2.br.uncletopia.com","port":27015,"enabled":true,"region":"sa","cc":"br","latitude":-23.533773,"longitude":-46.62529,"reserved":0,"last_update":"0001-01-01T00:00:00Z","name_a2s":"Uncletopia | São Paulo | 2 | Community","protocol":17,"map":"cp_snakewater_final1","folder":"tf","game":"Team Fortress","app_id":440,"player_count":0,"max_players":24,"Bots":0,"server_type":"Dedicated","server_os":"Linux","password":true,"vac":true,"version":"7961495","steam_id":85568392924485349,"keywords":["cp","nocrits","nodmgspread","uncletopia"],"game_id":440,"stv_port":27016,"stv_name":"Uncletopia | São Paulo | 2 | Community | STV","players":null},{"server_id":7,"name":"Uncletopia | Seattle | 1 | All Maps","name_short":"sea-1","host":"sea-1.us.uncletopia.com","port":27015,"enabled":true,"region":"us-west","cc":"us","latitude":47.608013,"longitude":-122.33517,"reserved":0,"last_update":"0001-01-01T00:00:00Z","name_a2s":"Uncletopia | Seattle | 1 | All Maps","protocol":17,"map":"koth_lakeside_final","folder":"tf","game":"Team Fortress","app_id":440,"player_count":0,"max_players":24,"Bots":0,"server_type":"Dedicated","server_os":"Linux","password":true,"vac":true,"version":"7961495","steam_id":85568392924469997,"keywords":["cp","nocrits","nodmgspread","uncletopia"],"game_id":440,"stv_port":27016,"stv_name":"Uncletopia | Seattle | 1 | All Maps | STV","players":null},{"server_id":119,"name":"Uncletopia | Seattle | 2 | All Maps","name_short":"sea-2","host":"sea-1.us.uncletopia.com","port":27025,"enabled":true,"region":"us-west","cc":"us","latitude":47.608013,"longitude":-122.33517,"reserved":0,"last_update":"0001-01-01T00:00:00Z","name_a2s":"Uncletopia | Seattle | 2 | All Maps","protocol":17,"map":"cp_process_final","folder":"tf","game":"Team Fortress","app_id":440,"player_count":0,"max_players":24,"Bots":0,"server_type":"Dedicated","server_os":"Linux","password":true,"vac":true,"version":"7961495","steam_id":85568392924469998,"keywords":["cp","nocrits","nodmgspread","uncletopia"],"game_id":440,"stv_port":27026,"stv_name":"Uncletopia | Seattle | 2 | All Maps | STV","players":null},{"server_id":406,"name":"Uncletopia | Seattle | 3 | Stopwatch Beta","name_short":"sea-3","host":"sea-1.us.uncletopia.com","port":27035,"enabled":true,"region":"us-west","cc":"us","latitude":47.608013,"longitude":-122.33517,"reserved":0,"last_update":"0001-01-01T00:00:00Z","name_a2s":"Uncletopia | Seattle | 3 | Stopwatch Beta","protocol":17,"map":"koth_lakeside_final","folder":"tf","game":"Team Fortress","app_id":440,"player_count":0,"max_players":24,"Bots":0,"server_type":"Dedicated","server_os":"Linux","password":true,"vac":true,"version":"7961495","steam_id":85568392924515217,"keywords":["cp","nocrits","nodmgspread","uncletopia"],"game_id":440,"stv_port":27036,"stv_name":"Uncletopia | Seattle | 3 | Stopwatch Beta | STV","players":null},{"server_id":17,"name":"Uncletopia | San Francisco | 1 | All Maps","name_short":"sfo-1","host":"sfo-1.us.uncletopia.com","port":27015,"enabled":true,"region":"us-west","cc":"us","latitude":37.77397,"longitude":-122.4313,"reserved":0,"last_update":"0001-01-01T00:00:00Z","name_a2s":"Uncletopia | San Francisco | 1 | All Maps","protocol":17,"map":"cp_process_final","folder":"tf","game":"Team Fortress","app_id":440,"player_count":0,"max_players":24,"Bots":0,"server_type":"Dedicated","server_os":"Linux","password":true,"vac":true,"version":"7961495","steam_id":85568392924469999,"keywords":["cp","nocrits","nodmgspread","uncletopia"],"game_id":440,"stv_port":27016,"stv_name":"Uncletopia | San Francisco | 1 | All Maps | STV","players":null},{"server_id":18,"name":"Uncletopia | San Francisco | 2 | All Maps","name_short":"sfo-2","host":"sfo-1.us.uncletopia.com","port":27025,"enabled":true,"region":"us-west","cc":"us","latitude":37.77397,"longitude":-122.4313,"reserved":0,"last_update":"0001-01-01T00:00:00Z","name_a2s":"Uncletopia | San Francisco | 2 | All Maps","protocol":17,"map":"koth_viaduct","folder":"tf","game":"Team Fortress","app_id":440,"player_count":2,"max_players":24,"Bots":0,"server_type":"Dedicated","server_os":"Linux","password":true,"vac":true,"version":"7961495","steam_id":85568392924470000,"keywords":["cp","nocrits","nodmgspread","uncletopia"],"game_id":440,"stv_port":27026,"stv_name":"Uncletopia | San Francisco | 2 | All Maps | STV","players":[{"user_id":86,"name":"bobletoob","steam_id":76561199184464900,"connected_time":418000000000,"state":"active","ping":57},{"user_id":85,"name":"Omegacat69","steam_id":76561199224022636,"connected_time":684000000000,"state":"active","ping":110}]},{"server_id":19,"name":"Uncletopia | San Francisco | 3 | Stopwatch Beta","name_short":"sfo-3","host":"sfo-1.us.uncletopia.com","port":27035,"enabled":true,"region":"us-west","cc":"us","latitude":37.77397,"longitude":-122.4313,"reserved":0,"last_update":"0001-01-01T00:00:00Z","name_a2s":"Uncletopia | San Francisco | 3 | Stopwatch Beta","protocol":17,"map":"pl_borneo","folder":"tf","game":"Team Fortress","app_id":440,"player_count":0,"max_players":24,"Bots":0,"server_type":"Dedicated","server_os":"Linux","password":true,"vac":true,"version":"7961495","steam_id":85568392924742824,"keywords":["nocrits","nodmgspread","payload","uncletopia"],"game_id":440,"stv_port":27036,"stv_name":"Uncletopia | San Francisco | 3 | Stopwatch Beta | STV","players":null},{"server_id":20,"name":"Uncletopia | San Francisco | 4 | Community","name_short":"sfo-4","host":"sfo-1.us.uncletopia.com","port":27045,"enabled":true,"region":"us-west","cc":"us","latitude":37.77397,"longitude":-122.4313,"reserved":0,"last_update":"0001-01-01T00:00:00Z","name_a2s":"Uncletopia | San Francisco | 4 | Community","protocol":17,"map":"koth_viaduct","folder":"tf","game":"Team Fortress","app_id":440,"player_count":0,"max_players":24,"Bots":0,"server_type":"Dedicated","server_os":"Linux","password":true,"vac":true,"version":"7961495","steam_id":85568392924742826,"keywords":["cp","nocrits","nodmgspread","uncletopia"],"game_id":440,"stv_port":27046,"stv_name":"Uncletopia | San Francisco | 4 | Community | STV","players":null},{"server_id":141,"name":"Uncletopia | Sydney | 1 | All Maps","name_short":"syd-1","host":"syd-1.au.uncletopia.com","port":27015,"enabled":true,"region":"au","cc":"au","latitude":-33.865143,"longitude":151.2099,"reserved":0,"last_update":"0001-01-01T00:00:00Z","name_a2s":"Uncletopia | Sydney | 1 | All Maps","protocol":17,"map":"koth_highpass","folder":"tf","game":"Team Fortress","app_id":440,"player_count":0,"max_players":24,"Bots":0,"server_type":"Dedicated","server_os":"Linux","password":true,"vac":true,"version":"7961495","steam_id":85568392924470001,"keywords":["cp","nocrits","nodmgspread","uncletopia"],"game_id":440,"stv_port":27016,"stv_name":"Uncletopia | Sydney | 1 | All Maps | STV","players":null},{"server_id":123,"name":"Uncletopia | Sydney | 2 | All Maps","name_short":"syd-2","host":"syd-1.au.uncletopia.com","port":27025,"enabled":true,"region":"au","cc":"au","latitude":-33.865143,"longitude":151.2099,"reserved":0,"last_update":"0001-01-01T00:00:00Z","name_a2s":"Uncletopia | Sydney | 2 | All Maps","protocol":17,"map":"koth_viaduct","folder":"tf","game":"Team Fortress","app_id":440,"player_count":0,"max_players":24,"Bots":0,"server_type":"Dedicated","server_os":"Linux","password":true,"vac":true,"version":"7961495","steam_id":85568392924470002,"keywords":["cp","nocrits","nodmgspread","uncletopia"],"game_id":440,"stv_port":27026,"stv_name":"Uncletopia | Sydney | 2 | All Maps | STV","players":null},{"server_id":395,"name":"Uncletopia | Sydney | 3 | All Maps","name_short":"syd-3","host":"syd-1.au.uncletopia.com","port":27035,"enabled":true,"region":"au","cc":"au","latitude":-33.865143,"longitude":151.2099,"reserved":0,"last_update":"0001-01-01T00:00:00Z","name_a2s":"Uncletopia | Sydney | 3 | All Maps","protocol":17,"map":"cp_process_final","folder":"tf","game":"Team Fortress","app_id":440,"player_count":0,"max_players":24,"Bots":0,"server_type":"Dedicated","server_os":"Linux","password":true,"vac":true,"version":"7961495","steam_id":85568392925194467,"keywords":["cp","nocrits","nodmgspread","uncletopia"],"game_id":440,"stv_port":27036,"stv_name":"Uncletopia | Sydney | 3 | All Maps | STV","players":null},{"server_id":396,"name":"Uncletopia | Sydney | 4 | All Maps","name_short":"syd-4","host":"syd-1.au.uncletopia.com","port":27045,"enabled":true,"region":"au","cc":"au","latitude":-33.865143,"longitude":151.2099,"reserved":0,"last_update":"0001-01-01T00:00:00Z","name_a2s":"Uncletopia | Sydney | 4 | All Maps","protocol":17,"map":"pl_swiftwater_final1","folder":"tf","game":"Team Fortress","app_id":440,"player_count":0,"max_players":24,"Bots":0,"server_type":"Dedicated","server_os":"Linux","password":true,"vac":true,"version":"7961495","steam_id":85568392925397958,"keywords":["nocrits","nodmgspread","payload","uncletopia"],"game_id":440,"stv_port":27046,"stv_name":"Uncletopia | Sydney | 4 | All Maps | STV","players":null},{"server_id":58,"name":"Uncletopia | Sydney | 5 | Stopwatch Beta","name_short":"syd-5","host":"syd-1.au.uncletopia.com","port":27055,"enabled":true,"region":"au","cc":"au","latitude":-33.865143,"longitude":151.2099,"reserved":0,"last_update":"0001-01-01T00:00:00Z","name_a2s":"Uncletopia | Sydney | 5 | Stopwatch Beta","protocol":17,"map":"koth_viaduct","folder":"tf","game":"Team Fortress","app_id":440,"player_count":0,"max_players":24,"Bots":0,"server_type":"Dedicated","server_os":"Linux","password":true,"vac":true,"version":"7961495","steam_id":85568392925397959,"keywords":["cp","nocrits","nodmgspread","uncletopia"],"game_id":440,"stv_port":27056,"stv_name":"Uncletopia | Sydney | 5 | Stopwatch Beta | STV","players":null},{"server_id":59,"name":"Uncletopia | Sydney | 6 | Community","name_short":"syd-6","host":"syd-1.au.uncletopia.com","port":27065,"enabled":true,"region":"au","cc":"au","latitude":-33.865143,"longitude":151.2099,"reserved":0,"last_update":"0001-01-01T00:00:00Z","name_a2s":"Uncletopia | Sydney | 6 | Community","protocol":17,"map":"koth_cascade","folder":"tf","game":"Team Fortress","app_id":440,"player_count":0,"max_players":24,"Bots":0,"server_type":"Dedicated","server_os":"Linux","password":true,"vac":true,"version":"7961495","steam_id":85568392925397960,"keywords":["cp","nocrits","nodmgspread","uncletopia"],"game_id":440,"stv_port":27066,"stv_name":"Uncletopia | Sydney | 6 | Community | STV","players":null},{"server_id":49,"name":"Uncletopia | Warsaw | 1 | All Maps","name_short":"waw-1","host":"waw-1.pl.uncletopia.com","port":27015,"enabled":true,"region":"eu","cc":"pl","latitude":52.2297,"longitude":21.017532,"reserved":0,"last_update":"0001-01-01T00:00:00Z","name_a2s":"Uncletopia | Warsaw | 1 | All Maps","protocol":17,"map":"cp_dustbowl","folder":"tf","game":"Team Fortress","app_id":440,"player_count":0,"max_players":24,"Bots":0,"server_type":"Dedicated","server_os":"Linux","password":true,"vac":true,"version":"7961495","steam_id":85568392925397850,"keywords":["cp","nocrits","nodmgspread","uncletopia"],"game_id":440,"stv_port":27016,"stv_name":"Uncletopia | Warsaw | 1 | All Maps | STV","players":null},{"server_id":50,"name":"Uncletopia | Warsaw | 2 | All Maps","name_short":"waw-2","host":"waw-1.pl.uncletopia.com","port":27025,"enabled":true,"region":"eu","cc":"pl","latitude":52.2297,"longitude":21.017532,"reserved":0,"last_update":"0001-01-01T00:00:00Z","name_a2s":"Uncletopia | Warsaw | 2 | All Maps","protocol":17,"map":"cp_dustbowl","folder":"tf","game":"Team Fortress","app_id":440,"player_count":0,"max_players":24,"Bots":0,"server_type":"Dedicated","server_os":"Linux","password":true,"vac":true,"version":"7961495","steam_id":85568392925397851,"keywords":["cp","nocrits","nodmgspread","uncletopia"],"game_id":440,"stv_port":27026,"stv_name":"Uncletopia | Warsaw | 2 | All Maps | STV","players":null},{"server_id":51,"name":"Uncletopia | Warsaw | 3 | All Maps","name_short":"waw-3","host":"waw-1.pl.uncletopia.com","port":27035,"enabled":true,"region":"eu","cc":"pl","latitude":52.2297,"longitude":21.017532,"reserved":0,"last_update":"0001-01-01T00:00:00Z","name_a2s":"Uncletopia | Warsaw | 3 | All Maps","protocol":17,"map":"cp_dustbowl","folder":"tf","game":"Team Fortress","app_id":440,"player_count":0,"max_players":24,"Bots":0,"server_type":"Dedicated","server_os":"Linux","password":true,"vac":true,"version":"7961495","steam_id":85568392925397852,"keywords":["cp","nocrits","nodmgspread","uncletopia"],"game_id":440,"stv_port":27036,"stv_name":"Uncletopia | Warsaw | 3 | All Maps | STV","players":null},{"server_id":52,"name":"Uncletopia | Warsaw | 4 | All Maps","name_short":"waw-4","host":"waw-1.pl.uncletopia.com","port":27045,"enabled":true,"region":"eu","cc":"pl","latitude":52.2297,"longitude":21.017532,"reserved":0,"last_update":"0001-01-01T00:00:00Z","name_a2s":"Uncletopia | Warsaw | 4 | All Maps","protocol":17,"map":"koth_highpass","folder":"tf","game":"Team Fortress","app_id":440,"player_count":0,"max_players":24,"Bots":0,"server_type":"Dedicated","server_os":"Linux","password":true,"vac":true,"version":"7961495","steam_id":85568392925397853,"keywords":["cp","nocrits","nodmgspread","uncletopia"],"game_id":440,"stv_port":27046,"stv_name":"Uncletopia | Warsaw | 4 | All Maps | STV","players":null},{"server_id":53,"name":"Uncletopia | Warsaw | 5 | Stopwatch Beta","name_short":"waw-5","host":"waw-1.pl.uncletopia.com","port":27055,"enabled":true,"region":"eu","cc":"pl","latitude":52.2297,"longitude":21.017532,"reserved":0,"last_update":"0001-01-01T00:00:00Z","name_a2s":"Uncletopia | Warsaw | 5 | Stopwatch Beta","protocol":17,"map":"workshop/koth_bagel_rc6.ugc2514036946","folder":"tf","game":"Team Fortress","app_id":440,"player_count":0,"max_players":24,"Bots":0,"server_type":"Dedicated","server_os":"Linux","password":true,"vac":true,"version":"7961495","steam_id":85568392925397854,"keywords":["cp","nocrits","nodmgspread","uncletopia"],"game_id":440,"stv_port":27056,"stv_name":"Uncletopia | Warsaw | 5 | Stopwatch Beta | STV","players":null},{"server_id":54,"name":"Uncletopia | Warsaw | 6 | Community","name_short":"waw-6","host":"waw-1.pl.uncletopia.com","port":27065,"enabled":true,"region":"eu","cc":"pl","latitude":52.2297,"longitude":21.017532,"reserved":0,"last_update":"0001-01-01T00:00:00Z","name_a2s":"Uncletopia | Warsaw | 6 | Community","protocol":17,"map":"workshop/pl_boundary_final1.ugc456799153","folder":"tf","game":"Team Fortress","app_id":440,"player_count":0,"max_players":24,"Bots":0,"server_type":"Dedicated","server_os":"Linux","password":true,"vac":true,"version":"7961495","steam_id":85568392925397856,"keywords":["nocrits","nodmgspread","payload","uncletopia"],"game_id":440,"stv_port":27066,"stv_name":"Uncletopia | Warsaw | 6 | Community | STV","players":null}]}