{"status":true,"message":"","result":[{"server_id":9,"name":"Uncletopia | Atlanta | 1 | All Maps","name_short":"atl-1","host":"atl-1.us.uncletopia.com","port":27015,"enabled":true,"region":"us-east","cc":"us","latitude":33.753746,"longitude":-84.38633,"reserved":0,"last_update":"0001-01-01T00:00:00Z","name_a2s":"Uncletopia | Atlanta | 1 | All Maps","protocol":17,"map":"pl_badwater","folder":"tf","game":"Team Fortress","app_id":440,"player_count":23,"max_players":24,"Bots":0,"server_type":"Dedicated","server_os":"Linux","password":true,"vac":true,"version":"7882260","steam_id":85568392924469982,"keywords":["nocrits","nodmgspread","payload","uncletopia"],"game_id":440,"stv_port":27016,"stv_name":"Uncletopia | Atlanta | 1 | All Maps | STV","players":[{"user_id":200,"name":"Intro Bonito","steam_id":76561198119478838,"connected_time":687000000000,"state":"active","ping":44},{"user_id":196,"name":"David De Bergerac","steam_id":76561198010306294,"connected_time":934000000000,"state":"active","ping":84},{"user_id":188,"name":"panik","steam_id":76561199130448253,"connected_time":2446000000000,"state":"active","ping":75},{"user_id":203,"name":"SKINGRAPH","steam_id":76561198082933650,"connected_time":466000000000,"state":"active","ping":69},{"user_id":161,"name":"Jango","steam_id":76561198084589742,"connected_time":3992000000000,"state":"active","ping":57},{"user_id":183,"name":"Rockhead","steam_id":76561197995196535,"connected_time":2969000000000,"state":"active","ping":67},{"user_id":186,"name":"BIG HOG","steam_id":76561198079923652,"connected_time":2457000000000,"state":"active","ping":62},{"user_id":205,"name":"Galaxy_42","steam_id":76561198845514831,"connected_time":256000000000,"state":"active","ping":54},{"user_id":187,"name":"sky walker","steam_id":76561198937717599,"connected_time":2454000000000,"state":"active","ping":58},{"user_id":195,"name":"lil hog","steam_id":76561199230929836,"connected_time":1427000000000,"state":"active","ping":81},{"user_id":170,"name":"Br1 AV","steam_id":76561198802433117,"connected_time":3615000000000,"state":"active","ping":126},{"user_id":167,"name":"Roof Rat","steam_id":76561198136475073,"connected_time":3701000000000,"state":"active","ping":65},{"user_id":190,"name":"kingjeffry2012@hotmail.com","steam_id":76561198314104415,"connected_time":2428000000000,"state":"active","ping":58},{"user_id":198,"name":"Epifiny","steam_id":76561198027958086,"connected_time":791000000000,"state":"active","ping":90},{"user_id":197,"name":"bogginwater","steam_id":76561198155547142,"connected_time":821000000000,"state":"active","ping":67},{"user_id":199,"name":"bollweevil","steam_id":76561199030726701,"connected_time":729000000000,"state":"active","ping":95},{"user_id":201,"name":"the viber","steam_id":76561198392539722,"connected_time":555000000000,"state":"active","ping":79},{"user_id":204,"name":"blood bath","steam_id":76561199001918194,"connected_time":442000000000,"state":"active","ping":113},{"user_id":202,"name":"PEPSI POWERED MAN","steam_id":76561198362668431,"connected_time":540000000000,"state":"active","ping":97},{"user_id":194,"name":"Skinny Pete","steam_id":76561198801608576,"connected_time":2220000000000,"state":"active","ping":70},{"user_id":172,"name":"SleepyT","steam_id":76561198042272576,"connected_time":3526000000000,"state":"active","ping":59},{"user_id":179,"name":"DiGiorno's Pizza","steam_id":76561198142244035,"connected_time":3224000000000,"state":"active","ping":72},{"user_id":162,"name":"basil smoking weed","steam_id":76561198119590214,"connected_time":3992000000000,"state":"active","ping":58}]},{"server_id":104,"name":"Uncletopia | Atlanta | 2 | All Maps","name_short":"atl-2","host":"atl-1.us.uncletopia.com","port":27025,"enabled":true,"region":"us-east","cc":"us","latitude":33.753746,"longitude":-84.38633,"reserved":0,"last_update":"0001-01-01T00:00:00Z","name_a2s":"Uncletopia | Atlanta | 2 | All Maps","protocol":17,"map":"pl_upward","folder":"tf","game":"Team Fortress","app_id":440,"player_count":24,"max_players":24,"Bots":0,"server_type":"Dedicated","server_os":"Linux","password":true,"vac":true,"version":"7882260","steam_id":85568392924469983,"keywords":["nocrits","nodmgspread","payload","uncletopia"],"game_id":440,"stv_port":27026,"stv_name":"Uncletopia | Atlanta | 2 | All Maps | STV","players":[{"user_id":11,"name":"Sprinklze","steam_id":76561198163562681,"connected_time":5844000000000,"state":"active","ping":50},{"user_id":79,"name":"Idk","steam_id":76561198971629959,"connected_time":102000000000,"state":"active","ping":115},{"user_id":77,"name":"Phantum","steam_id":76561198301230084,"connected_time":250000000000,"state":"active","ping":93},{"user_id":38,"name":"Milf n' Cookies","steam_id":76561198104805359,"connected_time":2720000000000,"state":"active","ping":79},{"user_id":63,"name":"Muromasa","steam_id":76561198069883531,"connected_time":718000000000,"state":"active","ping":91},{"user_id":64,"name":"Soju","steam_id":76561198044130442,"connected_time":714000000000,"state":"active","ping":84},{"user_id":67,"name":"Trash","steam_id":76561198358471281,"connected_time":687000000000,"state":"active","ping":60},{"user_id":65,"name":"izzydex","steam_id":76561199101531034,"connected_time":714000000000,"state":"active","ping":78},{"user_id":26,"name":"Triple-Edged","steam_id":76561198308472155,"connected_time":3057000000000,"state":"active","ping":72},{"user_id":58,"name":"Half-Alpha","steam_id":76561199274000697,"connected_time":1561000000000,"state":"active","ping":75},{"user_id":29,"name":"Bad Rollout","steam_id":76561197971948876,"connected_time":2954000000000,"state":"active","ping":67},{"user_id":61,"name":"Maverick","steam_id":76561198322829814,"connected_time":833000000000,"state":"active","ping":77},{"user_id":68,"name":"Romando007","steam_id":76561198741242813,"connected_time":619000000000,"state":"active","ping":188},{"user_id":69,"name":"Dattallguy","steam_id":76561198873155093,"connected_time":606000000000,"state":"active","ping":55},{"user_id":70,"name":"goliath birdeater","steam_id":76561198089852954,"connected_time":580000000000,"state":"active","ping":63},{"user_id":80,"name":"the piss maker (F2P)","steam_id":76561199338113724,"connected_time":100000000000,"state":"active","ping":139},{"user_id":40,"name":"BARNACLE BOY","steam_id":76561199060575719,"connected_time":2666000000000,"state":"active","ping":83},{"user_id":59,"name":"X-7","steam_id":76561198127217378,"connected_time":1559000000000,"state":"active","ping":126},{"user_id":72,"name":"Whippin Forgies","steam_id":76561198071058300,"connected_time":552000000000,"state":"active","ping":77},{"user_id":81,"name":"Eosson","steam_id":76561198108642113,"connected_time":97000000000,"state":"active","ping":85},{"user_id":82,"name":"StrangeFace","steam_id":76561198821118643,"connected_time":70000000000,"state":"active","ping":139},{"user_id":49,"name":"PaD_Ding","steam_id":76561198831202965,"connected_time":2440000000000,"state":"active","ping":165},{"user_id":55,"name":"Herdez Hot Salsa","steam_id":76561197991740906,"connected_time":2295000000000,"state":"active","ping":90},{"user_id":76,"name":"trex z","steam_id":76561198305516805,"connected_time":365000000000,"state":"active","ping":126}]},{"server_id":400,"name":"Uncletopia | Atlanta | 3 | Community","name_short":"atl-3","host":"atl-1.us.uncletopia.com","port":27035,"enabled":true,"region":"us-east","cc":"us","latitude":33.753746,"longitude":-84.38633,"reserved":0,"last_update":"0001-01-01T00:00:00Z","name_a2s":"Uncletopia | Atlanta | 3 | Community","protocol":17,"map":"workshop/koth_ramjam_rc1.ugc459778887","folder":"tf","game":"Team Fortress","app_id":440,"player_count":0,"max_players":24,"Bots":0,"server_type":"Dedicated","server_os":"Linux","password":true,"vac":true,"version":"7882260","steam_id":85568392924515187,"keywords":["cp","nocrits","nodmgspread","uncletopia"],"game_id":440,"stv_port":27036,"stv_name":"Uncletopia | Atlanta | 3 | Community | STV","players":null},{"server_id":401,"name":"Uncletopia | Atlanta | 4 | No Payload","name_short":"atl-4","host":"atl-1.us.uncletopia.com","port":27045,"enabled":true,"region":"us-east","cc":"us","latitude":33.753746,"longitude":-84.38633,"reserved":0,"last_update":"0001-01-01T00:00:00Z","name_a2s":"","protocol":0,"map":"","folder":"","game":"","app_id":0,"player_count":0,"max_players":0,"Bots":0,"server_type":"","server_os":"","password":false,"vac":false,"version":"","steam_id":0,"keywords":null,"game_id":0,"stv_port":0,"stv_name":"","players":null},{"server_id":2,"name":"Uncletopia | Chicago | 1 | All Maps","name_short":"chi-1","host":"chi-1.us.uncletopia.com","port":27015,"enabled":true,"region":"us-central","cc":"us","latitude":41.881832,"longitude":-87.62318,"reserved":0,"last_update":"0001-01-01T00:00:00Z","name_a2s":"Uncletopia | Chicago | 1 | All Maps","protocol":17,"map":"pl_snowycoast","folder":"tf","game":"Team Fortress","app_id":440,"player_count":24,"max_players":24,"Bots":0,"server_type":"Dedicated","server_os":"Linux","password":true,"vac":true,"version":"7882260","steam_id":85568392924469984,"keywords":["nocrits","nodmgspread","payload","uncletopia"],"game_id":440,"stv_port":27016,"stv_name":"Uncletopia | Chicago | 1 | All Maps | STV","players":[{"user_id":384,"name":"Rivi","steam_id":76561198086635699,"connected_time":285000000000,"state":"active","ping":81},{"user_id":390,"name":"Stressmelo","steam_id":76561199204445185,"connected_time":107000000000,"state":"active","ping":71},{"user_id":352,"name":"Cedric","steam_id":76561198072090580,"connected_time":2959000000000,"state":"active","ping":90},{"user_id":379,"name":"Merapsco","steam_id":76561198029898337,"connected_time":926000000000,"state":"active","ping":87},{"user_id":385,"name":"BankshotC","steam_id":76561198151290242,"connected_time":260000000000,"state":"active","ping":83},{"user_id":386,"name":"Taco","steam_id":76561198158621392,"connected_time":225000000000,"state":"active","ping":60},{"user_id":357,"name":"Portal2Player","steam_id":76561198062870114,"connected_time":2271000000000,"state":"active","ping":87},{"user_id":354,"name":"Brian","steam_id":76561198077756206,"connected_time":2605000000000,"state":"active","ping":126},{"user_id":318,"name":"Dr.BiohunterPHD","steam_id":76561198047023365,"connected_time":6241000000000,"state":"active","ping":90},{"user_id":382,"name":"Rya‚ò∫","steam_id":76561198370128860,"connected_time":409000000000,"state":"active","ping":74},{"user_id":374,"name":"Racoon.zip","steam_id":76561199023759321,"connected_time":1129000000000,"state":"active","ping":90},{"user_id":377,"name":"BlueAnimated","steam_id":76561199227588613,"connected_time":980000000000,"state":"active","ping":54},{"user_id":375,"name":"lexi","steam_id":76561198176299759,"connected_time":1049000000000,"state":"active","ping":82},{"user_id":371,"name":"EL Matador","steam_id":76561197971206879,"connected_time":1160000000000,"state":"active","ping":80},{"user_id":369,"name":"zik","steam_id":76561198122186802,"connected_time":1165000000000,"state":"active","ping":60},{"user_id":387,"name":"CinnamonBoy","steam_id":76561198882330338,"connected_time":216000000000,"state":"active","ping":68},{"user_id":388,"name":"k3nny11","steam_id":76561198182533757,"connected_time":200000000000,"state":"active","ping":68},{"user_id":364,"name":"Lord Tyrannus","steam_id":76561198289377706,"connected_time":2026000000000,"state":"active","ping":74},{"user_id":350,"name":"leboeufbn","steam_id":76561199228923100,"connected_time":3295000000000,"state":"active","ping":87},{"user_id":362,"name":"Facehurt","steam_id":76561198028504034,"connected_time":2240000000000,"state":"active","ping":77},{"user_id":389,"name":"KFC MENTOR","steam_id":76561199103086827,"connected_time":193000000000,"state":"active","ping":159},{"user_id":340,"name":"PerliousFalcon","steam_id":76561198124801907,"connected_time":3763000000000,"state":"active","ping":110},{"user_id":378,"name":"aintnowaiyboi","steam_id":76561198301372369,"connected_time":972000000000,"state":"active","ping":58},{"user_id":380,"name":"gayest dog alive","steam_id":76561199034590477,"connected_time":870000000000,"state":"active","ping":92}]},{"server_id":106,"name":"Uncletopia | Chicago | 2 | All Maps","name_short":"chi-2","host":"chi-1.us.uncletopia.com","port":27025,"enabled":true,"region":"us-central","cc":"us","latitude":41.881832,"longitude":-87.62318,"reserved":0,"last_update":"0001-01-01T00:00:00Z","name_a2s":"Uncletopia | Chicago | 2 | All Maps","protocol":17,"map":"koth_viaduct","folder":"tf","game":"Team Fortress","app_id":440,"player_count":24,"max_players":24,"Bots":0,"server_type":"Dedicated","server_os":"Linux","password":true,"vac":true,"version":"7882260","steam_id":85568392924469985,"keywords":["cp","nocrits","nodmgspread","uncletopia"],"game_id":440,"stv_port":27026,"stv_name":"Uncletopia | Chicago | 2 | All Maps | STV","players":[{"user_id":448,"name":"the banan man","steam_id":76561199303645461,"connected_time":86000000000,"state":"active","ping":67},{"user_id":418,"name":"Chezaus","steam_id":76561198317397837,"connected_time":1494000000000,"state":"active","ping":73},{"user_id":408,"name":"Influrrno","steam_id":76561198398893302,"connected_time":1824000000000,"state":"active","ping":73},{"user_id":427,"name":"meth ape","steam_id":76561199110579692,"connected_time":761000000000,"state":"active","ping":88},{"user_id":439,"name":"TommoSFMO","steam_id":76561198855070608,"connected_time":348000000000,"state":"active","ping":78},{"user_id":406,"name":"DJ Chalice","steam_id":76561197974872458,"connected_time":2008000000000,"state":"active","ping":74},{"user_id":449,"name":"dr pepper strawberries n cream","steam_id":76561198127149121,"connected_time":70000000000,"state":"active","ping":83},{"user_id":433,"name":"Chunk Stuffer","steam_id":76561198856508573,"connected_time":428000000000,"state":"active","ping":54},{"user_id":379,"name":"Iggy6670","steam_id":76561198044994567,"connected_time":3930000000000,"state":"active","ping":62},{"user_id":443,"name":"level 3","steam_id":76561198053046161,"connected_time":230000000000,"state":"active","ping":60},{"user_id":454,"name":"queen glizzy and the jizz wizze","steam_id":76561199273231736,"connected_time":45000000000,"state":"active","ping":78},{"user_id":383,"name":"Skipz","steam_id":76561198425244550,"connected_time":3748000000000,"state":"active","ping":79},{"user_id":444,"name":"skittlez","steam_id":76561198024662861,"connected_time":226000000000,"state":"active","ping":84},{"user_id":455,"name":"joe biden","steam_id":76561198861436861,"connected_time":42000000000,"state":"spawning","ping":110},{"user_id":436,"name":"yoklaty","steam_id":76561199020932212,"connected_time":407000000000,"state":"active","ping":175},{"user_id":416,"name":"Harold","steam_id":76561198057317770,"connected_time":1680000000000,"state":"active","ping":88},{"user_id":437,"name":"The local hobo","steam_id":76561198289650060,"connected_time":379000000000,"state":"active","ping":81},{"user_id":420,"name":"anonion","steam_id":76561198056477584,"connected_time":1158000000000,"state":"active","ping":90},{"user_id":438,"name":"Texas Man","steam_id":76561198353412986,"connected_time":364000000000,"state":"active","ping":71},{"user_id":426,"name":"BigBubble42","steam_id":76561198136286123,"connected_time":912000000000,"state":"active","ping":54},{"user_id":445,"name":"money getting 1 percenter","steam_id":76561198012796388,"connected_time":223000000000,"state":"active","ping":50},{"user_id":452,"name":"Fuulip","steam_id":76561199109275013,"connected_time":52000000000,"state":"active","ping":103},{"user_id":446,"name":"mewtrino","steam_id":76561198094623251,"connected_time":196000000000,"state":"active","ping":60},{"user_id":453,"name":"MankTKO","steam_id":76561198189421005,"connected_time":51000000000,"state":"active","ping":179}]},{"server_id":402,"name":"Uncletopia | Chicago | 3 | All Maps","name_short":"chi-3","host":"chi-1.us.uncletopia.com","port":27035,"enabled":true,"region":"us-central","cc":"us","latitude":41.881832,"longitude":-87.62318,"reserved":0,"last_update":"0001-01-01T00:00:00Z","name_a2s":"Uncletopia | Chicago | 3 | All Maps","protocol":17,"map":"pl_frontier_final","folder":"tf","game":"Team Fortress","app_id":440,"player_count":24,"max_players":24,"Bots":0,"server_type":"Dedicated","server_os":"Linux","password":true,"vac":true,"version":"7882260","steam_id":85568392924515191,"keywords":["nocrits","nodmgspread","payload","uncletopia"],"game_id":440,"stv_port":27036,"stv_name":"Uncletopia | Chicago | 3 | All Maps | STV","players":[{"user_id":503,"name":"Toottoot","steam_id":76561197992404836,"connected_time":1149000000000,"state":"active","ping":45},{"user_id":518,"name":"DragoThe\"Fork\"Head","steam_id":76561199163626811,"connected_time":312000000000,"state":"active","ping":67},{"user_id":515,"name":"DO NOT.","steam_id":76561198354741493,"connected_time":541000000000,"state":"active","ping":69},{"user_id":476,"name":"El Portel","steam_id":76561198076108055,"connected_time":3098000000000,"state":"active","ping":83},{"user_id":432,"name":"Hog Rider","steam_id":76561198270106555,"connected_time":6156000000000,"state":"active","ping":117},{"user_id":505,"name":"seems_fishy","steam_id":76561199028846656,"connected_time":1089000000000,"state":"active","ping":64},{"user_id":502,"name":"jamalbob33","steam_id":76561198410281331,"connected_time":1164000000000,"state":"active","ping":74},{"user_id":478,"name":"scrotal recall","steam_id":76561198135945598,"connected_time":3047000000000,"state":"active","ping":78},{"user_id":420,"name":"‚òÜNebula-Belt‚òÜ","steam_id":76561198151250806,"connected_time":7008000000000,"state":"active","ping":71},{"user_id":517,"name":"Domino's App ft. Hatsune Miku","steam_id":76561198073853955,"connected_time":376000000000,"state":"active","ping":100},{"user_id":498,"name":"Noob_Extreme","steam_id":76561198353507507,"connected_time":1558000000000,"state":"active","ping":172},{"user_id":467,"name":"DaMultiversalist","steam_id":76561198239552412,"connected_time":3519000000000,"state":"active","ping":70},{"user_id":506,"name":"Lapisüíõ ","steam_id":76561198009198502,"connected_time":1073000000000,"state":"active","ping":76},{"user_id":507,"name":"LemonZest","steam_id":76561199196369249,"connected_time":1064000000000,"state":"active","ping":79},{"user_id":516,"name":"Freeza","steam_id":76561198050341005,"connected_time":420000000000,"state":"active","ping":97},{"user_id":460,"name":"Butter Bunz","steam_id":76561198798567488,"connected_time":3939000000000,"state":"active","ping":70},{"user_id":512,"name":"RiverEgg","steam_id":76561198888913405,"connected_time":923000000000,"state":"active","ping":52},{"user_id":509,"name":"Wounded","steam_id":76561199440954924,"connected_time":995000000000,"state":"active","ping":130},{"user_id":409,"name":"M4 Sherman","steam_id":76561198126990820,"connected_time":7795000000000,"state":"active","ping":98},{"user_id":481,"name":"TehDuck","steam_id":76561198172129394,"connected_time":2995000000000,"state":"active","ping":67},{"user_id":513,"name":"Kaykara","steam_id":76561199080571083,"connected_time":889000000000,"state":"active","ping":85},{"user_id":520,"name":"seeyouauntie","steam_id":76561198045852999,"connected_time":245000000000,"state":"active","ping":55},{"user_id":511,"name":"Boomhauer","steam_id":76561198185347518,"connected_time":962000000000,"state":"active","ping":83},{"user_id":477,"name":"Green Icicle","steam_id":76561198069624529,"connected_time":3096000000000,"state":"active","ping":86}]},{"server_id":403,"name":"Uncletopia | Chicago | 4 | All Maps","name_short":"chi-4","host":"chi-1.us.uncletopia.com","port":27045,"enabled":true,"region":"us-central","cc":"us","latitude":41.881832,"longitude":-87.62318,"reserved":0,"last_update":"0001-01-01T00:00:00Z","name_a2s":"Uncletopia | Chicago | 4 | All Maps","protocol":17,"map":"cp_process_final","folder":"tf","game":"Team Fortress","app_id":440,"player_count":24,"max_players":24,"Bots":0,"server_type":"Dedicated","server_os":"Linux","password":true,"vac":true,"version":"7882260","steam_id":85568392924515193,"keywords":["cp","nocrits","nodmgspread","uncletopia"],"game_id":440,"stv_port":27046,"stv_name":"Uncletopia | Chicago | 4 | All Maps | STV","players":[{"user_id":405,"name":"Oni","steam_id":76561198112066584,"connected_time":505000000000,"state":"active","ping":63},{"user_id":403,"name":"Samwise565","steam_id":76561197996819083,"connected_time":567000000000,"state":"active","ping":51},{"user_id":412,"name":"xTSxbob T.S.H.A","steam_id":76561198130440530,"connected_time":253000000000,"state":"active","ping":84},{"user_id":394,"name":"Big Oil","steam_id":76561199238964574,"connected_time":969000000000,"state":"active","ping":75},{"user_id":406,"name":"Yada #savetf2","steam_id":76561199103981181,"connected_time":498000000000,"state":"active","ping":73},{"user_id":407,"name":"Fobby #Savetf2","steam_id":76561198047681469,"connected_time":479000000000,"state":"active","ping":81},{"user_id":396,"name":"feliser","steam_id":76561198084336096,"connected_time":923000000000,"state":"active","ping":51},{"user_id":404,"name":"Okpar","steam_id":76561199221067945,"connected_time":536000000000,"state":"active","ping":98},{"user_id":388,"name":"TheKromeDome","steam_id":76561198288951592,"connected_time":2063000000000,"state":"active","ping":178},{"user_id":401,"name":"1Ã¥ÕÇÃòFÃ¥ÃâÃ®oÃ∏ÕÜÃ¶rÃ∑ÕóÕàtÃµ","steam_id":76561198254364557,"connected_time":647000000000,"state":"active","ping":81},{"user_id":408,"name":"Castleson","steam_id":76561198054330537,"connected_time":476000000000,"state":"active","ping":71},{"user_id":409,"name":"trilobita","steam_id":76561198428215606,"connected_time":400000000000,"state":"active","ping":68},{"user_id":365,"name":"Mario","steam_id":76561198321794277,"connected_time":4143000000000,"state":"active","ping":52},{"user_id":381,"name":"El Bondin","steam_id":76561198820792434,"connected_time":3135000000000,"state":"active","ping":98},{"user_id":369,"name":"Roguefluff","steam_id":76561198169269105,"connected_time":3719000000000,"state":"active","ping":62},{"user_id":414,"name":"Pongallow","steam_id":76561198146876078,"connected_time":192000000000,"state":"active","ping":51},{"user_id":410,"name":"Jason.","steam_id":76561199172692062,"connected_time":386000000000,"state":"active","ping":117},{"user_id":385,"name":"ExtremeDucks","steam_id":76561198351756464,"connected_time":2896000000000,"state":"active","ping":79},{"user_id":391,"name":"pogo","steam_id":76561198148913461,"connected_time":1029000000000,"state":"active","ping":60},{"user_id":411,"name":"dicksnip","steam_id":76561198356515396,"connected_time":374000000000,"state":"active","ping":87},{"user_id":413,"name":"TheUltimatePybro","steam_id":76561198119425604,"connected_time":222000000000,"state":"active","ping":72},{"user_id":386,"name":"Raptortastic","steam_id":76561198105613110,"connected_time":2823000000000,"state":"active","ping":46},{"user_id":389,"name":"God's Goofiest Goober","steam_id":76561198132557605,"connected_time":1660000000000,"state":"active","ping":109},{"user_id":400,"name":"LiftN","steam_id":76561198167974713,"connected_time":842000000000,"state":"active","ping":74}]},{"server_id":36,"name":"Uncletopia | Chicago | 5 | All Maps","name_short":"chi-5","host":"chi-2.us.uncletopia.com","port":27015,"enabled":true,"region":"us-central","cc":"us","latitude":41.881832,"longitude":-87.62318,"reserved":0,"last_update":"0001-01-01T00:00:00Z","name_a2s":"Uncletopia | Chicago | 5 | All Maps","protocol":17,"map":"pl_frontier_final","folder":"tf","game":"Team Fortress","app_id":440,"player_count":24,"max_players":24,"Bots":0,"server_type":"Dedicated","server_os":"Linux","password":true,"vac":true,"version":"7882260","steam_id":85568392924866362,"keywords":["nocrits","nodmgspread","payload","uncletopia"],"game_id":440,"stv_port":27016,"stv_name":"Uncletopia | Chicago | 5 | All Maps | STV","players":[{"user_id":259,"name":"RUNTHABANDS2007","steam_id":76561198111259720,"connected_time":2754000000000,"state":"active","ping":69},{"user_id":285,"name":"bonkers","steam_id":76561199206080182,"connected_time":963000000000,"state":"active","ping":68},{"user_id":249,"name":"twizted","steam_id":76561197960407274,"connected_time":3432000000000,"state":"active","ping":75},{"user_id":261,"name":"FRED.JOHNSHON2007","steam_id":76561198138221795,"connected_time":2706000000000,"state":"active","ping":76},{"user_id":257,"name":"Sjsparrow","steam_id":76561197995352435,"connected_time":2777000000000,"state":"active","ping":51},{"user_id":286,"name":"devmunk","steam_id":76561198090807130,"connected_time":951000000000,"state":"active","ping":84},{"user_id":287,"name":"Theodore Roosevelt","steam_id":76561197993295656,"connected_time":945000000000,"state":"active","ping":45},{"user_id":289,"name":"Deltaco","steam_id":76561198094572694,"connected_time":926000000000,"state":"active","ping":109},{"user_id":239,"name":"1-800-GHOST-DANCE","steam_id":76561198835430429,"connected_time":4121000000000,"state":"active","ping":80},{"user_id":296,"name":"Kyle H. McCloud","steam_id":76561198025050432,"connected_time":657000000000,"state":"active","ping":90},{"user_id":281,"name":"momb","steam_id":76561198142234038,"connected_time":1793000000000,"state":"active","ping":97},{"user_id":295,"name":"nav","steam_id":76561198872608266,"connected_time":748000000000,"state":"active","ping":89},{"user_id":284,"name":"MEATBALL","steam_id":76561198028499312,"connected_time":1320000000000,"state":"active","ping":60},{"user_id":268,"name":"Madd Maxx","steam_id":76561198339584998,"connected_time":2545000000000,"state":"active","ping":88},{"user_id":283,"name":"WE LOVE CASTING SPELLSüíØüíØ\ufffd","steam_id":76561198056871257,"connected_time":1439000000000,"state":"active","ping":65},{"user_id":291,"name":"mkl","steam_id":76561197986401685,"connected_time":883000000000,"state":"active","ping":75},{"user_id":292,"name":"Cassini","steam_id":76561198318526294,"connected_time":872000000000,"state":"active","ping":75},{"user_id":294,"name":"SHADOW (he/him)","steam_id":76561198207768148,"connected_time":837000000000,"state":"active","ping":104},{"user_id":272,"name":"Johnnysteele5^","steam_id":76561198000763426,"connected_time":2486000000000,"state":"active","ping":143},{"user_id":252,"name":"HOODOO_LOVER_2007","steam_id":76561199087691214,"connected_time":3110000000000,"state":"active","ping":96},{"user_id":280,"name":"Neacrock","steam_id":76561199178338856,"connected_time":1839000000000,"state":"active","ping":75},{"user_id":297,"name":"Belloq","steam_id":76561198060279052,"connected_time":161000000000,"state":"active","ping":50},{"user_id":276,"name":"LerN","steam_id":76561198083463877,"connected_time":2396000000000,"state":"active","ping":61},{"user_id":278,"name":"Engineer Gaming","steam_id":76561199386119444,"connected_time":2354000000000,"state":"active","ping":92}]},{"server_id":37,"name":"Uncletopia | Chicago | 6 | All Maps","name_short":"chi-6","host":"chi-2.us.uncletopia.com","port":27025,"enabled":true,"region":"us-central","cc":"us","latitude":41.881832,"longitude":-87.62318,"reserved":0,"last_update":"0001-01-01T00:00:00Z","name_a2s":"Uncletopia | Chicago | 6 | All Maps","protocol":17,"map":"koth_cascade","folder":"tf","game":"Team Fortress","app_id":440,"player_count":0,"max_players":24,"Bots":0,"server_type":"Dedicated","server_os":"Linux","password":true,"vac":true,"version":"7882260","steam_id":85568392924866363,"keywords":["cp","nocrits","nodmgspread","uncletopia"],"game_id":440,"stv_port":27026,"stv_name":"Uncletopia | Chicago | 6 | All Maps | STV","players":null},{"server_id":38,"name":"Uncletopia | Chicago | 7 | Stopwatch Beta","name_short":"chi-7","host":"chi-2.us.uncletopia.com","port":27035,"enabled":true,"region":"us-central","cc":"us","latitude":41.881832,"longitude":-87.62318,"reserved":0,"last_update":"0001-01-01T00:00:00Z","name_a2s":"Uncletopia | Chicago | 7 | Stopwatch Beta","protocol":17,"map":"pl_borneo","folder":"tf","game":"Team Fortress","app_id":440,"player_count":0,"max_players":24,"Bots":0,"server_type":"Dedicated","server_os":"Linux","password":true,"vac":true,"version":"7882260","steam_id":85568392924866364,"keywords":["nocrits","nodmgspread","payload","uncletopia"],"game_id":440,"stv_port":27036,"stv_name":"Uncletopia | Chicago | 7 | Stopwatch Beta | STV","players":null},{"server_id":39,"name":"Uncletopia | Chicago | 8 | Community","name_short":"chi-8","host":"chi-2.us.uncletopia.com","port":27045,"enabled":true,"region":"us-central","cc":"us","latitude":41.881832,"longitude":-87.62318,"reserved":0,"last_update":"0001-01-01T00:00:00Z","name_a2s":"Uncletopia | Chicago | 8 | Community","protocol":17,"map":"workshop/pl_vigil_rc9.ugc1266210012","folder":"tf","game":"Team Fortress","app_id":440,"player_count":18,"max_players":24,"Bots":0,"server_type":"Dedicated","server_os":"Linux","password":true,"vac":true,"version":"7882260","steam_id":85568392924866365,"keywords":["nocrits","nodmgspread","payload","uncletopia"],"game_id":440,"stv_port":27046,"stv_name":"Uncletopia | Chicago | 8 | Community | STV","players":[{"user_id":67,"name":"picklejuice dealer","steam_id":76561198031675881,"connected_time":103000000000,"state":"active","ping":34},{"user_id":36,"name":"Greg Spooky","steam_id":76561198143855968,"connected_time":1725000000000,"state":"active","ping":104},{"user_id":68,"name":"I'm trying my best","steam_id":76561198886157874,"connected_time":100000000000,"state":"active","ping":70},{"user_id":53,"name":"Fresh Lychee","steam_id":76561198045399559,"connected_time":1077000000000,"state":"active","ping":56},{"user_id":54,"name":"The World's Softest Sandwich","steam_id":76561198015577707,"connected_time":1073000000000,"state":"active","ping":76},{"user_id":69,"name":"Westwood","steam_id":76561199387699252,"connected_time":13000000000,"state":"spawning","ping":180},{"user_id":58,"name":"Architect","steam_id":76561198015242016,"connected_time":764000000000,"state":"active","ping":40},{"user_id":20,"name":"magickxanadu","steam_id":76561199117360103,"connected_time":2725000000000,"state":"active","ping":84},{"user_id":63,"name":"Koi","steam_id":76561198064411172,"connected_time":385000000000,"state":"active","ping":58},{"user_id":57,"name":"justNO11","steam_id":76561198915411375,"connected_time":821000000000,"state":"active","ping":72},{"user_id":65,"name":"Dandy Chiggins","steam_id":76561198106046107,"connected_time":161000000000,"state":"active","ping":113},{"user_id":64,"name":"‚ù§To Lazy‚ù§","steam_id":76561198164211904,"connected_time":232000000000,"state":"active","ping":105},{"user_id":32,"name":"RozzyMox","steam_id":76561198869319785,"connected_time":1962000000000,"state":"active","ping":95},{"user_id":50,"name":"Canaan K. MacColahan","steam_id":76561198329149858,"connected_time":1227000000000,"state":"active","ping":73},{"user_id":40,"name":"frank","steam_id":76561198137777483,"connected_time":1613000000000,"state":"active","ping":60},{"user_id":42,"name":"bong water","steam_id":76561198880398499,"connected_time":1550000000000,"state":"active","ping":54},{"user_id":48,"name":"jazaniac","steam_id":76561198059955588,"connected_time":1321000000000,"state":"active","ping":84},{"user_id":60,"name":"I hate midgets","steam_id":76561199125982967,"connected_time":674000000000,"state":"active","ping":59}]},{"server_id":8,"name":"Uncletopia | Dallas | 1 | All Maps","name_short":"dal-1","host":"dal-1.us.uncletopia.com","port":27015,"enabled":true,"region":"us-central","cc":"us","latitude":32.779167,"longitude":-96.80889,"reserved":0,"last_update":"0001-01-01T00:00:00Z","name_a2s":"Uncletopia | Dallas | 1 | All Maps","protocol":17,"map":"cp_dustbowl","folder":"tf","game":"Team Fortress","app_id":440,"player_count":23,"max_players":24,"Bots":0,"server_type":"Dedicated","server_os":"Linux","password":true,"vac":true,"version":"7882260","steam_id":85568392924469986,"keywords":["cp","nocrits","nodmgspread","uncletopia"],"game_id":440,"stv_port":27016,"stv_name":"Uncletopia | Dallas | 1 | All Maps | STV","players":[{"user_id":163,"name":"Lezabel","steam_id":76561198970753261,"connected_time":1585000000000,"state":"active","ping":70},{"user_id":179,"name":"Medusaka","steam_id":76561198115735955,"connected_time":551000000000,"state":"active","ping":59},{"user_id":151,"name":"Burrbank","steam_id":76561198042888060,"connected_time":2299000000000,"state":"active","ping":100},{"user_id":121,"name":"errant","steam_id":76561197961758410,"connected_time":5736000000000,"state":"active","ping":36},{"user_id":188,"name":"lyingdyingwonderbody2","steam_id":76561199039366017,"connected_time":167000000000,"state":"active","ping":45},{"user_id":53,"name":"vastrobotmax","steam_id":76561198417110724,"connected_time":8437000000000,"state":"active","ping":103},{"user_id":175,"name":"‚Ä¢SoraNyaa‚Ä¢","steam_id":76561198308439576,"connected_time":863000000000,"state":"active","ping":99},{"user_id":145,"name":"hippo mode","steam_id":76561198073455521,"connected_time":3310000000000,"state":"active","ping":77},{"user_id":180,"name":"Marv_L","steam_id":76561198035709541,"connected_time":529000000000,"state":"active","ping":99},{"user_id":181,"name":"[GUT] RiDiK¬Æ","steam_id":76561197969756446,"connected_time":501000000000,"state":"active","ping":70},{"user_id":105,"name":"dinky little beanie baby","steam_id":76561197999318398,"connected_time":6311000000000,"state":"active","ping":108},{"user_id":155,"name":"basilberry","steam_id":76561198145275937,"connected_time":2134000000000,"state":"active","ping":62},{"user_id":189,"name":"BackwardsEagle","steam_id":76561199013712612,"connected_time":156000000000,"state":"active","ping":88},{"user_id":170,"name":"Phosu","steam_id":76561198180162801,"connected_time":1324000000000,"state":"active","ping":69},{"user_id":162,"name":"Piggy","steam_id":76561198000399862,"connected_time":1697000000000,"state":"active","ping":73},{"user_id":176,"name":"Nyplestheclown","steam_id":76561198028600291,"connected_time":722000000000,"state":"active","ping":52},{"user_id":169,"name":"pt","steam_id":76561198143023330,"connected_time":1379000000000,"state":"active","ping":78},{"user_id":182,"name":"my_fish","steam_id":76561198058993241,"connected_time":488000000000,"state":"active","ping":73},{"user_id":187,"name":"coolbust carti","steam_id":76561198065384345,"connected_time":175000000000,"state":"active","ping":86},{"user_id":185,"name":"General of Rage","steam_id":76561198363697555,"connected_time":364000000000,"state":"active","ping":70},{"user_id":136,"name":"Icarus the legend","steam_id":76561199013250091,"connected_time":4026000000000,"state":"active","ping":58},{"user_id":178,"name":"double tap 2.0","steam_id":76561198062146253,"connected_time":569000000000,"state":"active","ping":109},{"user_id":186,"name":"Chromosome_dog","steam_id":76561198965031894,"connected_time":319000000000,"state":"active","ping":58}]},{"server_id":108,"name":"Uncletopia | Dallas | 2 | All Maps","name_short":"dal-2","host":"dal-1.us.uncletopia.com","port":27025,"enabled":true,"region":"us-central","cc":"us","latitude":32.779167,"longitude":-96.80889,"reserved":0,"last_update":"0001-01-01T00:00:00Z","name_a2s":"Uncletopia | Dallas | 2 | All Maps","protocol":17,"map":"koth_viaduct","folder":"tf","game":"Team Fortress","app_id":440,"player_count":6,"max_players":24,"Bots":0,"server_type":"Dedicated","server_os":"Linux","password":true,"vac":true,"version":"7882260","steam_id":85568392924469988,"keywords":["cp","nocrits","nodmgspread","uncletopia"],"game_id":440,"stv_port":27026,"stv_name":"Uncletopia | Dallas | 2 | All Maps | STV","players":[{"user_id":18,"name":"ihave80hp","steam_id":76561199251621911,"connected_time":681000000000,"state":"active","ping":57},{"user_id":19,"name":"Just Dez","steam_id":76561199327664719,"connected_time":544000000000,"state":"active","ping":117},{"user_id":20,"name":"ISpitOnMyCat","steam_id":76561199215395242,"connected_time":263000000000,"state":"active","ping":62},{"user_id":21,"name":"Friedrich Van Bingle","steam_id":76561198185952115,"connected_time":154000000000,"state":"active","ping":107},{"user_id":22,"name":"KingKata","steam_id":76561198289610011,"connected_time":69000000000,"state":"active","ping":118},{"user_id":23,"name":"Vorpas Jabwak","steam_id":76561198112186064,"connected_time":42000000000,"state":"active","ping":66}]},{"server_id":5,"name":"Uncletopia | Frankfurt | 1 | All Maps","name_short":"frk-1","host":"frk-1.de.uncletopia.com","port":27015,"enabled":true,"region":"eu","cc":"de","latitude":50.110924,"longitude":8.682127,"reserved":0,"last_update":"0001-01-01T00:00:00Z","name_a2s":"Uncletopia | Frankfurt | 1 | All Maps","protocol":17,"map":"cp_process_final","folder":"tf","game":"Team Fortress","app_id":440,"player_count":24,"max_players":24,"Bots":0,"server_type":"Dedicated","server_os":"Linux","password":true,"vac":true,"version":"7882260","steam_id":85568392924469989,"keywords":["cp","nocrits","nodmgspread","uncletopia"],"game_id":440,"stv_port":27016,"stv_name":"Uncletopia | Frankfurt | 1 | All Maps | STV","players":[{"user_id":390,"name":"hello hi","steam_id":76561198148074472,"connected_time":315000000000,"state":"active","ping":45},{"user_id":368,"name":"BTD","steam_id":76561199046044993,"connected_time":1415000000000,"state":"active","ping":50},{"user_id":393,"name":"John Noob","steam_id":76561197999170026,"connected_time":72000000000,"state":"active","ping":85},{"user_id":338,"name":"IceDreamer","steam_id":76561197997569989,"connected_time":2897000000000,"state":"active","ping":60},{"user_id":391,"name":"wee woo","steam_id":76561198147277460,"connected_time":306000000000,"state":"active","ping":60},{"user_id":369,"name":"smaller columbo","steam_id":76561198065516212,"connected_time":1355000000000,"state":"active","ping":83},{"user_id":392,"name":"faze stock market hairline","steam_id":76561198256619964,"connected_time":304000000000,"state":"active","ping":76},{"user_id":366,"name":"domek brexit geezerüá¨üáß","steam_id":76561198048447632,"connected_time":1624000000000,"state":"active","ping":68},{"user_id":385,"name":"meap","steam_id":76561198126639221,"connected_time":654000000000,"state":"active","ping":94},{"user_id":386,"name":"Kapitan Polska","steam_id":76561197968069413,"connected_time":600000000000,"state":"active","ping":65},{"user_id":374,"name":"JC","steam_id":76561198029213352,"connected_time":1139000000000,"state":"active","ping":55},{"user_id":376,"name":"pink sunset","steam_id":76561198089183373,"connected_time":987000000000,"state":"active","ping":64},{"user_id":287,"name":"quentu-","steam_id":76561198087457220,"connected_time":5707000000000,"state":"active","ping":70},{"user_id":324,"name":"Le bagutte","steam_id":76561198258504847,"connected_time":4087000000000,"state":"active","ping":85},{"user_id":348,"name":"roblan11","steam_id":76561198066839258,"connected_time":2491000000000,"state":"active","ping":47},{"user_id":349,"name":"disc0rd","steam_id":76561197985965776,"connected_time":2471000000000,"state":"active","ping":58},{"user_id":394,"name":"{BL}ACO","steam_id":76561198077672091,"connected_time":62000000000,"state":"active","ping":108},{"user_id":377,"name":"Garlic","steam_id":76561199104017323,"connected_time":987000000000,"state":"active","ping":54},{"user_id":286,"name":"Goober","steam_id":76561198054795379,"connected_time":6092000000000,"state":"active","ping":52},{"user_id":380,"name":"skatie","steam_id":76561198169487380,"connected_time":798000000000,"state":"active","ping":81},{"user_id":381,"name":"IONYCH","steam_id":76561198378350040,"connected_time":762000000000,"state":"active","ping":82},{"user_id":382,"name":"Zedespook","steam_id":76561198265479349,"connected_time":744000000000,"state":"active","ping":59},{"user_id":383,"name":"hol horse","steam_id":76561199235435358,"connected_time":695000000000,"state":"active","ping":84},{"user_id":389,"name":"Perci","steam_id":76561198097789669,"connected_time":401000000000,"state":"active","ping":61}]},{"server_id":110,"name":"Uncletopia | Frankfurt | 2 | All Maps","name_short":"frk-2","host":"frk-1.de.uncletopia.com","port":27025,"enabled":true,"region":"eu","cc":"de","latitude":50.110924,"longitude":8.682127,"reserved":0,"last_update":"0001-01-01T00:00:00Z","name_a2s":"Uncletopia | Frankfurt | 2 | All Maps","protocol":17,"map":"pl_barnblitz","folder":"tf","game":"Team Fortress","app_id":440,"player_count":24,"max_players":24,"Bots":0,"server_type":"Dedicated","server_os":"Linux","password":true,"vac":true,"version":"7882260","steam_id":85568392924469990,"keywords":["nocrits","nodmgspread","payload","uncletopia"],"game_id":440,"stv_port":27026,"stv_name":"Uncletopia | Frankfurt | 2 | All Maps | STV","players":[{"user_id":303,"name":"kreeekz","steam_id":76561198014431602,"connected_time":1179000000000,"state":"active","ping":72},{"user_id":311,"name":"metodmiha","steam_id":76561199111498575,"connected_time":126000000000,"state":"active","ping":74},{"user_id":250,"name":"Lord of Beans","steam_id":76561198283379801,"connected_time":4372000000000,"state":"active","ping":106},{"user_id":251,"name":"ereh","steam_id":76561198061239823,"connected_time":4289000000000,"state":"active","ping":72},{"user_id":305,"name":"Hanƒ±mSever23","steam_id":76561198142124751,"connected_time":923000000000,"state":"active","ping":107},{"user_id":259,"name":"\u003c blank \u003e","steam_id":76561198059375315,"connected_time":3934000000000,"state":"active","ping":68},{"user_id":264,"name":"Cinek","steam_id":76561198146494944,"connected_time":3465000000000,"state":"active","ping":74},{"user_id":247,"name":"bunglar","steam_id":76561198027374166,"connected_time":4715000000000,"state":"active","ping":55},{"user_id":308,"name":"lettuce out of stock","steam_id":76561199401283123,"connected_time":181000000000,"state":"active","ping":66},{"user_id":248,"name":"AwterSix","steam_id":76561198042561678,"connected_time":4610000000000,"state":"active","ping":59},{"user_id":292,"name":"Twitch.tv/FrostSnail","steam_id":76561197989859175,"connected_time":1875000000000,"state":"active","ping":64},{"user_id":294,"name":"giclure :;","steam_id":76561197986362828,"connected_time":1840000000000,"state":"active","ping":53},{"user_id":307,"name":"gfjhsdf","steam_id":76561198136736426,"connected_time":257000000000,"state":"active","ping":50},{"user_id":287,"name":"David \"Crash\" Murphy","steam_id":76561198292845505,"connected_time":2332000000000,"state":"active","ping":96},{"user_id":300,"name":"Clitorina","steam_id":76561198077570815,"connected_time":1460000000000,"state":"active","ping":59},{"user_id":298,"name":"Rai","steam_id":76561199408923294,"connected_time":1485000000000,"state":"active","ping":97},{"user_id":265,"name":"bossievossie","steam_id":76561198836337543,"connected_time":3362000000000,"state":"active","ping":75},{"user_id":309,"name":"Madon","steam_id":76561199203597558,"connected_time":178000000000,"state":"active","ping":68},{"user_id":295,"name":"big poo","steam_id":76561198129157178,"connected_time":1711000000000,"state":"active","ping":98},{"user_id":268,"name":"RedFog","steam_id":76561198284713081,"connected_time":3229000000000,"state":"active","ping":44},{"user_id":284,"name":"Finn","steam_id":76561198179960193,"connected_time":2517000000000,"state":"active","ping":55},{"user_id":310,"name":"Tywhip","steam_id":76561199207545191,"connected_time":169000000000,"state":"active","ping":63},{"user_id":285,"name":"sarii ‚òÜ","steam_id":76561199155102111,"connected_time":2511000000000,"state":"active","ping":83},{"user_id":290,"name":"smoshed90lolololol","steam_id":76561197968495775,"connected_time":1958000000000,"state":"active","ping":87}]},{"server_id":308,"name":"Uncletopia | Frankfurt | 3 | All Maps","name_short":"frk-3","host":"frk-1.de.uncletopia.com","port":27035,"enabled":true,"region":"eu","cc":"de","latitude":50.110924,"longitude":8.682127,"reserved":0,"last_update":"0001-01-01T00:00:00Z","name_a2s":"Uncletopia | Frankfurt | 3 | All Maps","protocol":17,"map":"ctf_turbine","folder":"tf","game":"Team Fortress","app_id":440,"player_count":24,"max_players":24,"Bots":0,"server_type":"Dedicated","server_os":"Linux","password":true,"vac":true,"version":"7882260","steam_id":85568392924504274,"keywords":["ctf","nocrits","nodmgspread","uncletopia"],"game_id":440,"stv_port":27036,"stv_name":"Uncletopia | Frankfurt | 3 | All Maps | STV","players":[{"user_id":190,"name":"AverageName","steam_id":76561199114333959,"connected_time":2209000000000,"state":"active","ping":51},{"user_id":111,"name":"Mr.O #deletesniper","steam_id":76561198039567498,"connected_time":6166000000000,"state":"active","ping":61},{"user_id":195,"name":"Like Ahayo LXIX","steam_id":76561198368508349,"connected_time":1330000000000,"state":"active","ping":87},{"user_id":212,"name":"Harri Lalies","steam_id":76561198194420078,"connected_time":56000000000,"state":"active","ping":60},{"user_id":125,"name":"hlug2340","steam_id":76561198087970118,"connected_time":5509000000000,"state":"active","ping":64},{"user_id":198,"name":"full power heart attack","steam_id":76561199196568965,"connected_time":961000000000,"state":"active","ping":97},{"user_id":184,"name":"Orbit","steam_id":76561198242999878,"connected_time":2970000000000,"state":"active","ping":68},{"user_id":200,"name":"Frank","steam_id":76561198086672774,"connected_time":897000000000,"state":"active","ping":66},{"user_id":153,"name":"mun","steam_id":76561198256097786,"connected_time":4227000000000,"state":"active","ping":39},{"user_id":103,"name":"KeTlEr","steam_id":76561198100957443,"connected_time":6473000000000,"state":"active","ping":60},{"user_id":117,"name":"Akane","steam_id":76561197990407312,"connected_time":5920000000000,"state":"active","ping":63},{"user_id":202,"name":"Yahram Qiehpah","steam_id":76561198049533385,"connected_time":821000000000,"state":"active","ping":105},{"user_id":182,"name":"LarsInABox","steam_id":76561198028329262,"connected_time":3064000000000,"state":"active","ping":76},{"user_id":203,"name":"Bulczany","steam_id":76561198116469727,"connected_time":802000000000,"state":"active","ping":78},{"user_id":204,"name":"Rez","steam_id":76561198410598772,"connected_time":760000000000,"state":"active","ping":55},{"user_id":185,"name":"Mach","steam_id":76561198952487564,"connected_time":2737000000000,"state":"active","ping":175},{"user_id":194,"name":"Shrub","steam_id":76561198156423217,"connected_time":1457000000000,"state":"active","ping":156},{"user_id":146,"name":"no","steam_id":76561199232582956,"connected_time":4657000000000,"state":"active","ping":102},{"user_id":205,"name":"Why?","steam_id":76561198970833545,"connected_time":680000000000,"state":"active","ping":147},{"user_id":206,"name":"rets","steam_id":76561198061551392,"connected_time":640000000000,"state":"active","ping":54},{"user_id":210,"name":"Efficient German Gaming","steam_id":76561198021552128,"connected_time":290000000000,"state":"active","ping":100},{"user_id":209,"name":"A Slavic Troglodyte","steam_id":76561198278446600,"connected_time":307000000000,"state":"active","ping":72},{"user_id":192,"name":"Jeffrey Harpen","steam_id":76561199073314677,"connected_time":1576000000000,"state":"active","ping":71},{"user_id":183,"name":"Engi-Nearing","steam_id":76561199221172552,"connected_time":3019000000000,"state":"active","ping":65}]},{"server_id":309,"name":"Uncletopia | Frankfurt | 4 | All Maps","name_short":"frk-4","host":"frk-1.de.uncletopia.com","port":27045,"enabled":true,"region":"eu","cc":"de","latitude":50.110924,"longitude":8.682127,"reserved":0,"last_update":"0001-01-01T00:00:00Z","name_a2s":"Uncletopia | Frankfurt | 4 | All Maps","protocol":17,"map":"pl_badwater","folder":"tf","game":"Team Fortress","app_id":440,"player_count":24,"max_players":24,"Bots":0,"server_type":"Dedicated","server_os":"Linux","password":true,"vac":true,"version":"7882260","steam_id":85568392924504275,"keywords":["nocrits","nodmgspread","payload","uncletopia"],"game_id":440,"stv_port":27046,"stv_name":"Uncletopia | Frankfurt | 4 | All Maps | STV","players":[{"user_id":578,"name":"[O\u0026O]YaboiDucki","steam_id":76561198195976589,"connected_time":53000000000,"state":"active","ping":69},{"user_id":566,"name":"Caramelion","steam_id":76561198097429047,"connected_time":522000000000,"state":"active","ping":66},{"user_id":529,"name":"godofredo62","steam_id":76561198142929710,"connected_time":3340000000000,"state":"active","ping":86},{"user_id":574,"name":"Jimi","steam_id":76561198025721862,"connected_time":127000000000,"state":"active","ping":58},{"user_id":569,"name":"Timpanojnoj","steam_id":76561197970334448,"connected_time":380000000000,"state":"active","ping":79},{"user_id":579,"name":"Acbh","steam_id":76561198158271672,"connected_time":26000000000,"state":"spawning","ping":62},{"user_id":576,"name":"Kakograf","steam_id":76561198148375639,"connected_time":100000000000,"state":"active","ping":89},{"user_id":541,"name":"Magic Misha","steam_id":76561198425505206,"connected_time":1952000000000,"state":"active","ping":65},{"user_id":570,"name":"why rum gone","steam_id":76561198158484784,"connected_time":358000000000,"state":"active","ping":57},{"user_id":554,"name":"Captain Scrumpe","steam_id":76561198032206577,"connected_time":1346000000000,"state":"active","ping":85},{"user_id":571,"name":"Teetoos","steam_id":76561198033948240,"connected_time":349000000000,"state":"active","ping":60},{"user_id":562,"name":"Mowelic","steam_id":76561198873641222,"connected_time":746000000000,"state":"active","ping":80},{"user_id":572,"name":"frozenslade","steam_id":76561198979145974,"connected_time":209000000000,"state":"active","ping":164},{"user_id":552,"name":"le big mac","steam_id":76561199026378253,"connected_time":1560000000000,"state":"active","ping":53},{"user_id":553,"name":"Levood","steam_id":76561198088461401,"connected_time":1525000000000,"state":"active","ping":62},{"user_id":567,"name":"Chromega","steam_id":76561199075307750,"connected_time":500000000000,"state":"active","ping":57},{"user_id":565,"name":"BELADIT","steam_id":76561198011911501,"connected_time":686000000000,"state":"active","ping":61},{"user_id":555,"name":"Dr.Dag","steam_id":76561198301430910,"connected_time":1335000000000,"state":"active","ping":83},{"user_id":557,"name":"I Don't Know","steam_id":76561198841011430,"connected_time":1257000000000,"state":"active","ping":69},{"user_id":512,"name":"Ott","steam_id":76561198276464481,"connected_time":3873000000000,"state":"active","ping":68},{"user_id":568,"name":"Captain Slow","steam_id":76561199071095638,"connected_time":456000000000,"state":"active","ping":81},{"user_id":525,"name":"Suetolog","steam_id":76561199053090212,"connected_time":3545000000000,"state":"active","ping":58},{"user_id":560,"name":"Monsieur Monk√©","steam_id":76561198130288819,"connected_time":836000000000,"state":"active","ping":115},{"user_id":577,"name":"lacurio","steam_id":76561198059701776,"connected_time":91000000000,"state":"active","ping":46}]},{"server_id":310,"name":"Uncletopia | Frankfurt | 5 | All Maps","name_short":"frk-5","host":"frk-1.de.uncletopia.com","port":27055,"enabled":true,"region":"eu","cc":"de","latitude":50.110924,"longitude":8.682127,"reserved":0,"last_update":"0001-01-01T00:00:00Z","name_a2s":"Uncletopia | Frankfurt | 5 | All Maps","protocol":17,"map":"pl_upward","folder":"tf","game":"Team Fortress","app_id":440,"player_count":19,"max_players":24,"Bots":0,"server_type":"Dedicated","server_os":"Linux","password":true,"vac":true,"version":"7882260","steam_id":85568392924504277,"keywords":["nocrits","nodmgspread","payload","uncletopia"],"game_id":440,"stv_port":27056,"stv_name":"Uncletopia | Frankfurt | 5 | All Maps | STV","players":[{"user_id":296,"name":"gort","steam_id":76561198060339391,"connected_time":922000000000,"state":"active","ping":45},{"user_id":279,"name":"froufrou","steam_id":76561198129110010,"connected_time":2196000000000,"state":"active","ping":85},{"user_id":271,"name":"√Ñ√§rik ‚ô£","steam_id":76561198131871737,"connected_time":3490000000000,"state":"active","ping":45},{"user_id":306,"name":"badrobot","steam_id":76561198322878356,"connected_time":311000000000,"state":"active","ping":90},{"user_id":314,"name":"rolmos","steam_id":76561198024121853,"connected_time":149000000000,"state":"active","ping":80},{"user_id":303,"name":"Juiceydough","steam_id":76561197997323419,"connected_time":531000000000,"state":"active","ping":90},{"user_id":192,"name":"Vershal Smershal","steam_id":76561198116223995,"connected_time":10430000000000,"state":"active","ping":59},{"user_id":269,"name":"xavier","steam_id":76561198076494034,"connected_time":3815000000000,"state":"active","ping":53},{"user_id":308,"name":"schocky","steam_id":76561197965924454,"connected_time":290000000000,"state":"active","ping":60},{"user_id":273,"name":"Pilaarius","steam_id":76561198120273212,"connected_time":2829000000000,"state":"active","ping":88},{"user_id":281,"name":"ant753","steam_id":76561198103458889,"connected_time":2120000000000,"state":"active","ping":76},{"user_id":295,"name":"Mr. Enjoy da money","steam_id":76561198152681460,"connected_time":1023000000000,"state":"active","ping":85},{"user_id":309,"name":"Leiv","steam_id":76561198087165610,"connected_time":286000000000,"state":"active","ping":85},{"user_id":297,"name":"normii","steam_id":76561198301332732,"connected_time":837000000000,"state":"active","ping":41},{"user_id":310,"name":"united chunk","steam_id":76561199017850298,"connected_time":282000000000,"state":"active","ping":72},{"user_id":311,"name":"defa","steam_id":76561198089603266,"connected_time":270000000000,"state":"active","ping":61},{"user_id":298,"name":"Kruthal","steam_id":76561198245726582,"connected_time":646000000000,"state":"active","ping":75},{"user_id":312,"name":"Just1s","steam_id":76561198026597437,"connected_time":264000000000,"state":"active","ping":71},{"user_id":313,"name":"mp1mp2mp3","steam_id":76561198088967665,"connected_time":221000000000,"state":"active","ping":86}]},{"server_id":311,"name":"Uncletopia | Frankfurt | 6 | All Maps","name_short":"frk-6","host":"frk-1.de.uncletopia.com","port":27065,"enabled":true,"region":"eu","cc":"de","latitude":50.110924,"longitude":8.682127,"reserved":0,"last_update":"0001-01-01T00:00:00Z","name_a2s":"Uncletopia | Frankfurt | 6 | All Maps","protocol":17,"map":"cp_mercenarypark","folder":"tf","game":"Team Fortress","app_id":440,"player_count":24,"max_players":24,"Bots":0,"server_type":"Dedicated","server_os":"Linux","password":true,"vac":true,"version":"7882260","steam_id":85568392924504278,"keywords":["cp","nocrits","nodmgspread","uncletopia"],"game_id":440,"stv_port":27066,"stv_name":"Uncletopia | Frankfurt | 6 | All Maps | STV","players":[{"user_id":404,"name":"üòà COCKDESTROYER üòà","steam_id":76561198042846999,"connected_time":4029000000000,"state":"active","ping":66},{"user_id":452,"name":"Krabs","steam_id":76561198161679477,"connected_time":1179000000000,"state":"active","ping":59},{"user_id":451,"name":"Matrix108","steam_id":76561198180382327,"connected_time":1272000000000,"state":"active","ping":63},{"user_id":465,"name":"smell_my_cheese","steam_id":76561198008517427,"connected_time":109000000000,"state":"spawning","ping":260},{"user_id":464,"name":"Toasty5050","steam_id":76561198073540881,"connected_time":354000000000,"state":"active","ping":46},{"user_id":459,"name":"Zero (Orbital Gear Mastermind)","steam_id":76561198017416816,"connected_time":799000000000,"state":"active","ping":61},{"user_id":410,"name":"Aleknat","steam_id":76561198055379857,"connected_time":3541000000000,"state":"active","ping":65},{"user_id":445,"name":"LIGHTWEIGHT BABY","steam_id":76561198002761980,"connected_time":1602000000000,"state":"active","ping":60},{"user_id":446,"name":"mumbler","steam_id":76561197970641239,"connected_time":1599000000000,"state":"active","ping":48},{"user_id":454,"name":"Jargo","steam_id":76561198064231790,"connected_time":1068000000000,"state":"active","ping":83},{"user_id":463,"name":"Rimx","steam_id":76561198053034840,"connected_time":480000000000,"state":"active","ping":94},{"user_id":430,"name":"Slippy Jimmin","steam_id":76561198243856250,"connected_time":2731000000000,"state":"active","ping":77},{"user_id":442,"name":"The‚òÜCops","steam_id":76561198146358073,"connected_time":1681000000000,"state":"active","ping":96},{"user_id":438,"name":"Pipper","steam_id":76561197970326616,"connected_time":2143000000000,"state":"active","ping":68},{"user_id":444,"name":"Xariklhs Kolimpithras","steam_id":76561198165584544,"connected_time":1642000000000,"state":"active","ping":101},{"user_id":447,"name":"Generic text","steam_id":76561198291962185,"connected_time":1587000000000,"state":"active","ping":77},{"user_id":448,"name":"Ledze Shuns Dope","steam_id":76561198049945010,"connected_time":1554000000000,"state":"active","ping":55},{"user_id":431,"name":"Bean","steam_id":76561198086252360,"connected_time":2710000000000,"state":"active","ping":67},{"user_id":419,"name":"Doctor Marijuana","steam_id":76561198288289879,"connected_time":3161000000000,"state":"active","ping":62},{"user_id":455,"name":"'Poli","steam_id":76561198058710244,"connected_time":1044000000000,"state":"active","ping":97},{"user_id":449,"name":"Seri","steam_id":76561198017135441,"connected_time":1523000000000,"state":"active","ping":69},{"user_id":456,"name":"'Hank","steam_id":76561198218083825,"connected_time":1012000000000,"state":"active","ping":52},{"user_id":401,"name":"Eltriuqs","steam_id":76561198225771588,"connected_time":4267000000000,"state":"active","ping":116},{"user_id":384,"name":"Fuvuk","steam_id":76561198044458593,"connected_time":5095000000000,"state":"active","ping":89}]},{"server_id":23,"name":"Uncletopia | Frankfurt | 7 | Stopwatch Beta","name_short":"frk-7","host":"frk-1.de.uncletopia.com","port":27075,"enabled":true,"region":"eu","cc":"de","latitude":50.110924,"longitude":8.682127,"reserved":0,"last_update":"0001-01-01T00:00:00Z","name_a2s":"Uncletopia | Frankfurt | 7 | Stopwatch Beta","protocol":17,"map":"workshop/koth_clearcut_b15.ugc2107050255","folder":"tf","game":"Team Fortress","app_id":440,"player_count":0,"max_players":24,"Bots":0,"server_type":"Dedicated","server_os":"Linux","password":true,"vac":true,"version":"7882260","steam_id":85568392924742827,"keywords":["cp","nocrits","nodmgspread","uncletopia"],"game_id":440,"stv_port":27076,"stv_name":"Uncletopia | Frankfurt | 7 | Stopwatch Beta | STV","players":null},{"server_id":24,"name":"Uncletopia | Frankfurt | 8 | Community","name_short":"frk-8","host":"frk-1.de.uncletopia.com","port":27085,"enabled":true,"region":"eu","cc":"de","latitude":50.110924,"longitude":8.682127,"reserved":0,"last_update":"0001-01-01T00:00:00Z","name_a2s":"Uncletopia | Frankfurt | 8 | Community","protocol":17,"map":"workshop/cp_bruhstbowl_b5.ugc2878604990","folder":"tf","game":"Team Fortress","app_id":440,"player_count":6,"max_players":24,"Bots":0,"server_type":"Dedicated","server_os":"Linux","password":true,"vac":true,"version":"7882260","steam_id":85568392924742828,"keywords":["cp","nocrits","nodmgspread","uncletopia"],"game_id":440,"stv_port":27086,"stv_name":"Uncletopia | Frankfurt | 8 | Community | STV","players":[{"user_id":231,"name":"someone","steam_id":76561198377208758,"connected_time":431000000000,"state":"active","ping":87},{"user_id":229,"name":"Walter Hartwell White","steam_id":76561198833826885,"connected_time":508000000000,"state":"active","ping":76},{"user_id":230,"name":"Psychicpie","steam_id":76561198126065206,"connected_time":504000000000,"state":"active","ping":46},{"user_id":125,"name":"Jonathan","steam_id":76561198087988880,"connected_time":8157000000000,"state":"active","ping":45},{"user_id":127,"name":"Fat Pigeon","steam_id":76561198817940142,"connected_time":8154000000000,"state":"active","ping":45},{"user_id":216,"name":"We are in a world of magic","steam_id":76561198104745492,"connected_time":2422000000000,"state":"active","ping":72}]},{"server_id":202,"name":"Uncletopia | Hong Kong | 1 | All Maps","name_short":"hgk-1","host":"hgk-1.hk.uncletopia.com","port":27015,"enabled":true,"region":"asia","cc":"hk","latitude":22.302711,"longitude":114.177216,"reserved":0,"last_update":"0001-01-01T00:00:00Z","name_a2s":"Uncletopia | Hong Kong | 1 | All Maps","protocol":17,"map":"pl_pier","folder":"tf","game":"Team Fortress","app_id":440,"player_count":0,"max_players":24,"Bots":0,"server_type":"Dedicated","server_os":"Linux","password":true,"vac":true,"version":"7882260","steam_id":85568392924494504,"keywords":["nocrits","nodmgspread","payload","uncletopia"],"game_id":440,"stv_port":27016,"stv_name":"Uncletopia | Hong Kong | 1 | All Maps | STV","players":null},{"server_id":1,"name":"Uncletopia | Los Angeles | 1 | All Maps","name_short":"lax-1","host":"lax-1.us.uncletopia.com","port":27015,"enabled":true,"region":"us-west","cc":"us","latitude":33.94279,"longitude":-118.41004,"reserved":0,"last_update":"0001-01-01T00:00:00Z","name_a2s":"Uncletopia | Los Angeles | 1 | All Maps","protocol":17,"map":"pl_frontier_final","folder":"tf","game":"Team Fortress","app_id":440,"player_count":23,"max_players":24,"Bots":0,"server_type":"Dedicated","server_os":"Linux","password":true,"vac":true,"version":"7882260","steam_id":85568392924469991,"keywords":["nocrits","nodmgspread","payload","uncletopia"],"game_id":440,"stv_port":27016,"stv_name":"Uncletopia | Los Angeles | 1 | All Maps | STV","players":[{"user_id":20,"name":"YouCantSpellNutritionW/OutNUT","steam_id":76561198060588059,"connected_time":5233000000000,"state":"spawning","ping":64},{"user_id":57,"name":"Cole Boye","steam_id":76561198282449106,"connected_time":2866000000000,"state":"spawning","ping":77},{"user_id":81,"name":"Fishsick lord","steam_id":76561198887904255,"connected_time":1339000000000,"state":"spawning","ping":81},{"user_id":96,"name":"Lazy Bones","steam_id":76561198069682409,"connected_time":666000000000,"state":"spawning","ping":48},{"user_id":77,"name":"SunNc","steam_id":76561198097711843,"connected_time":1610000000000,"state":"spawning","ping":48},{"user_id":82,"name":"Gay Mushroom","steam_id":76561198151549658,"connected_time":1312000000000,"state":"spawning","ping":118},{"user_id":80,"name":"Nerdycatgamer","steam_id":76561198235698272,"connected_time":1420000000000,"state":"spawning","ping":136},{"user_id":86,"name":"box","steam_id":76561198985635309,"connected_time":1237000000000,"state":"spawning","ping":106},{"user_id":102,"name":"Japanese_Spaghetti","steam_id":76561198081019897,"connected_time":1000000000,"state":"spawning","ping":41},{"user_id":87,"name":"Shamrock Shake Oct.10.2020 @8pm","steam_id":76561198833313201,"connected_time":1192000000000,"state":"spawning","ping":37},{"user_id":85,"name":"An 'Eepy Leaf","steam_id":76561198077721071,"connected_time":1254000000000,"state":"spawning","ping":126},{"user_id":99,"name":"oil","steam_id":76561198099980149,"connected_time":34000000000,"state":"spawning","ping":44},{"user_id":101,"name":"sebasnerd12","steam_id":76561199437010123,"connected_time":8000000000,"state":"spawning","ping":63},{"user_id":100,"name":"reverie","steam_id":76561198168158637,"connected_time":26000000000,"state":"spawning","ping":79},{"user_id":46,"name":"Scott_The_Bot","steam_id":76561199474825993,"connected_time":3213000000000,"state":"spawning","ping":78},{"user_id":76,"name":"Ludography","steam_id":76561198046354069,"connected_time":1919000000000,"state":"spawning","ping":95},{"user_id":90,"name":"Nine Inch –òipples","steam_id":76561198149413947,"connected_time":1158000000000,"state":"spawning","ping":48},{"user_id":97,"name":"Schnitz","steam_id":76561198265484253,"connected_time":440000000000,"state":"spawning","ping":53},{"user_id":61,"name":"Mom","steam_id":76561198207936000,"connected_time":2825000000000,"state":"spawning","ping":48},{"user_id":94,"name":"gumcuzzler","steam_id":76561198118644686,"connected_time":920000000000,"state":"spawning","ping":55},{"user_id":75,"name":"echelon","steam_id":76561198139172979,"connected_time":1985000000000,"state":"spawning","ping":60},{"user_id":98,"name":"Gilgamesh","steam_id":76561198317113179,"connected_time":270000000000,"state":"spawning","ping":125},{"user_id":69,"name":"Big Richard","steam_id":76561199369569135,"connected_time":2494000000000,"state":"spawning","ping":48}]},{"server_id":112,"name":"Uncletopia | Los Angeles | 2 | All Maps","name_short":"lax-2","host":"lax-1.us.uncletopia.com","port":27025,"enabled":true,"region":"us-west","cc":"us","latitude":33.94279,"longitude":-118.41004,"reserved":0,"last_update":"0001-01-01T00:00:00Z","name_a2s":"Uncletopia | Los Angeles | 2 | All Maps","protocol":17,"map":"koth_viaduct","folder":"tf","game":"Team Fortress","app_id":440,"player_count":0,"max_players":24,"Bots":0,"server_type":"Dedicated","server_os":"Linux","password":true,"vac":true,"version":"7882260","steam_id":85568392924469992,"keywords":["cp","nocrits","nodmgspread","uncletopia"],"game_id":440,"stv_port":27026,"stv_name":"Uncletopia | Los Angeles | 2 | All Maps | STV","players":null},{"server_id":324,"name":"Uncletopia | Los Angeles | 3 | All Maps","name_short":"lax-3","host":"lax-1.us.uncletopia.com","port":27035,"enabled":true,"region":"us-west","cc":"us","latitude":33.94279,"longitude":-118.41004,"reserved":0,"last_update":"0001-01-01T00:00:00Z","name_a2s":"Uncletopia | Los Angeles | 3 | All Maps","protocol":17,"map":"koth_cascade","folder":"tf","game":"Team Fortress","app_id":440,"player_count":0,"max_players":24,"Bots":0,"server_type":"Dedicated","server_os":"Linux","password":true,"vac":true,"version":"7882260","steam_id":85568392924510198,"keywords":["cp","nocrits","nodmgspread","uncletopia"],"game_id":440,"stv_port":27036,"stv_name":"Uncletopia | Los Angeles | 3 | All Maps | STV","players":null},{"server_id":25,"name":"Uncletopia | Los Angeles | 4 | Stopwatch Beta","name_short":"lax-4","host":"lax-1.us.uncletopia.com","port":27045,"enabled":true,"region":"us-west","cc":"us","latitude":33.94279,"longitude":-118.41004,"reserved":0,"last_update":"0001-01-01T00:00:00Z","name_a2s":"Uncletopia | Los Angeles | 4 | Stopwatch Beta","protocol":17,"map":"workshop/koth_ramjam_rc1.ugc459778887","folder":"tf","game":"Team Fortress","app_id":440,"player_count":0,"max_players":24,"Bots":0,"server_type":"Dedicated","server_os":"Linux","password":true,"vac":true,"version":"7882260","steam_id":85568392924510199,"keywords":["cp","nocrits","nodmgspread","uncletopia"],"game_id":440,"stv_port":27046,"stv_name":"Uncletopia | Los Angeles | 4 | Stopwatch Beta | STV","players":null},{"server_id":11,"name":"Uncletopia | London | 1 | All Maps","name_short":"lon-1","host":"lon-1.uk.uncletopia.com","port":27015,"enabled":true,"region":"eu","cc":"gb","latitude":51.509865,"longitude":-0.118092,"reserved":0,"last_update":"0001-01-01T00:00:00Z","name_a2s":"Uncletopia | London | 1 | All Maps","protocol":17,"map":"cp_snakewater_final1","folder":"tf","game":"Team Fortress","app_id":440,"player_count":24,"max_players":24,"Bots":0,"server_type":"Dedicated","server_os":"Linux","password":true,"vac":true,"version":"7882260","steam_id":85568392924367362,"keywords":["cp","nocrits","nodmgspread","uncletopia"],"game_id":440,"stv_port":27016,"stv_name":"Uncletopia | London | 1 | All Maps | STV","players":[{"user_id":658,"name":"Jugg","steam_id":76561198384417257,"connected_time":3925000000000,"state":"active","ping":55},{"user_id":694,"name":"Niggi","steam_id":76561198039866494,"connected_time":1100000000000,"state":"active","ping":73},{"user_id":678,"name":"Son Goku","steam_id":76561199383437138,"connected_time":1781000000000,"state":"active","ping":122},{"user_id":696,"name":"SlwoF√∏","steam_id":76561198049663931,"connected_time":608000000000,"state":"active","ping":55},{"user_id":697,"name":"Emiljosen","steam_id":76561198353691583,"connected_time":563000000000,"state":"active","ping":61},{"user_id":673,"name":"KPhii","steam_id":76561198970587061,"connected_time":2575000000000,"state":"active","ping":69},{"user_id":675,"name":"astigmatic","steam_id":76561199103959197,"connected_time":1813000000000,"state":"active","ping":103},{"user_id":690,"name":"Aaron","steam_id":76561197990046953,"connected_time":1184000000000,"state":"active","ping":60},{"user_id":691,"name":"El Nordiste #SAVETF2","steam_id":76561198321474957,"connected_time":1165000000000,"state":"active","ping":47},{"user_id":659,"name":"Cars","steam_id":76561198173329977,"connected_time":3908000000000,"state":"active","ping":57},{"user_id":681,"name":"Snake-chan","steam_id":76561199044755854,"connected_time":1735000000000,"state":"active","ping":77},{"user_id":686,"name":"Gubbly Bubbins","steam_id":76561198101451654,"connected_time":1654000000000,"state":"active","ping":48},{"user_id":667,"name":"Kahvi","steam_id":76561198723244199,"connected_time":3201000000000,"state":"active","ping":76},{"user_id":700,"name":"Qwertuss","steam_id":76561198026305366,"connected_time":482000000000,"state":"active","ping":57},{"user_id":706,"name":"generic alias","steam_id":76561198271607226,"connected_time":172000000000,"state":"active","ping":84},{"user_id":688,"name":"Steen","steam_id":76561198122992510,"connected_time":1432000000000,"state":"active","ping":45},{"user_id":671,"name":"SOPHIIEE","steam_id":76561198443798981,"connected_time":2676000000000,"state":"active","ping":55},{"user_id":666,"name":"Zarden","steam_id":76561198080638451,"connected_time":3297000000000,"state":"active","ping":45},{"user_id":687,"name":"-_-Steve-_-","steam_id":76561198318786687,"connected_time":1575000000000,"state":"active","ping":46},{"user_id":684,"name":"Real photograph of me","steam_id":76561198236015392,"connected_time":1690000000000,"state":"active","ping":125},{"user_id":692,"name":"mkwii","steam_id":76561198062507768,"connected_time":1165000000000,"state":"active","ping":59},{"user_id":693,"name":"SynthBox3","steam_id":76561199094075745,"connected_time":1142000000000,"state":"active","ping":92},{"user_id":695,"name":"iamSamking","steam_id":76561199099398754,"connected_time":1022000000000,"state":"active","ping":177}]},{"server_id":114,"name":"Uncletopia | London | 2 | All Maps","name_short":"lon-2","host":"lon-1.uk.uncletopia.com","port":27025,"enabled":true,"region":"eu","cc":"gb","latitude":51.509865,"longitude":-0.118092,"reserved":0,"last_update":"0001-01-01T00:00:00Z","name_a2s":"Uncletopia | London | 2 | All Maps","protocol":17,"map":"pl_upward","folder":"tf","game":"Team Fortress","app_id":440,"player_count":14,"max_players":24,"Bots":0,"server_type":"Dedicated","server_os":"Linux","password":true,"vac":true,"version":"7882260","steam_id":85568392924470941,"keywords":["nocrits","nodmgspread","payload","uncletopia"],"game_id":440,"stv_port":27026,"stv_name":"Uncletopia | London | 2 | All Maps | STV","players":[{"user_id":665,"name":"Meddler","steam_id":76561198033001402,"connected_time":545000000000,"state":"active","ping":40},{"user_id":680,"name":"Sneaky boi","steam_id":76561199195985387,"connected_time":366000000000,"state":"active","ping":85},{"user_id":685,"name":"znunney","steam_id":76561199438501613,"connected_time":191000000000,"state":"active","ping":51},{"user_id":620,"name":"Mrbluuub","steam_id":76561199273847084,"connected_time":4694000000000,"state":"active","ping":85},{"user_id":692,"name":"Xiqui","steam_id":76561198818386611,"connected_time":35000000000,"state":"active","ping":80},{"user_id":688,"name":"Poop_toast","steam_id":76561199251933053,"connected_time":124000000000,"state":"active","ping":210},{"user_id":651,"name":"RARE ENDANGERED DEMOMAN CRAB","steam_id":76561199426727764,"connected_time":1542000000000,"state":"active","ping":157},{"user_id":679,"name":"Tryrn","steam_id":76561198075487436,"connected_time":391000000000,"state":"active","ping":90},{"user_id":594,"name":"walluu","steam_id":76561198121830870,"connected_time":6864000000000,"state":"active","ping":75},{"user_id":677,"name":"Spieller","steam_id":76561198057197847,"connected_time":406000000000,"state":"active","ping":76},{"user_id":604,"name":"XPullaHiiri","steam_id":76561198031652375,"connected_time":6188000000000,"state":"active","ping":93},{"user_id":690,"name":"eva.","steam_id":76561198054474684,"connected_time":106000000000,"state":"active","ping":75},{"user_id":691,"name":"mEch114","steam_id":76561198236936060,"connected_time":88000000000,"state":"spawning","ping":175},{"user_id":681,"name":"Providence","steam_id":76561198003920270,"connected_time":343000000000,"state":"active","ping":69}]},{"server_id":320,"name":"Uncletopia | London | 3 | All Maps","name_short":"lon-3","host":"lon-1.uk.uncletopia.com","port":27035,"enabled":true,"region":"eu","cc":"gb","latitude":51.509865,"longitude":-0.118092,"reserved":0,"last_update":"0001-01-01T00:00:00Z","name_a2s":"Uncletopia | London | 3 | All Maps","protocol":17,"map":"pl_rumford_event","folder":"tf","game":"Team Fortress","app_id":440,"player_count":24,"max_players":24,"Bots":0,"server_type":"Dedicated","server_os":"Linux","password":true,"vac":true,"version":"7882260","steam_id":85568392924510192,"keywords":["nocrits","nodmgspread","payload","uncletopia"],"game_id":440,"stv_port":27036,"stv_name":"Uncletopia | London | 3 | All Maps | STV","players":[{"user_id":544,"name":"Mr_Pulse_","steam_id":76561198095001602,"connected_time":4307000000000,"state":"active","ping":107},{"user_id":599,"name":"SKFBoge","steam_id":76561198269038278,"connected_time":204000000000,"state":"active","ping":81},{"user_id":564,"name":"H-say","steam_id":76561198177400362,"connected_time":1947000000000,"state":"active","ping":103},{"user_id":596,"name":"Glitch","steam_id":76561198801335846,"connected_time":241000000000,"state":"active","ping":33},{"user_id":532,"name":"20BB Raxor","steam_id":76561198239927434,"connected_time":4863000000000,"state":"active","ping":79},{"user_id":589,"name":"MAGik","steam_id":76561198085793729,"connected_time":840000000000,"state":"active","ping":92},{"user_id":568,"name":"Miiukade","steam_id":76561198089157860,"connected_time":1658000000000,"state":"active","ping":120},{"user_id":565,"name":"ArmedWithWings","steam_id":76561198154615474,"connected_time":1678000000000,"state":"active","ping":97},{"user_id":570,"name":"ZerCroix","steam_id":76561198199523226,"connected_time":1649000000000,"state":"active","ping":66},{"user_id":597,"name":"Flint","steam_id":76561197995920776,"connected_time":234000000000,"state":"active","ping":51},{"user_id":593,"name":"Darkmaen","steam_id":76561198060543390,"connected_time":529000000000,"state":"active","ping":59},{"user_id":573,"name":"Zina Tv","steam_id":76561198116530769,"connected_time":1603000000000,"state":"active","ping":96},{"user_id":590,"name":"DiJin","steam_id":76561198154349638,"connected_time":691000000000,"state":"active","ping":71},{"user_id":595,"name":"Tort","steam_id":76561198329646769,"connected_time":270000000000,"state":"active","ping":59},{"user_id":598,"name":"big carrot field. growing well","steam_id":76561198069649097,"connected_time":227000000000,"state":"active","ping":50},{"user_id":600,"name":"Malai","steam_id":76561198062537014,"connected_time":154000000000,"state":"active","ping":73},{"user_id":498,"name":"Townsend And Sons","steam_id":76561199072698153,"connected_time":6964000000000,"state":"active","ping":67},{"user_id":587,"name":"Charles Darwin","steam_id":76561197973496139,"connected_time":1124000000000,"state":"active","ping":74},{"user_id":601,"name":"Eoi","steam_id":76561198066980960,"connected_time":46000000000,"state":"active","ping":50},{"user_id":583,"name":"lulu","steam_id":76561199147764133,"connected_time":1171000000000,"state":"active","ping":69},{"user_id":584,"name":"Liza–Ødl–ß","steam_id":76561198176750238,"connected_time":1169000000000,"state":"active","ping":73},{"user_id":585,"name":"ramirez","steam_id":76561198117060048,"connected_time":1155000000000,"state":"active","ping":73},{"user_id":602,"name":"max","steam_id":76561198027033926,"connected_time":5000000000,"state":"spawning","ping":46},{"user_id":495,"name":"tha virgin suicides","steam_id":76561198011155232,"connected_time":7181000000000,"state":"active","ping":60}]},{"server_id":321,"name":"Uncletopia | London | 4 | All Maps","name_short":"lon-4","host":"lon-1.uk.uncletopia.com","port":27045,"enabled":true,"region":"eu","cc":"gb","latitude":51.509865,"longitude":-0.118092,"reserved":0,"last_update":"0001-01-01T00:00:00Z","name_a2s":"Uncletopia | London | 4 | All Maps","protocol":17,"map":"pl_borneo","folder":"tf","game":"Team Fortress","app_id":440,"player_count":21,"max_players":24,"Bots":0,"server_type":"Dedicated","server_os":"Linux","password":true,"vac":true,"version":"7882260","steam_id":85568392924510193,"keywords":["nocrits","nodmgspread","payload","uncletopia"],"game_id":440,"stv_port":27046,"stv_name":"Uncletopia | London | 4 | All Maps | STV","players":[{"user_id":742,"name":"vurtun","steam_id":76561198857395274,"connected_time":57000000000,"state":"active","ping":62},{"user_id":743,"name":"nope","steam_id":76561199385522547,"connected_time":40000000000,"state":"active","ping":93},{"user_id":721,"name":"Penis Contortionist","steam_id":76561198073663784,"connected_time":1700000000000,"state":"active","ping":39},{"user_id":736,"name":"Astolfo","steam_id":76561198354584982,"connected_time":820000000000,"state":"active","ping":56},{"user_id":744,"name":"WOW i'm dead","steam_id":76561199082267619,"connected_time":21000000000,"state":"active","ping":113},{"user_id":740,"name":"iokoieon","steam_id":76561198065009070,"connected_time":383000000000,"state":"active","ping":83},{"user_id":734,"name":"hayley","steam_id":76561198215714252,"connected_time":896000000000,"state":"active","ping":42},{"user_id":745,"name":"ChrisMightShootYou (f2p)","steam_id":76561199002764196,"connected_time":9000000000,"state":"spawning","ping":85},{"user_id":707,"name":"Farmercy","steam_id":76561198000038039,"connected_time":2714000000000,"state":"active","ping":60},{"user_id":746,"name":"Pepegi","steam_id":76561198001230113,"connected_time":2000000000,"state":"spawning","ping":67},{"user_id":747,"name":"laser","steam_id":76561198036030697,"connected_time":1000000000,"state":"spawning","ping":59},{"user_id":701,"name":"eeeeee","steam_id":76561198017786875,"connected_time":2910000000000,"state":"active","ping":68},{"user_id":728,"name":"flange","steam_id":76561198040182692,"connected_time":1221000000000,"state":"active","ping":33},{"user_id":706,"name":"Carrotcracker","steam_id":76561198034862396,"connected_time":2758000000000,"state":"active","ping":79},{"user_id":729,"name":"Toopy","steam_id":76561198041708820,"connected_time":1208000000000,"state":"active","ping":56},{"user_id":735,"name":"doe","steam_id":76561198032858979,"connected_time":872000000000,"state":"active","ping":68},{"user_id":722,"name":"holykyckling","steam_id":76561198040661615,"connected_time":1645000000000,"state":"active","ping":74},{"user_id":717,"name":"fshfkr","steam_id":76561198095979282,"connected_time":2270000000000,"state":"active","ping":43},{"user_id":671,"name":"L4gman","steam_id":76561198048227040,"connected_time":5544000000000,"state":"active","ping":100},{"user_id":737,"name":"Martin Freeman","steam_id":76561198021333922,"connected_time":816000000000,"state":"active","ping":57},{"user_id":723,"name":"Dreyfus","steam_id":76561198366687805,"connected_time":1642000000000,"state":"active","ping":68}]},{"server_id":21,"name":"Uncletopia | London | 5 | All Maps","name_short":"lon-5","host":"lon-1.uk.uncletopia.com","port":27055,"enabled":true,"region":"eu","cc":"gb","latitude":51.509865,"longitude":-0.118092,"reserved":0,"last_update":"0001-01-01T00:00:00Z","name_a2s":"Uncletopia | London | 5 | All Maps","protocol":17,"map":"pl_pier","folder":"tf","game":"Team Fortress","app_id":440,"player_count":24,"max_players":24,"Bots":0,"server_type":"Dedicated","server_os":"Linux","password":true,"vac":true,"version":"7882260","steam_id":85568392924742829,"keywords":["nocrits","nodmgspread","payload","uncletopia"],"game_id":440,"stv_port":27056,"stv_name":"Uncletopia | London | 5 | All Maps | STV","players":[{"user_id":433,"name":"‚ô•Solomon‚ô•","steam_id":76561198375918608,"connected_time":465000000000,"state":"active","ping":133},{"user_id":416,"name":" Ä…™·¥ã·¥è·¥ò‚ìΩ","steam_id":76561198101822510,"connected_time":1360000000000,"state":"active","ping":79},{"user_id":397,"name":"kaelan","steam_id":76561198001425310,"connected_time":2519000000000,"state":"active","ping":75},{"user_id":422,"name":"–î–µ–Ω–∏—Å –ë–∞–∑—É–∫–∞","steam_id":76561198835849082,"connected_time":1110000000000,"state":"active","ping":75},{"user_id":431,"name":"Benzo Fury","steam_id":76561198025259336,"connected_time":753000000000,"state":"active","ping":44},{"user_id":398,"name":"Jesse Fatcoc","steam_id":76561199004942770,"connected_time":2510000000000,"state":"active","ping":71},{"user_id":406,"name":"b r o o g ?","steam_id":76561198280834819,"connected_time":2065000000000,"state":"active","ping":64},{"user_id":413,"name":"Dr Ludwig","steam_id":76561198426522902,"connected_time":1672000000000,"state":"active","ping":53},{"user_id":409,"name":"Max Andrew","steam_id":76561198158955194,"connected_time":1963000000000,"state":"active","ping":57},{"user_id":424,"name":"axalotly-gaming","steam_id":76561199131971501,"connected_time":1080000000000,"state":"active","ping":99},{"user_id":399,"name":"biohazard.pt","steam_id":76561198088367808,"connected_time":2487000000000,"state":"active","ping":75},{"user_id":385,"name":"Ketich","steam_id":76561198021772703,"connected_time":3348000000000,"state":"active","ping":84},{"user_id":425,"name":"r06u3","steam_id":76561198254099253,"connected_time":1066000000000,"state":"active","ping":181},{"user_id":436,"name":"gamering","steam_id":76561198047359132,"connected_time":175000000000,"state":"active","ping":75},{"user_id":428,"name":"Dr Sex","steam_id":76561198029044617,"connected_time":1003000000000,"state":"active","ping":49},{"user_id":417,"name":"FŒªrlOw","steam_id":76561198002785623,"connected_time":1337000000000,"state":"active","ping":64},{"user_id":435,"name":"Rizziologist","steam_id":76561198089003514,"connected_time":242000000000,"state":"active","ping":51},{"user_id":379,"name":"Minimi","steam_id":76561198873850443,"connected_time":3696000000000,"state":"active","ping":39},{"user_id":380,"name":"Pinkchup","steam_id":76561198106802803,"connected_time":3693000000000,"state":"active","ping":78},{"user_id":418,"name":"Crumble104","steam_id":76561198829535411,"connected_time":1310000000000,"state":"active","ping":55},{"user_id":434,"name":"Berdly","steam_id":76561199029872533,"connected_time":279000000000,"state":"active","ping":48},{"user_id":358,"name":"xX_DogWater-Gaming69_Xx","steam_id":76561198335486000,"connected_time":5210000000000,"state":"active","ping":66},{"user_id":420,"name":"Kolanciasty ‚ô•","steam_id":76561198020042179,"connected_time":1251000000000,"state":"active","ping":90},{"user_id":432,"name":"normalperson","steam_id":76561199376144500,"connected_time":721000000000,"state":"active","ping":37}]},{"server_id":22,"name":"Uncletopia | London | 6 | All Maps","name_short":"lon-6","host":"lon-1.uk.uncletopia.com","port":27065,"enabled":true,"region":"eu","cc":"gb","latitude":51.509865,"longitude":-0.118092,"reserved":0,"last_update":"0001-01-01T00:00:00Z","name_a2s":"Uncletopia | London | 6 | All Maps","protocol":17,"map":"pl_pier","folder":"tf","game":"Team Fortress","app_id":440,"player_count":24,"max_players":24,"Bots":0,"server_type":"Dedicated","server_os":"Linux","password":true,"vac":true,"version":"7882260","steam_id":85568392924742830,"keywords":["nocrits","nodmgspread","payload","uncletopia"],"game_id":440,"stv_port":27066,"stv_name":"Uncletopia | London | 6 | All Maps | STV","players":[{"user_id":144,"name":"mt","steam_id":76561197961319303,"connected_time":2982000000000,"state":"active","ping":60},{"user_id":132,"name":"FATTY","steam_id":76561198087962709,"connected_time":3670000000000,"state":"active","ping":80},{"user_id":117,"name":"Miss Bari","steam_id":76561198365286092,"connected_time":4438000000000,"state":"active","ping":38},{"user_id":120,"name":"ThatSiegeKid","steam_id":76561198368037656,"connected_time":4243000000000,"state":"active","ping":35},{"user_id":119,"name":"Doctor_BalderdashTTV","steam_id":76561198171109398,"connected_time":4283000000000,"state":"active","ping":52},{"user_id":154,"name":"‚ò≠ybercat","steam_id":76561198014070417,"connected_time":969000000000,"state":"active","ping":63},{"user_id":146,"name":"Udinese Dion","steam_id":76561198067931573,"connected_time":1961000000000,"state":"active","ping":53},{"user_id":145,"name":"≈†≈´da≈°almis","steam_id":76561198052802448,"connected_time":1973000000000,"state":"active","ping":62},{"user_id":143,"name":"Emma","steam_id":76561198076724979,"connected_time":3061000000000,"state":"active","ping":65},{"user_id":155,"name":"–ö—Ä–æ–∫–æ–¥–∏–ª –ì–µ–Ω–∞","steam_id":76561198139765643,"connected_time":954000000000,"state":"active","ping":95},{"user_id":156,"name":"skaaNe","steam_id":76561198096543219,"connected_time":938000000000,"state":"active","ping":100},{"user_id":157,"name":"Spectre","steam_id":76561198163819482,"connected_time":914000000000,"state":"active","ping":68},{"user_id":158,"name":"Banatical Bean","steam_id":76561198122356617,"connected_time":898000000000,"state":"active","ping":68},{"user_id":69,"name":"medick","steam_id":76561199380849468,"connected_time":7216000000000,"state":"active","ping":64},{"user_id":75,"name":"hipster_doofus","steam_id":76561197970902697,"connected_time":6620000000000,"state":"active","ping":58},{"user_id":170,"name":"simply honeycomb syrup","steam_id":76561198180361759,"connected_time":270000000000,"state":"active","ping":44},{"user_id":138,"name":"FoOzTV","steam_id":76561197998636728,"connected_time":3568000000000,"state":"active","ping":69},{"user_id":169,"name":"Borat","steam_id":76561198122226417,"connected_time":303000000000,"state":"active","ping":45},{"user_id":61,"name":"frosty","steam_id":76561198094560834,"connected_time":7674000000000,"state":"active","ping":53},{"user_id":160,"name":"Kurage","steam_id":76561198021221288,"connected_time":895000000000,"state":"active","ping":69},{"user_id":136,"name":"vadr","steam_id":76561198334528186,"connected_time":3636000000000,"state":"active","ping":47},{"user_id":70,"name":"Spurt","steam_id":76561198078523852,"connected_time":6906000000000,"state":"active","ping":54},{"user_id":151,"name":"Pootis","steam_id":76561198823265247,"connected_time":1679000000000,"state":"active","ping":88},{"user_id":168,"name":"Raine","steam_id":76561198098860903,"connected_time":580000000000,"state":"active","ping":69}]},{"server_id":40,"name":"Uncletopia | London | 7 | No Payload","name_short":"lon-7","host":"lon-1.uk.uncletopia.com","port":27075,"enabled":true,"region":"eu","cc":"gb","latitude":51.509865,"longitude":-0.118092,"reserved":0,"last_update":"0001-01-01T00:00:00Z","name_a2s":"Uncletopia | London | 7 | No Payload","protocol":17,"map":"koth_viaduct","folder":"tf","game":"Team Fortress","app_id":440,"player_count":16,"max_players":24,"Bots":0,"server_type":"Dedicated","server_os":"Linux","password":true,"vac":true,"version":"7882260","steam_id":85568392924964314,"keywords":["cp","nocrits","nodmgspread","uncletopia"],"game_id":440,"stv_port":27076,"stv_name":"Uncletopia | London | 7 | No Payload | STV","players":[{"user_id":77,"name":"dog","steam_id":76561198063919822,"connected_time":1214000000000,"state":"active","ping":37},{"user_id":74,"name":"big piss","steam_id":76561198041295143,"connected_time":1528000000000,"state":"active","ping":47},{"user_id":82,"name":"Nithle","steam_id":76561198025372740,"connected_time":527000000000,"state":"active","ping":30},{"user_id":89,"name":"futer","steam_id":76561198059699043,"connected_time":87000000000,"state":"active","ping":82},{"user_id":90,"name":"Dark Wizart","steam_id":76561198377689439,"connected_time":78000000000,"state":"active","ping":77},{"user_id":53,"name":"Clark","steam_id":76561198120498831,"connected_time":2958000000000,"state":"active","ping":45},{"user_id":55,"name":"Fish 'n' Chips","steam_id":76561198033476886,"connected_time":2872000000000,"state":"active","ping":50},{"user_id":72,"name":"sHIFTINGvORTEX","steam_id":76561198231648332,"connected_time":1628000000000,"state":"active","ping":61},{"user_id":71,"name":"ran is running","steam_id":76561199443185667,"connected_time":1919000000000,"state":"active","ping":134},{"user_id":54,"name":"Falling Apples","steam_id":76561198122762346,"connected_time":2921000000000,"state":"active","ping":53},{"user_id":57,"name":"kornetov.vitalya","steam_id":76561199286034833,"connected_time":2663000000000,"state":"active","ping":100},{"user_id":59,"name":"gentlefard","steam_id":76561199098960193,"connected_time":2490000000000,"state":"active","ping":75},{"user_id":62,"name":"Prostate stealer","steam_id":76561198866972538,"connected_time":2288000000000,"state":"active","ping":89},{"user_id":76,"name":"Anon","steam_id":76561198161044725,"connected_time":1456000000000,"state":"active","ping":45},{"user_id":79,"name":"Trentin","steam_id":76561198328665196,"connected_time":1167000000000,"state":"active","ping":53},{"user_id":80,"name":"reatardhole","steam_id":76561198141217941,"connected_time":1162000000000,"state":"active","ping":110}]},{"server_id":41,"name":"Uncletopia | London | 8 | Community","name_short":"lon-8","host":"lon-1.uk.uncletopia.com","port":27085,"enabled":true,"region":"eu","cc":"gb","latitude":51.509865,"longitude":-0.118092,"reserved":0,"last_update":"0001-01-01T00:00:00Z","name_a2s":"Uncletopia | London | 8 | Community","protocol":17,"map":"workshop/koth_synthetic_rc6a.ugc1549817316","folder":"tf","game":"Team Fortress","app_id":440,"player_count":0,"max_players":24,"Bots":0,"server_type":"Dedicated","server_os":"Linux","password":true,"vac":true,"version":"7882260","steam_id":85568392924964315,"keywords":["cp","nocrits","nodmgspread","uncletopia"],"game_id":440,"stv_port":27086,"stv_name":"Uncletopia | London | 8 | Community | STV","players":null},{"server_id":300,"name":"Uncletopia | Montr√©al | 1 | All Maps","name_short":"mtl-1","host":"mtl-1.ca.uncletopia.com","port":27015,"enabled":true,"region":"us-east","cc":"ca","latitude":45.50889,"longitude":-73.56167,"reserved":0,"last_update":"0001-01-01T00:00:00Z","name_a2s":"Uncletopia | Montr√©al | 1 | All Maps","protocol":17,"map":"cp_process_final","folder":"tf","game":"Team Fortress","app_id":440,"player_count":0,"max_players":24,"Bots":0,"server_type":"Dedicated","server_os":"Linux","password":true,"vac":true,"version":"7882260","steam_id":85568392924500087,"keywords":["cp","nocrits","nodmgspread","uncletopia"],"game_id":440,"stv_port":27016,"stv_name":"Uncletopia | Montr√©al | 1 | All Maps | STV","players":null},{"server_id":301,"name":"Uncletopia | Montr√©al | 2 | All Maps","name_short":"mtl-2","host":"mtl-1.ca.uncletopia.com","port":27025,"enabled":true,"region":"us-east","cc":"ca","latitude":45.50889,"longitude":-73.56167,"reserved":0,"last_update":"0001-01-01T00:00:00Z","name_a2s":"Uncletopia | Montr√©al | 2 | All Maps","protocol":17,"map":"pl_swiftwater_final1","folder":"tf","game":"Team Fortress","app_id":440,"player_count":0,"max_players":24,"Bots":0,"server_type":"Dedicated","server_os":"Linux","password":true,"vac":true,"version":"7882260","steam_id":85568392924500088,"keywords":["nocrits","nodmgspread","payload","uncletopia"],"game_id":440,"stv_port":27026,"stv_name":"Uncletopia | Montr√©al | 2 | All Maps | STV","players":null},{"server_id":302,"name":"Uncletopia | Montr√©al | 3 | All Maps","name_short":"mtl-3","host":"mtl-1.ca.uncletopia.com","port":27035,"enabled":true,"region":"us-east","cc":"ca","latitude":45.50889,"longitude":-73.56167,"reserved":0,"last_update":"0001-01-01T00:00:00Z","name_a2s":"Uncletopia | Montr√©al | 3 | All Maps","protocol":17,"map":"pl_borneo","folder":"tf","game":"Team Fortress","app_id":440,"player_count":0,"max_players":24,"Bots":0,"server_type":"Dedicated","server_os":"Linux","password":true,"vac":true,"version":"7882260","steam_id":85568392924500089,"keywords":["nocrits","nodmgspread","payload","uncletopia"],"game_id":440,"stv_port":27036,"stv_name":"Uncletopia | Montr√©al | 3 | All Maps | STV","players":null},{"server_id":303,"name":"Uncletopia | Montr√©al | 4 | No Payload","name_short":"mtl-4","host":"mtl-1.ca.uncletopia.com","port":27045,"enabled":true,"region":"us-east","cc":"ca","latitude":45.50889,"longitude":-73.56167,"reserved":0,"last_update":"0001-01-01T00:00:00Z","name_a2s":"Uncletopia | Montr√©al | 4 | No Payload","protocol":17,"map":"koth_nucleus","folder":"tf","game":"Team Fortress","app_id":440,"player_count":0,"max_players":24,"Bots":0,"server_type":"Dedicated","server_os":"Linux","password":true,"vac":true,"version":"7882260","steam_id":85568392924500090,"keywords":["cp","nocrits","nodmgspread","uncletopia"],"game_id":440,"stv_port":27046,"stv_name":"Uncletopia | Montr√©al | 4 | No Payload | STV","players":null},{"server_id":13,"name":"Uncletopia | New York City | 1 | All Maps","name_short":"nyc-1","host":"nyc-1.us.uncletopia.com","port":27015,"enabled":true,"region":"us-east","cc":"us","latitude":40.73061,"longitude":-73.93524,"reserved":0,"last_update":"0001-01-01T00:00:00Z","name_a2s":"Uncletopia | New York City | 1 | All Maps","protocol":17,"map":"cp_process_final","folder":"tf","game":"Team Fortress","app_id":440,"player_count":24,"max_players":24,"Bots":0,"server_type":"Dedicated","server_os":"Linux","password":true,"vac":true,"version":"7882260","steam_id":85568392924469993,"keywords":["cp","nocrits","nodmgspread","uncletopia"],"game_id":440,"stv_port":27016,"stv_name":"Uncletopia | New York City | 1 | All Maps | STV","players":[{"user_id":356,"name":"homer","steam_id":76561198171491110,"connected_time":205000000000,"state":"active","ping":50},{"user_id":331,"name":"SentientKitKatBar(F2P)","steam_id":76561198842149924,"connected_time":2110000000000,"state":"active","ping":185},{"user_id":333,"name":"ryvn","steam_id":76561198355645915,"connected_time":1359000000000,"state":"active","ping":59},{"user_id":306,"name":"marge","steam_id":76561198064823861,"connected_time":3403000000000,"state":"active","ping":49},{"user_id":358,"name":"Gamerdude313","steam_id":76561198869211435,"connected_time":171000000000,"state":"active","ping":69},{"user_id":314,"name":"Junkfish","steam_id":76561199168630846,"connected_time":2814000000000,"state":"active","ping":65},{"user_id":335,"name":"Alexthegreat","steam_id":76561197996796222,"connected_time":1341000000000,"state":"active","ping":47},{"user_id":336,"name":"$lime k‚úîng WHYYYTEb0y^-^","steam_id":76561198283687382,"connected_time":1274000000000,"state":"active","ping":84},{"user_id":338,"name":"Lain","steam_id":76561198252784944,"connected_time":1217000000000,"state":"active","ping":105},{"user_id":359,"name":"john01k","steam_id":76561198059731548,"connected_time":87000000000,"state":"active","ping":86},{"user_id":360,"name":"saib","steam_id":76561198966980576,"connected_time":14000000000,"state":"active","ping":37},{"user_id":340,"name":"pigswill","steam_id":76561197999081865,"connected_time":1191000000000,"state":"active","ping":67},{"user_id":318,"name":"OMGimAnoobLOLOL","steam_id":76561198879677475,"connected_time":2751000000000,"state":"active","ping":89},{"user_id":350,"name":"SireOfTheSun","steam_id":76561199049465503,"connected_time":571000000000,"state":"active","ping":49},{"user_id":342,"name":"C-Moon","steam_id":76561198093688740,"connected_time":1158000000000,"state":"active","ping":77},{"user_id":355,"name":"totally nuts","steam_id":76561198072856511,"connected_time":264000000000,"state":"active","ping":65},{"user_id":344,"name":"Revenant","steam_id":76561198074139416,"connected_time":1153000000000,"state":"active","ping":104},{"user_id":345,"name":"GrapeGoodra","steam_id":76561198042141579,"connected_time":1140000000000,"state":"active","ping":84},{"user_id":346,"name":"Nonok","steam_id":76561199480685498,"connected_time":1122000000000,"state":"active","ping":132},{"user_id":301,"name":"Nerrrd_","steam_id":76561198870129960,"connected_time":3729000000000,"state":"active","ping":46},{"user_id":308,"name":"Brunch","steam_id":76561198045933938,"connected_time":3036000000000,"state":"active","ping":45},{"user_id":323,"name":"Failtastic","steam_id":76561198994009973,"connected_time":2478000000000,"state":"active","ping":56},{"user_id":332,"name":"Viokik","steam_id":76561198408846602,"connected_time":1433000000000,"state":"active","ping":51},{"user_id":353,"name":"you died? damn.","steam_id":76561198129612090,"connected_time":406000000000,"state":"active","ping":93}]},{"server_id":14,"name":"Uncletopia | New York City | 2 | All Maps","name_short":"nyc-2","host":"nyc-1.us.uncletopia.com","port":27025,"enabled":true,"region":"us-east","cc":"us","latitude":40.73061,"longitude":-73.93524,"reserved":0,"last_update":"0001-01-01T00:00:00Z","name_a2s":"Uncletopia | New York City | 2 | All Maps","protocol":17,"map":"cp_fastlane","folder":"tf","game":"Team Fortress","app_id":440,"player_count":24,"max_players":24,"Bots":0,"server_type":"Dedicated","server_os":"Linux","password":true,"vac":true,"version":"7882260","steam_id":85568392924469994,"keywords":["cp","nocrits","nodmgspread","uncletopia"],"game_id":440,"stv_port":27026,"stv_name":"Uncletopia | New York City | 2 | All Maps | STV","players":[{"user_id":153,"name":"J21","steam_id":76561198066590783,"connected_time":97000000000,"state":"active","ping":63},{"user_id":57,"name":"xxa","steam_id":76561197984735021,"connected_time":3734000000000,"state":"active","ping":93},{"user_id":50,"name":"Suez","steam_id":76561198034642980,"connected_time":4317000000000,"state":"active","ping":92},{"user_id":15,"name":"Mr.noob","steam_id":76561199200442395,"connected_time":5963000000000,"state":"active","ping":154},{"user_id":145,"name":"10KO!","steam_id":76561199134895220,"connected_time":667000000000,"state":"active","ping":53},{"user_id":28,"name":"Metapod","steam_id":76561198008725465,"connected_time":5027000000000,"state":"active","ping":63},{"user_id":157,"name":"The Muffin Man","steam_id":76561199084805759,"connected_time":11000000000,"state":"active","ping":96},{"user_id":19,"name":"Spectre","steam_id":76561198025652246,"connected_time":5396000000000,"state":"active","ping":51},{"user_id":150,"name":"Sigiferd","steam_id":76561198148788110,"connected_time":403000000000,"state":"active","ping":133},{"user_id":152,"name":"Pizza \u003c3","steam_id":76561198087357023,"connected_time":127000000000,"state":"active","ping":116},{"user_id":146,"name":"gmaay","steam_id":76561199104911185,"connected_time":521000000000,"state":"active","ping":49},{"user_id":154,"name":"Paul Blart","steam_id":76561198068110623,"connected_time":72000000000,"state":"active","ping":112},{"user_id":135,"name":"Jeffenthropus","steam_id":76561198134204248,"connected_time":1830000000000,"state":"active","ping":58},{"user_id":53,"name":"Horrizan","steam_id":76561197965028480,"connected_time":3877000000000,"state":"active","ping":90},{"user_id":126,"name":"Baron von Whoopsie","steam_id":76561197996691013,"connected_time":2308000000000,"state":"active","ping":58},{"user_id":144,"name":"nalezinik","steam_id":76561198030026119,"connected_time":706000000000,"state":"active","ping":60},{"user_id":155,"name":"Oh no","steam_id":76561198123441203,"connected_time":55000000000,"state":"active","ping":72},{"user_id":151,"name":"chroma","steam_id":76561198050188632,"connected_time":259000000000,"state":"active","ping":48},{"user_id":156,"name":"mr.edderkopper","steam_id":76561198152614478,"connected_time":47000000000,"state":"active","ping":62},{"user_id":137,"name":"Cheesi","steam_id":76561199417190840,"connected_time":1713000000000,"state":"active","ping":84},{"user_id":52,"name":"frizzle fried","steam_id":76561198062991744,"connected_time":4282000000000,"state":"active","ping":46},{"user_id":143,"name":"PieTheMan","steam_id":76561198027825469,"connected_time":825000000000,"state":"active","ping":85},{"user_id":138,"name":"Engiqueer","steam_id":76561198214080773,"connected_time":1556000000000,"state":"active","ping":66},{"user_id":46,"name":"Chilidestroy","steam_id":76561199101551797,"connected_time":4494000000000,"state":"active","ping":80}]},{"server_id":15,"name":"Uncletopia | New York City | 3 | Stopwatch Beta","name_short":"nyc-3","host":"nyc-1.us.uncletopia.com","port":27035,"enabled":true,"region":"us-east","cc":"us","latitude":40.73061,"longitude":-73.93524,"reserved":0,"last_update":"0001-01-01T00:00:00Z","name_a2s":"Uncletopia | New York City | 3 | Stopwatch Beta","protocol":17,"map":"pl_borneo","folder":"tf","game":"Team Fortress","app_id":440,"player_count":0,"max_players":24,"Bots":0,"server_type":"Dedicated","server_os":"Linux","password":true,"vac":true,"version":"7882260","steam_id":85568392924742820,"keywords":["nocrits","nodmgspread","payload","uncletopia"],"game_id":440,"stv_port":27036,"stv_name":"Uncletopia | New York City | 3 | Stopwatch Beta | STV","players":null},{"server_id":16,"name":"Uncletopia | New York City | 4 | Community","name_short":"nyc-4","host":"nyc-1.us.uncletopia.com","port":27045,"enabled":true,"region":"us-east","cc":"us","latitude":40.73061,"longitude":-73.93524,"reserved":0,"last_update":"0001-01-01T00:00:00Z","name_a2s":"Uncletopia | New York City | 4 | Community","protocol":17,"map":"pl_badwater","folder":"tf","game":"Team Fortress","app_id":440,"player_count":0,"max_players":24,"Bots":0,"server_type":"Dedicated","server_os":"Linux","password":true,"vac":true,"version":"7882260","steam_id":85568392924742821,"keywords":["nocrits","nodmgspread","payload","uncletopia"],"game_id":440,"stv_port":27046,"stv_name":"Uncletopia | New York City | 4 | Community | STV","players":null},{"server_id":142,"name":"Uncletopia | S√£o Paulo | 1 | All Maps","name_short":"sao-1","host":"sao-1.br.uncletopia.com","port":27015,"enabled":true,"region":"sa","cc":"br","latitude":-23.533773,"longitude":-46.62529,"reserved":0,"last_update":"0001-01-01T00:00:00Z","name_a2s":"Uncletopia | S√£o Paulo | 1 | All Maps","protocol":17,"map":"koth_lakeside_final","folder":"tf","game":"Team Fortress","app_id":440,"player_count":0,"max_players":24,"Bots":0,"server_type":"Dedicated","server_os":"Linux","password":true,"vac":true,"version":"7882260","steam_id":85568392924469996,"keywords":["cp","nocrits","nodmgspread","uncletopia"],"game_id":440,"stv_port":27016,"stv_name":"Uncletopia | S√£o Paulo | 1 | All Maps | STV","players":null},{"server_id":143,"name":"Uncletopia | S√£o Paulo | 2 | All Maps","name_short":"sao-2","host":"sao-2.br.uncletopia.com","port":27015,"enabled":true,"region":"sa","cc":"br","latitude":-23.533773,"longitude":-46.62529,"reserved":0,"last_update":"0001-01-01T00:00:00Z","name_a2s":"Uncletopia | S√£o Paulo | 2 | All Maps","protocol":17,"map":"koth_lakeside_final","folder":"tf","game":"Team Fortress","app_id":440,"player_count":13,"max_players":24,"Bots":0,"server_type":"Dedicated","server_os":"Linux","password":true,"vac":true,"version":"7882260","steam_id":85568392924485349,"keywords":["cp","nocrits","nodmgspread","uncletopia"],"game_id":440,"stv_port":27016,"stv_name":"Uncletopia | S√£o Paulo | 2 | All Maps | STV","players":[{"user_id":78,"name":"stuwpid pyo maim","steam_id":76561199246901712,"connected_time":2222000000000,"state":"active","ping":45},{"user_id":83,"name":"Doctor","steam_id":76561198830196340,"connected_time":903000000000,"state":"active","ping":24},{"user_id":80,"name":"Anthy-chan","steam_id":76561198381380154,"connected_time":1632000000000,"state":"active","ping":58},{"user_id":84,"name":"Mikael_01","steam_id":76561199080253129,"connected_time":846000000000,"state":"active","ping":56},{"user_id":82,"name":"ZemannKiller","steam_id":76561199455618597,"connected_time":1300000000000,"state":"active","ping":241},{"user_id":86,"name":"Blue9Fairy","steam_id":76561198039942928,"connected_time":699000000000,"state":"active","ping":45},{"user_id":87,"name":"lambari makonha","steam_id":76561198169083341,"connected_time":647000000000,"state":"active","ping":56},{"user_id":88,"name":"vinisaurus","steam_id":76561198112127509,"connected_time":622000000000,"state":"active","ping":63},{"user_id":89,"name":"MyPingIsHuge","steam_id":76561198011730213,"connected_time":473000000000,"state":"active","ping":45},{"user_id":90,"name":"Udonge","steam_id":76561198350838015,"connected_time":372000000000,"state":"active","ping":33},{"user_id":91,"name":"jr_","steam_id":76561198313937899,"connected_time":222000000000,"state":"active","ping":45},{"user_id":92,"name":"El Guas√≥n","steam_id":76561198129640271,"connected_time":129000000000,"state":"active","ping":70},{"user_id":93,"name":"red","steam_id":76561198172912625,"connected_time":105000000000,"state":"active","ping":64}]},{"server_id":7,"name":"Uncletopia | Seattle | 1 | All Maps","name_short":"sea-1","host":"sea-1.us.uncletopia.com","port":27015,"enabled":true,"region":"us-west","cc":"us","latitude":47.608013,"longitude":-122.33517,"reserved":0,"last_update":"0001-01-01T00:00:00Z","name_a2s":"Uncletopia | Seattle | 1 | All Maps","protocol":17,"map":"pl_badwater","folder":"tf","game":"Team Fortress","app_id":440,"player_count":24,"max_players":24,"Bots":0,"server_type":"Dedicated","server_os":"Linux","password":true,"vac":true,"version":"7882260","steam_id":85568392924469997,"keywords":["nocrits","nodmgspread","payload","uncletopia"],"game_id":440,"stv_port":27016,"stv_name":"Uncletopia | Seattle | 1 | All Maps | STV","players":[{"user_id":368,"name":"„Åµ„Çè„Åµ„ÇèÊØõÂ∏É","steam_id":76561198088403016,"connected_time":35000000000,"state":"active","ping":181},{"user_id":321,"name":"FreehandBlock51","steam_id":76561198993505645,"connected_time":3635000000000,"state":"active","ping":56},{"user_id":356,"name":"crouton.net","steam_id":76561198068374646,"connected_time":1545000000000,"state":"active","ping":71},{"user_id":346,"name":"CrazyKermitRubes","steam_id":76561198009065204,"connected_time":1950000000000,"state":"active","ping":128},{"user_id":286,"name":"Fh","steam_id":76561198000903511,"connected_time":6881000000000,"state":"active","ping":61},{"user_id":288,"name":"Pneumo.","steam_id":76561197987911883,"connected_time":6559000000000,"state":"active","ping":64},{"user_id":347,"name":"PyroManiac","steam_id":76561198005988491,"connected_time":1945000000000,"state":"active","ping":87},{"user_id":345,"name":"Thewaffleman141","steam_id":76561198083068694,"connected_time":2230000000000,"state":"active","ping":101},{"user_id":359,"name":"Pubk","steam_id":76561198095939571,"connected_time":1104000000000,"state":"active","ping":36},{"user_id":348,"name":"Peepster","steam_id":76561198297854733,"connected_time":1945000000000,"state":"active","ping":108},{"user_id":343,"name":"Grilled Jizo","steam_id":76561199250875340,"connected_time":2268000000000,"state":"active","ping":63},{"user_id":367,"name":"DrStarBucksCoffee","steam_id":76561198037372470,"connected_time":45000000000,"state":"active","ping":74},{"user_id":353,"name":"iaPK","steam_id":76561198056618642,"connected_time":1806000000000,"state":"active","ping":77},{"user_id":365,"name":"dust | she/it","steam_id":76561198045218909,"connected_time":57000000000,"state":"active","ping":32},{"user_id":334,"name":"Apollo","steam_id":76561198162364702,"connected_time":2991000000000,"state":"active","ping":48},{"user_id":361,"name":"Mico (Mico)","steam_id":76561198125462953,"connected_time":473000000000,"state":"active","ping":46},{"user_id":316,"name":"Little Linguine","steam_id":76561198816986370,"connected_time":3890000000000,"state":"active","ping":53},{"user_id":305,"name":"Manchurian Bandit","steam_id":76561198072410042,"connected_time":4970000000000,"state":"active","ping":80},{"user_id":369,"name":"Strikerbolt","steam_id":76561199095622897,"connected_time":35000000000,"state":"active","ping":83},{"user_id":352,"name":"Keamy","steam_id":76561199471434875,"connected_time":1859000000000,"state":"active","ping":39},{"user_id":292,"name":"Jolly","steam_id":76561198116357972,"connected_time":6347000000000,"state":"active","ping":63},{"user_id":366,"name":"2 for $3.50 McChickens","steam_id":76561198089908660,"connected_time":57000000000,"state":"active","ping":79},{"user_id":355,"name":"Lot 105","steam_id":76561198972835565,"connected_time":1733000000000,"state":"active","ping":33},{"user_id":308,"name":"Quarter Cheese","steam_id":76561198115814588,"connected_time":4479000000000,"state":"active","ping":38}]},{"server_id":119,"name":"Uncletopia | Seattle | 2 | All Maps","name_short":"sea-2","host":"sea-1.us.uncletopia.com","port":27025,"enabled":true,"region":"us-west","cc":"us","latitude":47.608013,"longitude":-122.33517,"reserved":0,"last_update":"0001-01-01T00:00:00Z","name_a2s":"Uncletopia | Seattle | 2 | All Maps","protocol":17,"map":"pl_thundermountain","folder":"tf","game":"Team Fortress","app_id":440,"player_count":24,"max_players":24,"Bots":0,"server_type":"Dedicated","server_os":"Linux","password":true,"vac":true,"version":"7882260","steam_id":85568392924469998,"keywords":["nocrits","nodmgspread","payload","uncletopia"],"game_id":440,"stv_port":27026,"stv_name":"Uncletopia | Seattle | 2 | All Maps | STV","players":[{"user_id":184,"name":"Jacob Hornberger 2016","steam_id":76561198204549723,"connected_time":2907000000000,"state":"active","ping":108},{"user_id":203,"name":"Tibrochief","steam_id":76561198311897153,"connected_time":1856000000000,"state":"active","ping":87},{"user_id":207,"name":"Xyk","steam_id":76561198023268899,"connected_time":1627000000000,"state":"active","ping":120},{"user_id":221,"name":"KellyKapoor","steam_id":76561198040828123,"connected_time":694000000000,"state":"active","ping":44},{"user_id":215,"name":"Greskrendtregk","steam_id":76561197969553142,"connected_time":869000000000,"state":"active","ping":55},{"user_id":226,"name":"HFMurasama","steam_id":76561198272021214,"connected_time":269000000000,"state":"active","ping":79},{"user_id":172,"name":"ilikeballs","steam_id":76561198249980016,"connected_time":4296000000000,"state":"active","ping":95},{"user_id":216,"name":"LordMorphesus","steam_id":76561198026995104,"connected_time":863000000000,"state":"active","ping":55},{"user_id":191,"name":"professional twelve year old","steam_id":76561198858796870,"connected_time":2467000000000,"state":"active","ping":43},{"user_id":169,"name":"I throw a lot","steam_id":76561198209650964,"connected_time":4550000000000,"state":"active","ping":85},{"user_id":193,"name":"BlazedBunny","steam_id":76561198243610560,"connected_time":2419000000000,"state":"active","ping":80},{"user_id":209,"name":"A UsedNom","steam_id":76561198402832756,"connected_time":1556000000000,"state":"active","ping":67},{"user_id":217,"name":"Mcfighter2","steam_id":76561198168073956,"connected_time":841000000000,"state":"active","ping":101},{"user_id":218,"name":"MoldyCoffee936","steam_id":76561198099061153,"connected_time":840000000000,"state":"active","ping":69},{"user_id":223,"name":"Chocc","steam_id":76561198068070211,"connected_time":621000000000,"state":"active","ping":79},{"user_id":200,"name":"Underscore Paul","steam_id":76561198070300902,"connected_time":2160000000000,"state":"active","ping":73},{"user_id":224,"name":"PirateJet","steam_id":76561198050858744,"connected_time":603000000000,"state":"active","ping":83},{"user_id":211,"name":"Vincent Van Bro","steam_id":76561197966919802,"connected_time":1410000000000,"state":"active","ping":57},{"user_id":210,"name":"Coup de Grass","steam_id":76561198011643226,"connected_time":1555000000000,"state":"active","ping":123},{"user_id":219,"name":"choppa Âá∏(‚ñ∫Àõ‚óÑ'!)","steam_id":76561198123236186,"connected_time":823000000000,"state":"active","ping":74},{"user_id":196,"name":"JoeJoeJoeBob","steam_id":76561198067236683,"connected_time":2293000000000,"state":"active","ping":59},{"user_id":213,"name":"h","steam_id":76561198868164815,"connected_time":998000000000,"state":"active","ping":58},{"user_id":222,"name":"Malmart_Employee","steam_id":76561198320388704,"connected_time":668000000000,"state":"active","ping":62},{"user_id":225,"name":"jorts","steam_id":76561199041179985,"connected_time":568000000000,"state":"active","ping":69}]},{"server_id":406,"name":"Uncletopia | Seattle | 3 | Stopwatch Beta","name_short":"sea-3","host":"sea-1.us.uncletopia.com","port":27035,"enabled":true,"region":"us-west","cc":"us","latitude":47.608013,"longitude":-122.33517,"reserved":0,"last_update":"0001-01-01T00:00:00Z","name_a2s":"Uncletopia | Seattle | 3 | Stopwatch Beta","protocol":17,"map":"pl_swiftwater_final1","folder":"tf","game":"Team Fortress","app_id":440,"player_count":0,"max_players":24,"Bots":0,"server_type":"Dedicated","server_os":"Linux","password":true,"vac":true,"version":"7882260","steam_id":85568392924515217,"keywords":["nocrits","nodmgspread","payload","uncletopia"],"game_id":440,"stv_port":27036,"stv_name":"Uncletopia | Seattle | 3 | Stopwatch Beta | STV","players":null},{"server_id":17,"name":"Uncletopia | San Francisco | 1 | All Maps","name_short":"sfo-1","host":"sfo-1.us.uncletopia.com","port":27015,"enabled":true,"region":"us-west","cc":"us","latitude":37.77397,"longitude":-122.4313,"reserved":0,"last_update":"0001-01-01T00:00:00Z","name_a2s":"Uncletopia | San Francisco | 1 | All Maps","protocol":17,"map":"cp_process_final","folder":"tf","game":"Team Fortress","app_id":440,"player_count":0,"max_players":24,"Bots":0,"server_type":"Dedicated","server_os":"Linux","password":true,"vac":true,"version":"7757534","steam_id":85568392924469999,"keywords":["cp","nocrits","nodmgspread","uncletopia"],"game_id":440,"stv_port":27016,"stv_name":"Uncletopia | San Francisco | 1 | All Maps | STV","players":null},{"server_id":18,"name":"Uncletopia | San Francisco | 2 | All Maps","name_short":"sfo-2","host":"sfo-1.us.uncletopia.com","port":27025,"enabled":true,"region":"us-west","cc":"us","latitude":37.77397,"longitude":-122.4313,"reserved":0,"last_update":"0001-01-01T00:00:00Z","name_a2s":"Uncletopia | San Francisco | 2 | All Maps","protocol":17,"map":"koth_highpass","folder":"tf","game":"Team Fortress","app_id":440,"player_count":0,"max_players":24,"Bots":0,"server_type":"Dedicated","server_os":"Linux","password":true,"vac":true,"version":"7757534","steam_id":85568392924470000,"keywords":["cp","nocrits","nodmgspread","uncletopia"],"game_id":440,"stv_port":27026,"stv_name":"Uncletopia | San Francisco | 2 | All Maps | STV","players":null},{"server_id":19,"name":"Uncletopia | San Francisco | 3 | Stopwatch Beta","name_short":"sfo-3","host":"sfo-1.us.uncletopia.com","port":27035,"enabled":true,"region":"us-west","cc":"us","latitude":37.77397,"longitude":-122.4313,"reserved":0,"last_update":"0001-01-01T00:00:00Z","name_a2s":"Uncletopia | San Francisco | 3 | Stopwatch Beta","protocol":17,"map":"koth_lakeside_final","folder":"tf","game":"Team Fortress","app_id":440,"player_count":0,"max_players":24,"Bots":0,"server_type":"Dedicated","server_os":"Linux","password":true,"vac":true,"version":"7757534","steam_id":85568392924742824,"keywords":["cp","nocrits","nodmgspread","uncletopia"],"game_id":440,"stv_port":27036,"stv_name":"Uncletopia | San Francisco | 3 | Stopwatch Beta | STV","players":null},{"server_id":20,"name":"Uncletopia | San Francisco | 4 | Community","name_short":"sfo-4","host":"sfo-1.us.uncletopia.com","port":27045,"enabled":true,"region":"us-west","cc":"us","latitude":37.77397,"longitude":-122.4313,"reserved":0,"last_update":"0001-01-01T00:00:00Z","name_a2s":"Uncletopia | San Francisco | 4 | Community","protocol":17,"map":"cp_altitude","folder":"tf","game":"Team Fortress","app_id":440,"player_count":0,"max_players":24,"Bots":0,"server_type":"Dedicated","server_os":"Linux","password":true,"vac":true,"version":"7757534","steam_id":85568392924742826,"keywords":["cp","nocrits","nodmgspread","uncletopia"],"game_id":440,"stv_port":27046,"stv_name":"Uncletopia | San Francisco | 4 | Community | STV","players":null},{"server_id":141,"name":"Uncletopia | Sydney | 1 | All Maps","name_short":"syd-1","host":"syd-1.au.uncletopia.com","port":27015,"enabled":true,"region":"au","cc":"au","latitude":-33.865143,"longitude":151.2099,"reserved":0,"last_update":"0001-01-01T00:00:00Z","name_a2s":"Uncletopia | Sydney | 1 | All Maps","protocol":17,"map":"pl_badwater","folder":"tf","game":"Team Fortress","app_id":440,"player_count":0,"max_players":24,"Bots":0,"server_type":"Dedicated","server_os":"Linux","password":true,"vac":true,"version":"7882260","steam_id":85568392924470001,"keywords":["nocrits","nodmgspread","payload","uncletopia"],"game_id":440,"stv_port":27016,"stv_name":"Uncletopia | Sydney | 1 | All Maps | STV","players":null},{"server_id":123,"name":"Uncletopia | Sydney | 2 | All Maps","name_short":"syd-2","host":"syd-1.au.uncletopia.com","port":27025,"enabled":true,"region":"au","cc":"au","latitude":-33.865143,"longitude":151.2099,"reserved":0,"last_update":"0001-01-01T00:00:00Z","name_a2s":"Uncletopia | Sydney | 2 | All Maps","protocol":17,"map":"cp_process_final","folder":"tf","game":"Team Fortress","app_id":440,"player_count":17,"max_players":24,"Bots":0,"server_type":"Dedicated","server_os":"Linux","password":true,"vac":true,"version":"7882260","steam_id":85568392924470002,"keywords":["cp","nocrits","nodmgspread","uncletopia"],"game_id":440,"stv_port":27026,"stv_name":"Uncletopia | Sydney | 2 | All Maps | STV","players":[{"user_id":159,"name":"jypcan","steam_id":76561199224420390,"connected_time":23000000000,"state":"spawning","ping":126},{"user_id":157,"name":"some Pyro player","steam_id":76561199177655299,"connected_time":118000000000,"state":"active","ping":352},{"user_id":158,"name":"kfc greavy","steam_id":76561199415466192,"connected_time":41000000000,"state":"active","ping":295},{"user_id":11,"name":"ae","steam_id":76561198030431368,"connected_time":4133000000000,"state":"active","ping":86},{"user_id":43,"name":"FiendHalo205","steam_id":76561198828041485,"connected_time":2853000000000,"state":"active","ping":79},{"user_id":13,"name":"BruceWillis235","steam_id":76561198884324029,"connected_time":4113000000000,"state":"active","ping":121},{"user_id":55,"name":"table","steam_id":76561199218095319,"connected_time":2545000000000,"state":"active","ping":48},{"user_id":154,"name":"Champ","steam_id":76561198119097735,"connected_time":204000000000,"state":"active","ping":206},{"user_id":124,"name":"IPadProRetina","steam_id":76561198117973965,"connected_time":1406000000000,"state":"active","ping":60},{"user_id":116,"name":"Verbally Disabled (F2P)","steam_id":76561199417923156,"connected_time":1572000000000,"state":"active","ping":45},{"user_id":22,"name":"Minimindd","steam_id":76561199006274892,"connected_time":3725000000000,"state":"active","ping":48},{"user_id":149,"name":"Aquila","steam_id":76561198042520637,"connected_time":559000000000,"state":"active","ping":54},{"user_id":24,"name":"Jontohil2","steam_id":76561198114091810,"connected_time":3700000000000,"state":"active","ping":96},{"user_id":130,"name":"Chief Apothecary Rein","steam_id":76561198116056552,"connected_time":1251000000000,"state":"active","ping":86},{"user_id":134,"name":"Sulphyr0","steam_id":76561199430044801,"connected_time":1183000000000,"state":"active","ping":319},{"user_id":156,"name":"JOCK.","steam_id":76561199350705813,"connected_time":140000000000,"state":"active","ping":368},{"user_id":66,"name":"Mughus","steam_id":76561199000886977,"connected_time":2313000000000,"state":"active","ping":48}]},{"server_id":395,"name":"Uncletopia | Sydney | 3 | All Maps","name_short":"syd-3","host":"syd-1.au.uncletopia.com","port":27035,"enabled":true,"region":"au","cc":"au","latitude":-33.865143,"longitude":151.2099,"reserved":0,"last_update":"0001-01-01T00:00:00Z","name_a2s":"Uncletopia | Sydney | 3 | All Maps","protocol":17,"map":"pl_badwater","folder":"tf","game":"Team Fortress","app_id":440,"player_count":0,"max_players":24,"Bots":0,"server_type":"Dedicated","server_os":"Linux","password":true,"vac":true,"version":"7882260","steam_id":85568392925194467,"keywords":["nocrits","nodmgspread","payload","uncletopia"],"game_id":440,"stv_port":27036,"stv_name":"Uncletopia | Sydney | 3 | All Maps | STV","players":null},{"server_id":396,"name":"Uncletopia | Sydney | 4 | All Maps","name_short":"syd-4","host":"syd-1.au.uncletopia.com","port":27045,"enabled":true,"region":"au","cc":"au","latitude":-33.865143,"longitude":151.2099,"reserved":0,"last_update":"0001-01-01T00:00:00Z","name_a2s":"Uncletopia | Sydney | 4 | All Maps","protocol":17,"map":"cp_dustbowl","folder":"tf","game":"Team Fortress","app_id":440,"player_count":0,"max_players":24,"Bots":0,"server_type":"Dedicated","server_os":"Linux","password":true,"vac":true,"version":"7882260","steam_id":85568392925397958,"keywords":["cp","nocrits","nodmgspread","uncletopia"],"game_id":440,"stv_port":27046,"stv_name":"Uncletopia | Sydney | 4 | All Maps | STV","players":null},{"server_id":58,"name":"Uncletopia | Sydney | 5 | Stopwatch Beta","name_short":"syd-5","host":"syd-1.au.uncletopia.com","port":27055,"enabled":true,"region":"au","cc":"au","latitude":-33.865143,"longitude":151.2099,"reserved":0,"last_update":"0001-01-01T00:00:00Z","name_a2s":"Uncletopia | Sydney | 5 | Stopwatch Beta","protocol":17,"map":"cp_snakewater_final1","folder":"tf","game":"Team Fortress","app_id":440,"player_count":0,"max_players":24,"Bots":0,"server_type":"Dedicated","server_os":"Linux","password":true,"vac":true,"version":"7882260","steam_id":85568392925397959,"keywords":["cp","nocrits","nodmgspread","uncletopia"],"game_id":440,"stv_port":27056,"stv_name":"Uncletopia | Sydney | 5 | Stopwatch Beta | STV","players":null},{"server_id":59,"name":"Uncletopia | Sydney | 6 | Community","name_short":"syd-6","host":"syd-1.au.uncletopia.com","port":27065,"enabled":true,"region":"au","cc":"au","latitude":-33.865143,"longitude":151.2099,"reserved":0,"last_update":"0001-01-01T00:00:00Z","name_a2s":"Uncletopia | Sydney | 6 | Community","protocol":17,"map":"pl_snowycoast","folder":"tf","game":"Team Fortress","app_id":440,"player_count":0,"max_players":24,"Bots":0,"server_type":"Dedicated","server_os":"Linux","password":true,"vac":true,"version":"7882260","steam_id":85568392925397960,"keywords":["nocrits","nodmgspread","payload","uncletopia"],"game_id":440,"stv_port":27066,"stv_name":"Uncletopia | Sydney | 6 | Community | STV","players":null},{"server_id":49,"name":"Uncletopia | Warsaw | 1 | All Maps","name_short":"waw-1","host":"waw-1.pl.uncletopia.com","port":27015,"enabled":true,"region":"eu","cc":"pl","latitude":52.2297,"longitude":21.017532,"reserved":0,"last_update":"0001-01-01T00:00:00Z","name_a2s":"","protocol":0,"map":"","folder":"","game":"","app_id":0,"player_count":0,"max_players":0,"Bots":0,"server_type":"","server_os":"","password":false,"vac":false,"version":"","steam_id":0,"keywords":null,"game_id":0,"stv_port":0,"stv_name":"","players":null},{"server_id":50,"name":"Uncletopia | Warsaw | 2 | All Maps","name_short":"waw-2","host":"waw-1.pl.uncletopia.com","port":27025,"enabled":true,"region":"eu","cc":"pl","latitude":52.2297,"longitude":21.017532,"reserved":0,"last_update":"0001-01-01T00:00:00Z","name_a2s":"Uncletopia | Warsaw | 2 | All Maps","protocol":17,"map":"pl_snowycoast","folder":"tf","game":"Team Fortress","app_id":440,"player_count":0,"max_players":24,"Bots":0,"server_type":"Dedicated","server_os":"Linux","password":true,"vac":true,"version":"7882260","steam_id":85568392925397851,"keywords":["nocrits","nodmgspread","payload","uncletopia"],"game_id":440,"stv_port":27026,"stv_name":"Uncletopia | Warsaw | 2 | All Maps | STV","players":null},{"server_id":51,"name":"Uncletopia | Warsaw | 3 | All Maps","name_short":"waw-3","host":"waw-1.pl.uncletopia.com","port":27035,"enabled":true,"region":"eu","cc":"pl","latitude":52.2297,"longitude":21.017532,"reserved":0,"last_update":"0001-01-01T00:00:00Z","name_a2s":"Uncletopia | Warsaw | 3 | All Maps","protocol":17,"map":"pl_borneo","folder":"tf","game":"Team Fortress","app_id":440,"player_count":0,"max_players":24,"Bots":0,"server_type":"Dedicated","server_os":"Linux","password":true,"vac":true,"version":"7882260","steam_id":85568392925397852,"keywords":["nocrits","nodmgspread","payload","uncletopia"],"game_id":440,"stv_port":27036,"stv_name":"Uncletopia | Warsaw | 3 | All Maps | STV","players":null},{"server_id":52,"name":"Uncletopia | Warsaw | 4 | All Maps","name_short":"waw-4","host":"waw-1.pl.uncletopia.com","port":27045,"enabled":true,"region":"eu","cc":"pl","latitude":52.2297,"longitude":21.017532,"reserved":0,"last_update":"0001-01-01T00:00:00Z","name_a2s":"Uncletopia | Warsaw | 4 | All Maps","protocol":17,"map":"cp_sunshine","folder":"tf","game":"Team Fortress","app_id":440,"player_count":0,"max_players":24,"Bots":0,"server_type":"Dedicated","server_os":"Linux","password":true,"vac":true,"version":"7882260","steam_id":85568392925397853,"keywords":["cp","nocrits","nodmgspread","uncletopia"],"game_id":440,"stv_port":27046,"stv_name":"Uncletopia | Warsaw | 4 | All Maps | STV","players":null},{"server_id":53,"name":"Uncletopia | Warsaw | 5 | Stopwatch Beta","name_short":"waw-5","host":"waw-1.pl.uncletopia.com","port":27055,"enabled":true,"region":"eu","cc":"pl","latitude":52.2297,"longitude":21.017532,"reserved":0,"last_update":"0001-01-01T00:00:00Z","name_a2s":"Uncletopia | Warsaw | 5 | Stopwatch Beta","protocol":17,"map":"cp_mountainlab","folder":"tf","game":"Team Fortress","app_id":440,"player_count":0,"max_players":24,"Bots":0,"server_type":"Dedicated","server_os":"Linux","password":true,"vac":true,"version":"7882260","steam_id":85568392925397854,"keywords":["cp","nocrits","nodmgspread","uncletopia"],"game_id":440,"stv_port":27056,"stv_name":"Uncletopia | Warsaw | 5 | Stopwatch Beta | STV","players":null},{"server_id":54,"name":"Uncletopia | Warsaw | 6 | Community","name_short":"waw-6","host":"waw-1.pl.uncletopia.com","port":27065,"enabled":true,"region":"eu","cc":"pl","latitude":52.2297,"longitude":21.017532,"reserved":0,"last_update":"0001-01-01T00:00:00Z","name_a2s":"Uncletopia | Warsaw | 6 | Community","protocol":17,"map":"workshop/pl_cactuscanyon_redux_final2.ugc2579644293","folder":"tf","game":"Team Fortress","app_id":440,"player_count":0,"max_players":24,"Bots":0,"server_type":"Dedicated","server_os":"Linux","password":true,"vac":true,"version":"7882260","steam_id":85568392925397856,"keywords":["nocrits","nodmgspread","payload","uncletopia"],"game_id":440,"stv_port":27066,"stv_name":"Uncletopia | Warsaw | 6 | Community | STV","players":null}]}