{"status":true,"message":"","result":[{"server_id":9,"name":"Uncletopia | Atlanta | 1 | All Maps","name_short":"atl-1","host":"atl-1.us.uncletopia.com","port":27015,"enabled":true,"region":"us-east","cc":"us","latitude":33.753746,"longitude":-84.38633,"reserved":0,"last_update":"0001-01-01T00:00:00Z","name_a2s":"Uncletopia | Atlanta | 1 | All Maps","protocol":17,"map":"pl_snowycoast","folder":"tf","game":"Team Fortress","app_id":440,"player_count":24,"max_players":24,"Bots":0,"server_type":"Dedicated","server_os":"Linux","password":true,"vac":true,"version":"7757534","steam_id":85568392924469982,"keywords":["nocrits","nodmgspread","payload","uncletopia"],"game_id":440,"stv_port":27016,"stv_name":"Uncletopia | Atlanta | 1 | All Maps | STV","players":[{"user_id":760,"name":"Barress","steam_id":76561198011728743,"connected_time":1088000000000,"state":"active","ping":101},{"user_id":712,"name":"ATL1 | Pango","steam_id":76561198069811545,"connected_time":3783000000000,"state":"active","ping":45},{"user_id":767,"name":"Albino Jellyfish","steam_id":76561198208561097,"connected_time":469000000000,"state":"active","ping":68},{"user_id":714,"name":"HAT-WEARING‚Ñ¢ Maggot Gamer Cat","steam_id":76561197973992705,"connected_time":3742000000000,"state":"active","ping":115},{"user_id":738,"name":"stink","steam_id":76561198099318923,"connected_time":2124000000000,"state":"active","ping":77},{"user_id":761,"name":"Dr.Zarann","steam_id":76561198163952958,"connected_time":1073000000000,"state":"active","ping":57},{"user_id":678,"name":"phily cheese stake","steam_id":76561198180951431,"connected_time":6062000000000,"state":"active","ping":63},{"user_id":752,"name":"I11yrik","steam_id":76561198161512840,"connected_time":1462000000000,"state":"active","ping":89},{"user_id":768,"name":"Cobrayen","steam_id":76561198066505280,"connected_time":446000000000,"state":"active","ping":69},{"user_id":755,"name":"Javaris Jamar Javarison-Lamar","steam_id":76561198146951387,"connected_time":1229000000000,"state":"active","ping":84},{"user_id":753,"name":"kohlhagen","steam_id":76561198120440587,"connected_time":1398000000000,"state":"active","ping":42},{"user_id":762,"name":"Buttfuck Armstrong","steam_id":76561198075547905,"connected_time":1029000000000,"state":"active","ping":62},{"user_id":727,"name":"HAT-STEALING‚Ñ¢ Tiny Gamer Tuna","steam_id":76561198313121580,"connected_time":3096000000000,"state":"active","ping":108},{"user_id":747,"name":"garfield","steam_id":76561198114119308,"connected_time":1633000000000,"state":"active","ping":48},{"user_id":728,"name":"nomad","steam_id":76561197998740399,"connected_time":2702000000000,"state":"active","ping":65},{"user_id":758,"name":"Sparse","steam_id":76561198865084441,"connected_time":1163000000000,"state":"active","ping":72},{"user_id":724,"name":"eish","steam_id":76561198089463603,"connected_time":3256000000000,"state":"active","ping":116},{"user_id":766,"name":"Zillers","steam_id":76561198095248744,"connected_time":608000000000,"state":"active","ping":81},{"user_id":742,"name":"idarmed","steam_id":76561198420064361,"connected_time":1783000000000,"state":"active","ping":88},{"user_id":750,"name":"[PINGU‚Ñ¢] Tiny Tuna","steam_id":76561198193611579,"connected_time":1514000000000,"state":"active","ping":71},{"user_id":711,"name":"Kirb Says Poyo","steam_id":76561198212823547,"connected_time":3964000000000,"state":"active","ping":116},{"user_id":681,"name":"the governor of illinois","steam_id":76561198222776116,"connected_time":5927000000000,"state":"active","ping":70},{"user_id":718,"name":"nautical nonsense","steam_id":76561198099412571,"connected_time":3529000000000,"state":"active","ping":71},{"user_id":764,"name":"NerdyEnforcement","steam_id":76561198437710820,"connected_time":973000000000,"state":"active","ping":90}]},{"server_id":104,"name":"Uncletopia | Atlanta | 2 | All Maps","name_short":"atl-2","host":"atl-1.us.uncletopia.com","port":27025,"enabled":true,"region":"us-east","cc":"us","latitude":33.753746,"longitude":-84.38633,"reserved":0,"last_update":"0001-01-01T00:00:00Z","name_a2s":"Uncletopia | Atlanta | 2 | All Maps","protocol":17,"map":"pl_snowycoast","folder":"tf","game":"Team Fortress","app_id":440,"player_count":24,"max_players":24,"Bots":0,"server_type":"Dedicated","server_os":"Linux","password":true,"vac":true,"version":"7757534","steam_id":85568392924469983,"keywords":["nocrits","nodmgspread","payload","uncletopia"],"game_id":440,"stv_port":27026,"stv_name":"Uncletopia | Atlanta | 2 | All Maps | STV","players":[{"user_id":451,"name":"trev","steam_id":76561198372593596,"connected_time":896000000000,"state":"active","ping":117},{"user_id":450,"name":"Aeri","steam_id":76561197996522919,"connected_time":908000000000,"state":"active","ping":84},{"user_id":425,"name":"anime picture books","steam_id":76561198133839495,"connected_time":3509000000000,"state":"active","ping":95},{"user_id":452,"name":"-W3E- grim10465","steam_id":76561198045698581,"connected_time":886000000000,"state":"active","ping":60},{"user_id":454,"name":"iluvtoust","steam_id":76561198869269207,"connected_time":787000000000,"state":"active","ping":60},{"user_id":455,"name":"bob","steam_id":76561198261060542,"connected_time":707000000000,"state":"active","ping":74},{"user_id":456,"name":"duane (stinks good)","steam_id":76561198149565822,"connected_time":610000000000,"state":"active","ping":99},{"user_id":426,"name":"Xen","steam_id":76561198025311844,"connected_time":3335000000000,"state":"active","ping":143},{"user_id":439,"name":"Deep Peepus","steam_id":76561198205395757,"connected_time":2049000000000,"state":"active","ping":68},{"user_id":457,"name":"cheers2x","steam_id":76561198366299848,"connected_time":600000000000,"state":"active","ping":56},{"user_id":458,"name":"SC|Formuoli","steam_id":76561198254354595,"connected_time":570000000000,"state":"active","ping":59},{"user_id":459,"name":"Duckywinner","steam_id":76561198254828139,"connected_time":531000000000,"state":"active","ping":65},{"user_id":472,"name":"Rudy","steam_id":76561198013456828,"connected_time":283000000000,"state":"active","ping":74},{"user_id":460,"name":"Sprunk","steam_id":76561198091563713,"connected_time":528000000000,"state":"active","ping":73},{"user_id":467,"name":"Cornelius","steam_id":76561198123447388,"connected_time":448000000000,"state":"active","ping":76},{"user_id":446,"name":"Etoi aiudando","steam_id":76561198043853636,"connected_time":1678000000000,"state":"active","ping":88},{"user_id":464,"name":"Tying the knot","steam_id":76561198247794130,"connected_time":496000000000,"state":"active","ping":51},{"user_id":414,"name":"scr//bble","steam_id":76561198117803411,"connected_time":5784000000000,"state":"active","ping":71},{"user_id":465,"name":"Mischievous44","steam_id":76561198106532712,"connected_time":482000000000,"state":"active","ping":94},{"user_id":430,"name":"Amy Roxwell","steam_id":76561198303391830,"connected_time":3236000000000,"state":"active","ping":110},{"user_id":470,"name":"darkjustin54","steam_id":76561198060056280,"connected_time":322000000000,"state":"active","ping":45},{"user_id":471,"name":"sweatshirt","steam_id":76561198277477109,"connected_time":300000000000,"state":"active","ping":57},{"user_id":473,"name":"depressed leprechaun","steam_id":76561198372406189,"connected_time":165000000000,"state":"active","ping":152},{"user_id":440,"name":"Trox","steam_id":76561198263581464,"connected_time":2043000000000,"state":"active","ping":60}]},{"server_id":400,"name":"Uncletopia | Atlanta | 3 | Community","name_short":"atl-3","host":"atl-1.us.uncletopia.com","port":27035,"enabled":true,"region":"us-east","cc":"us","latitude":33.753746,"longitude":-84.38633,"reserved":0,"last_update":"0001-01-01T00:00:00Z","name_a2s":"Uncletopia | Atlanta | 3 | Community","protocol":17,"map":"workshop/koth_trenchfoot_b1a.ugc731436616","folder":"tf","game":"Team Fortress","app_id":440,"player_count":24,"max_players":24,"Bots":0,"server_type":"Dedicated","server_os":"Linux","password":true,"vac":true,"version":"7757534","steam_id":85568392924515187,"keywords":["cp","nocrits","nodmgspread","uncletopia"],"game_id":440,"stv_port":27036,"stv_name":"Uncletopia | Atlanta | 3 | Community | STV","players":[{"user_id":286,"name":"Qwerty","steam_id":76561198023525894,"connected_time":8675000000000,"state":"active","ping":175},{"user_id":383,"name":"Stamin-Pol","steam_id":76561198280081805,"connected_time":419000000000,"state":"active","ping":71},{"user_id":369,"name":"Beansniffer94","steam_id":76561198815600865,"connected_time":844000000000,"state":"active","ping":99},{"user_id":366,"name":"TheLetter45","steam_id":76561198078189844,"connected_time":1202000000000,"state":"active","ping":78},{"user_id":364,"name":"xXx420YoloSwaggins69xXx","steam_id":76561198054889312,"connected_time":1545000000000,"state":"active","ping":78},{"user_id":367,"name":"CloudVic","steam_id":76561198118868716,"connected_time":1109000000000,"state":"active","ping":90},{"user_id":384,"name":"RuinHasComeToOurFamily","steam_id":76561199075273861,"connected_time":216000000000,"state":"active","ping":62},{"user_id":340,"name":"Rari","steam_id":76561198128537564,"connected_time":3820000000000,"state":"active","ping":64},{"user_id":345,"name":"igotmail","steam_id":76561198070631899,"connected_time":3360000000000,"state":"active","ping":81},{"user_id":373,"name":"Blue Eyes Ace Dragon.","steam_id":76561198048214237,"connected_time":763000000000,"state":"active","ping":60},{"user_id":339,"name":"breadroll","steam_id":76561198039506482,"connected_time":3880000000000,"state":"active","ping":59},{"user_id":374,"name":"Pluto","steam_id":76561198338593690,"connected_time":726000000000,"state":"active","ping":64},{"user_id":301,"name":"Grimace","steam_id":76561198297216420,"connected_time":7284000000000,"state":"active","ping":47},{"user_id":375,"name":"miner","steam_id":76561198073035221,"connected_time":721000000000,"state":"active","ping":72},{"user_id":376,"name":"jadesouledout","steam_id":76561198866936507,"connected_time":706000000000,"state":"active","ping":118},{"user_id":377,"name":"xLeoparrd","steam_id":76561198940657194,"connected_time":706000000000,"state":"active","ping":86},{"user_id":381,"name":"storepilled grocerycel","steam_id":76561198097588802,"connected_time":499000000000,"state":"active","ping":66},{"user_id":363,"name":"treasuredicecream","steam_id":76561199010773204,"connected_time":1725000000000,"state":"active","ping":105},{"user_id":347,"name":"Jamie","steam_id":76561198917309036,"connected_time":3290000000000,"state":"active","ping":70},{"user_id":385,"name":"skoalincoal","steam_id":76561198092418401,"connected_time":188000000000,"state":"active","ping":70},{"user_id":351,"name":"Mildstrife","steam_id":76561198000080715,"connected_time":3067000000000,"state":"active","ping":85},{"user_id":365,"name":"Aggravated Badger Catastrophe","steam_id":76561199105588241,"connected_time":1494000000000,"state":"active","ping":59},{"user_id":362,"name":"Rin \"Hindwing\" Redtail","steam_id":76561199074865638,"connected_time":1999000000000,"state":"active","ping":60},{"user_id":379,"name":"Bardgan (Gift On Death)","steam_id":76561198063801837,"connected_time":691000000000,"state":"active","ping":73}]},{"server_id":401,"name":"Uncletopia | Atlanta | 4 | No Payload","name_short":"atl-4","host":"atl-1.us.uncletopia.com","port":27045,"enabled":true,"region":"us-east","cc":"us","latitude":33.753746,"longitude":-84.38633,"reserved":0,"last_update":"0001-01-01T00:00:00Z","name_a2s":"","protocol":0,"map":"","folder":"","game":"","app_id":0,"player_count":0,"max_players":0,"Bots":0,"server_type":"","server_os":"","password":false,"vac":false,"version":"","steam_id":0,"keywords":null,"game_id":0,"stv_port":0,"stv_name":"","players":null},{"server_id":2,"name":"Uncletopia | Chicago | 1 | All Maps","name_short":"chi-1","host":"chi-1.us.uncletopia.com","port":27015,"enabled":true,"region":"us-central","cc":"us","latitude":41.881832,"longitude":-87.62318,"reserved":0,"last_update":"0001-01-01T00:00:00Z","name_a2s":"Uncletopia | Chicago | 1 | All Maps","protocol":17,"map":"pl_frontier_final","folder":"tf","game":"Team Fortress","app_id":440,"player_count":24,"max_players":24,"Bots":0,"server_type":"Dedicated","server_os":"Linux","password":true,"vac":true,"version":"7757534","steam_id":85568392924469984,"keywords":["nocrits","nodmgspread","payload","uncletopia"],"game_id":440,"stv_port":27016,"stv_name":"Uncletopia | Chicago | 1 | All Maps | STV","players":[{"user_id":695,"name":"illious","steam_id":76561198169925494,"connected_time":6162000000000,"state":"active","ping":65},{"user_id":718,"name":"THE EPIC JS","steam_id":76561198870848222,"connected_time":3090000000000,"state":"active","ping":115},{"user_id":655,"name":"blob","steam_id":76561198122375328,"connected_time":8897000000000,"state":"active","ping":62},{"user_id":741,"name":"Bury the Light - Vergil's battl","steam_id":76561198396414319,"connected_time":765000000000,"state":"active","ping":105},{"user_id":749,"name":"leumas","steam_id":76561198240408540,"connected_time":125000000000,"state":"active","ping":57},{"user_id":725,"name":"Cheesi","steam_id":76561199417190840,"connected_time":2374000000000,"state":"active","ping":56},{"user_id":737,"name":"Golumpus","steam_id":76561198053549635,"connected_time":1338000000000,"state":"active","ping":107},{"user_id":707,"name":"Zero","steam_id":76561199383267408,"connected_time":4681000000000,"state":"active","ping":74},{"user_id":738,"name":"sweaterfan","steam_id":76561199389567214,"connected_time":1256000000000,"state":"active","ping":61},{"user_id":654,"name":"The Mayo Man","steam_id":76561197995377425,"connected_time":9094000000000,"state":"active","ping":69},{"user_id":727,"name":"Cursed Dog","steam_id":76561198090785078,"connected_time":2271000000000,"state":"active","ping":97},{"user_id":728,"name":"Kaliban","steam_id":76561198071975692,"connected_time":2264000000000,"state":"active","ping":111},{"user_id":736,"name":"Bushkey1","steam_id":76561198105672913,"connected_time":1365000000000,"state":"active","ping":78},{"user_id":716,"name":"KoolBucky","steam_id":76561198147927648,"connected_time":3182000000000,"state":"active","ping":91},{"user_id":691,"name":"coxen","steam_id":76561198095125557,"connected_time":6640000000000,"state":"active","ping":61},{"user_id":739,"name":"Astoriae!","steam_id":76561199090168858,"connected_time":963000000000,"state":"active","ping":73},{"user_id":743,"name":"TeriyakiDynamite","steam_id":76561198050049346,"connected_time":739000000000,"state":"active","ping":117},{"user_id":734,"name":"AquaPhoenix","steam_id":76561198157474924,"connected_time":1869000000000,"state":"active","ping":44},{"user_id":744,"name":"Etoilelun","steam_id":76561198106568214,"connected_time":737000000000,"state":"active","ping":99},{"user_id":705,"name":"PKBEAST_7","steam_id":76561198177136537,"connected_time":4745000000000,"state":"active","ping":88},{"user_id":745,"name":"The Foolish Samurai","steam_id":76561198094494945,"connected_time":734000000000,"state":"active","ping":125},{"user_id":704,"name":"Spy Gaming","steam_id":76561198453295613,"connected_time":5424000000000,"state":"active","ping":116},{"user_id":748,"name":"Hamee333","steam_id":76561199388127663,"connected_time":382000000000,"state":"active","ping":80}]},{"server_id":106,"name":"Uncletopia | Chicago | 2 | All Maps","name_short":"chi-2","host":"chi-1.us.uncletopia.com","port":27025,"enabled":true,"region":"us-central","cc":"us","latitude":41.881832,"longitude":-87.62318,"reserved":0,"last_update":"0001-01-01T00:00:00Z","name_a2s":"Uncletopia | Chicago | 2 | All Maps","protocol":17,"map":"cp_process_final","folder":"tf","game":"Team Fortress","app_id":440,"player_count":24,"max_players":24,"Bots":0,"server_type":"Dedicated","server_os":"Linux","password":true,"vac":true,"version":"7757534","steam_id":85568392924469985,"keywords":["cp","nocrits","nodmgspread","uncletopia"],"game_id":440,"stv_port":27026,"stv_name":"Uncletopia | Chicago | 2 | All Maps | STV","players":[{"user_id":716,"name":"Slugger01","steam_id":76561198975798014,"connected_time":2140000000000,"state":"active","ping":54},{"user_id":592,"name":"4 life","steam_id":76561198175961598,"connected_time":11967000000000,"state":"active","ping":120},{"user_id":737,"name":"TriforceLite","steam_id":76561199138258249,"connected_time":562000000000,"state":"active","ping":58},{"user_id":721,"name":"Flint","steam_id":76561198148412420,"connected_time":1630000000000,"state":"active","ping":83},{"user_id":681,"name":"claeb :)","steam_id":76561198028761580,"connected_time":5610000000000,"state":"active","ping":66},{"user_id":722,"name":"St. Michael","steam_id":76561198037611052,"connected_time":1630000000000,"state":"active","ping":81},{"user_id":734,"name":"nerb","steam_id":76561198038080028,"connected_time":1089000000000,"state":"active","ping":49},{"user_id":665,"name":"bocchi la piedra","steam_id":76561198026458662,"connected_time":6411000000000,"state":"active","ping":102},{"user_id":713,"name":"gt","steam_id":76561198033033884,"connected_time":2236000000000,"state":"active","ping":70},{"user_id":731,"name":"josh","steam_id":76561198111565081,"connected_time":1333000000000,"state":"active","ping":115},{"user_id":699,"name":"Proof by close enough","steam_id":76561198083345384,"connected_time":3282000000000,"state":"active","ping":91},{"user_id":631,"name":"Thomas the train","steam_id":76561198040153410,"connected_time":8593000000000,"state":"active","ping":46},{"user_id":733,"name":"Snoopy_dog","steam_id":76561198065339248,"connected_time":1126000000000,"state":"active","ping":94},{"user_id":739,"name":"very dazzling","steam_id":76561198072179483,"connected_time":269000000000,"state":"active","ping":90},{"user_id":474,"name":"b3afy","steam_id":76561198084208649,"connected_time":19170000000000,"state":"active","ping":90},{"user_id":598,"name":"brothax laptop","steam_id":76561197996713526,"connected_time":11889000000000,"state":"active","ping":101},{"user_id":653,"name":"5unny PHD IN HATEOLOGY","steam_id":76561198133111058,"connected_time":7486000000000,"state":"active","ping":75},{"user_id":724,"name":"Volca_","steam_id":76561198083779131,"connected_time":1610000000000,"state":"active","ping":75},{"user_id":689,"name":"vv","steam_id":76561198134813102,"connected_time":4461000000000,"state":"active","ping":60},{"user_id":714,"name":"¬øskitt1eS?","steam_id":76561198330093211,"connected_time":2235000000000,"state":"active","ping":67},{"user_id":738,"name":"sam","steam_id":76561198088504281,"connected_time":555000000000,"state":"active","ping":70},{"user_id":727,"name":"Barney Calhoun Enjoyer","steam_id":76561198049419309,"connected_time":1441000000000,"state":"active","ping":76},{"user_id":726,"name":"Darkmaen","steam_id":76561198060543390,"connected_time":1570000000000,"state":"active","ping":150},{"user_id":735,"name":"cokersworld","steam_id":76561198039731344,"connected_time":957000000000,"state":"active","ping":81}]},{"server_id":402,"name":"Uncletopia | Chicago | 3 | All Maps","name_short":"chi-3","host":"chi-1.us.uncletopia.com","port":27035,"enabled":true,"region":"us-central","cc":"us","latitude":41.881832,"longitude":-87.62318,"reserved":0,"last_update":"0001-01-01T00:00:00Z","name_a2s":"Uncletopia | Chicago | 3 | All Maps","protocol":17,"map":"pl_upward","folder":"tf","game":"Team Fortress","app_id":440,"player_count":24,"max_players":24,"Bots":0,"server_type":"Dedicated","server_os":"Linux","password":true,"vac":true,"version":"7757534","steam_id":85568392924515191,"keywords":["nocrits","nodmgspread","payload","uncletopia"],"game_id":440,"stv_port":27036,"stv_name":"Uncletopia | Chicago | 3 | All Maps | STV","players":[{"user_id":361,"name":"‚Ä∫ snow","steam_id":76561198109783729,"connected_time":2810000000000,"state":"active","ping":47},{"user_id":377,"name":"Nani?","steam_id":76561198130982692,"connected_time":1355000000000,"state":"active","ping":55},{"user_id":344,"name":"have a nice life fan","steam_id":76561198159684104,"connected_time":3404000000000,"state":"active","ping":70},{"user_id":293,"name":"Yune","steam_id":76561198039324447,"connected_time":6719000000000,"state":"active","ping":85},{"user_id":367,"name":"Maxxycat","steam_id":76561198194062681,"connected_time":2393000000000,"state":"active","ping":57},{"user_id":376,"name":"kirbo","steam_id":76561198057895955,"connected_time":1360000000000,"state":"active","ping":70},{"user_id":388,"name":"Scum Knight","steam_id":76561198282444763,"connected_time":183000000000,"state":"active","ping":63},{"user_id":389,"name":"Shnesh","steam_id":76561198826005248,"connected_time":156000000000,"state":"active","ping":158},{"user_id":306,"name":"N√©oGothiqueüïØ","steam_id":76561198003467269,"connected_time":5672000000000,"state":"active","ping":82},{"user_id":390,"name":"MrChaosOK","steam_id":76561197976353083,"connected_time":153000000000,"state":"active","ping":107},{"user_id":310,"name":"sqgly","steam_id":76561198105508955,"connected_time":5388000000000,"state":"active","ping":55},{"user_id":378,"name":"._.","steam_id":76561198110775575,"connected_time":1352000000000,"state":"active","ping":46},{"user_id":393,"name":"Lux E Tenebris","steam_id":76561198072664199,"connected_time":132000000000,"state":"active","ping":48},{"user_id":384,"name":"reverse","steam_id":76561198186840242,"connected_time":965000000000,"state":"active","ping":78},{"user_id":368,"name":"Eternal Neckbeard","steam_id":76561198201862415,"connected_time":2347000000000,"state":"active","ping":49},{"user_id":311,"name":"enmgxcltayiqoacx","steam_id":76561197974965536,"connected_time":5382000000000,"state":"active","ping":61},{"user_id":326,"name":"Poyo Boyo","steam_id":76561198010201227,"connected_time":4054000000000,"state":"active","ping":72},{"user_id":348,"name":"I am Lex","steam_id":76561198342910289,"connected_time":3376000000000,"state":"active","ping":56},{"user_id":381,"name":"DemonScythe","steam_id":76561198795910551,"connected_time":1334000000000,"state":"active","ping":70},{"user_id":359,"name":"gNarNar","steam_id":76561197994505205,"connected_time":2988000000000,"state":"active","ping":64},{"user_id":392,"name":"Dongus","steam_id":76561197979056451,"connected_time":134000000000,"state":"active","ping":91},{"user_id":383,"name":"Spike","steam_id":76561198141356571,"connected_time":1322000000000,"state":"active","ping":60},{"user_id":382,"name":"noahjwarner09","steam_id":76561199444479988,"connected_time":1331000000000,"state":"active","ping":64},{"user_id":386,"name":"Deathpill","steam_id":76561197994404793,"connected_time":429000000000,"state":"active","ping":74}]},{"server_id":403,"name":"Uncletopia | Chicago | 4 | All Maps","name_short":"chi-4","host":"chi-1.us.uncletopia.com","port":27045,"enabled":true,"region":"us-central","cc":"us","latitude":41.881832,"longitude":-87.62318,"reserved":0,"last_update":"0001-01-01T00:00:00Z","name_a2s":"Uncletopia | Chicago | 4 | All Maps","protocol":17,"map":"pl_frontier_final","folder":"tf","game":"Team Fortress","app_id":440,"player_count":23,"max_players":24,"Bots":0,"server_type":"Dedicated","server_os":"Linux","password":true,"vac":true,"version":"7757534","steam_id":85568392924515193,"keywords":["nocrits","nodmgspread","payload","uncletopia"],"game_id":440,"stv_port":27046,"stv_name":"Uncletopia | Chicago | 4 | All Maps | STV","players":[{"user_id":629,"name":"esh","steam_id":76561197994492154,"connected_time":1884000000000,"state":"active","ping":167},{"user_id":641,"name":"dash23‚Ñ¢","steam_id":76561198314951185,"connected_time":819000000000,"state":"active","ping":100},{"user_id":612,"name":"Mucho Mango Addict","steam_id":76561198322396592,"connected_time":3324000000000,"state":"active","ping":104},{"user_id":644,"name":"Gut125Cin","steam_id":76561198101787225,"connected_time":793000000000,"state":"active","ping":78},{"user_id":614,"name":"tabasco","steam_id":76561198355094896,"connected_time":3192000000000,"state":"active","ping":61},{"user_id":607,"name":"natahan","steam_id":76561198043250800,"connected_time":4804000000000,"state":"active","ping":62},{"user_id":609,"name":"jayb1rd","steam_id":76561198057185312,"connected_time":3468000000000,"state":"active","ping":60},{"user_id":583,"name":"Yoshi62","steam_id":76561199103748704,"connected_time":6322000000000,"state":"active","ping":168},{"user_id":615,"name":"Mr. Dick‚Ñ¢","steam_id":76561198047309044,"connected_time":3158000000000,"state":"active","ping":68},{"user_id":639,"name":"cute boy lover","steam_id":76561199065645094,"connected_time":877000000000,"state":"active","ping":80},{"user_id":616,"name":"Dammit, Jim!","steam_id":76561198038509136,"connected_time":3142000000000,"state":"active","ping":84},{"user_id":647,"name":"Sarbanes-Oxley","steam_id":76561197975898479,"connected_time":691000000000,"state":"active","ping":75},{"user_id":637,"name":"QwQ","steam_id":76561198432226673,"connected_time":997000000000,"state":"active","ping":103},{"user_id":619,"name":"DatFluffyPancake","steam_id":76561198271958697,"connected_time":3121000000000,"state":"active","ping":78},{"user_id":620,"name":"The Engineer Gaming","steam_id":76561198192609974,"connected_time":3116000000000,"state":"active","ping":79},{"user_id":636,"name":"cassiopeia!","steam_id":76561198052639733,"connected_time":1117000000000,"state":"active","ping":75},{"user_id":645,"name":"Kidzbopsicle","steam_id":76561198047660691,"connected_time":786000000000,"state":"active","ping":59},{"user_id":631,"name":"The_Pacific_gamer","steam_id":76561198089491446,"connected_time":1850000000000,"state":"active","ping":98},{"user_id":622,"name":"Natsuki the Scunt","steam_id":76561199175922684,"connected_time":3108000000000,"state":"active","ping":107},{"user_id":628,"name":"RainbowLlama","steam_id":76561198129467214,"connected_time":1920000000000,"state":"active","ping":57},{"user_id":594,"name":"SubZero_416","steam_id":76561198176467907,"connected_time":5410000000000,"state":"active","ping":74},{"user_id":632,"name":"Bioshock3r_416","steam_id":76561198190320025,"connected_time":1835000000000,"state":"active","ping":71},{"user_id":640,"name":"Dog Deodorant","steam_id":76561199225832228,"connected_time":845000000000,"state":"active","ping":101}]},{"server_id":36,"name":"Uncletopia | Chicago | 5 | All Maps","name_short":"chi-5","host":"chi-2.us.uncletopia.com","port":27015,"enabled":true,"region":"us-central","cc":"us","latitude":41.881832,"longitude":-87.62318,"reserved":0,"last_update":"0001-01-01T00:00:00Z","name_a2s":"Uncletopia | Chicago | 5 | All Maps","protocol":17,"map":"pl_badwater","folder":"tf","game":"Team Fortress","app_id":440,"player_count":23,"max_players":24,"Bots":0,"server_type":"Dedicated","server_os":"Linux","password":true,"vac":true,"version":"7757534","steam_id":85568392924866362,"keywords":["nocrits","nodmgspread","payload","uncletopia"],"game_id":440,"stv_port":27016,"stv_name":"Uncletopia | Chicago | 5 | All Maps | STV","players":[{"user_id":481,"name":"papersamurai","steam_id":76561198313608698,"connected_time":2453000000000,"state":"active","ping":49},{"user_id":434,"name":"pasta","steam_id":76561198084719895,"connected_time":6165000000000,"state":"active","ping":50},{"user_id":511,"name":"Melad","steam_id":76561198018849258,"connected_time":148000000000,"state":"active","ping":62},{"user_id":512,"name":"McCheesey","steam_id":76561198042938136,"connected_time":144000000000,"state":"active","ping":92},{"user_id":459,"name":"scooterre","steam_id":76561198055068182,"connected_time":4216000000000,"state":"active","ping":58},{"user_id":483,"name":"Predicta","steam_id":76561198017630616,"connected_time":2261000000000,"state":"active","ping":46},{"user_id":509,"name":"Maniac","steam_id":76561197993729460,"connected_time":454000000000,"state":"active","ping":109},{"user_id":486,"name":"knucklesandwich59","steam_id":76561198120684348,"connected_time":1917000000000,"state":"active","ping":53},{"user_id":498,"name":"SadVeggie","steam_id":76561198163430099,"connected_time":1248000000000,"state":"active","ping":115},{"user_id":497,"name":"your–¥—Ä—É–≥","steam_id":76561198317927140,"connected_time":1323000000000,"state":"active","ping":59},{"user_id":500,"name":"Mista","steam_id":76561198836172914,"connected_time":1151000000000,"state":"active","ping":88},{"user_id":390,"name":"Ask Nicely For Heals","steam_id":76561198138478907,"connected_time":9683000000000,"state":"active","ping":57},{"user_id":484,"name":"Crazed Gunman loose in Walmart","steam_id":76561198413125750,"connected_time":2136000000000,"state":"active","ping":62},{"user_id":501,"name":"unerringCaprition (She/Her)","steam_id":76561198042528476,"connected_time":1129000000000,"state":"active","ping":96},{"user_id":502,"name":"Acto","steam_id":76561198043025164,"connected_time":1075000000000,"state":"active","ping":109},{"user_id":503,"name":"CeigeBirb","steam_id":76561198068538473,"connected_time":1070000000000,"state":"active","ping":79},{"user_id":515,"name":"face in the dark","steam_id":76561198132755619,"connected_time":26000000000,"state":"spawning","ping":81},{"user_id":513,"name":"rMuralCDLX","steam_id":76561198975798517,"connected_time":135000000000,"state":"active","ping":110},{"user_id":506,"name":"Dr Smeggman","steam_id":76561197966614845,"connected_time":618000000000,"state":"active","ping":133},{"user_id":442,"name":"evdoke","steam_id":76561198044555219,"connected_time":5850000000000,"state":"active","ping":60},{"user_id":478,"name":"footoftheday","steam_id":76561198052712449,"connected_time":2944000000000,"state":"active","ping":65},{"user_id":514,"name":"nuclear bong","steam_id":76561198361326855,"connected_time":104000000000,"state":"active","ping":60},{"user_id":505,"name":"Floaty","steam_id":76561198100029503,"connected_time":987000000000,"state":"active","ping":107}]},{"server_id":37,"name":"Uncletopia | Chicago | 6 | All Maps","name_short":"chi-6","host":"chi-2.us.uncletopia.com","port":27025,"enabled":true,"region":"us-central","cc":"us","latitude":41.881832,"longitude":-87.62318,"reserved":0,"last_update":"0001-01-01T00:00:00Z","name_a2s":"Uncletopia | Chicago | 6 | All Maps","protocol":17,"map":"pl_barnblitz","folder":"tf","game":"Team Fortress","app_id":440,"player_count":19,"max_players":24,"Bots":0,"server_type":"Dedicated","server_os":"Linux","password":true,"vac":true,"version":"7757534","steam_id":85568392924866363,"keywords":["nocrits","nodmgspread","payload","uncletopia"],"game_id":440,"stv_port":27026,"stv_name":"Uncletopia | Chicago | 6 | All Maps | STV","players":[{"user_id":399,"name":"Nosferatu","steam_id":76561198974041338,"connected_time":38000000000,"state":"active","ping":105},{"user_id":400,"name":"Googol","steam_id":76561198015967429,"connected_time":25000000000,"state":"spawning","ping":102},{"user_id":401,"name":"Eden","steam_id":76561198075587475,"connected_time":7000000000,"state":"active","ping":285},{"user_id":393,"name":"Coffee","steam_id":76561198098622184,"connected_time":635000000000,"state":"active","ping":74},{"user_id":402,"name":"enbr","steam_id":76561198118211523,"connected_time":3000000000,"state":"spawning","ping":57},{"user_id":382,"name":"Battery Acid Addict","steam_id":76561198439793697,"connected_time":1103000000000,"state":"active","ping":76},{"user_id":384,"name":"Sulphyr0","steam_id":76561199430044801,"connected_time":828000000000,"state":"active","ping":65},{"user_id":385,"name":"matchmatch                     ","steam_id":76561198048925904,"connected_time":802000000000,"state":"active","ping":116},{"user_id":368,"name":"totally not a pile of beans","steam_id":76561198119851931,"connected_time":2995000000000,"state":"active","ping":79},{"user_id":386,"name":"Invisible Cheese","steam_id":76561198046942778,"connected_time":752000000000,"state":"active","ping":70},{"user_id":387,"name":"SuperRPGgamer","steam_id":76561198288017834,"connected_time":741000000000,"state":"active","ping":109},{"user_id":388,"name":"Anderswo","steam_id":76561198253224241,"connected_time":695000000000,"state":"active","ping":96},{"user_id":389,"name":"Professor Cuthbert Calculus","steam_id":76561198003257461,"connected_time":695000000000,"state":"active","ping":99},{"user_id":335,"name":"C4K3","steam_id":76561197996963285,"connected_time":4507000000000,"state":"active","ping":72},{"user_id":390,"name":"Alset","steam_id":76561197993820174,"connected_time":683000000000,"state":"active","ping":86},{"user_id":391,"name":"P3J","steam_id":76561199256795722,"connected_time":680000000000,"state":"active","ping":88},{"user_id":392,"name":"Evlestmaple552","steam_id":76561198799352709,"connected_time":668000000000,"state":"active","ping":113},{"user_id":364,"name":"GreekGoat_Coffee","steam_id":76561198129331088,"connected_time":3206000000000,"state":"active","ping":39},{"user_id":394,"name":"Literally Roxy's Wife Tsuyu","steam_id":76561198175421763,"connected_time":548000000000,"state":"active","ping":56}]},{"server_id":38,"name":"Uncletopia | Chicago | 7 | Stopwatch Beta","name_short":"chi-7","host":"chi-2.us.uncletopia.com","port":27035,"enabled":true,"region":"us-central","cc":"us","latitude":41.881832,"longitude":-87.62318,"reserved":0,"last_update":"0001-01-01T00:00:00Z","name_a2s":"Uncletopia | Chicago | 7 | Stopwatch Beta","protocol":17,"map":"workshop/koth_clearcut_b15.ugc2107050255","folder":"tf","game":"Team Fortress","app_id":440,"player_count":0,"max_players":24,"Bots":0,"server_type":"Dedicated","server_os":"Linux","password":true,"vac":true,"version":"7757534","steam_id":85568392924866364,"keywords":["cp","nocrits","nodmgspread","uncletopia"],"game_id":440,"stv_port":27036,"stv_name":"Uncletopia | Chicago | 7 | Stopwatch Beta | STV","players":null},{"server_id":39,"name":"Uncletopia | Chicago | 8 | Community","name_short":"chi-8","host":"chi-2.us.uncletopia.com","port":27045,"enabled":true,"region":"us-central","cc":"us","latitude":41.881832,"longitude":-87.62318,"reserved":0,"last_update":"0001-01-01T00:00:00Z","name_a2s":"Uncletopia | Chicago | 8 | Community","protocol":17,"map":"workshop/cp_bruhstbowl_b5.ugc2878604990","folder":"tf","game":"Team Fortress","app_id":440,"player_count":0,"max_players":24,"Bots":0,"server_type":"Dedicated","server_os":"Linux","password":true,"vac":true,"version":"7757534","steam_id":85568392924866365,"keywords":["cp","nocrits","nodmgspread","uncletopia"],"game_id":440,"stv_port":27046,"stv_name":"Uncletopia | Chicago | 8 | Community | STV","players":null},{"server_id":8,"name":"Uncletopia | Dallas | 1 | All Maps","name_short":"dal-1","host":"dal-1.us.uncletopia.com","port":27015,"enabled":true,"region":"us-central","cc":"us","latitude":32.779167,"longitude":-96.80889,"reserved":0,"last_update":"0001-01-01T00:00:00Z","name_a2s":"Uncletopia | Dallas | 1 | All Maps","protocol":17,"map":"pl_snowycoast","folder":"tf","game":"Team Fortress","app_id":440,"player_count":24,"max_players":24,"Bots":0,"server_type":"Dedicated","server_os":"Linux","password":true,"vac":true,"version":"7757534","steam_id":85568392924469986,"keywords":["nocrits","nodmgspread","payload","uncletopia"],"game_id":440,"stv_port":27016,"stv_name":"Uncletopia | Dallas | 1 | All Maps | STV","players":[{"user_id":616,"name":"NGsterson","steam_id":76561198162108154,"connected_time":318000000000,"state":"active","ping":105},{"user_id":617,"name":"Genius Meme","steam_id":76561198162911254,"connected_time":317000000000,"state":"active","ping":86},{"user_id":597,"name":"ChozoChorizo","steam_id":76561198272609196,"connected_time":2186000000000,"state":"active","ping":63},{"user_id":598,"name":"A Shiny Meat Bicycle","steam_id":76561198358757709,"connected_time":2151000000000,"state":"active","ping":88},{"user_id":565,"name":"Spy","steam_id":76561198937717599,"connected_time":5709000000000,"state":"active","ping":44},{"user_id":606,"name":"Manic","steam_id":76561198128149670,"connected_time":1095000000000,"state":"active","ping":45},{"user_id":594,"name":"blue of days","steam_id":76561199113013688,"connected_time":2521000000000,"state":"active","ping":82},{"user_id":625,"name":"ElixirMan","steam_id":76561199102118368,"connected_time":7000000000,"state":"spawning","ping":92},{"user_id":614,"name":"defcon","steam_id":76561198100656328,"connected_time":739000000000,"state":"active","ping":83},{"user_id":619,"name":"beans","steam_id":76561198067655341,"connected_time":294000000000,"state":"active","ping":90},{"user_id":571,"name":"ChottoAMinute","steam_id":76561198873157775,"connected_time":5016000000000,"state":"active","ping":37},{"user_id":605,"name":"Dylan","steam_id":76561198265522923,"connected_time":1565000000000,"state":"active","ping":46},{"user_id":575,"name":"Etomb","steam_id":76561198210017208,"connected_time":4360000000000,"state":"active","ping":74},{"user_id":589,"name":"Raydn","steam_id":76561198418414338,"connected_time":2947000000000,"state":"active","ping":57},{"user_id":609,"name":"man of bananas","steam_id":76561198969136257,"connected_time":961000000000,"state":"active","ping":79},{"user_id":569,"name":"Invisorum","steam_id":76561198051902115,"connected_time":5285000000000,"state":"active","ping":109},{"user_id":620,"name":"Kaneite","steam_id":76561198046357985,"connected_time":289000000000,"state":"active","ping":70},{"user_id":610,"name":"upside down cat","steam_id":76561198028288349,"connected_time":958000000000,"state":"active","ping":88},{"user_id":624,"name":"Sheep","steam_id":76561198122705864,"connected_time":41000000000,"state":"active","ping":76},{"user_id":600,"name":"Hey","steam_id":76561198447517893,"connected_time":2097000000000,"state":"active","ping":78},{"user_id":525,"name":"AlexLovesYou  (drunk)","steam_id":76561199163263543,"connected_time":8835000000000,"state":"active","ping":105},{"user_id":590,"name":"Just A Potato","steam_id":76561198056360867,"connected_time":2946000000000,"state":"active","ping":110},{"user_id":622,"name":"tighty walter whities","steam_id":76561199122915452,"connected_time":74000000000,"state":"active","ping":106},{"user_id":623,"name":"SDL","steam_id":76561198859719985,"connected_time":64000000000,"state":"active","ping":69}]},{"server_id":108,"name":"Uncletopia | Dallas | 2 | All Maps","name_short":"dal-2","host":"dal-1.us.uncletopia.com","port":27025,"enabled":true,"region":"us-central","cc":"us","latitude":32.779167,"longitude":-96.80889,"reserved":0,"last_update":"0001-01-01T00:00:00Z","name_a2s":"Uncletopia | Dallas | 2 | All Maps","protocol":17,"map":"pl_badwater","folder":"tf","game":"Team Fortress","app_id":440,"player_count":25,"max_players":24,"Bots":0,"server_type":"Dedicated","server_os":"Linux","password":true,"vac":true,"version":"7757534","steam_id":85568392924469988,"keywords":["nocrits","nodmgspread","payload","uncletopia"],"game_id":440,"stv_port":27026,"stv_name":"Uncletopia | Dallas | 2 | All Maps | STV","players":[{"user_id":552,"name":"Sentry","steam_id":76561198852196079,"connected_time":1345000000000,"state":"active","ping":84},{"user_id":555,"name":"Dauntless Duelist","steam_id":76561198025056018,"connected_time":380000000000,"state":"active","ping":95},{"user_id":553,"name":"Mr.Frundles","steam_id":76561198134559026,"connected_time":483000000000,"state":"active","ping":106},{"user_id":539,"name":"CartoonFreack","steam_id":76561198165179061,"connected_time":2372000000000,"state":"active","ping":101},{"user_id":547,"name":"hzp","steam_id":76561198043574680,"connected_time":2075000000000,"state":"active","ping":56},{"user_id":556,"name":"KingShoop","steam_id":76561198060077597,"connected_time":368000000000,"state":"active","ping":60},{"user_id":554,"name":"Superman123389","steam_id":76561198267472539,"connected_time":443000000000,"state":"active","ping":87},{"user_id":527,"name":"loboto gaming","steam_id":76561199088321574,"connected_time":2755000000000,"state":"active","ping":99},{"user_id":490,"name":"Colonel Salt","steam_id":76561198207009563,"connected_time":5171000000000,"state":"active","ping":60},{"user_id":550,"name":"Hedsik","steam_id":76561198045797773,"connected_time":1617000000000,"state":"active","ping":54},{"user_id":537,"name":"veldt","steam_id":76561198056135308,"connected_time":2401000000000,"state":"active","ping":56},{"user_id":542,"name":"CrossHandedEddy","steam_id":76561198058372984,"connected_time":2296000000000,"state":"active","ping":101},{"user_id":517,"name":"LemonPoppyMuffin","steam_id":76561198044813750,"connected_time":3523000000000,"state":"active","ping":60},{"user_id":543,"name":"Adorable lil Oxygen Thief ‚ô°","steam_id":76561198057725524,"connected_time":2294000000000,"state":"active","ping":166},{"user_id":436,"name":"xZackAttack27x","steam_id":76561198035446639,"connected_time":9541000000000,"state":"active","ping":40},{"user_id":476,"name":"deadpixel","steam_id":76561198150249843,"connected_time":6979000000000,"state":"active","ping":74},{"user_id":504,"name":"Giselle","steam_id":76561198162593640,"connected_time":4295000000000,"state":"active","ping":104},{"user_id":530,"name":"Zelumie","steam_id":76561198147335801,"connected_time":2610000000000,"state":"active","ping":78},{"user_id":546,"name":"BoopBerry","steam_id":76561198871571711,"connected_time":2252000000000,"state":"active","ping":88},{"user_id":545,"name":"Cheesyboi","steam_id":76561197982771935,"connected_time":2287000000000,"state":"active","ping":69},{"user_id":481,"name":"Soozy420","steam_id":76561198809074422,"connected_time":6351000000000,"state":"active","ping":78},{"user_id":549,"name":"Shylo","steam_id":76561199276858045,"connected_time":1808000000000,"state":"active","ping":61},{"user_id":478,"name":"Phil Collins","steam_id":76561198068868644,"connected_time":6832000000000,"state":"active","ping":82},{"user_id":565,"name":"Jack Celliers","steam_id":76561198060983357,"connected_time":139000000000,"state":"connecting","ping":0},{"user_id":568,"name":"Vapeinhand","steam_id":76561198134439943,"connected_time":88000000000,"state":"active","ping":73}]},{"server_id":5,"name":"Uncletopia | Frankfurt | 1 | All Maps","name_short":"frk-1","host":"frk-1.de.uncletopia.com","port":27015,"enabled":true,"region":"eu","cc":"de","latitude":50.110924,"longitude":8.682127,"reserved":0,"last_update":"0001-01-01T00:00:00Z","name_a2s":"Uncletopia | Frankfurt | 1 | All Maps","protocol":17,"map":"pl_snowycoast","folder":"tf","game":"Team Fortress","app_id":440,"player_count":0,"max_players":24,"Bots":0,"server_type":"Dedicated","server_os":"Linux","password":true,"vac":true,"version":"7757534","steam_id":85568392924469989,"keywords":["nocrits","nodmgspread","payload","uncletopia"],"game_id":440,"stv_port":27016,"stv_name":"Uncletopia | Frankfurt | 1 | All Maps | STV","players":null},{"server_id":110,"name":"Uncletopia | Frankfurt | 2 | All Maps","name_short":"frk-2","host":"frk-1.de.uncletopia.com","port":27025,"enabled":true,"region":"eu","cc":"de","latitude":50.110924,"longitude":8.682127,"reserved":0,"last_update":"0001-01-01T00:00:00Z","name_a2s":"Uncletopia | Frankfurt | 2 | All Maps","protocol":17,"map":"cp_snakewater_final1","folder":"tf","game":"Team Fortress","app_id":440,"player_count":0,"max_players":24,"Bots":0,"server_type":"Dedicated","server_os":"Linux","password":true,"vac":true,"version":"7757534","steam_id":85568392924469990,"keywords":["cp","nocrits","nodmgspread","uncletopia"],"game_id":440,"stv_port":27026,"stv_name":"Uncletopia | Frankfurt | 2 | All Maps | STV","players":null},{"server_id":308,"name":"Uncletopia | Frankfurt | 3 | All Maps","name_short":"frk-3","host":"frk-1.de.uncletopia.com","port":27035,"enabled":true,"region":"eu","cc":"de","latitude":50.110924,"longitude":8.682127,"reserved":0,"last_update":"0001-01-01T00:00:00Z","name_a2s":"Uncletopia | Frankfurt | 3 | All Maps","protocol":17,"map":"pl_swiftwater_final1","folder":"tf","game":"Team Fortress","app_id":440,"player_count":0,"max_players":24,"Bots":0,"server_type":"Dedicated","server_os":"Linux","password":true,"vac":true,"version":"7757534","steam_id":85568392924504274,"keywords":["nocrits","nodmgspread","payload","uncletopia"],"game_id":440,"stv_port":27036,"stv_name":"Uncletopia | Frankfurt | 3 | All Maps | STV","players":null},{"server_id":309,"name":"Uncletopia | Frankfurt | 4 | All Maps","name_short":"frk-4","host":"frk-1.de.uncletopia.com","port":27045,"enabled":true,"region":"eu","cc":"de","latitude":50.110924,"longitude":8.682127,"reserved":0,"last_update":"0001-01-01T00:00:00Z","name_a2s":"Uncletopia | Frankfurt | 4 | All Maps","protocol":17,"map":"koth_viaduct","folder":"tf","game":"Team Fortress","app_id":440,"player_count":0,"max_players":24,"Bots":0,"server_type":"Dedicated","server_os":"Linux","password":true,"vac":true,"version":"7757534","steam_id":85568392924504275,"keywords":["cp","nocrits","nodmgspread","uncletopia"],"game_id":440,"stv_port":27046,"stv_name":"Uncletopia | Frankfurt | 4 | All Maps | STV","players":null},{"server_id":310,"name":"Uncletopia | Frankfurt | 5 | All Maps","name_short":"frk-5","host":"frk-1.de.uncletopia.com","port":27055,"enabled":true,"region":"eu","cc":"de","latitude":50.110924,"longitude":8.682127,"reserved":0,"last_update":"0001-01-01T00:00:00Z","name_a2s":"Uncletopia | Frankfurt | 5 | All Maps","protocol":17,"map":"koth_lakeside_final","folder":"tf","game":"Team Fortress","app_id":440,"player_count":0,"max_players":24,"Bots":0,"server_type":"Dedicated","server_os":"Linux","password":true,"vac":true,"version":"7757534","steam_id":85568392924504277,"keywords":["cp","nocrits","nodmgspread","uncletopia"],"game_id":440,"stv_port":27056,"stv_name":"Uncletopia | Frankfurt | 5 | All Maps | STV","players":null},{"server_id":311,"name":"Uncletopia | Frankfurt | 6 | All Maps","name_short":"frk-6","host":"frk-1.de.uncletopia.com","port":27065,"enabled":true,"region":"eu","cc":"de","latitude":50.110924,"longitude":8.682127,"reserved":0,"last_update":"0001-01-01T00:00:00Z","name_a2s":"Uncletopia | Frankfurt | 6 | All Maps","protocol":17,"map":"pl_frontier_final","folder":"tf","game":"Team Fortress","app_id":440,"player_count":0,"max_players":24,"Bots":0,"server_type":"Dedicated","server_os":"Linux","password":true,"vac":true,"version":"7757534","steam_id":85568392924504278,"keywords":["nocrits","nodmgspread","payload","uncletopia"],"game_id":440,"stv_port":27066,"stv_name":"Uncletopia | Frankfurt | 6 | All Maps | STV","players":null},{"server_id":23,"name":"Uncletopia | Frankfurt | 7 | Stopwatch Beta","name_short":"frk-7","host":"frk-1.de.uncletopia.com","port":27075,"enabled":true,"region":"eu","cc":"de","latitude":50.110924,"longitude":8.682127,"reserved":0,"last_update":"0001-01-01T00:00:00Z","name_a2s":"Uncletopia | Frankfurt | 7 | Stopwatch Beta","protocol":17,"map":"cp_sunshine","folder":"tf","game":"Team Fortress","app_id":440,"player_count":0,"max_players":24,"Bots":0,"server_type":"Dedicated","server_os":"Linux","password":true,"vac":true,"version":"7757534","steam_id":85568392924742827,"keywords":["cp","nocrits","nodmgspread","uncletopia"],"game_id":440,"stv_port":27076,"stv_name":"Uncletopia | Frankfurt | 7 | Stopwatch Beta | STV","players":null},{"server_id":24,"name":"Uncletopia | Frankfurt | 8 | Community","name_short":"frk-8","host":"frk-1.de.uncletopia.com","port":27085,"enabled":true,"region":"eu","cc":"de","latitude":50.110924,"longitude":8.682127,"reserved":0,"last_update":"0001-01-01T00:00:00Z","name_a2s":"Uncletopia | Frankfurt | 8 | Community","protocol":17,"map":"koth_lakeside_final","folder":"tf","game":"Team Fortress","app_id":440,"player_count":0,"max_players":24,"Bots":0,"server_type":"Dedicated","server_os":"Linux","password":true,"vac":true,"version":"7757534","steam_id":85568392924742828,"keywords":["cp","nocrits","nodmgspread","uncletopia"],"game_id":440,"stv_port":27086,"stv_name":"Uncletopia | Frankfurt | 8 | Community | STV","players":null},{"server_id":202,"name":"Uncletopia | Hong Kong | 1 | All Maps","name_short":"hgk-1","host":"hgk-1.hk.uncletopia.com","port":27015,"enabled":true,"region":"asia","cc":"hk","latitude":22.302711,"longitude":114.177216,"reserved":0,"last_update":"0001-01-01T00:00:00Z","name_a2s":"Uncletopia | Hong Kong | 1 | All Maps","protocol":17,"map":"pl_snowycoast","folder":"tf","game":"Team Fortress","app_id":440,"player_count":24,"max_players":24,"Bots":0,"server_type":"Dedicated","server_os":"Linux","password":true,"vac":true,"version":"7757534","steam_id":85568392924494504,"keywords":["nocrits","nodmgspread","payload","uncletopia"],"game_id":440,"stv_port":27016,"stv_name":"Uncletopia | Hong Kong | 1 | All Maps | STV","players":[{"user_id":104,"name":"idontknowhatimdoing(f2p)","steam_id":76561198973533534,"connected_time":3351000000000,"state":"active","ping":120},{"user_id":119,"name":"jan.","steam_id":76561198917288720,"connected_time":1783000000000,"state":"active","ping":96},{"user_id":115,"name":"Mehcro","steam_id":76561198856864170,"connected_time":1976000000000,"state":"active","ping":93},{"user_id":128,"name":"s1nner","steam_id":76561198225715416,"connected_time":473000000000,"state":"active","ping":37},{"user_id":125,"name":"tiden2000","steam_id":76561198092969425,"connected_time":527000000000,"state":"active","ping":110},{"user_id":65,"name":"spinach (old mouse)","steam_id":76561198042539541,"connected_time":5543000000000,"state":"active","ping":79},{"user_id":51,"name":"Milk‚ù§","steam_id":76561198163911560,"connected_time":6502000000000,"state":"active","ping":136},{"user_id":124,"name":"Cheesey","steam_id":76561198975684137,"connected_time":529000000000,"state":"active","ping":79},{"user_id":87,"name":"huh :-)","steam_id":76561198293775978,"connected_time":4386000000000,"state":"active","ping":94},{"user_id":121,"name":". ·¥ó.","steam_id":76561198208632261,"connected_time":1217000000000,"state":"active","ping":39},{"user_id":28,"name":"Meru","steam_id":76561198405734851,"connected_time":7958000000000,"state":"active","ping":149},{"user_id":112,"name":"Creaserg","steam_id":76561198827951097,"connected_time":2237000000000,"state":"active","ping":89},{"user_id":117,"name":"Giyu","steam_id":76561198299150410,"connected_time":1895000000000,"state":"active","ping":81},{"user_id":31,"name":"Mysterious_Network","steam_id":76561199445957166,"connected_time":7604000000000,"state":"active","ping":65},{"user_id":129,"name":"corpse_cadaver","steam_id":76561199225360457,"connected_time":441000000000,"state":"active","ping":70},{"user_id":120,"name":"cstr","steam_id":76561199468929890,"connected_time":1735000000000,"state":"active","ping":98},{"user_id":34,"name":"screaming sniper","steam_id":76561199085568674,"connected_time":7439000000000,"state":"active","ping":74},{"user_id":93,"name":"momosneakeradventure","steam_id":76561199046440440,"connected_time":4049000000000,"state":"active","ping":46},{"user_id":71,"name":"P","steam_id":76561198304514505,"connected_time":5377000000000,"state":"active","ping":88},{"user_id":110,"name":"booty cheeks xd","steam_id":76561198324008555,"connected_time":2422000000000,"state":"active","ping":59},{"user_id":108,"name":"sloth of the fragment clan","steam_id":76561198214192048,"connected_time":2748000000000,"state":"active","ping":98},{"user_id":122,"name":"Deadweight #SaveTF2","steam_id":76561199135450168,"connected_time":735000000000,"state":"active","ping":142},{"user_id":94,"name":":uroSmonk:","steam_id":76561198074339034,"connected_time":4011000000000,"state":"active","ping":76},{"user_id":126,"name":"dax.","steam_id":76561198321885643,"connected_time":527000000000,"state":"active","ping":46}]},{"server_id":1,"name":"Uncletopia | Los Angeles | 1 | All Maps","name_short":"lax-1","host":"lax-1.us.uncletopia.com","port":27015,"enabled":true,"region":"us-west","cc":"us","latitude":33.94279,"longitude":-118.41004,"reserved":0,"last_update":"0001-01-01T00:00:00Z","name_a2s":"Uncletopia | Los Angeles | 1 | All Maps","protocol":17,"map":"pl_pier","folder":"tf","game":"Team Fortress","app_id":440,"player_count":20,"max_players":24,"Bots":0,"server_type":"Dedicated","server_os":"Linux","password":true,"vac":true,"version":"7757534","steam_id":85568392924469991,"keywords":["nocrits","nodmgspread","payload","uncletopia"],"game_id":440,"stv_port":27016,"stv_name":"Uncletopia | Los Angeles | 1 | All Maps | STV","players":[{"user_id":59,"name":"Celia [ +/- ] ‚úî","steam_id":76561198067164431,"connected_time":3199000000000,"state":"active","ping":37},{"user_id":79,"name":"KaveMan","steam_id":76561198340573204,"connected_time":1976000000000,"state":"active","ping":54},{"user_id":91,"name":"Chin","steam_id":76561198953123833,"connected_time":583000000000,"state":"active","ping":48},{"user_id":80,"name":"SIGMA [BS]","steam_id":76561197962604879,"connected_time":1965000000000,"state":"active","ping":98},{"user_id":87,"name":"Jovi Boy","steam_id":76561198046605691,"connected_time":788000000000,"state":"active","ping":58},{"user_id":81,"name":"ConiferCarver(#SaveTF2)","steam_id":76561198195875845,"connected_time":1947000000000,"state":"active","ping":55},{"user_id":88,"name":"flo rida","steam_id":76561198226169704,"connected_time":667000000000,"state":"active","ping":56},{"user_id":41,"name":"Aequalis747","steam_id":76561199456589841,"connected_time":3987000000000,"state":"active","ping":68},{"user_id":83,"name":"panopticon","steam_id":76561198151071386,"connected_time":1869000000000,"state":"active","ping":115},{"user_id":70,"name":"fiberbriver","steam_id":76561198253933991,"connected_time":2737000000000,"state":"active","ping":49},{"user_id":44,"name":"xbox record that","steam_id":76561198150117455,"connected_time":3881000000000,"state":"active","ping":52},{"user_id":97,"name":"Red Angry Bird","steam_id":76561198204896231,"connected_time":3000000000,"state":"spawning","ping":57},{"user_id":94,"name":"vanillain","steam_id":76561198058617608,"connected_time":138000000000,"state":"active","ping":71},{"user_id":90,"name":"SparklePawz ‚ô•","steam_id":76561198093703065,"connected_time":612000000000,"state":"active","ping":183},{"user_id":53,"name":"werolat","steam_id":76561197960544784,"connected_time":3641000000000,"state":"active","ping":80},{"user_id":92,"name":"Gundam Guy","steam_id":76561198178453993,"connected_time":583000000000,"state":"active","ping":69},{"user_id":72,"name":"023e20902o0239ee02390o239e","steam_id":76561198175741741,"connected_time":2666000000000,"state":"active","ping":96},{"user_id":76,"name":"Dr. Gordon Freeman","steam_id":76561198258258079,"connected_time":2511000000000,"state":"active","ping":96},{"user_id":89,"name":"vioxynteris","steam_id":76561198161428666,"connected_time":667000000000,"state":"active","ping":40},{"user_id":96,"name":"Reyloko","steam_id":76561198172480913,"connected_time":62000000000,"state":"active","ping":105}]},{"server_id":112,"name":"Uncletopia | Los Angeles | 2 | All Maps","name_short":"lax-2","host":"lax-1.us.uncletopia.com","port":27025,"enabled":true,"region":"us-west","cc":"us","latitude":33.94279,"longitude":-118.41004,"reserved":0,"last_update":"0001-01-01T00:00:00Z","name_a2s":"Uncletopia | Los Angeles | 2 | All Maps","protocol":17,"map":"cp_process_final","folder":"tf","game":"Team Fortress","app_id":440,"player_count":24,"max_players":24,"Bots":0,"server_type":"Dedicated","server_os":"Linux","password":true,"vac":true,"version":"7757534","steam_id":85568392924469992,"keywords":["cp","nocrits","nodmgspread","uncletopia"],"game_id":440,"stv_port":27026,"stv_name":"Uncletopia | Los Angeles | 2 | All Maps | STV","players":[{"user_id":281,"name":"An00bis","steam_id":76561198044084508,"connected_time":1127000000000,"state":"active","ping":51},{"user_id":282,"name":"lokm","steam_id":76561198030374238,"connected_time":1118000000000,"state":"active","ping":55},{"user_id":265,"name":"FROYO b4nny","steam_id":76561197970669109,"connected_time":2653000000000,"state":"active","ping":51},{"user_id":279,"name":"Innocent Tyler","steam_id":76561199473801131,"connected_time":1272000000000,"state":"active","ping":119},{"user_id":269,"name":"‚ù§ Ashley ‚ù§","steam_id":76561198056428303,"connected_time":2200000000000,"state":"active","ping":54},{"user_id":286,"name":"‚òÖCyberMario‚òÖ","steam_id":76561198045798329,"connected_time":1023000000000,"state":"active","ping":71},{"user_id":276,"name":"The Horselords and Animal Gods","steam_id":76561197975094050,"connected_time":1785000000000,"state":"active","ping":56},{"user_id":239,"name":"BasedGod","steam_id":76561198061177973,"connected_time":4865000000000,"state":"active","ping":51},{"user_id":278,"name":"rip ghost mountain","steam_id":76561198357132470,"connected_time":1301000000000,"state":"active","ping":60},{"user_id":228,"name":"Sudo","steam_id":76561198123714026,"connected_time":5545000000000,"state":"active","ping":74},{"user_id":258,"name":"walrooos","steam_id":76561198024521839,"connected_time":3991000000000,"state":"active","ping":49},{"user_id":273,"name":"witch","steam_id":76561197974871380,"connected_time":2078000000000,"state":"active","ping":75},{"user_id":253,"name":"DEQUAVIS","steam_id":76561198843060075,"connected_time":4115000000000,"state":"active","ping":45},{"user_id":268,"name":"Mikeonut","steam_id":76561198305752102,"connected_time":2384000000000,"state":"active","ping":51},{"user_id":216,"name":"Squiliam","steam_id":76561198025278006,"connected_time":6239000000000,"state":"active","ping":69},{"user_id":280,"name":"Dr_Nuclear","steam_id":76561198288223534,"connected_time":1142000000000,"state":"active","ping":59},{"user_id":284,"name":"the rock","steam_id":76561198046251318,"connected_time":1091000000000,"state":"active","ping":108},{"user_id":275,"name":"Nintendo DSi XL","steam_id":76561198280682611,"connected_time":1935000000000,"state":"active","ping":51},{"user_id":220,"name":"beabadoobee","steam_id":76561198122177409,"connected_time":6005000000000,"state":"active","ping":46},{"user_id":287,"name":"Brandon","steam_id":76561198127740278,"connected_time":427000000000,"state":"active","ping":65},{"user_id":267,"name":"SneekiCheekiQbone","steam_id":76561198045077980,"connected_time":2646000000000,"state":"active","ping":43},{"user_id":285,"name":"PeptoBismol","steam_id":76561198082669076,"connected_time":1063000000000,"state":"active","ping":56},{"user_id":274,"name":"w4lkm4n","steam_id":76561198025668771,"connected_time":2048000000000,"state":"active","ping":84},{"user_id":260,"name":"MuscleWizard","steam_id":76561198113756539,"connected_time":3707000000000,"state":"active","ping":60}]},{"server_id":324,"name":"Uncletopia | Los Angeles | 3 | All Maps","name_short":"lax-3","host":"lax-1.us.uncletopia.com","port":27035,"enabled":true,"region":"us-west","cc":"us","latitude":33.94279,"longitude":-118.41004,"reserved":0,"last_update":"0001-01-01T00:00:00Z","name_a2s":"Uncletopia | Los Angeles | 3 | All Maps","protocol":17,"map":"koth_viaduct","folder":"tf","game":"Team Fortress","app_id":440,"player_count":24,"max_players":24,"Bots":0,"server_type":"Dedicated","server_os":"Linux","password":true,"vac":true,"version":"7757534","steam_id":85568392924510198,"keywords":["cp","nocrits","nodmgspread","uncletopia"],"game_id":440,"stv_port":27036,"stv_name":"Uncletopia | Los Angeles | 3 | All Maps | STV","players":[{"user_id":104,"name":"chimplicity","steam_id":76561198012097062,"connected_time":1800000000000,"state":"active","ping":68},{"user_id":101,"name":"Averagemicrowavedchickenstick","steam_id":76561199128225865,"connected_time":2247000000000,"state":"active","ping":93},{"user_id":115,"name":"Death Bird","steam_id":76561198041329791,"connected_time":748000000000,"state":"active","ping":44},{"user_id":116,"name":"FI LO","steam_id":76561198976530881,"connected_time":741000000000,"state":"active","ping":44},{"user_id":114,"name":"JOE ROGAN FAN","steam_id":76561198145669711,"connected_time":763000000000,"state":"active","ping":39},{"user_id":100,"name":"bigman1","steam_id":76561198050225055,"connected_time":2346000000000,"state":"active","ping":45},{"user_id":89,"name":"Benshiro","steam_id":76561198151776951,"connected_time":2945000000000,"state":"active","ping":62},{"user_id":112,"name":"The Regional Manager","steam_id":76561198825154890,"connected_time":1346000000000,"state":"active","ping":63},{"user_id":118,"name":"chrome 2008 (she/they)","steam_id":76561198321277216,"connected_time":695000000000,"state":"active","ping":62},{"user_id":86,"name":"WillUberDemoknights","steam_id":76561198320452169,"connected_time":3327000000000,"state":"active","ping":53},{"user_id":119,"name":"I fuck 2 depeche mode","steam_id":76561198329087915,"connected_time":638000000000,"state":"active","ping":53},{"user_id":34,"name":"sammy #freecream","steam_id":76561199001307670,"connected_time":5864000000000,"state":"active","ping":83},{"user_id":121,"name":"Volichristo","steam_id":76561198148924612,"connected_time":413000000000,"state":"active","ping":116},{"user_id":36,"name":"scout unenjoyer","steam_id":76561199011185438,"connected_time":5830000000000,"state":"active","ping":98},{"user_id":108,"name":"LegendaryR'QA","steam_id":76561198049660110,"connected_time":1703000000000,"state":"active","ping":60},{"user_id":117,"name":"I THINK COOLSVILLE SUCKS","steam_id":76561198066855998,"connected_time":740000000000,"state":"active","ping":76},{"user_id":97,"name":"cool beans","steam_id":76561198045758072,"connected_time":2697000000000,"state":"active","ping":58},{"user_id":71,"name":"Not A Rapper","steam_id":76561198077523537,"connected_time":4016000000000,"state":"active","ping":116},{"user_id":76,"name":"carol in HR","steam_id":76561198071775268,"connected_time":3672000000000,"state":"active","ping":103},{"user_id":120,"name":"i cant aim","steam_id":76561198065873462,"connected_time":618000000000,"state":"active","ping":48},{"user_id":110,"name":"Twombly","steam_id":76561198056532348,"connected_time":1685000000000,"state":"active","ping":61},{"user_id":49,"name":"Chalupa Jones","steam_id":76561198335855588,"connected_time":5343000000000,"state":"active","ping":49},{"user_id":77,"name":"Skarp129","steam_id":76561198108679057,"connected_time":3672000000000,"state":"active","ping":49},{"user_id":111,"name":"Sgt. Pufferfish","steam_id":76561198129531735,"connected_time":1629000000000,"state":"active","ping":70}]},{"server_id":25,"name":"Uncletopia | Los Angeles | 4 | Stopwatch Beta","name_short":"lax-4","host":"lax-1.us.uncletopia.com","port":27045,"enabled":true,"region":"us-west","cc":"us","latitude":33.94279,"longitude":-118.41004,"reserved":0,"last_update":"0001-01-01T00:00:00Z","name_a2s":"Uncletopia | Los Angeles | 4 | Stopwatch Beta","protocol":17,"map":"koth_lakeside_final","folder":"tf","game":"Team Fortress","app_id":440,"player_count":11,"max_players":24,"Bots":0,"server_type":"Dedicated","server_os":"Linux","password":true,"vac":true,"version":"7757534","steam_id":85568392924510199,"keywords":["cp","nocrits","nodmgspread","uncletopia"],"game_id":440,"stv_port":27046,"stv_name":"Uncletopia | Los Angeles | 4 | Stopwatch Beta | STV","players":[{"user_id":9,"name":"party chip","steam_id":76561198277153335,"connected_time":1834000000000,"state":"active","ping":55},{"user_id":10,"name":"Flamin' Hot‚Ñ¢ Limon Cheetos‚Ñ¢","steam_id":76561198157033594,"connected_time":1792000000000,"state":"active","ping":65},{"user_id":11,"name":"amanthatplaysgames","steam_id":76561199396905804,"connected_time":1476000000000,"state":"active","ping":196},{"user_id":19,"name":"OfficialGir","steam_id":76561198256026535,"connected_time":320000000000,"state":"active","ping":142},{"user_id":13,"name":"Wizowd","steam_id":76561198167702261,"connected_time":1098000000000,"state":"active","ping":62},{"user_id":14,"name":"Gonotic gnelf","steam_id":76561199135847219,"connected_time":806000000000,"state":"active","ping":110},{"user_id":15,"name":"[SODA] Eagan Gbao","steam_id":76561198846826090,"connected_time":775000000000,"state":"active","ping":107},{"user_id":17,"name":"Hagfishsaurus","steam_id":76561198013067079,"connected_time":470000000000,"state":"active","ping":103},{"user_id":18,"name":"Jessiebeanie","steam_id":76561197993178955,"connected_time":437000000000,"state":"active","ping":81},{"user_id":22,"name":"Alice","steam_id":76561198254447217,"connected_time":116000000000,"state":"active","ping":57},{"user_id":23,"name":"Cake Noddle","steam_id":76561198070072005,"connected_time":55000000000,"state":"active","ping":90}]},{"server_id":11,"name":"Uncletopia | London | 1 | All Maps","name_short":"lon-1","host":"lon-1.uk.uncletopia.com","port":27015,"enabled":true,"region":"eu","cc":"gb","latitude":51.509865,"longitude":-0.118092,"reserved":0,"last_update":"0001-01-01T00:00:00Z","name_a2s":"Uncletopia | London | 1 | All Maps","protocol":17,"map":"koth_viaduct","folder":"tf","game":"Team Fortress","app_id":440,"player_count":0,"max_players":24,"Bots":0,"server_type":"Dedicated","server_os":"Linux","password":true,"vac":true,"version":"7757534","steam_id":85568392924367362,"keywords":["cp","nocrits","nodmgspread","uncletopia"],"game_id":440,"stv_port":27016,"stv_name":"Uncletopia | London | 1 | All Maps | STV","players":null},{"server_id":114,"name":"Uncletopia | London | 2 | All Maps","name_short":"lon-2","host":"lon-1.uk.uncletopia.com","port":27025,"enabled":true,"region":"eu","cc":"gb","latitude":51.509865,"longitude":-0.118092,"reserved":0,"last_update":"0001-01-01T00:00:00Z","name_a2s":"Uncletopia | London | 2 | All Maps","protocol":17,"map":"pl_snowycoast","folder":"tf","game":"Team Fortress","app_id":440,"player_count":0,"max_players":24,"Bots":0,"server_type":"Dedicated","server_os":"Linux","password":true,"vac":true,"version":"7757534","steam_id":85568392924470941,"keywords":["nocrits","nodmgspread","payload","uncletopia"],"game_id":440,"stv_port":27026,"stv_name":"Uncletopia | London | 2 | All Maps | STV","players":null},{"server_id":320,"name":"Uncletopia | London | 3 | All Maps","name_short":"lon-3","host":"lon-1.uk.uncletopia.com","port":27035,"enabled":true,"region":"eu","cc":"gb","latitude":51.509865,"longitude":-0.118092,"reserved":0,"last_update":"0001-01-01T00:00:00Z","name_a2s":"Uncletopia | London | 3 | All Maps","protocol":17,"map":"koth_cascade","folder":"tf","game":"Team Fortress","app_id":440,"player_count":0,"max_players":24,"Bots":0,"server_type":"Dedicated","server_os":"Linux","password":true,"vac":true,"version":"7757534","steam_id":85568392924510192,"keywords":["cp","nocrits","nodmgspread","uncletopia"],"game_id":440,"stv_port":27036,"stv_name":"Uncletopia | London | 3 | All Maps | STV","players":null},{"server_id":321,"name":"Uncletopia | London | 4 | All Maps","name_short":"lon-4","host":"lon-1.uk.uncletopia.com","port":27045,"enabled":true,"region":"eu","cc":"gb","latitude":51.509865,"longitude":-0.118092,"reserved":0,"last_update":"0001-01-01T00:00:00Z","name_a2s":"Uncletopia | London | 4 | All Maps","protocol":17,"map":"pl_pier","folder":"tf","game":"Team Fortress","app_id":440,"player_count":13,"max_players":24,"Bots":0,"server_type":"Dedicated","server_os":"Linux","password":true,"vac":true,"version":"7757534","steam_id":85568392924510193,"keywords":["nocrits","nodmgspread","payload","uncletopia"],"game_id":440,"stv_port":27046,"stv_name":"Uncletopia | London | 4 | All Maps | STV","players":[{"user_id":869,"name":"Cosmo duffler","steam_id":76561198998684199,"connected_time":213000000000,"state":"active","ping":132},{"user_id":847,"name":"iIMOFIi","steam_id":76561199000483925,"connected_time":2689000000000,"state":"active","ping":181},{"user_id":855,"name":"gus","steam_id":76561198876303958,"connected_time":1951000000000,"state":"active","ping":105},{"user_id":866,"name":"Souris Marine","steam_id":76561199143334415,"connected_time":546000000000,"state":"active","ping":45},{"user_id":867,"name":"Peat","steam_id":76561197992168067,"connected_time":502000000000,"state":"active","ping":68},{"user_id":870,"name":"Middleast Scarr","steam_id":76561198065069637,"connected_time":141000000000,"state":"active","ping":110},{"user_id":849,"name":"Lemmers235","steam_id":76561199192668922,"connected_time":2539000000000,"state":"active","ping":182},{"user_id":864,"name":"Raymus","steam_id":76561198021330407,"connected_time":894000000000,"state":"active","ping":56},{"user_id":858,"name":"NotUserUnderknown","steam_id":76561199023148748,"connected_time":1537000000000,"state":"active","ping":126},{"user_id":851,"name":"WebstarEGTV","steam_id":76561198162593789,"connected_time":2496000000000,"state":"active","ping":223},{"user_id":862,"name":"dav","steam_id":76561198116986693,"connected_time":1227000000000,"state":"active","ping":94},{"user_id":852,"name":"–¢—Ä—É–ø –í–æ–ª–æ–¥—è","steam_id":76561198035718457,"connected_time":2478000000000,"state":"active","ping":92},{"user_id":871,"name":"chegg","steam_id":76561198117426804,"connected_time":7000000000,"state":"spawning","ping":59}]},{"server_id":21,"name":"Uncletopia | London | 5 | All Maps","name_short":"lon-5","host":"lon-1.uk.uncletopia.com","port":27055,"enabled":true,"region":"eu","cc":"gb","latitude":51.509865,"longitude":-0.118092,"reserved":0,"last_update":"0001-01-01T00:00:00Z","name_a2s":"Uncletopia | London | 5 | All Maps","protocol":17,"map":"pl_badwater","folder":"tf","game":"Team Fortress","app_id":440,"player_count":0,"max_players":24,"Bots":0,"server_type":"Dedicated","server_os":"Linux","password":true,"vac":true,"version":"7757534","steam_id":85568392924742829,"keywords":["nocrits","nodmgspread","payload","uncletopia"],"game_id":440,"stv_port":27056,"stv_name":"Uncletopia | London | 5 | All Maps | STV","players":null},{"server_id":22,"name":"Uncletopia | London | 6 | All Maps","name_short":"lon-6","host":"lon-1.uk.uncletopia.com","port":27065,"enabled":true,"region":"eu","cc":"gb","latitude":51.509865,"longitude":-0.118092,"reserved":0,"last_update":"0001-01-01T00:00:00Z","name_a2s":"Uncletopia | London | 6 | All Maps","protocol":17,"map":"koth_highpass","folder":"tf","game":"Team Fortress","app_id":440,"player_count":0,"max_players":24,"Bots":0,"server_type":"Dedicated","server_os":"Linux","password":true,"vac":true,"version":"7757534","steam_id":85568392924742830,"keywords":["cp","nocrits","nodmgspread","uncletopia"],"game_id":440,"stv_port":27066,"stv_name":"Uncletopia | London | 6 | All Maps | STV","players":null},{"server_id":40,"name":"Uncletopia | London | 7 | No Payload","name_short":"lon-7","host":"lon-1.uk.uncletopia.com","port":27075,"enabled":true,"region":"eu","cc":"gb","latitude":51.509865,"longitude":-0.118092,"reserved":0,"last_update":"0001-01-01T00:00:00Z","name_a2s":"Uncletopia | London | 7 | No Payload","protocol":17,"map":"koth_harvest_final","folder":"tf","game":"Team Fortress","app_id":440,"player_count":0,"max_players":24,"Bots":0,"server_type":"Dedicated","server_os":"Linux","password":true,"vac":true,"version":"7757534","steam_id":85568392924964314,"keywords":["cp","nocrits","nodmgspread","uncletopia"],"game_id":440,"stv_port":27076,"stv_name":"Uncletopia | London | 7 | No Payload | STV","players":null},{"server_id":41,"name":"Uncletopia | London | 8 | Community","name_short":"lon-8","host":"lon-1.uk.uncletopia.com","port":27085,"enabled":true,"region":"eu","cc":"gb","latitude":51.509865,"longitude":-0.118092,"reserved":0,"last_update":"0001-01-01T00:00:00Z","name_a2s":"Uncletopia | London | 8 | Community","protocol":17,"map":"workshop/cp_caldera_rc2.ugc2834196889","folder":"tf","game":"Team Fortress","app_id":440,"player_count":0,"max_players":24,"Bots":0,"server_type":"Dedicated","server_os":"Linux","password":true,"vac":true,"version":"7757534","steam_id":85568392924964315,"keywords":["cp","nocrits","nodmgspread","uncletopia"],"game_id":440,"stv_port":27086,"stv_name":"Uncletopia | London | 8 | Community | STV","players":null},{"server_id":300,"name":"Uncletopia | Montr√©al | 1 | All Maps","name_short":"mtl-1","host":"mtl-1.ca.uncletopia.com","port":27015,"enabled":true,"region":"us-east","cc":"ca","latitude":45.50889,"longitude":-73.56167,"reserved":0,"last_update":"0001-01-01T00:00:00Z","name_a2s":"Uncletopia | Montr√©al | 1 | All Maps","protocol":17,"map":"koth_highpass","folder":"tf","game":"Team Fortress","app_id":440,"player_count":0,"max_players":24,"Bots":0,"server_type":"Dedicated","server_os":"Linux","password":true,"vac":true,"version":"7757534","steam_id":85568392924500087,"keywords":["cp","nocrits","nodmgspread","uncletopia"],"game_id":440,"stv_port":27016,"stv_name":"Uncletopia | Montr√©al | 1 | All Maps | STV","players":null},{"server_id":301,"name":"Uncletopia | Montr√©al | 2 | All Maps","name_short":"mtl-2","host":"mtl-1.ca.uncletopia.com","port":27025,"enabled":true,"region":"us-east","cc":"ca","latitude":45.50889,"longitude":-73.56167,"reserved":0,"last_update":"0001-01-01T00:00:00Z","name_a2s":"Uncletopia | Montr√©al | 2 | All Maps","protocol":17,"map":"pl_barnblitz","folder":"tf","game":"Team Fortress","app_id":440,"player_count":24,"max_players":24,"Bots":0,"server_type":"Dedicated","server_os":"Linux","password":true,"vac":true,"version":"7757534","steam_id":85568392924500088,"keywords":["nocrits","nodmgspread","payload","uncletopia"],"game_id":440,"stv_port":27026,"stv_name":"Uncletopia | Montr√©al | 2 | All Maps | STV","players":[{"user_id":264,"name":"El Duderino","steam_id":76561198084404539,"connected_time":1642000000000,"state":"active","ping":126},{"user_id":265,"name":"Conceits","steam_id":76561198065746466,"connected_time":1526000000000,"state":"active","ping":57},{"user_id":251,"name":"glitchhero12","steam_id":76561199401322907,"connected_time":2562000000000,"state":"active","ping":66},{"user_id":258,"name":"The boi Everett","steam_id":76561199229813848,"connected_time":2146000000000,"state":"active","ping":93},{"user_id":262,"name":"Moon Knight","steam_id":76561199013317676,"connected_time":1929000000000,"state":"active","ping":116},{"user_id":266,"name":"Meet The Amazing Bret","steam_id":76561198137326099,"connected_time":1479000000000,"state":"active","ping":85},{"user_id":261,"name":"Blade Noir","steam_id":76561198091690109,"connected_time":1976000000000,"state":"active","ping":87},{"user_id":267,"name":"StorboChan","steam_id":76561199002587669,"connected_time":1412000000000,"state":"active","ping":91},{"user_id":199,"name":"Nappa","steam_id":76561198142406272,"connected_time":6340000000000,"state":"active","ping":68},{"user_id":205,"name":"Krillin","steam_id":76561198102009232,"connected_time":6184000000000,"state":"active","ping":72},{"user_id":201,"name":"Vegeta","steam_id":76561198120976988,"connected_time":6260000000000,"state":"active","ping":66},{"user_id":268,"name":"Exio","steam_id":76561198218639325,"connected_time":1306000000000,"state":"active","ping":70},{"user_id":269,"name":"Minion Bob","steam_id":76561198023938170,"connected_time":765000000000,"state":"active","ping":71},{"user_id":272,"name":"ferin","steam_id":76561198137607046,"connected_time":475000000000,"state":"active","ping":41},{"user_id":204,"name":"dvnncl","steam_id":76561198337115759,"connected_time":6206000000000,"state":"active","ping":92},{"user_id":273,"name":"Major Woody","steam_id":76561198835541533,"connected_time":417000000000,"state":"active","ping":49},{"user_id":275,"name":"will pocket for 1 ref","steam_id":76561198307881340,"connected_time":398000000000,"state":"active","ping":96},{"user_id":276,"name":"Sarah Tonin","steam_id":76561198263707757,"connected_time":397000000000,"state":"active","ping":54},{"user_id":277,"name":"caribou","steam_id":76561198044916224,"connected_time":389000000000,"state":"active","ping":120},{"user_id":285,"name":"Ugly Mick Mars (Plz Duel Me)","steam_id":76561198051504563,"connected_time":151000000000,"state":"active","ping":130},{"user_id":279,"name":"OBLITERATED AT JAPANESE BBQ","steam_id":76561198160455073,"connected_time":387000000000,"state":"active","ping":86},{"user_id":280,"name":"Demoman","steam_id":76561198101850500,"connected_time":362000000000,"state":"active","ping":117},{"user_id":286,"name":"El G√ºey","steam_id":76561197970450546,"connected_time":109000000000,"state":"active","ping":131},{"user_id":282,"name":"easiest airshotter","steam_id":76561198812385770,"connected_time":339000000000,"state":"active","ping":75}]},{"server_id":302,"name":"Uncletopia | Montr√©al | 3 | All Maps","name_short":"mtl-3","host":"mtl-1.ca.uncletopia.com","port":27035,"enabled":true,"region":"us-east","cc":"ca","latitude":45.50889,"longitude":-73.56167,"reserved":0,"last_update":"0001-01-01T00:00:00Z","name_a2s":"Uncletopia | Montr√©al | 3 | All Maps","protocol":17,"map":"pl_pier","folder":"tf","game":"Team Fortress","app_id":440,"player_count":0,"max_players":24,"Bots":0,"server_type":"Dedicated","server_os":"Linux","password":true,"vac":true,"version":"7757534","steam_id":85568392924500089,"keywords":["nocrits","nodmgspread","payload","uncletopia"],"game_id":440,"stv_port":27036,"stv_name":"Uncletopia | Montr√©al | 3 | All Maps | STV","players":null},{"server_id":303,"name":"Uncletopia | Montr√©al | 4 | No Payload","name_short":"mtl-4","host":"mtl-1.ca.uncletopia.com","port":27045,"enabled":true,"region":"us-east","cc":"ca","latitude":45.50889,"longitude":-73.56167,"reserved":0,"last_update":"0001-01-01T00:00:00Z","name_a2s":"Uncletopia | Montr√©al | 4 | No Payload","protocol":17,"map":"plr_nightfall_final","folder":"tf","game":"Team Fortress","app_id":440,"player_count":0,"max_players":24,"Bots":0,"server_type":"Dedicated","server_os":"Linux","password":true,"vac":true,"version":"7757534","steam_id":85568392924500090,"keywords":["nocrits","nodmgspread","payload","uncletopia"],"game_id":440,"stv_port":27046,"stv_name":"Uncletopia | Montr√©al | 4 | No Payload | STV","players":null},{"server_id":13,"name":"Uncletopia | New York City | 1 | All Maps","name_short":"nyc-1","host":"nyc-1.us.uncletopia.com","port":27015,"enabled":true,"region":"us-east","cc":"us","latitude":40.73061,"longitude":-73.93524,"reserved":0,"last_update":"0001-01-01T00:00:00Z","name_a2s":"Uncletopia | New York City | 1 | All Maps","protocol":17,"map":"pl_upward","folder":"tf","game":"Team Fortress","app_id":440,"player_count":24,"max_players":24,"Bots":0,"server_type":"Dedicated","server_os":"Linux","password":true,"vac":true,"version":"7757534","steam_id":85568392924469993,"keywords":["nocrits","nodmgspread","payload","uncletopia"],"game_id":440,"stv_port":27016,"stv_name":"Uncletopia | New York City | 1 | All Maps | STV","players":[{"user_id":605,"name":"LEMS505","steam_id":76561198103225678,"connected_time":467000000000,"state":"active","ping":57},{"user_id":606,"name":"Victor Skull","steam_id":76561198352212864,"connected_time":401000000000,"state":"active","ping":35},{"user_id":567,"name":"TheGuyWhoPlays","steam_id":76561198277363002,"connected_time":3158000000000,"state":"active","ping":61},{"user_id":607,"name":"--_Cook_--","steam_id":76561198080855748,"connected_time":37000000000,"state":"active","ping":50},{"user_id":570,"name":"queenbonqueenqueen","steam_id":76561198799729926,"connected_time":2754000000000,"state":"active","ping":101},{"user_id":590,"name":"flamingcookies","steam_id":76561198280864779,"connected_time":1467000000000,"state":"active","ping":75},{"user_id":598,"name":"olmusky","steam_id":76561199094494621,"connected_time":1322000000000,"state":"active","ping":83},{"user_id":575,"name":"DerrickHenryFan2012","steam_id":76561198254452687,"connected_time":2126000000000,"state":"active","ping":71},{"user_id":593,"name":"carlos.t","steam_id":76561198849981462,"connected_time":1397000000000,"state":"active","ping":77},{"user_id":568,"name":"trappy (soggy)","steam_id":76561198402801140,"connected_time":3142000000000,"state":"active","ping":80},{"user_id":565,"name":"Luka Tim","steam_id":76561198277163301,"connected_time":3229000000000,"state":"active","ping":79},{"user_id":564,"name":"C Papi","steam_id":76561198027779564,"connected_time":3353000000000,"state":"active","ping":59},{"user_id":576,"name":"WibbyOne","steam_id":76561198052843846,"connected_time":2122000000000,"state":"active","ping":33},{"user_id":595,"name":"Lore","steam_id":76561198098407538,"connected_time":1380000000000,"state":"active","ping":62},{"user_id":599,"name":"itookashit1223","steam_id":76561199047267338,"connected_time":1322000000000,"state":"active","ping":92},{"user_id":581,"name":"SirQuiet","steam_id":76561198109235416,"connected_time":1989000000000,"state":"active","ping":128},{"user_id":588,"name":"Aristotle Voulton","steam_id":76561198100174923,"connected_time":1702000000000,"state":"active","ping":122},{"user_id":608,"name":"inflation","steam_id":76561198090626597,"connected_time":34000000000,"state":"connecting","ping":53},{"user_id":604,"name":"65 degrees in February","steam_id":76561198091585491,"connected_time":671000000000,"state":"active","ping":40},{"user_id":554,"name":"DaMultiversalist","steam_id":76561198239552412,"connected_time":4202000000000,"state":"active","ping":83},{"user_id":597,"name":"AJsurfer","steam_id":76561198897045252,"connected_time":1330000000000,"state":"active","ping":61},{"user_id":537,"name":"Yummy Kabobz","steam_id":76561198067661705,"connected_time":5015000000000,"state":"active","ping":55},{"user_id":603,"name":"zpalmtree","steam_id":76561198134307620,"connected_time":861000000000,"state":"active","ping":64},{"user_id":596,"name":"Two-Teste Tommy","steam_id":76561198064308936,"connected_time":1360000000000,"state":"active","ping":50}]},{"server_id":14,"name":"Uncletopia | New York City | 2 | All Maps","name_short":"nyc-2","host":"nyc-1.us.uncletopia.com","port":27025,"enabled":true,"region":"us-east","cc":"us","latitude":40.73061,"longitude":-73.93524,"reserved":0,"last_update":"0001-01-01T00:00:00Z","name_a2s":"Uncletopia | New York City | 2 | All Maps","protocol":17,"map":"koth_harvest_final","folder":"tf","game":"Team Fortress","app_id":440,"player_count":24,"max_players":24,"Bots":0,"server_type":"Dedicated","server_os":"Linux","password":true,"vac":true,"version":"7757534","steam_id":85568392924469994,"keywords":["cp","nocrits","nodmgspread","uncletopia"],"game_id":440,"stv_port":27026,"stv_name":"Uncletopia | New York City | 2 | All Maps | STV","players":[{"user_id":682,"name":"Blueseer","steam_id":76561198060326533,"connected_time":306000000000,"state":"active","ping":74},{"user_id":661,"name":"the pest","steam_id":76561198826298849,"connected_time":2202000000000,"state":"active","ping":87},{"user_id":683,"name":"Fancy Bed","steam_id":76561198007172366,"connected_time":178000000000,"state":"active","ping":47},{"user_id":617,"name":"nori_420","steam_id":76561199117134203,"connected_time":4975000000000,"state":"active","ping":135},{"user_id":632,"name":"Toast","steam_id":76561198401995265,"connected_time":4197000000000,"state":"active","ping":73},{"user_id":677,"name":"flappyflap2","steam_id":76561198285048973,"connected_time":1133000000000,"state":"active","ping":34},{"user_id":679,"name":"JimmyNeutron","steam_id":76561197993353322,"connected_time":1031000000000,"state":"active","ping":84},{"user_id":678,"name":"miko","steam_id":76561198887899308,"connected_time":1128000000000,"state":"active","ping":93},{"user_id":673,"name":"Eden Hazard","steam_id":76561198089241053,"connected_time":1541000000000,"state":"active","ping":55},{"user_id":452,"name":"Spiral Mountain","steam_id":76561198058683715,"connected_time":16267000000000,"state":"active","ping":90},{"user_id":672,"name":"Full Throttle Axolotl","steam_id":76561198041836477,"connected_time":1722000000000,"state":"active","ping":91},{"user_id":668,"name":"kursed","steam_id":76561198992371495,"connected_time":1995000000000,"state":"active","ping":47},{"user_id":687,"name":"iCarly Lore Expert","steam_id":76561198111902910,"connected_time":88000000000,"state":"active","ping":43},{"user_id":607,"name":"give me spaghetti","steam_id":76561198010019214,"connected_time":5341000000000,"state":"active","ping":33},{"user_id":685,"name":"quint","steam_id":76561198046797995,"connected_time":166000000000,"state":"active","ping":88},{"user_id":602,"name":"obelisk the whore mentor","steam_id":76561198000564263,"connected_time":5372000000000,"state":"active","ping":76},{"user_id":676,"name":"AADDAAMM","steam_id":76561198068584852,"connected_time":1352000000000,"state":"active","ping":61},{"user_id":670,"name":"logitchy","steam_id":76561199062753505,"connected_time":1953000000000,"state":"active","ping":63},{"user_id":686,"name":"*****setget","steam_id":76561198118824188,"connected_time":127000000000,"state":"active","ping":121},{"user_id":604,"name":"lanoc","steam_id":76561198055415367,"connected_time":5367000000000,"state":"active","ping":60},{"user_id":680,"name":"Sink","steam_id":76561198192420249,"connected_time":416000000000,"state":"active","ping":61},{"user_id":688,"name":"Hard Soap","steam_id":76561198267905614,"connected_time":35000000000,"state":"active","ping":78},{"user_id":657,"name":"chiswola","steam_id":76561198046920142,"connected_time":2385000000000,"state":"active","ping":103},{"user_id":681,"name":"guess i'll die...virtually","steam_id":76561199112291386,"connected_time":402000000000,"state":"active","ping":129}]},{"server_id":15,"name":"Uncletopia | New York City | 3 | Stopwatch Beta","name_short":"nyc-3","host":"nyc-1.us.uncletopia.com","port":27035,"enabled":true,"region":"us-east","cc":"us","latitude":40.73061,"longitude":-73.93524,"reserved":0,"last_update":"0001-01-01T00:00:00Z","name_a2s":"Uncletopia | New York City | 3 | Stopwatch Beta","protocol":17,"map":"workshop/koth_ramjam_rc1.ugc459778887","folder":"tf","game":"Team Fortress","app_id":440,"player_count":5,"max_players":24,"Bots":0,"server_type":"Dedicated","server_os":"Linux","password":true,"vac":true,"version":"7757534","steam_id":85568392924742820,"keywords":["cp","nocrits","nodmgspread","uncletopia"],"game_id":440,"stv_port":27036,"stv_name":"Uncletopia | New York City | 3 | Stopwatch Beta | STV","players":[{"user_id":140,"name":"Derpy Engineer HD","steam_id":76561198103184085,"connected_time":652000000000,"state":"active","ping":135},{"user_id":96,"name":"The Pizza King","steam_id":76561198024287176,"connected_time":6164000000000,"state":"active","ping":73},{"user_id":141,"name":"motorman_18301","steam_id":76561197973508341,"connected_time":191000000000,"state":"active","ping":69},{"user_id":129,"name":"Chunky Oatmeal","steam_id":76561198082322538,"connected_time":3839000000000,"state":"active","ping":72},{"user_id":143,"name":"iceman","steam_id":76561198135397441,"connected_time":6000000000,"state":"spawning","ping":90}]},{"server_id":16,"name":"Uncletopia | New York City | 4 | Community","name_short":"nyc-4","host":"nyc-1.us.uncletopia.com","port":27045,"enabled":true,"region":"us-east","cc":"us","latitude":40.73061,"longitude":-73.93524,"reserved":0,"last_update":"0001-01-01T00:00:00Z","name_a2s":"Uncletopia | New York City | 4 | Community","protocol":17,"map":"workshop/koth_ramjam_rc1.ugc459778887","folder":"tf","game":"Team Fortress","app_id":440,"player_count":18,"max_players":24,"Bots":0,"server_type":"Dedicated","server_os":"Linux","password":true,"vac":true,"version":"7757534","steam_id":85568392924742821,"keywords":["cp","nocrits","nodmgspread","uncletopia"],"game_id":440,"stv_port":27046,"stv_name":"Uncletopia | New York City | 4 | Community | STV","players":[{"user_id":294,"name":"Mr. Fahrenheit","steam_id":76561198021489595,"connected_time":4172000000000,"state":"active","ping":95},{"user_id":309,"name":"GiraffeMan","steam_id":76561198042104084,"connected_time":3239000000000,"state":"active","ping":56},{"user_id":342,"name":"Arizona","steam_id":76561198131207161,"connected_time":28000000000,"state":"active","ping":50},{"user_id":313,"name":"medd","steam_id":76561198078238722,"connected_time":3004000000000,"state":"active","ping":104},{"user_id":343,"name":"Brisk","steam_id":76561198129769783,"connected_time":22000000000,"state":"active","ping":76},{"user_id":344,"name":"Konical","steam_id":76561198056711430,"connected_time":4000000000,"state":"spawning","ping":108},{"user_id":339,"name":"The Pan Man From Slavic Land","steam_id":76561198401875841,"connected_time":525000000000,"state":"active","ping":60},{"user_id":338,"name":"Tom Cr√∫aich","steam_id":76561197999439911,"connected_time":1158000000000,"state":"active","ping":90},{"user_id":292,"name":"soup warrior","steam_id":76561198313226860,"connected_time":4247000000000,"state":"active","ping":74},{"user_id":297,"name":"Toastie","steam_id":76561198246760934,"connected_time":4121000000000,"state":"active","ping":30},{"user_id":335,"name":"Alfie Solomons #Shelby2020","steam_id":76561198061870046,"connected_time":1837000000000,"state":"active","ping":130},{"user_id":284,"name":"b4rry","steam_id":76561198365887154,"connected_time":4809000000000,"state":"active","ping":51},{"user_id":317,"name":"Rain","steam_id":76561198022607401,"connected_time":2795000000000,"state":"active","ping":63},{"user_id":332,"name":"Notation","steam_id":76561198119509319,"connected_time":1933000000000,"state":"active","ping":60},{"user_id":319,"name":"RebelScum","steam_id":76561199231752872,"connected_time":2713000000000,"state":"active","ping":76},{"user_id":328,"name":"WILLSOON","steam_id":76561199019790002,"connected_time":2110000000000,"state":"active","ping":98},{"user_id":330,"name":"Karma's Camera","steam_id":76561198059385185,"connected_time":1986000000000,"state":"active","ping":44},{"user_id":239,"name":"CongorCongus","steam_id":76561198370278728,"connected_time":7663000000000,"state":"active","ping":131}]},{"server_id":142,"name":"Uncletopia | S√£o Paulo | 1 | All Maps","name_short":"sao-1","host":"sao-1.br.uncletopia.com","port":27015,"enabled":true,"region":"sa","cc":"br","latitude":-23.533773,"longitude":-46.62529,"reserved":0,"last_update":"0001-01-01T00:00:00Z","name_a2s":"Uncletopia | S√£o Paulo | 1 | All Maps","protocol":17,"map":"koth_viaduct","folder":"tf","game":"Team Fortress","app_id":440,"player_count":0,"max_players":24,"Bots":0,"server_type":"Dedicated","server_os":"Linux","password":true,"vac":true,"version":"7757534","steam_id":85568392924469996,"keywords":["cp","nocrits","nodmgspread","uncletopia"],"game_id":440,"stv_port":27016,"stv_name":"Uncletopia | S√£o Paulo | 1 | All Maps | STV","players":null},{"server_id":143,"name":"Uncletopia | S√£o Paulo | 2 | All Maps","name_short":"sao-2","host":"sao-2.br.uncletopia.com","port":27015,"enabled":true,"region":"sa","cc":"br","latitude":-23.533773,"longitude":-46.62529,"reserved":0,"last_update":"0001-01-01T00:00:00Z","name_a2s":"Uncletopia | S√£o Paulo | 2 | All Maps","protocol":17,"map":"koth_viaduct","folder":"tf","game":"Team Fortress","app_id":440,"player_count":0,"max_players":24,"Bots":0,"server_type":"Dedicated","server_os":"Linux","password":true,"vac":true,"version":"7757534","steam_id":85568392924485349,"keywords":["cp","nocrits","nodmgspread","uncletopia"],"game_id":440,"stv_port":27016,"stv_name":"Uncletopia | S√£o Paulo | 2 | All Maps | STV","players":null},{"server_id":7,"name":"Uncletopia | Seattle | 1 | All Maps","name_short":"sea-1","host":"sea-1.us.uncletopia.com","port":27015,"enabled":true,"region":"us-west","cc":"us","latitude":47.608013,"longitude":-122.33517,"reserved":0,"last_update":"0001-01-01T00:00:00Z","name_a2s":"Uncletopia | Seattle | 1 | All Maps","protocol":17,"map":"pl_borneo","folder":"tf","game":"Team Fortress","app_id":440,"player_count":24,"max_players":24,"Bots":0,"server_type":"Dedicated","server_os":"Linux","password":true,"vac":true,"version":"7757534","steam_id":85568392924469997,"keywords":["nocrits","nodmgspread","payload","uncletopia"],"game_id":440,"stv_port":27016,"stv_name":"Uncletopia | Seattle | 1 | All Maps | STV","players":[{"user_id":670,"name":"Alex :D","steam_id":76561198088131563,"connected_time":1089000000000,"state":"active","ping":79},{"user_id":655,"name":"Strikerbolt","steam_id":76561199095622897,"connected_time":2119000000000,"state":"active","ping":86},{"user_id":678,"name":"KellyKapoor","steam_id":76561198040828123,"connected_time":319000000000,"state":"active","ping":45},{"user_id":667,"name":"NickoDeeBz","steam_id":76561198294657867,"connected_time":1175000000000,"state":"active","ping":99},{"user_id":672,"name":"Ayayayayahuasca","steam_id":76561199002906056,"connected_time":1053000000000,"state":"active","ping":49},{"user_id":684,"name":"Achy_Blitz","steam_id":76561198090433209,"connected_time":6000000000,"state":"spawning","ping":134},{"user_id":656,"name":"chompmastr","steam_id":76561199121805899,"connected_time":2053000000000,"state":"active","ping":55},{"user_id":680,"name":"amagicowl","steam_id":76561199060487814,"connected_time":234000000000,"state":"active","ping":62},{"user_id":657,"name":"CPTforever","steam_id":76561198237767198,"connected_time":2013000000000,"state":"active","ping":61},{"user_id":608,"name":"soup","steam_id":76561198043209046,"connected_time":6455000000000,"state":"active","ping":84},{"user_id":635,"name":"Inflight","steam_id":76561198920049475,"connected_time":4116000000000,"state":"active","ping":113},{"user_id":679,"name":"TGD","steam_id":76561198197582594,"connected_time":284000000000,"state":"active","ping":80},{"user_id":612,"name":"Fred","steam_id":76561197983870604,"connected_time":6400000000000,"state":"active","ping":85},{"user_id":586,"name":"Nightshade","steam_id":76561199011017814,"connected_time":7791000000000,"state":"active","ping":78},{"user_id":659,"name":"All Class Gaming","steam_id":76561198806729611,"connected_time":1987000000000,"state":"active","ping":57},{"user_id":671,"name":"mobe","steam_id":76561198121633820,"connected_time":1068000000000,"state":"active","ping":75},{"user_id":645,"name":"mournings end part 2 enthusiast","steam_id":76561197993524097,"connected_time":3297000000000,"state":"active","ping":78},{"user_id":638,"name":"5392vin","steam_id":76561198880493511,"connected_time":3955000000000,"state":"active","ping":64},{"user_id":636,"name":"trashbro","steam_id":76561199417993197,"connected_time":4070000000000,"state":"active","ping":76},{"user_id":673,"name":"keithykeithers","steam_id":76561197995552615,"connected_time":1052000000000,"state":"active","ping":46},{"user_id":683,"name":"Attrition","steam_id":76561197969881916,"connected_time":46000000000,"state":"active","ping":60},{"user_id":661,"name":"lili spacedust ezili","steam_id":76561199391478575,"connected_time":1972000000000,"state":"active","ping":93},{"user_id":663,"name":"FulvousFox","steam_id":76561198202210389,"connected_time":1780000000000,"state":"active","ping":145},{"user_id":682,"name":"blinkerton city","steam_id":76561198054270410,"connected_time":102000000000,"state":"active","ping":54}]},{"server_id":119,"name":"Uncletopia | Seattle | 2 | All Maps","name_short":"sea-2","host":"sea-1.us.uncletopia.com","port":27025,"enabled":true,"region":"us-west","cc":"us","latitude":47.608013,"longitude":-122.33517,"reserved":0,"last_update":"0001-01-01T00:00:00Z","name_a2s":"Uncletopia | Seattle | 2 | All Maps","protocol":17,"map":"koth_harvest_final","folder":"tf","game":"Team Fortress","app_id":440,"player_count":24,"max_players":24,"Bots":0,"server_type":"Dedicated","server_os":"Linux","password":true,"vac":true,"version":"7757534","steam_id":85568392924469998,"keywords":["cp","nocrits","nodmgspread","uncletopia"],"game_id":440,"stv_port":27026,"stv_name":"Uncletopia | Seattle | 2 | All Maps | STV","players":[{"user_id":522,"name":"Tibetan Pop Star","steam_id":76561198844903984,"connected_time":10352000000000,"state":"active","ping":85},{"user_id":631,"name":"fancyfreak","steam_id":76561198326466375,"connected_time":1588000000000,"state":"active","ping":80},{"user_id":643,"name":"Rafl","steam_id":76561198055222756,"connected_time":482000000000,"state":"active","ping":95},{"user_id":651,"name":"F_L Vision Inspired","steam_id":76561198095923905,"connected_time":135000000000,"state":"active","ping":98},{"user_id":642,"name":"Apollo","steam_id":76561198162364702,"connected_time":487000000000,"state":"active","ping":48},{"user_id":607,"name":"ProbiusSC","steam_id":76561198379167322,"connected_time":4473000000000,"state":"active","ping":81},{"user_id":487,"name":"Ska√∞i","steam_id":76561198063949642,"connected_time":11445000000000,"state":"active","ping":36},{"user_id":648,"name":"misfit_","steam_id":76561199455836753,"connected_time":382000000000,"state":"active","ping":104},{"user_id":604,"name":"smeasly","steam_id":76561198028718812,"connected_time":4832000000000,"state":"active","ping":32},{"user_id":616,"name":"comfycaffeine","steam_id":76561198058690096,"connected_time":2380000000000,"state":"active","ping":47},{"user_id":649,"name":"Spy of 83","steam_id":76561199062242958,"connected_time":353000000000,"state":"active","ping":72},{"user_id":644,"name":"El Gato Paranoico","steam_id":76561198116567116,"connected_time":474000000000,"state":"active","ping":120},{"user_id":652,"name":"Vagrant","steam_id":76561198242536886,"connected_time":91000000000,"state":"active","ping":85},{"user_id":647,"name":"Froglet8","steam_id":76561198354728310,"connected_time":439000000000,"state":"active","ping":43},{"user_id":634,"name":"mub","steam_id":76561197961943948,"connected_time":1141000000000,"state":"active","ping":46},{"user_id":581,"name":"TacticalFluke","steam_id":76561198403291862,"connected_time":5903000000000,"state":"active","ping":65},{"user_id":637,"name":"MyHeadHz","steam_id":76561198090654531,"connected_time":534000000000,"state":"active","ping":73},{"user_id":633,"name":"PainInTheRuss","steam_id":76561197977960543,"connected_time":1387000000000,"state":"active","ping":61},{"user_id":650,"name":"green cupcake","steam_id":76561198114030795,"connected_time":296000000000,"state":"active","ping":58},{"user_id":645,"name":"DuckyCC","steam_id":76561198204224427,"connected_time":452000000000,"state":"active","ping":52},{"user_id":646,"name":"Clible","steam_id":76561198215430429,"connected_time":446000000000,"state":"active","ping":54},{"user_id":636,"name":"everytime we touch nightcore","steam_id":76561198049258493,"connected_time":669000000000,"state":"active","ping":51},{"user_id":626,"name":"MASHUP KREEPS !!!","steam_id":76561198114269880,"connected_time":2094000000000,"state":"active","ping":74},{"user_id":639,"name":"Salazar9","steam_id":76561198049903973,"connected_time":531000000000,"state":"active","ping":54}]},{"server_id":406,"name":"Uncletopia | Seattle | 3 | Stopwatch Beta","name_short":"sea-3","host":"sea-1.us.uncletopia.com","port":27035,"enabled":true,"region":"us-west","cc":"us","latitude":47.608013,"longitude":-122.33517,"reserved":0,"last_update":"0001-01-01T00:00:00Z","name_a2s":"Uncletopia | Seattle | 3 | Stopwatch Beta","protocol":17,"map":"workshop/pl_vigil_rc9.ugc1266210012","folder":"tf","game":"Team Fortress","app_id":440,"player_count":0,"max_players":24,"Bots":0,"server_type":"Dedicated","server_os":"Linux","password":true,"vac":true,"version":"7757534","steam_id":85568392924515217,"keywords":["nocrits","nodmgspread","payload","uncletopia"],"game_id":440,"stv_port":27036,"stv_name":"Uncletopia | Seattle | 3 | Stopwatch Beta | STV","players":null},{"server_id":17,"name":"Uncletopia | San Francisco | 1 | All Maps","name_short":"sfo-1","host":"sfo-1.us.uncletopia.com","port":27015,"enabled":true,"region":"us-west","cc":"us","latitude":37.77397,"longitude":-122.4313,"reserved":0,"last_update":"0001-01-01T00:00:00Z","name_a2s":"Uncletopia | San Francisco | 1 | All Maps","protocol":17,"map":"pl_frontier_final","folder":"tf","game":"Team Fortress","app_id":440,"player_count":24,"max_players":24,"Bots":0,"server_type":"Dedicated","server_os":"Linux","password":true,"vac":true,"version":"7757534","steam_id":85568392924469999,"keywords":["nocrits","nodmgspread","payload","uncletopia"],"game_id":440,"stv_port":27016,"stv_name":"Uncletopia | San Francisco | 1 | All Maps | STV","players":[{"user_id":601,"name":"Speed Weed","steam_id":76561198007512620,"connected_time":1300000000000,"state":"active","ping":78},{"user_id":619,"name":"Piro_agua","steam_id":76561199041880779,"connected_time":667000000000,"state":"active","ping":61},{"user_id":585,"name":"Idiotden","steam_id":76561199340950135,"connected_time":2871000000000,"state":"active","ping":69},{"user_id":589,"name":"| Ramenoodly |HIRING MODLR","steam_id":76561198011711098,"connected_time":2697000000000,"state":"active","ping":71},{"user_id":558,"name":"Casuallyanidiot","steam_id":76561199119545568,"connected_time":4900000000000,"state":"active","ping":68},{"user_id":609,"name":"Big tiddy goth medic gf","steam_id":76561198836316052,"connected_time":1187000000000,"state":"active","ping":72},{"user_id":546,"name":"Jimmy","steam_id":76561198857959855,"connected_time":5824000000000,"state":"active","ping":58},{"user_id":594,"name":"ExplosiveGamer21","steam_id":76561198132370955,"connected_time":2421000000000,"state":"active","ping":87},{"user_id":623,"name":"I do Art for TF2 Items","steam_id":76561198426624664,"connected_time":366000000000,"state":"active","ping":57},{"user_id":560,"name":"Khaast","steam_id":76561198170253694,"connected_time":4535000000000,"state":"active","ping":82},{"user_id":603,"name":"PinguEnjoyer6","steam_id":76561199186723516,"connected_time":1244000000000,"state":"active","ping":48},{"user_id":622,"name":"lytewerk","steam_id":76561198002819791,"connected_time":518000000000,"state":"active","ping":78},{"user_id":606,"name":"Mom","steam_id":76561198207936000,"connected_time":1203000000000,"state":"active","ping":55},{"user_id":586,"name":"SvicidalBug","steam_id":76561198221390504,"connected_time":2844000000000,"state":"active","ping":78},{"user_id":624,"name":"Wacky Hijinks","steam_id":76561198052961473,"connected_time":350000000000,"state":"active","ping":114},{"user_id":621,"name":"Tsunderbolt","steam_id":76561198048954553,"connected_time":582000000000,"state":"active","ping":93},{"user_id":564,"name":"Sunny","steam_id":76561198261667312,"connected_time":4472000000000,"state":"active","ping":67},{"user_id":599,"name":"Dentivent","steam_id":76561197971953043,"connected_time":1609000000000,"state":"active","ping":68},{"user_id":608,"name":"dunnydunjo","steam_id":76561198069605283,"connected_time":1193000000000,"state":"active","ping":64},{"user_id":610,"name":"Daz","steam_id":76561198041431938,"connected_time":1183000000000,"state":"active","ping":113},{"user_id":611,"name":"Marzbee115","steam_id":76561198095821025,"connected_time":1182000000000,"state":"active","ping":54},{"user_id":612,"name":"Pigeon","steam_id":76561198047426548,"connected_time":1172000000000,"state":"active","ping":71},{"user_id":613,"name":"Dingus","steam_id":76561198121488783,"connected_time":1169000000000,"state":"active","ping":69},{"user_id":617,"name":"Aircraft Carrier Princess","steam_id":76561198348354629,"connected_time":999000000000,"state":"active","ping":46}]},{"server_id":18,"name":"Uncletopia | San Francisco | 2 | All Maps","name_short":"sfo-2","host":"sfo-1.us.uncletopia.com","port":27025,"enabled":true,"region":"us-west","cc":"us","latitude":37.77397,"longitude":-122.4313,"reserved":0,"last_update":"0001-01-01T00:00:00Z","name_a2s":"Uncletopia | San Francisco | 2 | All Maps","protocol":17,"map":"pl_upward","folder":"tf","game":"Team Fortress","app_id":440,"player_count":24,"max_players":24,"Bots":0,"server_type":"Dedicated","server_os":"Linux","password":true,"vac":true,"version":"7757534","steam_id":85568392924470000,"keywords":["nocrits","nodmgspread","payload","uncletopia"],"game_id":440,"stv_port":27026,"stv_name":"Uncletopia | San Francisco | 2 | All Maps | STV","players":[{"user_id":537,"name":"CHIKN","steam_id":76561198277792665,"connected_time":623000000000,"state":"active","ping":56},{"user_id":530,"name":"RuneLord13 [DeerGaming420]","steam_id":76561198947319972,"connected_time":1394000000000,"state":"active","ping":52},{"user_id":491,"name":"[Bandit]","steam_id":76561197986919852,"connected_time":4381000000000,"state":"active","ping":61},{"user_id":523,"name":"Jack from Jack in The Box","steam_id":76561199083594971,"connected_time":1567000000000,"state":"active","ping":62},{"user_id":501,"name":"Krome","steam_id":76561198087317232,"connected_time":3271000000000,"state":"active","ping":75},{"user_id":519,"name":"Cheff cook","steam_id":76561198451203268,"connected_time":2048000000000,"state":"active","ping":50},{"user_id":545,"name":"bad spy player","steam_id":76561198873699671,"connected_time":183000000000,"state":"active","ping":71},{"user_id":492,"name":"Gavin Newsom feet pics","steam_id":76561198349908268,"connected_time":3730000000000,"state":"active","ping":52},{"user_id":541,"name":"BBL Sponsor","steam_id":76561199093733603,"connected_time":227000000000,"state":"active","ping":61},{"user_id":497,"name":"Tesman James","steam_id":76561199093793428,"connected_time":3580000000000,"state":"active","ping":116},{"user_id":520,"name":"wedwind","steam_id":76561199089931270,"connected_time":1979000000000,"state":"active","ping":74},{"user_id":526,"name":"M4 Sherman","steam_id":76561198011096132,"connected_time":1510000000000,"state":"active","ping":52},{"user_id":498,"name":"WillieMakit","steam_id":76561197985391684,"connected_time":3571000000000,"state":"active","ping":76},{"user_id":509,"name":"Blazing Hyena","steam_id":76561199121852680,"connected_time":2799000000000,"state":"active","ping":56},{"user_id":527,"name":"John Wick's puppy","steam_id":76561198064662875,"connected_time":1488000000000,"state":"active","ping":50},{"user_id":528,"name":"StarGuyVI","steam_id":76561199366304746,"connected_time":1478000000000,"state":"active","ping":113},{"user_id":438,"name":"ScoutSecoTF2","steam_id":76561198366212156,"connected_time":8711000000000,"state":"active","ping":119},{"user_id":543,"name":"T . T","steam_id":76561198041907345,"connected_time":211000000000,"state":"active","ping":69},{"user_id":499,"name":"BreadQuest","steam_id":76561198082425960,"connected_time":3565000000000,"state":"active","ping":64},{"user_id":517,"name":"Inigo Montoya","steam_id":76561198010603881,"connected_time":2087000000000,"state":"active","ping":119},{"user_id":544,"name":"ILLVZN","steam_id":76561199065961083,"connected_time":205000000000,"state":"active","ping":54},{"user_id":460,"name":"DemoLiberTF2","steam_id":76561198095378689,"connected_time":6890000000000,"state":"active","ping":91},{"user_id":475,"name":"Chicken Soup","steam_id":76561197989268948,"connected_time":6017000000000,"state":"active","ping":108},{"user_id":485,"name":"Ian","steam_id":76561198159334435,"connected_time":5164000000000,"state":"active","ping":166}]},{"server_id":19,"name":"Uncletopia | San Francisco | 3 | Stopwatch Beta","name_short":"sfo-3","host":"sfo-1.us.uncletopia.com","port":27035,"enabled":true,"region":"us-west","cc":"us","latitude":37.77397,"longitude":-122.4313,"reserved":0,"last_update":"0001-01-01T00:00:00Z","name_a2s":"Uncletopia | San Francisco | 3 | Stopwatch Beta","protocol":17,"map":"workshop/pl_summercoast_rc8e.ugc1761528829","folder":"tf","game":"Team Fortress","app_id":440,"player_count":0,"max_players":24,"Bots":0,"server_type":"Dedicated","server_os":"Linux","password":true,"vac":true,"version":"7757534","steam_id":85568392924742824,"keywords":["nocrits","nodmgspread","payload","uncletopia"],"game_id":440,"stv_port":27036,"stv_name":"Uncletopia | San Francisco | 3 | Stopwatch Beta | STV","players":null},{"server_id":20,"name":"Uncletopia | San Francisco | 4 | Community","name_short":"sfo-4","host":"sfo-1.us.uncletopia.com","port":27045,"enabled":true,"region":"us-west","cc":"us","latitude":37.77397,"longitude":-122.4313,"reserved":0,"last_update":"0001-01-01T00:00:00Z","name_a2s":"Uncletopia | San Francisco | 4 | Community","protocol":17,"map":"workshop/cp_villa_b19.ugc2113052569","folder":"tf","game":"Team Fortress","app_id":440,"player_count":0,"max_players":24,"Bots":0,"server_type":"Dedicated","server_os":"Linux","password":true,"vac":true,"version":"7757534","steam_id":85568392924742826,"keywords":["cp","nocrits","nodmgspread","uncletopia"],"game_id":440,"stv_port":27046,"stv_name":"Uncletopia | San Francisco | 4 | Community | STV","players":null},{"server_id":141,"name":"Uncletopia | Sydney | 1 | All Maps","name_short":"syd-1","host":"syd-1.au.uncletopia.com","port":27015,"enabled":true,"region":"au","cc":"au","latitude":-33.865143,"longitude":151.2099,"reserved":0,"last_update":"0001-01-01T00:00:00Z","name_a2s":"Uncletopia | Sydney | 1 | All Maps","protocol":17,"map":"pl_swiftwater_final1","folder":"tf","game":"Team Fortress","app_id":440,"player_count":24,"max_players":24,"Bots":0,"server_type":"Dedicated","server_os":"Linux","password":true,"vac":true,"version":"7757534","steam_id":85568392924470001,"keywords":["nocrits","nodmgspread","payload","uncletopia"],"game_id":440,"stv_port":27016,"stv_name":"Uncletopia | Sydney | 1 | All Maps | STV","players":[{"user_id":260,"name":"Tsolis","steam_id":76561198013950614,"connected_time":1660000000000,"state":"active","ping":56},{"user_id":261,"name":"Beehive","steam_id":76561199436707447,"connected_time":1659000000000,"state":"active","ping":53},{"user_id":254,"name":"Robert_Cheeto","steam_id":76561198151087184,"connected_time":2269000000000,"state":"active","ping":42},{"user_id":269,"name":"toblue","steam_id":76561198189137465,"connected_time":1306000000000,"state":"active","ping":83},{"user_id":278,"name":"the real kayne west","steam_id":76561198093651209,"connected_time":879000000000,"state":"active","ping":73},{"user_id":270,"name":"Toucan Rizz","steam_id":76561198150760829,"connected_time":1267000000000,"state":"active","ping":43},{"user_id":235,"name":"East","steam_id":76561197998179587,"connected_time":4603000000000,"state":"active","ping":103},{"user_id":244,"name":"Snowy","steam_id":76561198255720598,"connected_time":3957000000000,"state":"active","ping":47},{"user_id":210,"name":"Jodelk√∂nig Franzl Lang","steam_id":76561198007667830,"connected_time":6251000000000,"state":"active","ping":66},{"user_id":242,"name":"Faraday","steam_id":76561198232171500,"connected_time":4139000000000,"state":"active","ping":74},{"user_id":264,"name":"old chunk of coal","steam_id":76561197990537324,"connected_time":1488000000000,"state":"active","ping":110},{"user_id":256,"name":"Cup","steam_id":76561198038485845,"connected_time":1953000000000,"state":"active","ping":43},{"user_id":237,"name":"MrSpooder","steam_id":76561199029919742,"connected_time":4563000000000,"state":"active","ping":45},{"user_id":283,"name":"BeefPuppy","steam_id":76561197971309642,"connected_time":445000000000,"state":"active","ping":69},{"user_id":281,"name":"Juliangonzales2009@yahoo.com","steam_id":76561199232111143,"connected_time":592000000000,"state":"active","ping":60},{"user_id":246,"name":"Verveeld","steam_id":76561198245980544,"connected_time":3867000000000,"state":"active","ping":66},{"user_id":274,"name":"Bread Consumer","steam_id":76561198087198281,"connected_time":1097000000000,"state":"active","ping":65},{"user_id":275,"name":"Ackerman","steam_id":76561198016592411,"connected_time":960000000000,"state":"active","ping":92},{"user_id":273,"name":"ADUCK","steam_id":76561198249887912,"connected_time":1206000000000,"state":"active","ping":61},{"user_id":223,"name":"SUSHIMAN","steam_id":76561199089989428,"connected_time":5246000000000,"state":"active","ping":90},{"user_id":276,"name":"EpicGuy4227","steam_id":76561198094132328,"connected_time":909000000000,"state":"active","ping":40},{"user_id":282,"name":"Yo","steam_id":76561199071452693,"connected_time":572000000000,"state":"active","ping":161},{"user_id":284,"name":"krandlez` (Any/All)","steam_id":76561198044839726,"connected_time":436000000000,"state":"active","ping":45},{"user_id":257,"name":"Jett","steam_id":76561198969434128,"connected_time":1946000000000,"state":"active","ping":123}]},{"server_id":123,"name":"Uncletopia | Sydney | 2 | All Maps","name_short":"syd-2","host":"syd-1.au.uncletopia.com","port":27025,"enabled":true,"region":"au","cc":"au","latitude":-33.865143,"longitude":151.2099,"reserved":0,"last_update":"0001-01-01T00:00:00Z","name_a2s":"Uncletopia | Sydney | 2 | All Maps","protocol":17,"map":"koth_harvest_final","folder":"tf","game":"Team Fortress","app_id":440,"player_count":22,"max_players":24,"Bots":0,"server_type":"Dedicated","server_os":"Linux","password":true,"vac":true,"version":"7757534","steam_id":85568392924470002,"keywords":["cp","nocrits","nodmgspread","uncletopia"],"game_id":440,"stv_port":27026,"stv_name":"Uncletopia | Sydney | 2 | All Maps | STV","players":[{"user_id":22,"name":"Lord Oink the Manly (she/her)","steam_id":76561198125237921,"connected_time":3187000000000,"state":"active","ping":40},{"user_id":23,"name":"BamBoozled","steam_id":76561199065491364,"connected_time":2731000000000,"state":"active","ping":75},{"user_id":24,"name":"Shadow Puppeteer","steam_id":76561198151121997,"connected_time":2360000000000,"state":"active","ping":72},{"user_id":27,"name":"Zilvera","steam_id":76561198065801850,"connected_time":1895000000000,"state":"active","ping":55},{"user_id":28,"name":"redditHaver","steam_id":76561198170727659,"connected_time":1804000000000,"state":"active","ping":64},{"user_id":29,"name":"Jellyfish_kurage","steam_id":76561198425670698,"connected_time":1656000000000,"state":"active","ping":57},{"user_id":55,"name":"Sover blw.tf","steam_id":76561198136347837,"connected_time":173000000000,"state":"active","ping":129},{"user_id":31,"name":"Zoey","steam_id":76561198126153554,"connected_time":1396000000000,"state":"active","ping":84},{"user_id":62,"name":"Drop the trout","steam_id":76561198061515657,"connected_time":16000000000,"state":"active","ping":56},{"user_id":49,"name":"Snake101","steam_id":76561198418910767,"connected_time":319000000000,"state":"active","ping":47},{"user_id":36,"name":"Mr Mahal","steam_id":76561198123234137,"connected_time":804000000000,"state":"active","ping":68},{"user_id":39,"name":"stub","steam_id":76561198237014504,"connected_time":542000000000,"state":"active","ping":56},{"user_id":48,"name":"Doodles ‚ôõ","steam_id":76561198023807247,"connected_time":376000000000,"state":"active","ping":69},{"user_id":41,"name":"ToadFungus","steam_id":76561199219667039,"connected_time":518000000000,"state":"active","ping":102},{"user_id":42,"name":"alex","steam_id":76561198053382248,"connected_time":496000000000,"state":"active","ping":47},{"user_id":43,"name":"Dabloon","steam_id":76561198115876475,"connected_time":467000000000,"state":"active","ping":55},{"user_id":50,"name":"Distilledrain41","steam_id":76561198272717119,"connected_time":311000000000,"state":"active","ping":48},{"user_id":45,"name":"Rat Pope","steam_id":76561199059450243,"connected_time":427000000000,"state":"active","ping":53},{"user_id":52,"name":"ArcticDolphin","steam_id":76561198203626319,"connected_time":242000000000,"state":"active","ping":177},{"user_id":54,"name":"Zieria","steam_id":76561199261811388,"connected_time":221000000000,"state":"active","ping":45},{"user_id":60,"name":"PooTheGoat101","steam_id":76561199477382475,"connected_time":59000000000,"state":"active","ping":69},{"user_id":59,"name":"Kremmen","steam_id":76561198051368641,"connected_time":69000000000,"state":"active","ping":70}]},{"server_id":395,"name":"Uncletopia | Sydney | 3 | All Maps","name_short":"syd-3","host":"syd-1.au.uncletopia.com","port":27035,"enabled":true,"region":"au","cc":"au","latitude":-33.865143,"longitude":151.2099,"reserved":0,"last_update":"0001-01-01T00:00:00Z","name_a2s":"Uncletopia | Sydney | 3 | All Maps","protocol":17,"map":"cp_snakewater_final1","folder":"tf","game":"Team Fortress","app_id":440,"player_count":0,"max_players":24,"Bots":0,"server_type":"Dedicated","server_os":"Linux","password":true,"vac":true,"version":"7757534","steam_id":85568392925194467,"keywords":["cp","nocrits","nodmgspread","uncletopia"],"game_id":440,"stv_port":27036,"stv_name":"Uncletopia | Sydney | 3 | All Maps | STV","players":null},{"server_id":396,"name":"Uncletopia | Sydney | 4 | All Maps","name_short":"syd-4","host":"syd-1.au.uncletopia.com","port":27045,"enabled":true,"region":"au","cc":"au","latitude":-33.865143,"longitude":151.2099,"reserved":0,"last_update":"0001-01-01T00:00:00Z","name_a2s":"Uncletopia | Sydney | 4 | All Maps","protocol":17,"map":"pl_barnblitz","folder":"tf","game":"Team Fortress","app_id":440,"player_count":0,"max_players":24,"Bots":0,"server_type":"Dedicated","server_os":"Linux","password":true,"vac":true,"version":"7757534","steam_id":85568392925397958,"keywords":["nocrits","nodmgspread","payload","uncletopia"],"game_id":440,"stv_port":27046,"stv_name":"Uncletopia | Sydney | 4 | All Maps | STV","players":null},{"server_id":58,"name":"Uncletopia | Sydney | 5 | Stopwatch Beta","name_short":"syd-5","host":"syd-1.au.uncletopia.com","port":27055,"enabled":true,"region":"au","cc":"au","latitude":-33.865143,"longitude":151.2099,"reserved":0,"last_update":"0001-01-01T00:00:00Z","name_a2s":"Uncletopia | Sydney | 5 | Stopwatch Beta","protocol":17,"map":"koth_cascade","folder":"tf","game":"Team Fortress","app_id":440,"player_count":0,"max_players":24,"Bots":0,"server_type":"Dedicated","server_os":"Linux","password":true,"vac":true,"version":"7757534","steam_id":85568392925397959,"keywords":["cp","nocrits","nodmgspread","uncletopia"],"game_id":440,"stv_port":27056,"stv_name":"Uncletopia | Sydney | 5 | Stopwatch Beta | STV","players":null},{"server_id":59,"name":"Uncletopia | Sydney | 6 | Community","name_short":"syd-6","host":"syd-1.au.uncletopia.com","port":27065,"enabled":true,"region":"au","cc":"au","latitude":-33.865143,"longitude":151.2099,"reserved":0,"last_update":"0001-01-01T00:00:00Z","name_a2s":"Uncletopia | Sydney | 6 | Community","protocol":17,"map":"workshop/cp_alloy_rc3.ugc592805587","folder":"tf","game":"Team Fortress","app_id":440,"player_count":0,"max_players":24,"Bots":0,"server_type":"Dedicated","server_os":"Linux","password":true,"vac":true,"version":"7757534","steam_id":85568392925397960,"keywords":["cp","nocrits","nodmgspread","uncletopia"],"game_id":440,"stv_port":27066,"stv_name":"Uncletopia | Sydney | 6 | Community | STV","players":null},{"server_id":49,"name":"Uncletopia | Warsaw | 1 | All Maps","name_short":"waw-1","host":"waw-1.pl.uncletopia.com","port":27015,"enabled":true,"region":"eu","cc":"pl","latitude":52.2297,"longitude":21.017532,"reserved":0,"last_update":"0001-01-01T00:00:00Z","name_a2s":"","protocol":0,"map":"","folder":"","game":"","app_id":0,"player_count":0,"max_players":0,"Bots":0,"server_type":"","server_os":"","password":false,"vac":false,"version":"","steam_id":0,"keywords":null,"game_id":0,"stv_port":0,"stv_name":"","players":null},{"server_id":50,"name":"Uncletopia | Warsaw | 2 | All Maps","name_short":"waw-2","host":"waw-1.pl.uncletopia.com","port":27025,"enabled":true,"region":"eu","cc":"pl","latitude":52.2297,"longitude":21.017532,"reserved":0,"last_update":"0001-01-01T00:00:00Z","name_a2s":"Uncletopia | Warsaw | 2 | All Maps","protocol":17,"map":"koth_viaduct","folder":"tf","game":"Team Fortress","app_id":440,"player_count":0,"max_players":24,"Bots":0,"server_type":"Dedicated","server_os":"Linux","password":true,"vac":true,"version":"7757534","steam_id":85568392925397851,"keywords":["cp","nocrits","nodmgspread","uncletopia"],"game_id":440,"stv_port":27026,"stv_name":"Uncletopia | Warsaw | 2 | All Maps | STV","players":null},{"server_id":51,"name":"Uncletopia | Warsaw | 3 | All Maps","name_short":"waw-3","host":"waw-1.pl.uncletopia.com","port":27035,"enabled":true,"region":"eu","cc":"pl","latitude":52.2297,"longitude":21.017532,"reserved":0,"last_update":"0001-01-01T00:00:00Z","name_a2s":"Uncletopia | Warsaw | 3 | All Maps","protocol":17,"map":"pl_badwater","folder":"tf","game":"Team Fortress","app_id":440,"player_count":0,"max_players":24,"Bots":0,"server_type":"Dedicated","server_os":"Linux","password":true,"vac":true,"version":"7757534","steam_id":85568392925397852,"keywords":["nocrits","nodmgspread","payload","uncletopia"],"game_id":440,"stv_port":27036,"stv_name":"Uncletopia | Warsaw | 3 | All Maps | STV","players":null},{"server_id":52,"name":"Uncletopia | Warsaw | 4 | All Maps","name_short":"waw-4","host":"waw-1.pl.uncletopia.com","port":27045,"enabled":true,"region":"eu","cc":"pl","latitude":52.2297,"longitude":21.017532,"reserved":0,"last_update":"0001-01-01T00:00:00Z","name_a2s":"Uncletopia | Warsaw | 4 | All Maps","protocol":17,"map":"koth_lakeside_final","folder":"tf","game":"Team Fortress","app_id":440,"player_count":0,"max_players":24,"Bots":0,"server_type":"Dedicated","server_os":"Linux","password":true,"vac":true,"version":"7757534","steam_id":85568392925397853,"keywords":["cp","nocrits","nodmgspread","uncletopia"],"game_id":440,"stv_port":27046,"stv_name":"Uncletopia | Warsaw | 4 | All Maps | STV","players":null},{"server_id":53,"name":"Uncletopia | Warsaw | 5 | Stopwatch Beta","name_short":"waw-5","host":"waw-1.pl.uncletopia.com","port":27055,"enabled":true,"region":"eu","cc":"pl","latitude":52.2297,"longitude":21.017532,"reserved":0,"last_update":"0001-01-01T00:00:00Z","name_a2s":"Uncletopia | Warsaw | 5 | Stopwatch Beta","protocol":17,"map":"pl_borneo","folder":"tf","game":"Team Fortress","app_id":440,"player_count":0,"max_players":24,"Bots":0,"server_type":"Dedicated","server_os":"Linux","password":true,"vac":true,"version":"7757534","steam_id":85568392925397854,"keywords":["nocrits","nodmgspread","payload","uncletopia"],"game_id":440,"stv_port":27056,"stv_name":"Uncletopia | Warsaw | 5 | Stopwatch Beta | STV","players":null},{"server_id":54,"name":"Uncletopia | Warsaw | 6 | Community","name_short":"waw-6","host":"waw-1.pl.uncletopia.com","port":27065,"enabled":true,"region":"eu","cc":"pl","latitude":52.2297,"longitude":21.017532,"reserved":0,"last_update":"0001-01-01T00:00:00Z","name_a2s":"Uncletopia | Warsaw | 6 | Community","protocol":17,"map":"koth_lakeside_final","folder":"tf","game":"Team Fortress","app_id":440,"player_count":0,"max_players":24,"Bots":0,"server_type":"Dedicated","server_os":"Linux","password":true,"vac":true,"version":"7757534","steam_id":85568392925397856,"keywords":["cp","nocrits","nodmgspread","uncletopia"],"game_id":440,"stv_port":27066,"stv_name":"Uncletopia | Warsaw | 6 | Community | STV","players":null}]}