{"status":true,"message":"","result":[{"server_id":9,"name":"Uncletopia | Atlanta | 1 | All Maps","name_short":"atl-1","host":"atl-1.us.uncletopia.com","port":27015,"enabled":true,"region":"us-east","cc":"us","latitude":33.753746,"longitude":-84.38633,"reserved":0,"last_update":"0001-01-01T00:00:00Z","name_a2s":"Uncletopia | Atlanta | 1 | All Maps","protocol":17,"map":"pl_badwater","folder":"tf","game":"Team Fortress","app_id":440,"player_count":11,"max_players":24,"Bots":0,"server_type":"Dedicated","server_os":"Linux","password":true,"vac":true,"version":"7961495","steam_id":85568392924469982,"keywords":["nocrits","nodmgspread","payload","uncletopia"],"game_id":440,"stv_port":27016,"stv_name":"Uncletopia | Atlanta | 1 | All Maps | STV","players":null},{"server_id":104,"name":"Uncletopia | Atlanta | 2 | All Maps","name_short":"atl-2","host":"atl-1.us.uncletopia.com","port":27025,"enabled":true,"region":"us-east","cc":"us","latitude":33.753746,"longitude":-84.38633,"reserved":0,"last_update":"0001-01-01T00:00:00Z","name_a2s":"","protocol":0,"map":"","folder":"","game":"","app_id":0,"player_count":0,"max_players":0,"Bots":0,"server_type":"","server_os":"","password":false,"vac":false,"version":"","steam_id":0,"keywords":null,"game_id":0,"stv_port":0,"stv_name":"","players":null},{"server_id":400,"name":"Uncletopia | Atlanta | 3 | All Maps","name_short":"atl-3","host":"atl-1.us.uncletopia.com","port":27035,"enabled":true,"region":"us-east","cc":"us","latitude":33.753746,"longitude":-84.38633,"reserved":0,"last_update":"0001-01-01T00:00:00Z","name_a2s":"","protocol":0,"map":"","folder":"","game":"","app_id":0,"player_count":0,"max_players":0,"Bots":0,"server_type":"","server_os":"","password":false,"vac":false,"version":"","steam_id":0,"keywords":null,"game_id":0,"stv_port":0,"stv_name":"","players":null},{"server_id":401,"name":"Uncletopia | Atlanta | 4 | Community","name_short":"atl-4","host":"atl-1.us.uncletopia.com","port":27045,"enabled":true,"region":"us-east","cc":"us","latitude":33.753746,"longitude":-84.38633,"reserved":0,"last_update":"0001-01-01T00:00:00Z","name_a2s":"","protocol":0,"map":"","folder":"","game":"","app_id":0,"player_count":0,"max_players":0,"Bots":0,"server_type":"","server_os":"","password":false,"vac":false,"version":"","steam_id":0,"keywords":null,"game_id":0,"stv_port":0,"stv_name":"","players":null},{"server_id":2,"name":"Uncletopia | Chicago | 1 | All Maps","name_short":"chi-1","host":"chi-1.us.uncletopia.com","port":27015,"enabled":true,"region":"us-central","cc":"us","latitude":41.881832,"longitude":-87.62318,"reserved":0,"last_update":"0001-01-01T00:00:00Z","name_a2s":"Uncletopia | Chicago | 1 | All Maps","protocol":17,"map":"koth_lakeside_final","folder":"tf","game":"Team Fortress","app_id":440,"player_count":7,"max_players":24,"Bots":0,"server_type":"Dedicated","server_os":"Linux","password":true,"vac":true,"version":"7961495","steam_id":85568392924469984,"keywords":["cp","nocrits","nodmgspread","uncletopia"],"game_id":440,"stv_port":27016,"stv_name":"Uncletopia | Chicago | 1 | All Maps | STV","players":[{"user_id":733,"name":"menonamed","steam_id":76561198199564382,"connected_time":2317000000000,"state":"active","ping":67},{"user_id":722,"name":"TriggyDiggy","steam_id":76561198364366159,"connected_time":4176000000000,"state":"active","ping":45},{"user_id":737,"name":"backshots inc","steam_id":76561198839562402,"connected_time":1027000000000,"state":"active","ping":103},{"user_id":738,"name":"La.Z.yTurtle","steam_id":76561198095712651,"connected_time":572000000000,"state":"active","ping":72},{"user_id":727,"name":"Donaldest","steam_id":76561198209696425,"connected_time":2944000000000,"state":"active","ping":61},{"user_id":739,"name":"Elite_Friendly","steam_id":76561198819972127,"connected_time":103000000000,"state":"active","ping":77},{"user_id":740,"name":"neptune","steam_id":76561198383404869,"connected_time":19000000000,"state":"active","ping":144}]},{"server_id":106,"name":"Uncletopia | Chicago | 2 | All Maps","name_short":"chi-2","host":"chi-1.us.uncletopia.com","port":27025,"enabled":true,"region":"us-central","cc":"us","latitude":41.881832,"longitude":-87.62318,"reserved":0,"last_update":"0001-01-01T00:00:00Z","name_a2s":"Uncletopia | Chicago | 2 | All Maps","protocol":17,"map":"cp_sunshine","folder":"tf","game":"Team Fortress","app_id":440,"player_count":0,"max_players":24,"Bots":0,"server_type":"Dedicated","server_os":"Linux","password":true,"vac":true,"version":"7961495","steam_id":85568392924469985,"keywords":["cp","nocrits","nodmgspread","uncletopia"],"game_id":440,"stv_port":27026,"stv_name":"Uncletopia | Chicago | 2 | All Maps | STV","players":null},{"server_id":402,"name":"Uncletopia | Chicago | 3 | All Maps","name_short":"chi-3","host":"chi-1.us.uncletopia.com","port":27035,"enabled":true,"region":"us-central","cc":"us","latitude":41.881832,"longitude":-87.62318,"reserved":0,"last_update":"0001-01-01T00:00:00Z","name_a2s":"Uncletopia | Chicago | 3 | All Maps","protocol":17,"map":"koth_cascade","folder":"tf","game":"Team Fortress","app_id":440,"player_count":0,"max_players":24,"Bots":0,"server_type":"Dedicated","server_os":"Linux","password":true,"vac":true,"version":"7961495","steam_id":85568392924515191,"keywords":["cp","nocrits","nodmgspread","uncletopia"],"game_id":440,"stv_port":27036,"stv_name":"Uncletopia | Chicago | 3 | All Maps | STV","players":null},{"server_id":403,"name":"Uncletopia | Chicago | 4 | All Maps","name_short":"chi-4","host":"chi-1.us.uncletopia.com","port":27045,"enabled":true,"region":"us-central","cc":"us","latitude":41.881832,"longitude":-87.62318,"reserved":0,"last_update":"0001-01-01T00:00:00Z","name_a2s":"Uncletopia | Chicago | 4 | All Maps","protocol":17,"map":"koth_viaduct","folder":"tf","game":"Team Fortress","app_id":440,"player_count":0,"max_players":24,"Bots":0,"server_type":"Dedicated","server_os":"Linux","password":true,"vac":true,"version":"7961495","steam_id":85568392924515193,"keywords":["cp","nocrits","nodmgspread","uncletopia"],"game_id":440,"stv_port":27046,"stv_name":"Uncletopia | Chicago | 4 | All Maps | STV","players":null},{"server_id":36,"name":"Uncletopia | Chicago | 5 | All Maps","name_short":"chi-5","host":"chi-2.us.uncletopia.com","port":27015,"enabled":true,"region":"us-central","cc":"us","latitude":41.881832,"longitude":-87.62318,"reserved":0,"last_update":"0001-01-01T00:00:00Z","name_a2s":"Uncletopia | Chicago | 5 | All Maps","protocol":17,"map":"cp_snakewater_final1","folder":"tf","game":"Team Fortress","app_id":440,"player_count":0,"max_players":24,"Bots":0,"server_type":"Dedicated","server_os":"Linux","password":true,"vac":true,"version":"7961495","steam_id":85568392924866362,"keywords":["cp","nocrits","nodmgspread","uncletopia"],"game_id":440,"stv_port":27016,"stv_name":"Uncletopia | Chicago | 5 | All Maps | STV","players":null},{"server_id":37,"name":"Uncletopia | Chicago | 6 | All Maps","name_short":"chi-6","host":"chi-2.us.uncletopia.com","port":27025,"enabled":true,"region":"us-central","cc":"us","latitude":41.881832,"longitude":-87.62318,"reserved":0,"last_update":"0001-01-01T00:00:00Z","name_a2s":"Uncletopia | Chicago | 6 | All Maps","protocol":17,"map":"cp_metalworks","folder":"tf","game":"Team Fortress","app_id":440,"player_count":24,"max_players":24,"Bots":0,"server_type":"Dedicated","server_os":"Linux","password":true,"vac":true,"version":"7961495","steam_id":85568392924866363,"keywords":["cp","nocrits","nodmgspread","uncletopia"],"game_id":440,"stv_port":27026,"stv_name":"Uncletopia | Chicago | 6 | All Maps | STV","players":[{"user_id":415,"name":"*","steam_id":76561198173047169,"connected_time":3539000000000,"state":"active","ping":50},{"user_id":457,"name":"AlcoholicDad454","steam_id":76561198157414556,"connected_time":1357000000000,"state":"active","ping":72},{"user_id":481,"name":"Sqilluy","steam_id":76561198130993466,"connected_time":14000000000,"state":"spawning","ping":68},{"user_id":433,"name":"Hidden Phantom","steam_id":76561198115531799,"connected_time":2096000000000,"state":"active","ping":70},{"user_id":455,"name":"Magma","steam_id":76561198108261173,"connected_time":1372000000000,"state":"active","ping":47},{"user_id":436,"name":"Dwaggy","steam_id":76561198027369555,"connected_time":1996000000000,"state":"active","ping":71},{"user_id":434,"name":"Repeat","steam_id":76561198013249304,"connected_time":2047000000000,"state":"active","ping":69},{"user_id":464,"name":"TheWizardMus","steam_id":76561199079085128,"connected_time":1159000000000,"state":"active","ping":67},{"user_id":435,"name":"hashmap","steam_id":76561198043794014,"connected_time":2006000000000,"state":"active","ping":53},{"user_id":437,"name":"Promethe_S","steam_id":76561198389635948,"connected_time":1916000000000,"state":"active","ping":86},{"user_id":473,"name":"Koyota","steam_id":76561198069878114,"connected_time":231000000000,"state":"active","ping":102},{"user_id":453,"name":"Aireoh","steam_id":76561198097178603,"connected_time":1420000000000,"state":"active","ping":74},{"user_id":394,"name":"rontu","steam_id":76561199072955534,"connected_time":5225000000000,"state":"active","ping":54},{"user_id":459,"name":"Vibe Check","steam_id":76561198087326826,"connected_time":1343000000000,"state":"active","ping":74},{"user_id":468,"name":"SaaxoM","steam_id":76561198208256603,"connected_time":994000000000,"state":"active","ping":99},{"user_id":445,"name":"poopshitter9000","steam_id":76561198074624639,"connected_time":1610000000000,"state":"active","ping":68},{"user_id":471,"name":"playguy carter","steam_id":76561198080679337,"connected_time":405000000000,"state":"active","ping":53},{"user_id":442,"name":"Hope","steam_id":76561199201900779,"connected_time":1675000000000,"state":"active","ping":74},{"user_id":474,"name":"John","steam_id":76561198131179444,"connected_time":230000000000,"state":"active","ping":94},{"user_id":475,"name":"Lapras Lazuli","steam_id":76561198086995944,"connected_time":229000000000,"state":"active","ping":91},{"user_id":476,"name":"SneakyBlur","steam_id":76561199102075970,"connected_time":183000000000,"state":"active","ping":91},{"user_id":470,"name":"Jej","steam_id":76561198254239404,"connected_time":721000000000,"state":"active","ping":76},{"user_id":479,"name":"hayley ♥","steam_id":76561198093125555,"connected_time":140000000000,"state":"active","ping":135},{"user_id":480,"name":"Khaicchi","steam_id":76561198104454754,"connected_time":96000000000,"state":"active","ping":179}]},{"server_id":38,"name":"Uncletopia | Chicago | 7 | Stopwatch Beta","name_short":"chi-7","host":"chi-2.us.uncletopia.com","port":27035,"enabled":true,"region":"us-central","cc":"us","latitude":41.881832,"longitude":-87.62318,"reserved":0,"last_update":"0001-01-01T00:00:00Z","name_a2s":"Uncletopia | Chicago | 7 | Stopwatch Beta","protocol":17,"map":"pl_badwater","folder":"tf","game":"Team Fortress","app_id":440,"player_count":0,"max_players":24,"Bots":0,"server_type":"Dedicated","server_os":"Linux","password":true,"vac":true,"version":"7961495","steam_id":85568392924866364,"keywords":["nocrits","nodmgspread","payload","uncletopia"],"game_id":440,"stv_port":27036,"stv_name":"Uncletopia | Chicago | 7 | Stopwatch Beta | STV","players":null},{"server_id":39,"name":"Uncletopia | Chicago | 8 | Community","name_short":"chi-8","host":"chi-2.us.uncletopia.com","port":27045,"enabled":true,"region":"us-central","cc":"us","latitude":41.881832,"longitude":-87.62318,"reserved":0,"last_update":"0001-01-01T00:00:00Z","name_a2s":"Uncletopia | Chicago | 8 | Community","protocol":17,"map":"workshop/cp_snowbase_b18.ugc2081770490","folder":"tf","game":"Team Fortress","app_id":440,"player_count":0,"max_players":24,"Bots":0,"server_type":"Dedicated","server_os":"Linux","password":true,"vac":true,"version":"7961495","steam_id":85568392924866365,"keywords":["cp","nocrits","nodmgspread","uncletopia"],"game_id":440,"stv_port":27046,"stv_name":"Uncletopia | Chicago | 8 | Community | STV","players":null},{"server_id":8,"name":"Uncletopia | Dallas | 1 | All Maps","name_short":"dal-1","host":"dal-1.us.uncletopia.com","port":27015,"enabled":true,"region":"us-central","cc":"us","latitude":32.779167,"longitude":-96.80889,"reserved":0,"last_update":"0001-01-01T00:00:00Z","name_a2s":"Uncletopia | Dallas | 1 | All Maps","protocol":17,"map":"pl_borneo","folder":"tf","game":"Team Fortress","app_id":440,"player_count":24,"max_players":24,"Bots":0,"server_type":"Dedicated","server_os":"Linux","password":true,"vac":true,"version":"7961495","steam_id":85568392924469986,"keywords":["nocrits","nodmgspread","payload","uncletopia"],"game_id":440,"stv_port":27016,"stv_name":"Uncletopia | Dallas | 1 | All Maps | STV","players":[{"user_id":603,"name":"Flying Emu","steam_id":76561198121632924,"connected_time":389000000000,"state":"active","ping":56},{"user_id":604,"name":"vulcan nightclub pon farr night","steam_id":76561197974283797,"connected_time":352000000000,"state":"active","ping":60},{"user_id":569,"name":"Galexian","steam_id":76561198030700733,"connected_time":2842000000000,"state":"active","ping":89},{"user_id":605,"name":"Epifiny","steam_id":76561198027958086,"connected_time":345000000000,"state":"active","ping":89},{"user_id":599,"name":"zinqi","steam_id":76561198376838848,"connected_time":767000000000,"state":"active","ping":112},{"user_id":600,"name":"Ruby Gillman (He/Him)","steam_id":76561198366299848,"connected_time":704000000000,"state":"active","ping":68},{"user_id":592,"name":"kezia","steam_id":76561198059815894,"connected_time":1327000000000,"state":"active","ping":69},{"user_id":593,"name":"Flexo","steam_id":76561198111618506,"connected_time":1302000000000,"state":"active","ping":136},{"user_id":594,"name":"ihaveahax","steam_id":76561198085542194,"connected_time":1296000000000,"state":"active","ping":87},{"user_id":571,"name":"GabeCube","steam_id":76561198292738542,"connected_time":2816000000000,"state":"active","ping":103},{"user_id":544,"name":"roast pig with apple in mouth","steam_id":76561198051353647,"connected_time":5213000000000,"state":"active","ping":86},{"user_id":595,"name":"Anomic","steam_id":76561198044000414,"connected_time":1258000000000,"state":"active","ping":84},{"user_id":598,"name":"jerma but crying and lesbian","steam_id":76561198110661425,"connected_time":1057000000000,"state":"active","ping":75},{"user_id":596,"name":"FrostyMug950","steam_id":76561198316811222,"connected_time":1140000000000,"state":"active","ping":100},{"user_id":610,"name":"minecraft","steam_id":76561198104345201,"connected_time":262000000000,"state":"active","ping":70},{"user_id":608,"name":"sweaterfan","steam_id":76561199389567214,"connected_time":297000000000,"state":"active","ping":62},{"user_id":584,"name":"inzang","steam_id":76561198088318074,"connected_time":2078000000000,"state":"active","ping":55},{"user_id":606,"name":"Svepport","steam_id":76561198071373137,"connected_time":341000000000,"state":"active","ping":61},{"user_id":575,"name":"Derpyderk","steam_id":76561198135034761,"connected_time":2720000000000,"state":"active","ping":111},{"user_id":531,"name":"oak","steam_id":76561198092135570,"connected_time":6495000000000,"state":"active","ping":45},{"user_id":586,"name":"Sahbi ʕ •ᴥ•ʔ (she/they)","steam_id":76561199196292242,"connected_time":1973000000000,"state":"active","ping":66},{"user_id":588,"name":"King of Ping","steam_id":76561198278737470,"connected_time":1829000000000,"state":"active","ping":100},{"user_id":589,"name":"HeadOfB.O.XNews","steam_id":76561198823322405,"connected_time":1764000000000,"state":"active","ping":53},{"user_id":602,"name":"Dragorf2010","steam_id":76561199238402270,"connected_time":455000000000,"state":"active","ping":79}]},{"server_id":108,"name":"Uncletopia | Dallas | 2 | All Maps","name_short":"dal-2","host":"dal-1.us.uncletopia.com","port":27025,"enabled":true,"region":"us-central","cc":"us","latitude":32.779167,"longitude":-96.80889,"reserved":0,"last_update":"0001-01-01T00:00:00Z","name_a2s":"Uncletopia | Dallas | 2 | All Maps","protocol":17,"map":"koth_harvest_final","folder":"tf","game":"Team Fortress","app_id":440,"player_count":18,"max_players":24,"Bots":0,"server_type":"Dedicated","server_os":"Linux","password":true,"vac":true,"version":"7961495","steam_id":85568392924469988,"keywords":["cp","nocrits","nodmgspread","uncletopia"],"game_id":440,"stv_port":27026,"stv_name":"Uncletopia | Dallas | 2 | All Maps | STV","players":[{"user_id":513,"name":"Barress","steam_id":76561198011728743,"connected_time":2415000000000,"state":"active","ping":80},{"user_id":498,"name":"LordGandalf23","steam_id":76561198086928298,"connected_time":5013000000000,"state":"active","ping":93},{"user_id":541,"name":"Snoopy","steam_id":76561198273735974,"connected_time":289000000000,"state":"active","ping":76},{"user_id":528,"name":"r0biN","steam_id":76561198097861434,"connected_time":801000000000,"state":"active","ping":86},{"user_id":518,"name":"loco503","steam_id":76561198827495121,"connected_time":1702000000000,"state":"active","ping":98},{"user_id":542,"name":"TPScout","steam_id":76561198353808504,"connected_time":212000000000,"state":"active","ping":101},{"user_id":544,"name":"Home Depot Bucket","steam_id":76561198838759652,"connected_time":150000000000,"state":"active","ping":69},{"user_id":515,"name":"m","steam_id":76561198017539604,"connected_time":2298000000000,"state":"active","ping":63},{"user_id":529,"name":"Zera","steam_id":76561198025129918,"connected_time":648000000000,"state":"active","ping":90},{"user_id":540,"name":"Lore","steam_id":76561198098407538,"connected_time":382000000000,"state":"active","ping":67},{"user_id":439,"name":"deb","steam_id":76561198414336279,"connected_time":9051000000000,"state":"active","ping":45},{"user_id":502,"name":"Si1entSn1pa","steam_id":76561198170095479,"connected_time":3183000000000,"state":"active","ping":87},{"user_id":545,"name":"dweaver","steam_id":76561198119610135,"connected_time":137000000000,"state":"active","ping":62},{"user_id":521,"name":"josh","steam_id":76561198077902438,"connected_time":1673000000000,"state":"active","ping":70},{"user_id":526,"name":"Orca?","steam_id":76561198164341099,"connected_time":1479000000000,"state":"active","ping":76},{"user_id":546,"name":"Scrampled Aigs","steam_id":76561198014526583,"connected_time":80000000000,"state":"active","ping":79},{"user_id":517,"name":"Allotrope","steam_id":76561197998450103,"connected_time":2150000000000,"state":"active","ping":43},{"user_id":491,"name":"HundchenTanque","steam_id":76561198122692754,"connected_time":5411000000000,"state":"active","ping":80}]},{"server_id":404,"name":"Uncletopia | Dallas | 3 | All Maps","name_short":"dal-3","host":"dal-1.us.uncletopia.com","port":27035,"enabled":true,"region":"us-central","cc":"us","latitude":32.779167,"longitude":-96.80889,"reserved":0,"last_update":"0001-01-01T00:00:00Z","name_a2s":"Uncletopia | Dallas | 3 | All Maps","protocol":17,"map":"cp_sunshine","folder":"tf","game":"Team Fortress","app_id":440,"player_count":0,"max_players":24,"Bots":0,"server_type":"Dedicated","server_os":"Linux","password":true,"vac":true,"version":"7961495","steam_id":85568392924515219,"keywords":["cp","nocrits","nodmgspread","uncletopia"],"game_id":440,"stv_port":27036,"stv_name":"Uncletopia | Dallas | 3 | All Maps | STV","players":null},{"server_id":405,"name":"Uncletopia | Dallas | 4 | Community","name_short":"dal-4","host":"dal-1.us.uncletopia.com","port":27045,"enabled":true,"region":"us-central","cc":"us","latitude":32.779167,"longitude":-96.80889,"reserved":0,"last_update":"0001-01-01T00:00:00Z","name_a2s":"Uncletopia | Dallas | 4 | Community","protocol":17,"map":"workshop/pl_emerge_rc2.ugc888027758","folder":"tf","game":"Team Fortress","app_id":440,"player_count":0,"max_players":24,"Bots":0,"server_type":"Dedicated","server_os":"Linux","password":true,"vac":true,"version":"7961495","steam_id":85568392924515220,"keywords":["nocrits","nodmgspread","payload","uncletopia"],"game_id":440,"stv_port":27046,"stv_name":"Uncletopia | Dallas | 4 | Community | STV","players":null},{"server_id":5,"name":"Uncletopia | Frankfurt | 1 | All Maps","name_short":"frk-1","host":"frk-1.de.uncletopia.com","port":27015,"enabled":true,"region":"eu","cc":"de","latitude":50.110924,"longitude":8.682127,"reserved":0,"last_update":"0001-01-01T00:00:00Z","name_a2s":"Uncletopia | Frankfurt | 1 | All Maps","protocol":17,"map":"pl_frontier_final","folder":"tf","game":"Team Fortress","app_id":440,"player_count":0,"max_players":24,"Bots":0,"server_type":"Dedicated","server_os":"Linux","password":true,"vac":true,"version":"7961495","steam_id":85568392924469989,"keywords":["nocrits","nodmgspread","payload","uncletopia"],"game_id":440,"stv_port":27016,"stv_name":"Uncletopia | Frankfurt | 1 | All Maps | STV","players":null},{"server_id":110,"name":"Uncletopia | Frankfurt | 2 | All Maps","name_short":"frk-2","host":"frk-1.de.uncletopia.com","port":27025,"enabled":true,"region":"eu","cc":"de","latitude":50.110924,"longitude":8.682127,"reserved":0,"last_update":"0001-01-01T00:00:00Z","name_a2s":"Uncletopia | Frankfurt | 2 | All Maps","protocol":17,"map":"koth_lakeside_final","folder":"tf","game":"Team Fortress","app_id":440,"player_count":0,"max_players":24,"Bots":0,"server_type":"Dedicated","server_os":"Linux","password":true,"vac":true,"version":"7961495","steam_id":85568392924469990,"keywords":["cp","nocrits","nodmgspread","uncletopia"],"game_id":440,"stv_port":27026,"stv_name":"Uncletopia | Frankfurt | 2 | All Maps | STV","players":null},{"server_id":308,"name":"Uncletopia | Frankfurt | 3 | All Maps","name_short":"frk-3","host":"frk-1.de.uncletopia.com","port":27035,"enabled":true,"region":"eu","cc":"de","latitude":50.110924,"longitude":8.682127,"reserved":0,"last_update":"0001-01-01T00:00:00Z","name_a2s":"Uncletopia | Frankfurt | 3 | All Maps","protocol":17,"map":"cp_sunshine","folder":"tf","game":"Team Fortress","app_id":440,"player_count":0,"max_players":24,"Bots":0,"server_type":"Dedicated","server_os":"Linux","password":true,"vac":true,"version":"7961495","steam_id":85568392924504274,"keywords":["cp","nocrits","nodmgspread","uncletopia"],"game_id":440,"stv_port":27036,"stv_name":"Uncletopia | Frankfurt | 3 | All Maps | STV","players":null},{"server_id":309,"name":"Uncletopia | Frankfurt | 4 | All Maps","name_short":"frk-4","host":"frk-1.de.uncletopia.com","port":27045,"enabled":true,"region":"eu","cc":"de","latitude":50.110924,"longitude":8.682127,"reserved":0,"last_update":"0001-01-01T00:00:00Z","name_a2s":"Uncletopia | Frankfurt | 4 | All Maps","protocol":17,"map":"cp_altitude","folder":"tf","game":"Team Fortress","app_id":440,"player_count":0,"max_players":24,"Bots":0,"server_type":"Dedicated","server_os":"Linux","password":true,"vac":true,"version":"7961495","steam_id":85568392924504275,"keywords":["cp","nocrits","nodmgspread","uncletopia"],"game_id":440,"stv_port":27046,"stv_name":"Uncletopia | Frankfurt | 4 | All Maps | STV","players":null},{"server_id":310,"name":"Uncletopia | Frankfurt | 5 | All Maps","name_short":"frk-5","host":"frk-1.de.uncletopia.com","port":27055,"enabled":true,"region":"eu","cc":"de","latitude":50.110924,"longitude":8.682127,"reserved":0,"last_update":"0001-01-01T00:00:00Z","name_a2s":"Uncletopia | Frankfurt | 5 | All Maps","protocol":17,"map":"cp_process_final","folder":"tf","game":"Team Fortress","app_id":440,"player_count":0,"max_players":24,"Bots":0,"server_type":"Dedicated","server_os":"Linux","password":true,"vac":true,"version":"7961495","steam_id":85568392924504277,"keywords":["cp","nocrits","nodmgspread","uncletopia"],"game_id":440,"stv_port":27056,"stv_name":"Uncletopia | Frankfurt | 5 | All Maps | STV","players":null},{"server_id":311,"name":"Uncletopia | Frankfurt | 6 | All Maps","name_short":"frk-6","host":"frk-1.de.uncletopia.com","port":27065,"enabled":true,"region":"eu","cc":"de","latitude":50.110924,"longitude":8.682127,"reserved":0,"last_update":"0001-01-01T00:00:00Z","name_a2s":"Uncletopia | Frankfurt | 6 | All Maps","protocol":17,"map":"pl_barnblitz","folder":"tf","game":"Team Fortress","app_id":440,"player_count":0,"max_players":24,"Bots":0,"server_type":"Dedicated","server_os":"Linux","password":true,"vac":true,"version":"7961495","steam_id":85568392924504278,"keywords":["nocrits","nodmgspread","payload","uncletopia"],"game_id":440,"stv_port":27066,"stv_name":"Uncletopia | Frankfurt | 6 | All Maps | STV","players":null},{"server_id":23,"name":"Uncletopia | Frankfurt | 7 | Stopwatch Beta","name_short":"frk-7","host":"frk-1.de.uncletopia.com","port":27075,"enabled":true,"region":"eu","cc":"de","latitude":50.110924,"longitude":8.682127,"reserved":0,"last_update":"0001-01-01T00:00:00Z","name_a2s":"Uncletopia | Frankfurt | 7 | Stopwatch Beta","protocol":17,"map":"koth_cascade","folder":"tf","game":"Team Fortress","app_id":440,"player_count":0,"max_players":24,"Bots":0,"server_type":"Dedicated","server_os":"Linux","password":true,"vac":true,"version":"7961495","steam_id":85568392924742827,"keywords":["cp","nocrits","nodmgspread","uncletopia"],"game_id":440,"stv_port":27076,"stv_name":"Uncletopia | Frankfurt | 7 | Stopwatch Beta | STV","players":null},{"server_id":24,"name":"Uncletopia | Frankfurt | 8 | Community","name_short":"frk-8","host":"frk-1.de.uncletopia.com","port":27085,"enabled":true,"region":"eu","cc":"de","latitude":50.110924,"longitude":8.682127,"reserved":0,"last_update":"0001-01-01T00:00:00Z","name_a2s":"Uncletopia | Frankfurt | 8 | Community","protocol":17,"map":"cp_dustbowl","folder":"tf","game":"Team Fortress","app_id":440,"player_count":0,"max_players":24,"Bots":0,"server_type":"Dedicated","server_os":"Linux","password":true,"vac":true,"version":"7961495","steam_id":85568392924742828,"keywords":["cp","nocrits","nodmgspread","uncletopia"],"game_id":440,"stv_port":27086,"stv_name":"Uncletopia | Frankfurt | 8 | Community | STV","players":null},{"server_id":202,"name":"Uncletopia | Hong Kong | 1 | All Maps","name_short":"hgk-1","host":"hgk-1.hk.uncletopia.com","port":27015,"enabled":true,"region":"asia","cc":"hk","latitude":22.302711,"longitude":114.177216,"reserved":0,"last_update":"0001-01-01T00:00:00Z","name_a2s":"Uncletopia | Hong Kong | 1 | All Maps","protocol":17,"map":"pl_upward","folder":"tf","game":"Team Fortress","app_id":440,"player_count":4,"max_players":24,"Bots":0,"server_type":"Dedicated","server_os":"Linux","password":true,"vac":true,"version":"7961495","steam_id":85568392924494504,"keywords":["nocrits","nodmgspread","payload","uncletopia"],"game_id":440,"stv_port":27016,"stv_name":"Uncletopia | Hong Kong | 1 | All Maps | STV","players":[{"user_id":13,"name":"GroggieBoi","steam_id":76561199085200364,"connected_time":901000000000,"state":"active","ping":58},{"user_id":14,"name":"Reggie","steam_id":76561199206904501,"connected_time":877000000000,"state":"active","ping":65},{"user_id":17,"name":"eekynetwo(F2P Piss Sniper)","steam_id":76561198990017441,"connected_time":85000000000,"state":"active","ping":84},{"user_id":16,"name":"Skyrim59","steam_id":76561199022143412,"connected_time":492000000000,"state":"active","ping":73}]},{"server_id":1,"name":"Uncletopia | Los Angeles | 1 | All Maps","name_short":"lax-1","host":"lax-1.us.uncletopia.com","port":27015,"enabled":true,"region":"us-west","cc":"us","latitude":33.94279,"longitude":-118.41004,"reserved":0,"last_update":"0001-01-01T00:00:00Z","name_a2s":"Uncletopia | Los Angeles | 1 | All Maps","protocol":17,"map":"koth_lakeside_final","folder":"tf","game":"Team Fortress","app_id":440,"player_count":24,"max_players":24,"Bots":0,"server_type":"Dedicated","server_os":"Linux","password":true,"vac":true,"version":"7961495","steam_id":85568392924469991,"keywords":["cp","nocrits","nodmgspread","uncletopia"],"game_id":440,"stv_port":27016,"stv_name":"Uncletopia | Los Angeles | 1 | All Maps | STV","players":[{"user_id":558,"name":"Captain Binglemorf","steam_id":76561198124139865,"connected_time":901000000000,"state":"active","ping":39},{"user_id":530,"name":"Mocha Josie","steam_id":76561198066452726,"connected_time":3039000000000,"state":"active","ping":52},{"user_id":572,"name":"Cactus","steam_id":76561198149755754,"connected_time":595000000000,"state":"active","ping":67},{"user_id":570,"name":"BuncusBeffer","steam_id":76561198285936616,"connected_time":681000000000,"state":"active","ping":69},{"user_id":555,"name":"jungus","steam_id":76561198129862008,"connected_time":917000000000,"state":"active","ping":45},{"user_id":532,"name":"LX-24","steam_id":76561198016168993,"connected_time":2737000000000,"state":"active","ping":81},{"user_id":556,"name":"Lucky","steam_id":76561198828715832,"connected_time":913000000000,"state":"active","ping":59},{"user_id":557,"name":"shai","steam_id":76561198144909435,"connected_time":907000000000,"state":"active","ping":49},{"user_id":578,"name":"Scoops M'Gooch","steam_id":76561198048423812,"connected_time":220000000000,"state":"active","ping":59},{"user_id":550,"name":"spurious george","steam_id":76561198043558709,"connected_time":1408000000000,"state":"active","ping":73},{"user_id":560,"name":"bunger is king","steam_id":76561198175955138,"connected_time":895000000000,"state":"active","ping":57},{"user_id":561,"name":"Kyemii's Big Boy","steam_id":76561198971285292,"connected_time":890000000000,"state":"active","ping":90},{"user_id":496,"name":"Antzen","steam_id":76561198041343470,"connected_time":6090000000000,"state":"active","ping":56},{"user_id":571,"name":"Kzo","steam_id":76561198207740525,"connected_time":668000000000,"state":"active","ping":81},{"user_id":573,"name":"KrylonHeretic","steam_id":76561198139811459,"connected_time":592000000000,"state":"active","ping":58},{"user_id":512,"name":"yummyham2","steam_id":76561199006339325,"connected_time":5105000000000,"state":"active","ping":58},{"user_id":574,"name":"Lone_Explorer","steam_id":76561198081972715,"connected_time":582000000000,"state":"active","ping":95},{"user_id":575,"name":"jooce box","steam_id":76561198162717644,"connected_time":575000000000,"state":"active","ping":68},{"user_id":565,"name":"TheArachnidGamer","steam_id":76561198304986752,"connected_time":851000000000,"state":"active","ping":77},{"user_id":516,"name":"DaBeatGoOff2?","steam_id":76561198106507400,"connected_time":4628000000000,"state":"active","ping":53},{"user_id":566,"name":"sobaka","steam_id":76561198116008934,"connected_time":840000000000,"state":"active","ping":59},{"user_id":553,"name":"Windows XP","steam_id":76561198278774620,"connected_time":1116000000000,"state":"active","ping":77},{"user_id":527,"name":"Big Boy Beni","steam_id":76561197995469460,"connected_time":3496000000000,"state":"active","ping":39},{"user_id":568,"name":"The Angel of Death","steam_id":76561198026079349,"connected_time":821000000000,"state":"active","ping":92}]},{"server_id":112,"name":"Uncletopia | Los Angeles | 2 | All Maps","name_short":"lax-2","host":"lax-1.us.uncletopia.com","port":27025,"enabled":true,"region":"us-west","cc":"us","latitude":33.94279,"longitude":-118.41004,"reserved":0,"last_update":"0001-01-01T00:00:00Z","name_a2s":"Uncletopia | Los Angeles | 2 | All Maps","protocol":17,"map":"pl_pier","folder":"tf","game":"Team Fortress","app_id":440,"player_count":17,"max_players":24,"Bots":0,"server_type":"Dedicated","server_os":"Linux","password":true,"vac":true,"version":"7961495","steam_id":85568392924469992,"keywords":["nocrits","nodmgspread","payload","uncletopia"],"game_id":440,"stv_port":27026,"stv_name":"Uncletopia | Los Angeles | 2 | All Maps | STV","players":[{"user_id":192,"name":"Joe ELO From Progressive","steam_id":76561198336597038,"connected_time":418000000000,"state":"active","ping":46},{"user_id":132,"name":"Handsome Pete","steam_id":76561198003224229,"connected_time":4428000000000,"state":"active","ping":42},{"user_id":189,"name":"KlassicLoL","steam_id":76561198081815303,"connected_time":809000000000,"state":"active","ping":37},{"user_id":183,"name":"Subject Delta","steam_id":76561199109118980,"connected_time":1110000000000,"state":"active","ping":49},{"user_id":193,"name":"i can transform ya","steam_id":76561198114603745,"connected_time":413000000000,"state":"active","ping":60},{"user_id":190,"name":"Lumpy the Illegally Blind","steam_id":76561198053125768,"connected_time":642000000000,"state":"active","ping":127},{"user_id":160,"name":"concreteeater22","steam_id":76561198250042710,"connected_time":2901000000000,"state":"active","ping":97},{"user_id":191,"name":"G.bo","steam_id":76561198085176270,"connected_time":614000000000,"state":"active","ping":61},{"user_id":180,"name":"xTheDutchx","steam_id":76561199068888031,"connected_time":1646000000000,"state":"active","ping":112},{"user_id":194,"name":"xjlm","steam_id":76561198043497260,"connected_time":385000000000,"state":"active","ping":72},{"user_id":195,"name":"BrightOrangeMango","steam_id":76561198023144607,"connected_time":382000000000,"state":"active","ping":60},{"user_id":196,"name":"Atrix","steam_id":76561198084930312,"connected_time":341000000000,"state":"active","ping":51},{"user_id":198,"name":"Idiotden","steam_id":76561199340950135,"connected_time":269000000000,"state":"active","ping":45},{"user_id":199,"name":"Choctoling","steam_id":76561198351622498,"connected_time":266000000000,"state":"active","ping":48},{"user_id":200,"name":"The Assistant Regional Manager","steam_id":76561199221484936,"connected_time":241000000000,"state":"active","ping":59},{"user_id":144,"name":"Preston","steam_id":76561198335444084,"connected_time":3987000000000,"state":"active","ping":128},{"user_id":201,"name":"*Gage*","steam_id":76561197975233869,"connected_time":81000000000,"state":"connecting","ping":0}]},{"server_id":324,"name":"Uncletopia | Los Angeles | 3 | All Maps","name_short":"lax-3","host":"lax-1.us.uncletopia.com","port":27035,"enabled":true,"region":"us-west","cc":"us","latitude":33.94279,"longitude":-118.41004,"reserved":0,"last_update":"0001-01-01T00:00:00Z","name_a2s":"Uncletopia | Los Angeles | 3 | All Maps","protocol":17,"map":"cp_sunshine","folder":"tf","game":"Team Fortress","app_id":440,"player_count":24,"max_players":24,"Bots":0,"server_type":"Dedicated","server_os":"Linux","password":true,"vac":true,"version":"7961495","steam_id":85568392924510198,"keywords":["cp","nocrits","nodmgspread","uncletopia"],"game_id":440,"stv_port":27036,"stv_name":"Uncletopia | Los Angeles | 3 | All Maps | STV","players":[{"user_id":78,"name":"fallingtree123","steam_id":76561198937414442,"connected_time":3787000000000,"state":"active","ping":106},{"user_id":150,"name":"ProKriby","steam_id":76561198057616221,"connected_time":333000000000,"state":"active","ping":144},{"user_id":119,"name":"Gazelle","steam_id":76561198336397088,"connected_time":1572000000000,"state":"active","ping":59},{"user_id":152,"name":"mytoyo2k2","steam_id":76561199486326945,"connected_time":161000000000,"state":"active","ping":108},{"user_id":133,"name":"Tosh","steam_id":76561198026948976,"connected_time":1289000000000,"state":"active","ping":72},{"user_id":88,"name":"eminixx","steam_id":76561198962857708,"connected_time":3441000000000,"state":"active","ping":104},{"user_id":151,"name":"DJ Sheeve","steam_id":76561198095910139,"connected_time":274000000000,"state":"active","ping":98},{"user_id":135,"name":"a_lilypup","steam_id":76561198163640324,"connected_time":992000000000,"state":"active","ping":52},{"user_id":115,"name":"exx","steam_id":76561198090552145,"connected_time":1631000000000,"state":"active","ping":49},{"user_id":134,"name":"Thequirka (He/They, bc not him)","steam_id":76561198968058652,"connected_time":1245000000000,"state":"active","ping":74},{"user_id":92,"name":"MERCHANT","steam_id":76561198210010549,"connected_time":3040000000000,"state":"active","ping":73},{"user_id":107,"name":"Faber","steam_id":76561198156982075,"connected_time":2633000000000,"state":"active","ping":65},{"user_id":121,"name":"self sufficient kitten","steam_id":76561197960592612,"connected_time":1521000000000,"state":"active","ping":65},{"user_id":136,"name":"citrus","steam_id":76561198029276171,"connected_time":980000000000,"state":"active","ping":138},{"user_id":126,"name":"Clam","steam_id":76561198288570962,"connected_time":1371000000000,"state":"active","ping":81},{"user_id":139,"name":"Ichibanprofen","steam_id":76561199192132061,"connected_time":859000000000,"state":"active","ping":61},{"user_id":140,"name":"Cael Thavain","steam_id":76561198136789464,"connected_time":754000000000,"state":"active","ping":62},{"user_id":146,"name":"The Super Mario Bros. Movie","steam_id":76561198871692156,"connected_time":579000000000,"state":"active","ping":77},{"user_id":110,"name":"Adam Levine (Real)","steam_id":76561199199257149,"connected_time":2122000000000,"state":"active","ping":113},{"user_id":125,"name":"NotWobs","steam_id":76561199087891992,"connected_time":1436000000000,"state":"active","ping":62},{"user_id":143,"name":"Mr. Poi","steam_id":76561198967112222,"connected_time":614000000000,"state":"active","ping":46},{"user_id":149,"name":"raya","steam_id":76561198051504581,"connected_time":470000000000,"state":"active","ping":75},{"user_id":148,"name":"yes","steam_id":76561199371694361,"connected_time":519000000000,"state":"active","ping":45},{"user_id":131,"name":"Phoenix","steam_id":76561199465534945,"connected_time":1325000000000,"state":"active","ping":76}]},{"server_id":25,"name":"Uncletopia | Los Angeles | 4 | Stopwatch Beta","name_short":"lax-4","host":"lax-1.us.uncletopia.com","port":27045,"enabled":true,"region":"us-west","cc":"us","latitude":33.94279,"longitude":-118.41004,"reserved":0,"last_update":"0001-01-01T00:00:00Z","name_a2s":"Uncletopia | Los Angeles | 4 | Stopwatch Beta","protocol":17,"map":"workshop/pl_vigil_rc9.ugc1266210012","folder":"tf","game":"Team Fortress","app_id":440,"player_count":0,"max_players":24,"Bots":0,"server_type":"Dedicated","server_os":"Linux","password":true,"vac":true,"version":"7961495","steam_id":85568392924510199,"keywords":["nocrits","nodmgspread","payload","uncletopia"],"game_id":440,"stv_port":27046,"stv_name":"Uncletopia | Los Angeles | 4 | Stopwatch Beta | STV","players":null},{"server_id":11,"name":"Uncletopia | London | 1 | All Maps","name_short":"lon-1","host":"lon-1.uk.uncletopia.com","port":27015,"enabled":true,"region":"eu","cc":"gb","latitude":51.509865,"longitude":-0.118092,"reserved":0,"last_update":"0001-01-01T00:00:00Z","name_a2s":"Uncletopia | London | 1 | All Maps","protocol":17,"map":"pl_enclosure_final","folder":"tf","game":"Team Fortress","app_id":440,"player_count":24,"max_players":24,"Bots":0,"server_type":"Dedicated","server_os":"Linux","password":true,"vac":true,"version":"7961495","steam_id":85568392924367362,"keywords":["nocrits","nodmgspread","payload","uncletopia"],"game_id":440,"stv_port":27016,"stv_name":"Uncletopia | London | 1 | All Maps | STV","players":[{"user_id":90,"name":"Noam","steam_id":76561198057789807,"connected_time":3350000000000,"state":"active","ping":96},{"user_id":115,"name":"Ran33","steam_id":76561197991474499,"connected_time":1103000000000,"state":"active","ping":86},{"user_id":116,"name":"Cookies and Bakies","steam_id":76561198017442928,"connected_time":945000000000,"state":"active","ping":65},{"user_id":74,"name":"bird ideas","steam_id":76561199480942903,"connected_time":3962000000000,"state":"active","ping":73},{"user_id":112,"name":"Relia Noski","steam_id":76561198100586456,"connected_time":1308000000000,"state":"active","ping":91},{"user_id":102,"name":"Rex Z'Beq","steam_id":76561199300590000,"connected_time":2184000000000,"state":"active","ping":91},{"user_id":126,"name":"bottle knight","steam_id":76561199259786987,"connected_time":31000000000,"state":"spawning","ping":41},{"user_id":93,"name":"Jeppe","steam_id":76561198036055494,"connected_time":3156000000000,"state":"active","ping":65},{"user_id":12,"name":"Hamst123","steam_id":76561198957312452,"connected_time":7939000000000,"state":"active","ping":64},{"user_id":123,"name":"dakotztda","steam_id":76561198044189114,"connected_time":270000000000,"state":"active","ping":65},{"user_id":16,"name":"Economic crisis","steam_id":76561198063562843,"connected_time":7922000000000,"state":"active","ping":71},{"user_id":27,"name":"thog","steam_id":76561198219901556,"connected_time":7530000000000,"state":"active","ping":106},{"user_id":107,"name":"froglids","steam_id":76561198045466919,"connected_time":1820000000000,"state":"active","ping":71},{"user_id":113,"name":"mewcat","steam_id":76561199087050938,"connected_time":1300000000000,"state":"active","ping":87},{"user_id":118,"name":"gub","steam_id":76561198171178427,"connected_time":773000000000,"state":"active","ping":85},{"user_id":98,"name":"Neimon","steam_id":76561198343485710,"connected_time":2661000000000,"state":"active","ping":133},{"user_id":106,"name":"CCTV","steam_id":76561198327333965,"connected_time":1963000000000,"state":"active","ping":57},{"user_id":109,"name":"Porky Minch","steam_id":76561198116168773,"connected_time":1586000000000,"state":"active","ping":148},{"user_id":111,"name":"Commander DM","steam_id":76561198059236770,"connected_time":1452000000000,"state":"active","ping":85},{"user_id":120,"name":"Fatass Cat In A Tuxedo","steam_id":76561198363366212,"connected_time":444000000000,"state":"active","ping":80},{"user_id":121,"name":"killbind irl","steam_id":76561198180637374,"connected_time":392000000000,"state":"active","ping":94},{"user_id":119,"name":"AsuX","steam_id":76561197990333289,"connected_time":764000000000,"state":"active","ping":60},{"user_id":125,"name":"Delab Le Fou","steam_id":76561198846356572,"connected_time":233000000000,"state":"active","ping":94},{"user_id":73,"name":"Tomfool","steam_id":76561197993256481,"connected_time":4101000000000,"state":"active","ping":90}]},{"server_id":114,"name":"Uncletopia | London | 2 | All Maps","name_short":"lon-2","host":"lon-1.uk.uncletopia.com","port":27025,"enabled":true,"region":"eu","cc":"gb","latitude":51.509865,"longitude":-0.118092,"reserved":0,"last_update":"0001-01-01T00:00:00Z","name_a2s":"Uncletopia | London | 2 | All Maps","protocol":17,"map":"cp_snakewater_final1","folder":"tf","game":"Team Fortress","app_id":440,"player_count":0,"max_players":24,"Bots":0,"server_type":"Dedicated","server_os":"Linux","password":true,"vac":true,"version":"7961495","steam_id":85568392924470941,"keywords":["cp","nocrits","nodmgspread","uncletopia"],"game_id":440,"stv_port":27026,"stv_name":"Uncletopia | London | 2 | All Maps | STV","players":null},{"server_id":320,"name":"Uncletopia | London | 3 | All Maps","name_short":"lon-3","host":"lon-1.uk.uncletopia.com","port":27035,"enabled":true,"region":"eu","cc":"gb","latitude":51.509865,"longitude":-0.118092,"reserved":0,"last_update":"0001-01-01T00:00:00Z","name_a2s":"Uncletopia | London | 3 | All Maps","protocol":17,"map":"ctf_doublecross","folder":"tf","game":"Team Fortress","app_id":440,"player_count":0,"max_players":24,"Bots":0,"server_type":"Dedicated","server_os":"Linux","password":true,"vac":true,"version":"7961495","steam_id":85568392924510192,"keywords":["ctf","nocrits","nodmgspread","uncletopia"],"game_id":440,"stv_port":27036,"stv_name":"Uncletopia | London | 3 | All Maps | STV","players":null},{"server_id":321,"name":"Uncletopia | London | 4 | All Maps","name_short":"lon-4","host":"lon-1.uk.uncletopia.com","port":27045,"enabled":true,"region":"eu","cc":"gb","latitude":51.509865,"longitude":-0.118092,"reserved":0,"last_update":"0001-01-01T00:00:00Z","name_a2s":"Uncletopia | London | 4 | All Maps","protocol":17,"map":"koth_viaduct","folder":"tf","game":"Team Fortress","app_id":440,"player_count":0,"max_players":24,"Bots":0,"server_type":"Dedicated","server_os":"Linux","password":true,"vac":true,"version":"7961495","steam_id":85568392924510193,"keywords":["cp","nocrits","nodmgspread","uncletopia"],"game_id":440,"stv_port":27046,"stv_name":"Uncletopia | London | 4 | All Maps | STV","players":null},{"server_id":21,"name":"Uncletopia | London | 5 | All Maps","name_short":"lon-5","host":"lon-1.uk.uncletopia.com","port":27055,"enabled":true,"region":"eu","cc":"gb","latitude":51.509865,"longitude":-0.118092,"reserved":0,"last_update":"0001-01-01T00:00:00Z","name_a2s":"Uncletopia | London | 5 | All Maps","protocol":17,"map":"pl_barnblitz","folder":"tf","game":"Team Fortress","app_id":440,"player_count":0,"max_players":24,"Bots":0,"server_type":"Dedicated","server_os":"Linux","password":true,"vac":true,"version":"7961495","steam_id":85568392924742829,"keywords":["nocrits","nodmgspread","payload","uncletopia"],"game_id":440,"stv_port":27056,"stv_name":"Uncletopia | London | 5 | All Maps | STV","players":null},{"server_id":22,"name":"Uncletopia | London | 6 | All Maps","name_short":"lon-6","host":"lon-1.uk.uncletopia.com","port":27065,"enabled":true,"region":"eu","cc":"gb","latitude":51.509865,"longitude":-0.118092,"reserved":0,"last_update":"0001-01-01T00:00:00Z","name_a2s":"Uncletopia | London | 6 | All Maps","protocol":17,"map":"pl_borneo","folder":"tf","game":"Team Fortress","app_id":440,"player_count":0,"max_players":24,"Bots":0,"server_type":"Dedicated","server_os":"Linux","password":true,"vac":true,"version":"7961495","steam_id":85568392924742830,"keywords":["nocrits","nodmgspread","payload","uncletopia"],"game_id":440,"stv_port":27066,"stv_name":"Uncletopia | London | 6 | All Maps | STV","players":null},{"server_id":40,"name":"Uncletopia | London | 7 | No Payload","name_short":"lon-7","host":"lon-1.uk.uncletopia.com","port":27075,"enabled":true,"region":"eu","cc":"gb","latitude":51.509865,"longitude":-0.118092,"reserved":0,"last_update":"0001-01-01T00:00:00Z","name_a2s":"Uncletopia | London | 7 | No Payload","protocol":17,"map":"koth_brazil","folder":"tf","game":"Team Fortress","app_id":440,"player_count":0,"max_players":24,"Bots":0,"server_type":"Dedicated","server_os":"Linux","password":true,"vac":true,"version":"7961495","steam_id":85568392924964314,"keywords":["cp","nocrits","nodmgspread","uncletopia"],"game_id":440,"stv_port":27076,"stv_name":"Uncletopia | London | 7 | No Payload | STV","players":null},{"server_id":41,"name":"Uncletopia | London | 8 | Community","name_short":"lon-8","host":"lon-1.uk.uncletopia.com","port":27085,"enabled":true,"region":"eu","cc":"gb","latitude":51.509865,"longitude":-0.118092,"reserved":0,"last_update":"0001-01-01T00:00:00Z","name_a2s":"Uncletopia | London | 8 | Community","protocol":17,"map":"pl_borneo","folder":"tf","game":"Team Fortress","app_id":440,"player_count":0,"max_players":24,"Bots":0,"server_type":"Dedicated","server_os":"Linux","password":true,"vac":true,"version":"7961495","steam_id":85568392924964315,"keywords":["nocrits","nodmgspread","payload","uncletopia"],"game_id":440,"stv_port":27086,"stv_name":"Uncletopia | London | 8 | Community | STV","players":null},{"server_id":300,"name":"Uncletopia | Montréal | 1 | All Maps","name_short":"mtl-1","host":"mtl-1.ca.uncletopia.com","port":27015,"enabled":true,"region":"us-east","cc":"ca","latitude":45.50889,"longitude":-73.56167,"reserved":0,"last_update":"0001-01-01T00:00:00Z","name_a2s":"Uncletopia | Montréal | 1 | All Maps","protocol":17,"map":"koth_viaduct","folder":"tf","game":"Team Fortress","app_id":440,"player_count":0,"max_players":24,"Bots":0,"server_type":"Dedicated","server_os":"Linux","password":true,"vac":true,"version":"7961495","steam_id":85568392924500087,"keywords":["cp","nocrits","nodmgspread","uncletopia"],"game_id":440,"stv_port":27016,"stv_name":"Uncletopia | Montréal | 1 | All Maps | STV","players":null},{"server_id":301,"name":"Uncletopia | Montréal | 2 | All Maps","name_short":"mtl-2","host":"mtl-1.ca.uncletopia.com","port":27025,"enabled":true,"region":"us-east","cc":"ca","latitude":45.50889,"longitude":-73.56167,"reserved":0,"last_update":"0001-01-01T00:00:00Z","name_a2s":"Uncletopia | Montréal | 2 | All Maps","protocol":17,"map":"pl_swiftwater_final1","folder":"tf","game":"Team Fortress","app_id":440,"player_count":0,"max_players":24,"Bots":0,"server_type":"Dedicated","server_os":"Linux","password":true,"vac":true,"version":"7961495","steam_id":85568392924500088,"keywords":["nocrits","nodmgspread","payload","uncletopia"],"game_id":440,"stv_port":27026,"stv_name":"Uncletopia | Montréal | 2 | All Maps | STV","players":null},{"server_id":302,"name":"Uncletopia | Montréal | 3 | All Maps","name_short":"mtl-3","host":"mtl-1.ca.uncletopia.com","port":27035,"enabled":true,"region":"us-east","cc":"ca","latitude":45.50889,"longitude":-73.56167,"reserved":0,"last_update":"0001-01-01T00:00:00Z","name_a2s":"Uncletopia | Montréal | 3 | All Maps","protocol":17,"map":"pl_pier","folder":"tf","game":"Team Fortress","app_id":440,"player_count":0,"max_players":24,"Bots":0,"server_type":"Dedicated","server_os":"Linux","password":true,"vac":true,"version":"7961495","steam_id":85568392924500089,"keywords":["nocrits","nodmgspread","payload","uncletopia"],"game_id":440,"stv_port":27036,"stv_name":"Uncletopia | Montréal | 3 | All Maps | STV","players":null},{"server_id":303,"name":"Uncletopia | Montréal | 4 | No Payload","name_short":"mtl-4","host":"mtl-1.ca.uncletopia.com","port":27045,"enabled":true,"region":"us-east","cc":"ca","latitude":45.50889,"longitude":-73.56167,"reserved":0,"last_update":"0001-01-01T00:00:00Z","name_a2s":"Uncletopia | Montréal | 4 | No Payload","protocol":17,"map":"koth_lakeside_final","folder":"tf","game":"Team Fortress","app_id":440,"player_count":0,"max_players":24,"Bots":0,"server_type":"Dedicated","server_os":"Linux","password":true,"vac":true,"version":"7961495","steam_id":85568392924500090,"keywords":["cp","nocrits","nodmgspread","uncletopia"],"game_id":440,"stv_port":27046,"stv_name":"Uncletopia | Montréal | 4 | No Payload | STV","players":null},{"server_id":13,"name":"Uncletopia | New York City | 1 | All Maps","name_short":"nyc-1","host":"nyc-1.us.uncletopia.com","port":27015,"enabled":true,"region":"us-east","cc":"us","latitude":40.73061,"longitude":-73.93524,"reserved":0,"last_update":"0001-01-01T00:00:00Z","name_a2s":"Uncletopia | New York City | 1 | All Maps","protocol":17,"map":"cp_dustbowl","folder":"tf","game":"Team Fortress","app_id":440,"player_count":0,"max_players":24,"Bots":0,"server_type":"Dedicated","server_os":"Linux","password":true,"vac":true,"version":"7961495","steam_id":85568392924469993,"keywords":["cp","nocrits","nodmgspread","uncletopia"],"game_id":440,"stv_port":27016,"stv_name":"Uncletopia | New York City | 1 | All Maps | STV","players":null},{"server_id":14,"name":"Uncletopia | New York City | 2 | All Maps","name_short":"nyc-2","host":"nyc-1.us.uncletopia.com","port":27025,"enabled":true,"region":"us-east","cc":"us","latitude":40.73061,"longitude":-73.93524,"reserved":0,"last_update":"0001-01-01T00:00:00Z","name_a2s":"Uncletopia | New York City | 2 | All Maps","protocol":17,"map":"pl_pier","folder":"tf","game":"Team Fortress","app_id":440,"player_count":0,"max_players":24,"Bots":0,"server_type":"Dedicated","server_os":"Linux","password":true,"vac":true,"version":"7961495","steam_id":85568392924469994,"keywords":["nocrits","nodmgspread","payload","uncletopia"],"game_id":440,"stv_port":27026,"stv_name":"Uncletopia | New York City | 2 | All Maps | STV","players":null},{"server_id":15,"name":"Uncletopia | New York City | 3 | Stopwatch Beta","name_short":"nyc-3","host":"nyc-1.us.uncletopia.com","port":27035,"enabled":true,"region":"us-east","cc":"us","latitude":40.73061,"longitude":-73.93524,"reserved":0,"last_update":"0001-01-01T00:00:00Z","name_a2s":"Uncletopia | New York City | 3 | Stopwatch Beta","protocol":17,"map":"workshop/pl_badwater_pro_v12.ugc2142942074","folder":"tf","game":"Team Fortress","app_id":440,"player_count":0,"max_players":24,"Bots":0,"server_type":"Dedicated","server_os":"Linux","password":true,"vac":true,"version":"7961495","steam_id":85568392924742820,"keywords":["nocrits","nodmgspread","payload","uncletopia"],"game_id":440,"stv_port":27036,"stv_name":"Uncletopia | New York City | 3 | Stopwatch Beta | STV","players":null},{"server_id":16,"name":"Uncletopia | New York City | 4 | Community","name_short":"nyc-4","host":"nyc-1.us.uncletopia.com","port":27045,"enabled":true,"region":"us-east","cc":"us","latitude":40.73061,"longitude":-73.93524,"reserved":0,"last_update":"0001-01-01T00:00:00Z","name_a2s":"Uncletopia | New York City | 4 | Community","protocol":17,"map":"workshop/cp_indulge.ugc528106646","folder":"tf","game":"Team Fortress","app_id":440,"player_count":0,"max_players":24,"Bots":0,"server_type":"Dedicated","server_os":"Linux","password":true,"vac":true,"version":"7961495","steam_id":85568392924742821,"keywords":["cp","nocrits","nodmgspread","uncletopia"],"game_id":440,"stv_port":27046,"stv_name":"Uncletopia | New York City | 4 | Community | STV","players":null},{"server_id":142,"name":"Uncletopia | São Paulo | 1 | All Maps","name_short":"sao-1","host":"sao-1.br.uncletopia.com","port":27015,"enabled":true,"region":"sa","cc":"br","latitude":-23.533773,"longitude":-46.62529,"reserved":0,"last_update":"0001-01-01T00:00:00Z","name_a2s":"Uncletopia | São Paulo | 1 | All Maps","protocol":17,"map":"koth_cascade","folder":"tf","game":"Team Fortress","app_id":440,"player_count":0,"max_players":24,"Bots":0,"server_type":"Dedicated","server_os":"Linux","password":true,"vac":true,"version":"7961495","steam_id":85568392924469996,"keywords":["cp","nocrits","nodmgspread","uncletopia"],"game_id":440,"stv_port":27016,"stv_name":"Uncletopia | São Paulo | 1 | All Maps | STV","players":null},{"server_id":143,"name":"Uncletopia | São Paulo | 2 | Community","name_short":"sao-2","host":"sao-2.br.uncletopia.com","port":27015,"enabled":true,"region":"sa","cc":"br","latitude":-23.533773,"longitude":-46.62529,"reserved":0,"last_update":"0001-01-01T00:00:00Z","name_a2s":"Uncletopia | São Paulo | 2 | Community","protocol":17,"map":"workshop/cp_indulge.ugc528106646","folder":"tf","game":"Team Fortress","app_id":440,"player_count":0,"max_players":24,"Bots":0,"server_type":"Dedicated","server_os":"Linux","password":true,"vac":true,"version":"7961495","steam_id":85568392924485349,"keywords":["cp","nocrits","nodmgspread","uncletopia"],"game_id":440,"stv_port":27016,"stv_name":"Uncletopia | São Paulo | 2 | Community | STV","players":null},{"server_id":7,"name":"Uncletopia | Seattle | 1 | All Maps","name_short":"sea-1","host":"sea-1.us.uncletopia.com","port":27015,"enabled":true,"region":"us-west","cc":"us","latitude":47.608013,"longitude":-122.33517,"reserved":0,"last_update":"0001-01-01T00:00:00Z","name_a2s":"Uncletopia | Seattle | 1 | All Maps","protocol":17,"map":"pl_badwater","folder":"tf","game":"Team Fortress","app_id":440,"player_count":24,"max_players":24,"Bots":0,"server_type":"Dedicated","server_os":"Linux","password":true,"vac":true,"version":"7961495","steam_id":85568392924469997,"keywords":["nocrits","nodmgspread","payload","uncletopia"],"game_id":440,"stv_port":27016,"stv_name":"Uncletopia | Seattle | 1 | All Maps | STV","players":[{"user_id":854,"name":"squash","steam_id":76561198150281353,"connected_time":3622000000000,"state":"active","ping":56},{"user_id":859,"name":"litroolay","steam_id":76561197995226856,"connected_time":3275000000000,"state":"active","ping":36},{"user_id":850,"name":"Arsonist Goose","steam_id":76561198147441830,"connected_time":4822000000000,"state":"active","ping":74},{"user_id":837,"name":"Das Anchor","steam_id":76561198060173151,"connected_time":5482000000000,"state":"active","ping":94},{"user_id":875,"name":"NEBULA","steam_id":76561198086878595,"connected_time":1277000000000,"state":"active","ping":66},{"user_id":883,"name":"porksoda","steam_id":76561198021451377,"connected_time":407000000000,"state":"active","ping":48},{"user_id":818,"name":"westward (was/were)","steam_id":76561198805512350,"connected_time":7148000000000,"state":"active","ping":60},{"user_id":870,"name":"hardfork","steam_id":76561197960958019,"connected_time":1831000000000,"state":"active","ping":52},{"user_id":871,"name":"Keamy","steam_id":76561199471434875,"connected_time":1775000000000,"state":"active","ping":44},{"user_id":852,"name":"Peppy","steam_id":76561198866629645,"connected_time":4248000000000,"state":"active","ping":59},{"user_id":864,"name":"crunchy obama","steam_id":76561198044485217,"connected_time":2313000000000,"state":"active","ping":80},{"user_id":848,"name":"Goosey","steam_id":76561198139648585,"connected_time":4923000000000,"state":"active","ping":85},{"user_id":878,"name":"plutonium isotope","steam_id":76561198319442494,"connected_time":660000000000,"state":"active","ping":89},{"user_id":872,"name":"giveit5","steam_id":76561198030815437,"connected_time":1610000000000,"state":"active","ping":90},{"user_id":867,"name":"kenZino","steam_id":76561197967971192,"connected_time":2125000000000,"state":"active","ping":45},{"user_id":881,"name":"EddieEnder","steam_id":76561198057912688,"connected_time":423000000000,"state":"active","ping":65},{"user_id":880,"name":"level 7 firemancer","steam_id":76561198209571677,"connected_time":425000000000,"state":"active","ping":130},{"user_id":876,"name":"John Calibur","steam_id":76561197999986606,"connected_time":1274000000000,"state":"active","ping":73},{"user_id":877,"name":"roryisonamobilehotspot","steam_id":76561198065825165,"connected_time":1214000000000,"state":"active","ping":106},{"user_id":879,"name":"thunderous prophet","steam_id":76561198131166135,"connected_time":427000000000,"state":"active","ping":40},{"user_id":825,"name":"Villchip","steam_id":76561198198599982,"connected_time":6822000000000,"state":"active","ping":47},{"user_id":800,"name":"Ayayayayayahuasca","steam_id":76561199002906056,"connected_time":9326000000000,"state":"active","ping":51},{"user_id":820,"name":"Cheezbeargur","steam_id":76561198164702899,"connected_time":7064000000000,"state":"active","ping":71},{"user_id":882,"name":"Tazzzy18 YTlive","steam_id":76561198280897107,"connected_time":416000000000,"state":"active","ping":53}]},{"server_id":119,"name":"Uncletopia | Seattle | 2 | All Maps","name_short":"sea-2","host":"sea-1.us.uncletopia.com","port":27025,"enabled":true,"region":"us-west","cc":"us","latitude":47.608013,"longitude":-122.33517,"reserved":0,"last_update":"0001-01-01T00:00:00Z","name_a2s":"Uncletopia | Seattle | 2 | All Maps","protocol":17,"map":"cp_badlands","folder":"tf","game":"Team Fortress","app_id":440,"player_count":15,"max_players":24,"Bots":0,"server_type":"Dedicated","server_os":"Linux","password":true,"vac":true,"version":"7961495","steam_id":85568392924469998,"keywords":["cp","nocrits","nodmgspread","uncletopia"],"game_id":440,"stv_port":27026,"stv_name":"Uncletopia | Seattle | 2 | All Maps | STV","players":[{"user_id":518,"name":"/watch?v=e7-ZQfCqML4","steam_id":76561198046145623,"connected_time":1944000000000,"state":"active","ping":70},{"user_id":522,"name":"I just did a \"Gaming\"","steam_id":76561198153836761,"connected_time":1573000000000,"state":"active","ping":43},{"user_id":538,"name":"MOGAN","steam_id":76561198071700821,"connected_time":0,"state":"connecting","ping":0},{"user_id":530,"name":"I need a better name","steam_id":76561198846479511,"connected_time":968000000000,"state":"active","ping":45},{"user_id":509,"name":"NotThatGuyPal","steam_id":76561199127607812,"connected_time":2723000000000,"state":"active","ping":76},{"user_id":531,"name":"poopfeast","steam_id":76561198302622358,"connected_time":547000000000,"state":"active","ping":53},{"user_id":520,"name":"Bishopp","steam_id":76561198366824816,"connected_time":1870000000000,"state":"active","ping":92},{"user_id":521,"name":"slushy :))","steam_id":76561198135281802,"connected_time":1828000000000,"state":"active","ping":39},{"user_id":532,"name":"Aloof","steam_id":76561198271723762,"connected_time":519000000000,"state":"active","ping":69},{"user_id":533,"name":"Leo IFN.GG","steam_id":76561199066914636,"connected_time":340000000000,"state":"active","ping":66},{"user_id":534,"name":"Chepu","steam_id":76561198821873384,"connected_time":335000000000,"state":"active","ping":45},{"user_id":535,"name":"Jade","steam_id":76561198092408457,"connected_time":290000000000,"state":"active","ping":45},{"user_id":536,"name":"too funky ᗜˬᗜ","steam_id":76561199120399776,"connected_time":274000000000,"state":"active","ping":71},{"user_id":537,"name":"Lumina","steam_id":76561198089227368,"connected_time":100000000000,"state":"active","ping":242},{"user_id":513,"name":"zeel107","steam_id":76561198063892990,"connected_time":2629000000000,"state":"active","ping":44}]},{"server_id":406,"name":"Uncletopia | Seattle | 3 | Stopwatch Beta","name_short":"sea-3","host":"sea-1.us.uncletopia.com","port":27035,"enabled":true,"region":"us-west","cc":"us","latitude":47.608013,"longitude":-122.33517,"reserved":0,"last_update":"0001-01-01T00:00:00Z","name_a2s":"Uncletopia | Seattle | 3 | Stopwatch Beta","protocol":17,"map":"workshop/koth_ramjam_rc1.ugc459778887","folder":"tf","game":"Team Fortress","app_id":440,"player_count":0,"max_players":24,"Bots":0,"server_type":"Dedicated","server_os":"Linux","password":true,"vac":true,"version":"7961495","steam_id":85568392924515217,"keywords":["cp","nocrits","nodmgspread","uncletopia"],"game_id":440,"stv_port":27036,"stv_name":"Uncletopia | Seattle | 3 | Stopwatch Beta | STV","players":null},{"server_id":17,"name":"Uncletopia | San Francisco | 1 | All Maps","name_short":"sfo-1","host":"sfo-1.us.uncletopia.com","port":27015,"enabled":true,"region":"us-west","cc":"us","latitude":37.77397,"longitude":-122.4313,"reserved":0,"last_update":"0001-01-01T00:00:00Z","name_a2s":"Uncletopia | San Francisco | 1 | All Maps","protocol":17,"map":"pl_upward","folder":"tf","game":"Team Fortress","app_id":440,"player_count":5,"max_players":24,"Bots":0,"server_type":"Dedicated","server_os":"Linux","password":true,"vac":true,"version":"7961495","steam_id":85568392924469999,"keywords":["nocrits","nodmgspread","payload","uncletopia"],"game_id":440,"stv_port":27016,"stv_name":"Uncletopia | San Francisco | 1 | All Maps | STV","players":[{"user_id":338,"name":"Kintsugi","steam_id":76561198301867054,"connected_time":1891000000000,"state":"active","ping":58},{"user_id":343,"name":"Spoon","steam_id":76561198097343433,"connected_time":1051000000000,"state":"active","ping":44},{"user_id":345,"name":"_","steam_id":76561197984325644,"connected_time":42000000000,"state":"active","ping":95},{"user_id":342,"name":"Mr. Cheese","steam_id":76561199224988873,"connected_time":1251000000000,"state":"active","ping":160},{"user_id":315,"name":"Ryshy02","steam_id":76561198055425447,"connected_time":4026000000000,"state":"active","ping":85}]},{"server_id":18,"name":"Uncletopia | San Francisco | 2 | All Maps","name_short":"sfo-2","host":"sfo-1.us.uncletopia.com","port":27025,"enabled":true,"region":"us-west","cc":"us","latitude":37.77397,"longitude":-122.4313,"reserved":0,"last_update":"0001-01-01T00:00:00Z","name_a2s":"Uncletopia | San Francisco | 2 | All Maps","protocol":17,"map":"pl_swiftwater_final1","folder":"tf","game":"Team Fortress","app_id":440,"player_count":24,"max_players":24,"Bots":0,"server_type":"Dedicated","server_os":"Linux","password":true,"vac":true,"version":"7961495","steam_id":85568392924470000,"keywords":["nocrits","nodmgspread","payload","uncletopia"],"game_id":440,"stv_port":27026,"stv_name":"Uncletopia | San Francisco | 2 | All Maps | STV","players":[{"user_id":327,"name":"SOGGY DOGGY","steam_id":76561199158847498,"connected_time":3586000000000,"state":"active","ping":55},{"user_id":358,"name":"4 life","steam_id":76561198175961598,"connected_time":1315000000000,"state":"active","ping":74},{"user_id":335,"name":"freyja","steam_id":76561198012480197,"connected_time":2369000000000,"state":"active","ping":44},{"user_id":365,"name":"devamar","steam_id":76561198069115467,"connected_time":507000000000,"state":"active","ping":49},{"user_id":340,"name":"Ant","steam_id":76561198253062337,"connected_time":1970000000000,"state":"active","ping":103},{"user_id":336,"name":"Willowl","steam_id":76561198074612980,"connected_time":2369000000000,"state":"active","ping":137},{"user_id":338,"name":"Ahten Xevious","steam_id":76561198075469828,"connected_time":2219000000000,"state":"active","ping":111},{"user_id":356,"name":"Eddy \"The Goat\"","steam_id":76561198064940458,"connected_time":1451000000000,"state":"active","ping":116},{"user_id":364,"name":"steady","steam_id":76561198210433363,"connected_time":899000000000,"state":"active","ping":105},{"user_id":366,"name":"Vegan Veal","steam_id":76561198123607452,"connected_time":228000000000,"state":"active","ping":69},{"user_id":343,"name":"ZeeKThe3rd","steam_id":76561198190156546,"connected_time":1755000000000,"state":"active","ping":48},{"user_id":362,"name":"k'ouft","steam_id":76561198080207021,"connected_time":967000000000,"state":"active","ping":59},{"user_id":285,"name":"Lambchop","steam_id":76561198043900363,"connected_time":9332000000000,"state":"active","ping":60},{"user_id":305,"name":"Seshreb","steam_id":76561198846614634,"connected_time":7427000000000,"state":"active","ping":68},{"user_id":345,"name":"1000 Ping","steam_id":76561198098330939,"connected_time":1731000000000,"state":"active","ping":79},{"user_id":346,"name":"dzcreeper","steam_id":76561198072250723,"connected_time":1714000000000,"state":"active","ping":101},{"user_id":283,"name":"Mapachito Lindo","steam_id":76561198031359995,"connected_time":9413000000000,"state":"active","ping":64},{"user_id":347,"name":"오징어 화가","steam_id":76561198236004942,"connected_time":1696000000000,"state":"active","ping":55},{"user_id":349,"name":"mollusk_obliteration","steam_id":76561198085388962,"connected_time":1661000000000,"state":"active","ping":126},{"user_id":350,"name":"Damiano","steam_id":76561198065585796,"connected_time":1652000000000,"state":"active","ping":66},{"user_id":351,"name":"MR. BEEEEEEEEEEEEEAAAAAAAAAAST","steam_id":76561198205346760,"connected_time":1634000000000,"state":"active","ping":90},{"user_id":352,"name":"Galactamarx","steam_id":76561198028065755,"connected_time":1581000000000,"state":"active","ping":115},{"user_id":360,"name":"Amogous Supreme","steam_id":76561198025476774,"connected_time":1206000000000,"state":"active","ping":55},{"user_id":303,"name":"Dragoninventor (He/Him)","steam_id":76561198956224948,"connected_time":7789000000000,"state":"active","ping":77}]},{"server_id":19,"name":"Uncletopia | San Francisco | 3 | Stopwatch Beta","name_short":"sfo-3","host":"sfo-1.us.uncletopia.com","port":27035,"enabled":true,"region":"us-west","cc":"us","latitude":37.77397,"longitude":-122.4313,"reserved":0,"last_update":"0001-01-01T00:00:00Z","name_a2s":"Uncletopia | San Francisco | 3 | Stopwatch Beta","protocol":17,"map":"workshop/pl_vigil_rc9.ugc1266210012","folder":"tf","game":"Team Fortress","app_id":440,"player_count":0,"max_players":24,"Bots":0,"server_type":"Dedicated","server_os":"Linux","password":true,"vac":true,"version":"7961495","steam_id":85568392924742824,"keywords":["nocrits","nodmgspread","payload","uncletopia"],"game_id":440,"stv_port":27036,"stv_name":"Uncletopia | San Francisco | 3 | Stopwatch Beta | STV","players":null},{"server_id":20,"name":"Uncletopia | San Francisco | 4 | Community","name_short":"sfo-4","host":"sfo-1.us.uncletopia.com","port":27045,"enabled":true,"region":"us-west","cc":"us","latitude":37.77397,"longitude":-122.4313,"reserved":0,"last_update":"0001-01-01T00:00:00Z","name_a2s":"Uncletopia | San Francisco | 4 | Community","protocol":17,"map":"workshop/pl_highwood_b13.ugc1769496557","folder":"tf","game":"Team Fortress","app_id":440,"player_count":0,"max_players":24,"Bots":0,"server_type":"Dedicated","server_os":"Linux","password":true,"vac":true,"version":"7961495","steam_id":85568392924742826,"keywords":["nocrits","nodmgspread","payload","uncletopia"],"game_id":440,"stv_port":27046,"stv_name":"Uncletopia | San Francisco | 4 | Community | STV","players":null},{"server_id":141,"name":"Uncletopia | Sydney | 1 | All Maps","name_short":"syd-1","host":"syd-1.au.uncletopia.com","port":27015,"enabled":true,"region":"au","cc":"au","latitude":-33.865143,"longitude":151.2099,"reserved":0,"last_update":"0001-01-01T00:00:00Z","name_a2s":"Uncletopia | Sydney | 1 | All Maps","protocol":17,"map":"koth_viaduct","folder":"tf","game":"Team Fortress","app_id":440,"player_count":23,"max_players":24,"Bots":0,"server_type":"Dedicated","server_os":"Linux","password":true,"vac":true,"version":"7961495","steam_id":85568392924470001,"keywords":["cp","nocrits","nodmgspread","uncletopia"],"game_id":440,"stv_port":27016,"stv_name":"Uncletopia | Sydney | 1 | All Maps | STV","players":[{"user_id":82,"name":"Chrisy","steam_id":76561198092382473,"connected_time":475000000000,"state":"active","ping":76},{"user_id":85,"name":"tom :D","steam_id":76561198073393715,"connected_time":6000000000,"state":"spawning","ping":87},{"user_id":5,"name":"cakey","steam_id":76561198173746761,"connected_time":5017000000000,"state":"active","ping":48},{"user_id":76,"name":"MindlessTie","steam_id":76561198107844324,"connected_time":996000000000,"state":"active","ping":61},{"user_id":81,"name":"Peteydog","steam_id":76561198376474981,"connected_time":545000000000,"state":"active","ping":31},{"user_id":21,"name":"Gallamellow","steam_id":76561198069046033,"connected_time":3844000000000,"state":"active","ping":37},{"user_id":69,"name":"Shaboi","steam_id":76561198048944885,"connected_time":1245000000000,"state":"active","ping":54},{"user_id":45,"name":"wom","steam_id":76561199375834537,"connected_time":2474000000000,"state":"active","ping":127},{"user_id":56,"name":"Bobby Wilkinson","steam_id":76561198054985347,"connected_time":2272000000000,"state":"active","ping":54},{"user_id":48,"name":"covenofbats","steam_id":76561198152117315,"connected_time":2434000000000,"state":"active","ping":47},{"user_id":65,"name":"yilli_","steam_id":76561198210960700,"connected_time":1769000000000,"state":"active","ping":58},{"user_id":84,"name":"viirv","steam_id":76561198190097862,"connected_time":79000000000,"state":"spawning","ping":193},{"user_id":83,"name":"a e r g h","steam_id":76561198010212679,"connected_time":384000000000,"state":"active","ping":53},{"user_id":74,"name":"BigLadBoyga","steam_id":76561198985263763,"connected_time":1030000000000,"state":"active","ping":74},{"user_id":75,"name":"Pizza the Hut","steam_id":76561198406755720,"connected_time":1025000000000,"state":"active","ping":60},{"user_id":71,"name":"pee pee","steam_id":76561198169367991,"connected_time":1067000000000,"state":"active","ping":69},{"user_id":66,"name":"Mups","steam_id":76561198344833209,"connected_time":1622000000000,"state":"active","ping":60},{"user_id":36,"name":"carey.yang","steam_id":76561199042355967,"connected_time":2918000000000,"state":"active","ping":53},{"user_id":37,"name":"Trotter","steam_id":76561198343965263,"connected_time":2797000000000,"state":"active","ping":61},{"user_id":38,"name":"jone","steam_id":76561198285234796,"connected_time":2733000000000,"state":"active","ping":89},{"user_id":73,"name":"Frog Friend","steam_id":76561198054505772,"connected_time":1061000000000,"state":"active","ping":64},{"user_id":78,"name":"Locker633","steam_id":76561198132624042,"connected_time":871000000000,"state":"active","ping":95},{"user_id":68,"name":"Rashid Of The Dank Memes","steam_id":76561198281398078,"connected_time":1548000000000,"state":"active","ping":64}]},{"server_id":123,"name":"Uncletopia | Sydney | 2 | All Maps","name_short":"syd-2","host":"syd-1.au.uncletopia.com","port":27025,"enabled":true,"region":"au","cc":"au","latitude":-33.865143,"longitude":151.2099,"reserved":0,"last_update":"0001-01-01T00:00:00Z","name_a2s":"Uncletopia | Sydney | 2 | All Maps","protocol":17,"map":"pl_snowycoast","folder":"tf","game":"Team Fortress","app_id":440,"player_count":0,"max_players":24,"Bots":0,"server_type":"Dedicated","server_os":"Linux","password":true,"vac":true,"version":"7961495","steam_id":85568392924470002,"keywords":["nocrits","nodmgspread","payload","uncletopia"],"game_id":440,"stv_port":27026,"stv_name":"Uncletopia | Sydney | 2 | All Maps | STV","players":null},{"server_id":395,"name":"Uncletopia | Sydney | 3 | All Maps","name_short":"syd-3","host":"syd-1.au.uncletopia.com","port":27035,"enabled":true,"region":"au","cc":"au","latitude":-33.865143,"longitude":151.2099,"reserved":0,"last_update":"0001-01-01T00:00:00Z","name_a2s":"Uncletopia | Sydney | 3 | All Maps","protocol":17,"map":"cp_dustbowl","folder":"tf","game":"Team Fortress","app_id":440,"player_count":0,"max_players":24,"Bots":0,"server_type":"Dedicated","server_os":"Linux","password":true,"vac":true,"version":"7961495","steam_id":85568392925194467,"keywords":["cp","nocrits","nodmgspread","uncletopia"],"game_id":440,"stv_port":27036,"stv_name":"Uncletopia | Sydney | 3 | All Maps | STV","players":null},{"server_id":396,"name":"Uncletopia | Sydney | 4 | All Maps","name_short":"syd-4","host":"syd-1.au.uncletopia.com","port":27045,"enabled":true,"region":"au","cc":"au","latitude":-33.865143,"longitude":151.2099,"reserved":0,"last_update":"0001-01-01T00:00:00Z","name_a2s":"Uncletopia | Sydney | 4 | All Maps","protocol":17,"map":"cp_dustbowl","folder":"tf","game":"Team Fortress","app_id":440,"player_count":0,"max_players":24,"Bots":0,"server_type":"Dedicated","server_os":"Linux","password":true,"vac":true,"version":"7961495","steam_id":85568392925397958,"keywords":["cp","nocrits","nodmgspread","uncletopia"],"game_id":440,"stv_port":27046,"stv_name":"Uncletopia | Sydney | 4 | All Maps | STV","players":null},{"server_id":58,"name":"Uncletopia | Sydney | 5 | Stopwatch Beta","name_short":"syd-5","host":"syd-1.au.uncletopia.com","port":27055,"enabled":true,"region":"au","cc":"au","latitude":-33.865143,"longitude":151.2099,"reserved":0,"last_update":"0001-01-01T00:00:00Z","name_a2s":"Uncletopia | Sydney | 5 | Stopwatch Beta","protocol":17,"map":"koth_viaduct","folder":"tf","game":"Team Fortress","app_id":440,"player_count":0,"max_players":24,"Bots":0,"server_type":"Dedicated","server_os":"Linux","password":true,"vac":true,"version":"7961495","steam_id":85568392925397959,"keywords":["cp","nocrits","nodmgspread","uncletopia"],"game_id":440,"stv_port":27056,"stv_name":"Uncletopia | Sydney | 5 | Stopwatch Beta | STV","players":null},{"server_id":59,"name":"Uncletopia | Sydney | 6 | Community","name_short":"syd-6","host":"syd-1.au.uncletopia.com","port":27065,"enabled":true,"region":"au","cc":"au","latitude":-33.865143,"longitude":151.2099,"reserved":0,"last_update":"0001-01-01T00:00:00Z","name_a2s":"Uncletopia | Sydney | 6 | Community","protocol":17,"map":"koth_cascade","folder":"tf","game":"Team Fortress","app_id":440,"player_count":0,"max_players":24,"Bots":0,"server_type":"Dedicated","server_os":"Linux","password":true,"vac":true,"version":"7961495","steam_id":85568392925397960,"keywords":["cp","nocrits","nodmgspread","uncletopia"],"game_id":440,"stv_port":27066,"stv_name":"Uncletopia | Sydney | 6 | Community | STV","players":null},{"server_id":49,"name":"Uncletopia | Warsaw | 1 | All Maps","name_short":"waw-1","host":"waw-1.pl.uncletopia.com","port":27015,"enabled":true,"region":"eu","cc":"pl","latitude":52.2297,"longitude":21.017532,"reserved":0,"last_update":"0001-01-01T00:00:00Z","name_a2s":"Uncletopia | Warsaw | 1 | All Maps","protocol":17,"map":"pl_swiftwater_final1","folder":"tf","game":"Team Fortress","app_id":440,"player_count":0,"max_players":24,"Bots":0,"server_type":"Dedicated","server_os":"Linux","password":true,"vac":true,"version":"7961495","steam_id":85568392925397850,"keywords":["nocrits","nodmgspread","payload","uncletopia"],"game_id":440,"stv_port":27016,"stv_name":"Uncletopia | Warsaw | 1 | All Maps | STV","players":null},{"server_id":50,"name":"Uncletopia | Warsaw | 2 | All Maps","name_short":"waw-2","host":"waw-1.pl.uncletopia.com","port":27025,"enabled":true,"region":"eu","cc":"pl","latitude":52.2297,"longitude":21.017532,"reserved":0,"last_update":"0001-01-01T00:00:00Z","name_a2s":"Uncletopia | Warsaw | 2 | All Maps","protocol":17,"map":"cp_dustbowl","folder":"tf","game":"Team Fortress","app_id":440,"player_count":0,"max_players":24,"Bots":0,"server_type":"Dedicated","server_os":"Linux","password":true,"vac":true,"version":"7961495","steam_id":85568392925397851,"keywords":["cp","nocrits","nodmgspread","uncletopia"],"game_id":440,"stv_port":27026,"stv_name":"Uncletopia | Warsaw | 2 | All Maps | STV","players":null},{"server_id":51,"name":"Uncletopia | Warsaw | 3 | All Maps","name_short":"waw-3","host":"waw-1.pl.uncletopia.com","port":27035,"enabled":true,"region":"eu","cc":"pl","latitude":52.2297,"longitude":21.017532,"reserved":0,"last_update":"0001-01-01T00:00:00Z","name_a2s":"Uncletopia | Warsaw | 3 | All Maps","protocol":17,"map":"pl_upward","folder":"tf","game":"Team Fortress","app_id":440,"player_count":0,"max_players":24,"Bots":0,"server_type":"Dedicated","server_os":"Linux","password":true,"vac":true,"version":"7961495","steam_id":85568392925397852,"keywords":["nocrits","nodmgspread","payload","uncletopia"],"game_id":440,"stv_port":27036,"stv_name":"Uncletopia | Warsaw | 3 | All Maps | STV","players":null},{"server_id":52,"name":"Uncletopia | Warsaw | 4 | All Maps","name_short":"waw-4","host":"waw-1.pl.uncletopia.com","port":27045,"enabled":true,"region":"eu","cc":"pl","latitude":52.2297,"longitude":21.017532,"reserved":0,"last_update":"0001-01-01T00:00:00Z","name_a2s":"Uncletopia | Warsaw | 4 | All Maps","protocol":17,"map":"koth_viaduct","folder":"tf","game":"Team Fortress","app_id":440,"player_count":0,"max_players":24,"Bots":0,"server_type":"Dedicated","server_os":"Linux","password":true,"vac":true,"version":"7961495","steam_id":85568392925397853,"keywords":["cp","nocrits","nodmgspread","uncletopia"],"game_id":440,"stv_port":27046,"stv_name":"Uncletopia | Warsaw | 4 | All Maps | STV","players":null},{"server_id":53,"name":"Uncletopia | Warsaw | 5 | Stopwatch Beta","name_short":"waw-5","host":"waw-1.pl.uncletopia.com","port":27055,"enabled":true,"region":"eu","cc":"pl","latitude":52.2297,"longitude":21.017532,"reserved":0,"last_update":"0001-01-01T00:00:00Z","name_a2s":"Uncletopia | Warsaw | 5 | Stopwatch Beta","protocol":17,"map":"cp_snakewater_final1","folder":"tf","game":"Team Fortress","app_id":440,"player_count":0,"max_players":24,"Bots":0,"server_type":"Dedicated","server_os":"Linux","password":true,"vac":true,"version":"7961495","steam_id":85568392925397854,"keywords":["cp","nocrits","nodmgspread","uncletopia"],"game_id":440,"stv_port":27056,"stv_name":"Uncletopia | Warsaw | 5 | Stopwatch Beta | STV","players":null},{"server_id":54,"name":"Uncletopia | Warsaw | 6 | Community","name_short":"waw-6","host":"waw-1.pl.uncletopia.com","port":27065,"enabled":true,"region":"eu","cc":"pl","latitude":52.2297,"longitude":21.017532,"reserved":0,"last_update":"0001-01-01T00:00:00Z","name_a2s":"Uncletopia | Warsaw | 6 | Community","protocol":17,"map":"workshop/cp_glacier_rc6.ugc2905735376","folder":"tf","game":"Team Fortress","app_id":440,"player_count":0,"max_players":24,"Bots":0,"server_type":"Dedicated","server_os":"Linux","password":true,"vac":true,"version":"7961495","steam_id":85568392925397856,"keywords":["cp","nocrits","nodmgspread","uncletopia"],"game_id":440,"stv_port":27066,"stv_name":"Uncletopia | Warsaw | 6 | Community | STV","players":null}]}