{"status":true,"message":"","result":[{"server_id":9,"name":"Uncletopia | Atlanta | 1 | All Maps","name_short":"atl-1","host":"atl-1.us.uncletopia.com","port":27015,"enabled":true,"region":"us-east","cc":"us","latitude":33.753746,"longitude":-84.38633,"reserved":0,"last_update":"0001-01-01T00:00:00Z","name_a2s":"Uncletopia | Atlanta | 1 | All Maps","protocol":17,"map":"cp_metalworks","folder":"tf","game":"Team Fortress","app_id":440,"player_count":22,"max_players":24,"Bots":0,"server_type":"Dedicated","server_os":"Linux","password":true,"vac":true,"version":"7708610","steam_id":85568392924469982,"keywords":["cp","nocrits","nodmgspread","uncletopia"],"game_id":440,"stv_port":27016,"stv_name":"Uncletopia | Atlanta | 1 | All Maps | STV","players":[{"user_id":543,"name":"mommy claus","steam_id":76561199230929836,"connected_time":1360000000000,"state":"active","ping":90},{"user_id":561,"name":"Nerd Killer","steam_id":76561198037072888,"connected_time":163000000000,"state":"active","ping":74},{"user_id":560,"name":"Azord","steam_id":76561198047508667,"connected_time":374000000000,"state":"active","ping":59},{"user_id":550,"name":"Naegi","steam_id":76561198361768640,"connected_time":923000000000,"state":"active","ping":68},{"user_id":546,"name":"ATL1 | schizo and im armed","steam_id":76561198016121536,"connected_time":1182000000000,"state":"active","ping":95},{"user_id":548,"name":"Thotimus Begonimus","steam_id":76561197970275938,"connected_time":1009000000000,"state":"active","ping":42},{"user_id":547,"name":"tame","steam_id":76561198925005855,"connected_time":1022000000000,"state":"active","ping":170},{"user_id":551,"name":"Urbanzpinapple","steam_id":76561198115426938,"connected_time":921000000000,"state":"active","ping":105},{"user_id":558,"name":"strangedeath","steam_id":76561198154159297,"connected_time":478000000000,"state":"active","ping":86},{"user_id":517,"name":"coal","steam_id":76561198027252280,"connected_time":3658000000000,"state":"active","ping":39},{"user_id":533,"name":"Riske","steam_id":76561198115840568,"connected_time":2706000000000,"state":"active","ping":81},{"user_id":520,"name":"PinkLemonade","steam_id":76561198799286228,"connected_time":3559000000000,"state":"active","ping":80},{"user_id":535,"name":"guy","steam_id":76561198830293087,"connected_time":2289000000000,"state":"active","ping":63},{"user_id":534,"name":"dude","steam_id":76561198284992433,"connected_time":2641000000000,"state":"active","ping":67},{"user_id":509,"name":"Wumbologist","steam_id":76561198188729514,"connected_time":4198000000000,"state":"active","ping":52},{"user_id":529,"name":"Angel","steam_id":76561198175654911,"connected_time":2907000000000,"state":"active","ping":68},{"user_id":485,"name":"ATL1 | on my hunting trip","steam_id":76561198315341646,"connected_time":5948000000000,"state":"active","ping":75},{"user_id":506,"name":"TheGhostThatWas","steam_id":76561198055836483,"connected_time":4494000000000,"state":"active","ping":56},{"user_id":541,"name":"stink","steam_id":76561198099318923,"connected_time":1412000000000,"state":"active","ping":90},{"user_id":562,"name":"Adalwolfa","steam_id":76561198194671218,"connected_time":152000000000,"state":"active","ping":37},{"user_id":556,"name":"St. Michael","steam_id":76561198037611052,"connected_time":756000000000,"state":"active","ping":62},{"user_id":521,"name":"Hawkborne","steam_id":76561198107249245,"connected_time":3435000000000,"state":"active","ping":73}]},{"server_id":400,"name":"Uncletopia | Atlanta | 3 | All Maps","name_short":"atl-3","host":"atl-1.us.uncletopia.com","port":27035,"enabled":true,"region":"us-east","cc":"us","latitude":33.753746,"longitude":-84.38633,"reserved":0,"last_update":"0001-01-01T00:00:00Z","name_a2s":"Uncletopia | Atlanta | 3 | All Maps","protocol":17,"map":"cp_powerhouse","folder":"tf","game":"Team Fortress","app_id":440,"player_count":17,"max_players":24,"Bots":0,"server_type":"Dedicated","server_os":"Linux","password":true,"vac":true,"version":"7708610","steam_id":85568392924515187,"keywords":["cp","nocrits","nodmgspread","uncletopia"],"game_id":440,"stv_port":27036,"stv_name":"Uncletopia | Atlanta | 3 | All Maps | STV","players":[{"user_id":475,"name":"Skipz","steam_id":76561198425244550,"connected_time":117000000000,"state":"active","ping":47},{"user_id":464,"name":"MaskedThunder59","steam_id":76561198859075598,"connected_time":1410000000000,"state":"active","ping":45},{"user_id":472,"name":"Voids","steam_id":76561198128386726,"connected_time":426000000000,"state":"active","ping":60},{"user_id":344,"name":"Madkiller Max","steam_id":76561197974470705,"connected_time":8919000000000,"state":"active","ping":59},{"user_id":448,"name":"DREW PEACOCK","steam_id":76561198065057392,"connected_time":2580000000000,"state":"active","ping":50},{"user_id":473,"name":"Iron Argus","steam_id":76561198181088245,"connected_time":247000000000,"state":"active","ping":81},{"user_id":455,"name":"GLEEKY","steam_id":76561198287245599,"connected_time":1852000000000,"state":"active","ping":54},{"user_id":477,"name":"JimmySquid","steam_id":76561198254242530,"connected_time":81000000000,"state":"active","ping":73},{"user_id":427,"name":"Uung","steam_id":76561198183956731,"connected_time":3795000000000,"state":"active","ping":36},{"user_id":476,"name":"LittleJoeRambler","steam_id":76561198015890576,"connected_time":88000000000,"state":"spawning","ping":63},{"user_id":471,"name":"the truth","steam_id":76561198017539604,"connected_time":528000000000,"state":"active","ping":75},{"user_id":462,"name":"Nico","steam_id":76561198125701869,"connected_time":1684000000000,"state":"active","ping":66},{"user_id":478,"name":"Capsaicin Chips","steam_id":76561199019267581,"connected_time":76000000000,"state":"active","ping":60},{"user_id":469,"name":"Aria of The Soul","steam_id":76561198025668771,"connected_time":631000000000,"state":"active","ping":105},{"user_id":466,"name":"FUSION","steam_id":76561197972659738,"connected_time":1276000000000,"state":"active","ping":58},{"user_id":440,"name":"KORF","steam_id":76561197981904410,"connected_time":3375000000000,"state":"active","ping":77},{"user_id":467,"name":"Cassini","steam_id":76561198318526294,"connected_time":1275000000000,"state":"active","ping":55}]},{"server_id":401,"name":"Uncletopia | Atlanta | 4 | No Payload","name_short":"atl-4","host":"atl-1.us.uncletopia.com","port":27045,"enabled":true,"region":"us-east","cc":"us","latitude":33.753746,"longitude":-84.38633,"reserved":0,"last_update":"0001-01-01T00:00:00Z","name_a2s":"Uncletopia | Atlanta | 4 | No Payload","protocol":17,"map":"plr_bananabay","folder":"tf","game":"Team Fortress","app_id":440,"player_count":0,"max_players":24,"Bots":0,"server_type":"Dedicated","server_os":"Linux","password":true,"vac":true,"version":"7708610","steam_id":85568392924515188,"keywords":["nocrits","nodmgspread","payload","uncletopia"],"game_id":440,"stv_port":27046,"stv_name":"Uncletopia | Atlanta | 4 | No Payload | STV","players":null},{"server_id":2,"name":"Uncletopia | Chicago | 1 | All Maps","name_short":"chi-1","host":"chi-1.us.uncletopia.com","port":27015,"enabled":true,"region":"us-central","cc":"us","latitude":41.881832,"longitude":-87.62318,"reserved":0,"last_update":"0001-01-01T00:00:00Z","name_a2s":"Uncletopia | Chicago | 1 | All Maps","protocol":17,"map":"pl_thundermountain","folder":"tf","game":"Team Fortress","app_id":440,"player_count":24,"max_players":24,"Bots":0,"server_type":"Dedicated","server_os":"Linux","password":true,"vac":true,"version":"7708610","steam_id":85568392924469984,"keywords":["nocrits","nodmgspread","payload","uncletopia"],"game_id":440,"stv_port":27016,"stv_name":"Uncletopia | Chicago | 1 | All Maps | STV","players":[{"user_id":617,"name":"Mori","steam_id":76561198355935693,"connected_time":4773000000000,"state":"active","ping":45},{"user_id":585,"name":"Tallywyn","steam_id":76561197998572962,"connected_time":6859000000000,"state":"active","ping":65},{"user_id":688,"name":"OneTrueCorvid","steam_id":76561199012953221,"connected_time":599000000000,"state":"active","ping":90},{"user_id":676,"name":"snow worm","steam_id":76561198328256922,"connected_time":1334000000000,"state":"active","ping":48},{"user_id":677,"name":"Chipy","steam_id":76561198119367479,"connected_time":1330000000000,"state":"active","ping":85},{"user_id":687,"name":"Crow","steam_id":76561198055648496,"connected_time":704000000000,"state":"active","ping":49},{"user_id":689,"name":"iamoctopii","steam_id":76561198876901076,"connected_time":586000000000,"state":"active","ping":122},{"user_id":686,"name":"Antwan","steam_id":76561198246200638,"connected_time":764000000000,"state":"active","ping":69},{"user_id":674,"name":"chunkyMerchant","steam_id":76561198318701494,"connected_time":1429000000000,"state":"active","ping":70},{"user_id":680,"name":"sithreis","steam_id":76561198000564263,"connected_time":1290000000000,"state":"active","ping":71},{"user_id":653,"name":"MrVegasAguitar","steam_id":76561198084466946,"connected_time":2796000000000,"state":"active","ping":91},{"user_id":681,"name":"King","steam_id":76561198010019214,"connected_time":1285000000000,"state":"active","ping":51},{"user_id":637,"name":"Majozoe","steam_id":76561198007563292,"connected_time":4115000000000,"state":"active","ping":71},{"user_id":655,"name":"t","steam_id":76561198175988929,"connected_time":2763000000000,"state":"active","ping":77},{"user_id":622,"name":"jingle.JIFF","steam_id":76561198045181760,"connected_time":4485000000000,"state":"active","ping":57},{"user_id":692,"name":"BIG LION","steam_id":76561199229169396,"connected_time":166000000000,"state":"active","ping":66},{"user_id":658,"name":"st3shk4a","steam_id":76561198025322638,"connected_time":2675000000000,"state":"active","ping":85},{"user_id":682,"name":"AlecTheNefarious","steam_id":76561198035291230,"connected_time":1285000000000,"state":"active","ping":66},{"user_id":683,"name":"Snom","steam_id":76561198333827920,"connected_time":1277000000000,"state":"active","ping":96},{"user_id":668,"name":"ZeN","steam_id":76561199098746585,"connected_time":1832000000000,"state":"active","ping":58},{"user_id":596,"name":"TallBit","steam_id":76561199059748976,"connected_time":6553000000000,"state":"active","ping":51},{"user_id":601,"name":"Ras","steam_id":76561198123546775,"connected_time":6169000000000,"state":"active","ping":61},{"user_id":685,"name":"mentally strange","steam_id":76561198106690989,"connected_time":1020000000000,"state":"active","ping":68},{"user_id":526,"name":"Lia_Reindeer","steam_id":76561198151569597,"connected_time":11942000000000,"state":"active","ping":146}]},{"server_id":106,"name":"Uncletopia | Chicago | 2 | All Maps","name_short":"chi-2","host":"chi-1.us.uncletopia.com","port":27025,"enabled":true,"region":"us-central","cc":"us","latitude":41.881832,"longitude":-87.62318,"reserved":0,"last_update":"0001-01-01T00:00:00Z","name_a2s":"Uncletopia | Chicago | 2 | All Maps","protocol":17,"map":"pl_pier","folder":"tf","game":"Team Fortress","app_id":440,"player_count":24,"max_players":24,"Bots":0,"server_type":"Dedicated","server_os":"Linux","password":true,"vac":true,"version":"7708610","steam_id":85568392924469985,"keywords":["nocrits","nodmgspread","payload","uncletopia"],"game_id":440,"stv_port":27026,"stv_name":"Uncletopia | Chicago | 2 | All Maps | STV","players":[{"user_id":551,"name":"Patrick","steam_id":76561198100447509,"connected_time":624000000000,"state":"active","ping":58},{"user_id":528,"name":"Speedy Gonzales","steam_id":76561198005301688,"connected_time":1767000000000,"state":"active","ping":75},{"user_id":558,"name":"BOT Bot","steam_id":76561197995225620,"connected_time":124000000000,"state":"active","ping":77},{"user_id":541,"name":"LivinInTheMyst","steam_id":76561199109119765,"connected_time":1037000000000,"state":"active","ping":61},{"user_id":536,"name":"Swamp Fever","steam_id":76561198096836451,"connected_time":1091000000000,"state":"active","ping":97},{"user_id":498,"name":"CHODIE LAND","steam_id":76561198057116531,"connected_time":3583000000000,"state":"active","ping":60},{"user_id":554,"name":"blibulon","steam_id":76561198370642854,"connected_time":412000000000,"state":"active","ping":92},{"user_id":544,"name":"ElectronX","steam_id":76561198116034988,"connected_time":989000000000,"state":"active","ping":105},{"user_id":523,"name":"bobby peanstalk","steam_id":76561198040495463,"connected_time":2131000000000,"state":"active","ping":74},{"user_id":540,"name":"begolds8","steam_id":76561198841069098,"connected_time":1043000000000,"state":"active","ping":91},{"user_id":514,"name":"Shockman","steam_id":76561197971281270,"connected_time":2348000000000,"state":"active","ping":74},{"user_id":474,"name":"CassandraRC7 (She/her)","steam_id":76561198094123940,"connected_time":5301000000000,"state":"active","ping":57},{"user_id":521,"name":"brian eno","steam_id":76561198109901138,"connected_time":2205000000000,"state":"active","ping":78},{"user_id":471,"name":"IRAcide","steam_id":76561198236149504,"connected_time":5476000000000,"state":"active","ping":101},{"user_id":501,"name":"EvilMrPotoo ｡◕‿◕｡","steam_id":76561198012566870,"connected_time":3565000000000,"state":"active","ping":61},{"user_id":553,"name":"Lemony Lilly (She/Her)","steam_id":76561198042479066,"connected_time":440000000000,"state":"active","ping":79},{"user_id":552,"name":"Roz257","steam_id":76561198842844532,"connected_time":499000000000,"state":"active","ping":64},{"user_id":422,"name":"Nate","steam_id":76561198068225765,"connected_time":9587000000000,"state":"active","ping":64},{"user_id":525,"name":"mike wazowski ranch puddle","steam_id":76561198001781616,"connected_time":2116000000000,"state":"active","ping":54},{"user_id":506,"name":"Gay Cake","steam_id":76561198004388831,"connected_time":3539000000000,"state":"active","ping":69},{"user_id":547,"name":"Jaguar the sick","steam_id":76561197971152439,"connected_time":946000000000,"state":"active","ping":75},{"user_id":543,"name":"❤birbohex❤","steam_id":76561198392961483,"connected_time":1021000000000,"state":"active","ping":46},{"user_id":557,"name":"Muffin","steam_id":76561198050715053,"connected_time":186000000000,"state":"active","ping":76},{"user_id":515,"name":"LILZ","steam_id":76561198037698650,"connected_time":2348000000000,"state":"active","ping":74}]},{"server_id":402,"name":"Uncletopia | Chicago | 3 | All Maps","name_short":"chi-3","host":"chi-1.us.uncletopia.com","port":27035,"enabled":true,"region":"us-central","cc":"us","latitude":41.881832,"longitude":-87.62318,"reserved":0,"last_update":"0001-01-01T00:00:00Z","name_a2s":"Uncletopia | Chicago | 3 | All Maps","protocol":17,"map":"cp_5gorge","folder":"tf","game":"Team Fortress","app_id":440,"player_count":6,"max_players":24,"Bots":0,"server_type":"Dedicated","server_os":"Linux","password":true,"vac":true,"version":"7708610","steam_id":85568392924515191,"keywords":["cp","nocrits","nodmgspread","uncletopia"],"game_id":440,"stv_port":27036,"stv_name":"Uncletopia | Chicago | 3 | All Maps | STV","players":[{"user_id":158,"name":"russianpenguin","steam_id":76561198870453115,"connected_time":7100000000000,"state":"active","ping":57},{"user_id":222,"name":"JHLO","steam_id":76561198074359967,"connected_time":761000000000,"state":"active","ping":61},{"user_id":224,"name":"JUNE","steam_id":76561198975039481,"connected_time":667000000000,"state":"active","ping":63},{"user_id":227,"name":"Cyber the Raccoon Fox","steam_id":76561198046571972,"connected_time":60000000000,"state":"active","ping":68},{"user_id":219,"name":"PrinceGrotle","steam_id":76561198206131603,"connected_time":1001000000000,"state":"active","ping":67},{"user_id":221,"name":"Kodsix","steam_id":76561198190470643,"connected_time":893000000000,"state":"active","ping":139}]},{"server_id":403,"name":"Uncletopia | Chicago | 4 | All Maps","name_short":"chi-4","host":"chi-1.us.uncletopia.com","port":27045,"enabled":true,"region":"us-central","cc":"us","latitude":41.881832,"longitude":-87.62318,"reserved":0,"last_update":"0001-01-01T00:00:00Z","name_a2s":"Uncletopia | Chicago | 4 | All Maps","protocol":17,"map":"pl_frontier_final","folder":"tf","game":"Team Fortress","app_id":440,"player_count":24,"max_players":24,"Bots":0,"server_type":"Dedicated","server_os":"Linux","password":true,"vac":true,"version":"7708610","steam_id":85568392924515193,"keywords":["nocrits","nodmgspread","payload","uncletopia"],"game_id":440,"stv_port":27046,"stv_name":"Uncletopia | Chicago | 4 | All Maps | STV","players":[{"user_id":185,"name":"the wutville lawyer","steam_id":76561198257531708,"connected_time":1274000000000,"state":"active","ping":60},{"user_id":157,"name":"pablo.gonzales.2007","steam_id":76561198955004070,"connected_time":3027000000000,"state":"active","ping":52},{"user_id":183,"name":"Magnet Dood","steam_id":76561198364178746,"connected_time":1536000000000,"state":"active","ping":51},{"user_id":186,"name":"Wutville Bodyguard","steam_id":76561198255308126,"connected_time":1247000000000,"state":"active","ping":74},{"user_id":143,"name":"Johnny Esports","steam_id":76561198115812405,"connected_time":4068000000000,"state":"active","ping":72},{"user_id":169,"name":"Ziggy Q","steam_id":76561197995360978,"connected_time":2677000000000,"state":"active","ping":61},{"user_id":184,"name":"gyozaking","steam_id":76561197972312696,"connected_time":1319000000000,"state":"active","ping":54},{"user_id":168,"name":"iceball3","steam_id":76561198012040375,"connected_time":2698000000000,"state":"active","ping":101},{"user_id":172,"name":"Hero8171","steam_id":76561199239824271,"connected_time":2650000000000,"state":"active","ping":55},{"user_id":148,"name":"Nexusuxen","steam_id":76561198117547131,"connected_time":3953000000000,"state":"active","ping":66},{"user_id":187,"name":"Wutville Mayor","steam_id":76561198189644089,"connected_time":1232000000000,"state":"active","ping":51},{"user_id":188,"name":"Maxxycat","steam_id":76561198194062681,"connected_time":1211000000000,"state":"active","ping":63},{"user_id":189,"name":"Elizabeth truss","steam_id":76561198058250979,"connected_time":1208000000000,"state":"active","ping":61},{"user_id":176,"name":"Andrestor","steam_id":76561198005934930,"connected_time":2506000000000,"state":"active","ping":128},{"user_id":160,"name":"DORATHEEXPLORER","steam_id":76561198124773931,"connected_time":3002000000000,"state":"active","ping":107},{"user_id":132,"name":"motorized bar of soap","steam_id":76561198882404753,"connected_time":4569000000000,"state":"active","ping":78},{"user_id":195,"name":"FrostStorm","steam_id":76561198142685151,"connected_time":804000000000,"state":"active","ping":63},{"user_id":175,"name":"flarp (Naxen)","steam_id":76561198238525296,"connected_time":2546000000000,"state":"active","ping":61},{"user_id":180,"name":"dramboney","steam_id":76561199068500959,"connected_time":1657000000000,"state":"active","ping":74},{"user_id":196,"name":"Spike","steam_id":76561198141356571,"connected_time":341000000000,"state":"active","ping":64},{"user_id":198,"name":"Rein","steam_id":76561198300340427,"connected_time":76000000000,"state":"active","ping":66},{"user_id":191,"name":"extinct111","steam_id":76561199013696367,"connected_time":1190000000000,"state":"active","ping":65},{"user_id":192,"name":"Wso1123","steam_id":76561198048040111,"connected_time":1103000000000,"state":"active","ping":68},{"user_id":155,"name":"Wally The Fukn Walrus","steam_id":76561198019034045,"connected_time":3735000000000,"state":"active","ping":61}]},{"server_id":36,"name":"Uncletopia | Chicago | 5 | All Maps","name_short":"chi-5","host":"chi-2.us.uncletopia.com","port":27015,"enabled":true,"region":"us-central","cc":"us","latitude":41.881832,"longitude":-87.62318,"reserved":0,"last_update":"0001-01-01T00:00:00Z","name_a2s":"Uncletopia | Chicago | 5 | All Maps","protocol":17,"map":"pl_frontier_final","folder":"tf","game":"Team Fortress","app_id":440,"player_count":24,"max_players":24,"Bots":0,"server_type":"Dedicated","server_os":"Linux","password":true,"vac":true,"version":"7708610","steam_id":85568392924866362,"keywords":["nocrits","nodmgspread","payload","uncletopia"],"game_id":440,"stv_port":27016,"stv_name":"Uncletopia | Chicago | 5 | All Maps | STV","players":[{"user_id":486,"name":"goggothy","steam_id":76561198428033086,"connected_time":309000000000,"state":"active","ping":37},{"user_id":484,"name":"Provoked","steam_id":76561198826820952,"connected_time":476000000000,"state":"active","ping":60},{"user_id":475,"name":"komi","steam_id":76561198321442747,"connected_time":1358000000000,"state":"active","ping":69},{"user_id":458,"name":"A Duck Phone!?","steam_id":76561198044707749,"connected_time":2240000000000,"state":"active","ping":59},{"user_id":496,"name":"(0_0) oops","steam_id":76561199212017700,"connected_time":90000000000,"state":"active","ping":43},{"user_id":487,"name":"The Assistant Regional Manager","steam_id":76561199221484936,"connected_time":308000000000,"state":"active","ping":108},{"user_id":452,"name":"Ford Truck Gaming","steam_id":76561199042674833,"connected_time":2592000000000,"state":"active","ping":83},{"user_id":497,"name":"Verathragna","steam_id":76561198067215453,"connected_time":78000000000,"state":"active","ping":65},{"user_id":482,"name":"spectre","steam_id":76561197964657841,"connected_time":604000000000,"state":"active","ping":79},{"user_id":394,"name":"jolo","steam_id":76561198042831480,"connected_time":7666000000000,"state":"active","ping":70},{"user_id":465,"name":"mudturtle","steam_id":76561198292734035,"connected_time":1915000000000,"state":"active","ping":64},{"user_id":488,"name":"gonk","steam_id":76561198061206732,"connected_time":301000000000,"state":"active","ping":96},{"user_id":498,"name":"Chad","steam_id":76561198007048233,"connected_time":76000000000,"state":"active","ping":90},{"user_id":490,"name":"the biggest boy","steam_id":76561198061768122,"connected_time":223000000000,"state":"active","ping":68},{"user_id":471,"name":"Pancreas Enjoyer","steam_id":76561199438598904,"connected_time":1610000000000,"state":"active","ping":85},{"user_id":491,"name":"Bepo","steam_id":76561198842072671,"connected_time":216000000000,"state":"active","ping":41},{"user_id":492,"name":"sensitive mothefucker","steam_id":76561198110314362,"connected_time":185000000000,"state":"active","ping":56},{"user_id":468,"name":"Zelumie","steam_id":76561198147335801,"connected_time":1827000000000,"state":"active","ping":57},{"user_id":485,"name":"FrostyFrontier","steam_id":76561198370530394,"connected_time":467000000000,"state":"active","ping":59},{"user_id":494,"name":"Florence Jenkins","steam_id":76561198023894049,"connected_time":165000000000,"state":"active","ping":104},{"user_id":395,"name":"workin for snapple","steam_id":76561198013732450,"connected_time":7175000000000,"state":"active","ping":56},{"user_id":479,"name":"Motreir","steam_id":76561198151717946,"connected_time":914000000000,"state":"active","ping":86},{"user_id":499,"name":"Johnny Lawrence #JohnnyMaxxing","steam_id":76561199367141671,"connected_time":48000000000,"state":"active","ping":68},{"user_id":500,"name":"Marc G","steam_id":76561198062650363,"connected_time":44000000000,"state":"active","ping":73}]},{"server_id":37,"name":"Uncletopia | Chicago | 6 | All Maps","name_short":"chi-6","host":"chi-2.us.uncletopia.com","port":27025,"enabled":true,"region":"us-central","cc":"us","latitude":41.881832,"longitude":-87.62318,"reserved":0,"last_update":"0001-01-01T00:00:00Z","name_a2s":"Uncletopia | Chicago | 6 | All Maps","protocol":17,"map":"pl_pier","folder":"tf","game":"Team Fortress","app_id":440,"player_count":0,"max_players":24,"Bots":0,"server_type":"Dedicated","server_os":"Linux","password":true,"vac":true,"version":"7708610","steam_id":85568392924866363,"keywords":["nocrits","nodmgspread","payload","uncletopia"],"game_id":440,"stv_port":27026,"stv_name":"Uncletopia | Chicago | 6 | All Maps | STV","players":null},{"server_id":38,"name":"Uncletopia | Chicago | 7 | No Payload","name_short":"chi-7","host":"chi-2.us.uncletopia.com","port":27035,"enabled":true,"region":"us-central","cc":"us","latitude":41.881832,"longitude":-87.62318,"reserved":0,"last_update":"0001-01-01T00:00:00Z","name_a2s":"Uncletopia | Chicago | 7 | No Payload","protocol":17,"map":"koth_viaduct","folder":"tf","game":"Team Fortress","app_id":440,"player_count":0,"max_players":24,"Bots":0,"server_type":"Dedicated","server_os":"Linux","password":true,"vac":true,"version":"7708610","steam_id":85568392924866364,"keywords":["cp","nocrits","nodmgspread","uncletopia"],"game_id":440,"stv_port":0,"stv_name":"","players":null},{"server_id":39,"name":"Uncletopia | Chicago | 8 | Community","name_short":"chi-8","host":"chi-2.us.uncletopia.com","port":27045,"enabled":true,"region":"us-central","cc":"us","latitude":41.881832,"longitude":-87.62318,"reserved":0,"last_update":"0001-01-01T00:00:00Z","name_a2s":"Uncletopia | Chicago | 8 | Community","protocol":17,"map":"workshop/koth_slaughter_rc1.ugc1712845210","folder":"tf","game":"Team Fortress","app_id":440,"player_count":0,"max_players":24,"Bots":0,"server_type":"Dedicated","server_os":"Linux","password":true,"vac":true,"version":"7708610","steam_id":85568392924866365,"keywords":["cp","nocrits","nodmgspread","uncletopia"],"game_id":440,"stv_port":27046,"stv_name":"Uncletopia | Chicago | 8 | Community | STV","players":null},{"server_id":8,"name":"Uncletopia | Dallas | 1 | All Maps","name_short":"dal-1","host":"dal-1.us.uncletopia.com","port":27015,"enabled":true,"region":"us-central","cc":"us","latitude":32.779167,"longitude":-96.80889,"reserved":0,"last_update":"0001-01-01T00:00:00Z","name_a2s":"Uncletopia | Dallas | 1 | All Maps","protocol":17,"map":"koth_nucleus","folder":"tf","game":"Team Fortress","app_id":440,"player_count":17,"max_players":24,"Bots":0,"server_type":"Dedicated","server_os":"Linux","password":true,"vac":true,"version":"7708610","steam_id":85568392924469986,"keywords":["cp","nocrits","nodmgspread","uncletopia"],"game_id":440,"stv_port":27016,"stv_name":"Uncletopia | Dallas | 1 | All Maps | STV","players":[{"user_id":303,"name":".BL14","steam_id":76561198374604922,"connected_time":126000000000,"state":"active","ping":43},{"user_id":120,"name":"DRI","steam_id":76561198157076858,"connected_time":11565000000000,"state":"active","ping":83},{"user_id":190,"name":"Crusty Demons [REAL]","steam_id":76561198094620058,"connected_time":6361000000000,"state":"active","ping":42},{"user_id":278,"name":"HEX:RATIO","steam_id":76561199168548997,"connected_time":1472000000000,"state":"active","ping":55},{"user_id":300,"name":"Ngsterson","steam_id":76561198162108154,"connected_time":404000000000,"state":"active","ping":95},{"user_id":247,"name":"Foxyz","steam_id":76561198040642992,"connected_time":2995000000000,"state":"active","ping":172},{"user_id":293,"name":"A Gamer [F2P]","steam_id":76561198138712892,"connected_time":1030000000000,"state":"active","ping":37},{"user_id":289,"name":"Vongamer89091","steam_id":76561199135670626,"connected_time":1164000000000,"state":"active","ping":65},{"user_id":295,"name":"Goofball","steam_id":76561198061211537,"connected_time":900000000000,"state":"active","ping":75},{"user_id":299,"name":"Genius Meme","steam_id":76561198162911254,"connected_time":445000000000,"state":"active","ping":79},{"user_id":251,"name":"¿skitt1eS?","steam_id":76561198330093211,"connected_time":2892000000000,"state":"active","ping":58},{"user_id":301,"name":"Depression Generator","steam_id":76561199027576969,"connected_time":393000000000,"state":"active","ping":161},{"user_id":291,"name":"PersonMan","steam_id":76561198153426326,"connected_time":1065000000000,"state":"active","ping":106},{"user_id":272,"name":"8Z","steam_id":76561198027025876,"connected_time":1987000000000,"state":"active","ping":68},{"user_id":276,"name":"Kamin","steam_id":76561198255299559,"connected_time":1745000000000,"state":"active","ping":58},{"user_id":220,"name":"Stillkill","steam_id":76561198065069057,"connected_time":4873000000000,"state":"active","ping":30},{"user_id":261,"name":"sora","steam_id":76561198094256973,"connected_time":2709000000000,"state":"active","ping":91}]},{"server_id":108,"name":"Uncletopia | Dallas | 2 | All Maps","name_short":"dal-2","host":"dal-1.us.uncletopia.com","port":27025,"enabled":true,"region":"us-central","cc":"us","latitude":32.779167,"longitude":-96.80889,"reserved":0,"last_update":"0001-01-01T00:00:00Z","name_a2s":"Uncletopia | Dallas | 2 | All Maps","protocol":17,"map":"cp_sunshine","folder":"tf","game":"Team Fortress","app_id":440,"player_count":24,"max_players":24,"Bots":0,"server_type":"Dedicated","server_os":"Linux","password":true,"vac":true,"version":"7708610","steam_id":85568392924469988,"keywords":["cp","nocrits","nodmgspread","uncletopia"],"game_id":440,"stv_port":27026,"stv_name":"Uncletopia | Dallas | 2 | All Maps | STV","players":[{"user_id":182,"name":"corygaming","steam_id":76561198035669409,"connected_time":9662000000000,"state":"active","ping":115},{"user_id":183,"name":"squishy","steam_id":76561198015034116,"connected_time":9660000000000,"state":"active","ping":74},{"user_id":313,"name":"Humon Player","steam_id":76561198013593178,"connected_time":41000000000,"state":"active","ping":57},{"user_id":307,"name":"Sp00ky7953","steam_id":76561199229782599,"connected_time":381000000000,"state":"active","ping":102},{"user_id":273,"name":"LuciD","steam_id":76561198242842394,"connected_time":3497000000000,"state":"active","ping":101},{"user_id":269,"name":"PURPLE","steam_id":76561198179838346,"connected_time":3967000000000,"state":"active","ping":88},{"user_id":261,"name":"Pills","steam_id":76561198799440163,"connected_time":4182000000000,"state":"active","ping":111},{"user_id":184,"name":"Yayifications","steam_id":76561198066227208,"connected_time":9657000000000,"state":"active","ping":73},{"user_id":291,"name":"TheGrassMan (He/Him)","steam_id":76561198118984048,"connected_time":1945000000000,"state":"active","ping":84},{"user_id":288,"name":"maximusbabaximus","steam_id":76561198419378913,"connected_time":1973000000000,"state":"active","ping":102},{"user_id":293,"name":"Oak","steam_id":76561198092135570,"connected_time":1672000000000,"state":"active","ping":47},{"user_id":298,"name":"Jamie Hyneman","steam_id":76561199196036481,"connected_time":859000000000,"state":"active","ping":61},{"user_id":305,"name":"Nathan Loves You","steam_id":76561198047371790,"connected_time":741000000000,"state":"active","ping":101},{"user_id":300,"name":"pukey","steam_id":76561198125961489,"connected_time":839000000000,"state":"active","ping":88},{"user_id":301,"name":"Flaboogle","steam_id":76561198046943311,"connected_time":835000000000,"state":"active","ping":81},{"user_id":297,"name":"flu walrus","steam_id":76561198207940136,"connected_time":1188000000000,"state":"active","ping":57},{"user_id":302,"name":"Collin","steam_id":76561198341399913,"connected_time":795000000000,"state":"active","ping":83},{"user_id":303,"name":"BrothrBoil","steam_id":76561197999131776,"connected_time":779000000000,"state":"active","ping":88},{"user_id":267,"name":"Willy","steam_id":76561199240618325,"connected_time":4004000000000,"state":"active","ping":79},{"user_id":311,"name":"craxytavi","steam_id":76561198050192689,"connected_time":147000000000,"state":"active","ping":86},{"user_id":312,"name":"kloo_","steam_id":76561199090218013,"connected_time":124000000000,"state":"active","ping":64},{"user_id":306,"name":"Shotty Man","steam_id":76561198175255334,"connected_time":563000000000,"state":"active","ping":41},{"user_id":304,"name":"Johnny Biscotti","steam_id":76561198000566598,"connected_time":772000000000,"state":"active","ping":145},{"user_id":296,"name":"✷sρяιnкlєѕ✷","steam_id":76561198055388785,"connected_time":1353000000000,"state":"active","ping":87}]},{"server_id":5,"name":"Uncletopia | Frankfurt | 1 | All Maps","name_short":"frk-1","host":"frk-1.de.uncletopia.com","port":27015,"enabled":true,"region":"eu","cc":"de","latitude":50.110924,"longitude":8.682127,"reserved":0,"last_update":"0001-01-01T00:00:00Z","name_a2s":"Uncletopia | Frankfurt | 1 | All Maps","protocol":17,"map":"cp_sunshine","folder":"tf","game":"Team Fortress","app_id":440,"player_count":0,"max_players":24,"Bots":0,"server_type":"Dedicated","server_os":"Linux","password":true,"vac":true,"version":"7708610","steam_id":85568392924469989,"keywords":["cp","nocrits","nodmgspread","uncletopia"],"game_id":440,"stv_port":27016,"stv_name":"Uncletopia | Frankfurt | 1 | All Maps | STV","players":null},{"server_id":110,"name":"Uncletopia | Frankfurt | 2 | All Maps","name_short":"frk-2","host":"frk-1.de.uncletopia.com","port":27025,"enabled":true,"region":"eu","cc":"de","latitude":50.110924,"longitude":8.682127,"reserved":0,"last_update":"0001-01-01T00:00:00Z","name_a2s":"Uncletopia | Frankfurt | 2 | All Maps","protocol":17,"map":"koth_cascade","folder":"tf","game":"Team Fortress","app_id":440,"player_count":0,"max_players":24,"Bots":0,"server_type":"Dedicated","server_os":"Linux","password":true,"vac":true,"version":"7708610","steam_id":85568392924469990,"keywords":["cp","nocrits","nodmgspread","uncletopia"],"game_id":440,"stv_port":27026,"stv_name":"Uncletopia | Frankfurt | 2 | All Maps | STV","players":null},{"server_id":308,"name":"Uncletopia | Frankfurt | 3 | All Maps","name_short":"frk-3","host":"frk-1.de.uncletopia.com","port":27035,"enabled":true,"region":"eu","cc":"de","latitude":50.110924,"longitude":8.682127,"reserved":0,"last_update":"0001-01-01T00:00:00Z","name_a2s":"Uncletopia | Frankfurt | 3 | All Maps","protocol":17,"map":"koth_highpass","folder":"tf","game":"Team Fortress","app_id":440,"player_count":0,"max_players":24,"Bots":0,"server_type":"Dedicated","server_os":"Linux","password":true,"vac":true,"version":"7708610","steam_id":85568392924504274,"keywords":["cp","nocrits","nodmgspread","uncletopia"],"game_id":440,"stv_port":27036,"stv_name":"Uncletopia | Frankfurt | 3 | All Maps | STV","players":null},{"server_id":309,"name":"Uncletopia | Frankfurt | 4 | All Maps","name_short":"frk-4","host":"frk-1.de.uncletopia.com","port":27045,"enabled":true,"region":"eu","cc":"de","latitude":50.110924,"longitude":8.682127,"reserved":0,"last_update":"0001-01-01T00:00:00Z","name_a2s":"Uncletopia | Frankfurt | 4 | All Maps","protocol":17,"map":"cp_snakewater_final1","folder":"tf","game":"Team Fortress","app_id":440,"player_count":0,"max_players":24,"Bots":0,"server_type":"Dedicated","server_os":"Linux","password":true,"vac":true,"version":"7708610","steam_id":85568392924504275,"keywords":["cp","nocrits","nodmgspread","uncletopia"],"game_id":440,"stv_port":27046,"stv_name":"Uncletopia | Frankfurt | 4 | All Maps | STV","players":null},{"server_id":310,"name":"Uncletopia | Frankfurt | 5 | All Maps","name_short":"frk-5","host":"frk-1.de.uncletopia.com","port":27055,"enabled":true,"region":"eu","cc":"de","latitude":50.110924,"longitude":8.682127,"reserved":0,"last_update":"0001-01-01T00:00:00Z","name_a2s":"Uncletopia | Frankfurt | 5 | All Maps","protocol":17,"map":"koth_lakeside_final","folder":"tf","game":"Team Fortress","app_id":440,"player_count":0,"max_players":24,"Bots":0,"server_type":"Dedicated","server_os":"Linux","password":true,"vac":true,"version":"7708610","steam_id":85568392924504277,"keywords":["cp","nocrits","nodmgspread","uncletopia"],"game_id":440,"stv_port":27056,"stv_name":"Uncletopia | Frankfurt | 5 | All Maps | STV","players":null},{"server_id":311,"name":"Uncletopia | Frankfurt | 6 | All Maps","name_short":"frk-6","host":"frk-1.de.uncletopia.com","port":27065,"enabled":true,"region":"eu","cc":"de","latitude":50.110924,"longitude":8.682127,"reserved":0,"last_update":"0001-01-01T00:00:00Z","name_a2s":"Uncletopia | Frankfurt | 6 | All Maps","protocol":17,"map":"koth_lakeside_final","folder":"tf","game":"Team Fortress","app_id":440,"player_count":0,"max_players":24,"Bots":0,"server_type":"Dedicated","server_os":"Linux","password":true,"vac":true,"version":"7708610","steam_id":85568392924504278,"keywords":["cp","nocrits","nodmgspread","uncletopia"],"game_id":440,"stv_port":27066,"stv_name":"Uncletopia | Frankfurt | 6 | All Maps | STV","players":null},{"server_id":23,"name":"Uncletopia | Frankfurt | 7 | No Payload","name_short":"frk-7","host":"frk-1.de.uncletopia.com","port":27075,"enabled":true,"region":"eu","cc":"de","latitude":50.110924,"longitude":8.682127,"reserved":0,"last_update":"0001-01-01T00:00:00Z","name_a2s":"Uncletopia | Frankfurt | 7 | No Payload","protocol":17,"map":"cp_granary","folder":"tf","game":"Team Fortress","app_id":440,"player_count":0,"max_players":24,"Bots":0,"server_type":"Dedicated","server_os":"Linux","password":true,"vac":true,"version":"7708610","steam_id":85568392924742827,"keywords":["cp","nocrits","nodmgspread","uncletopia"],"game_id":440,"stv_port":27076,"stv_name":"Uncletopia | Frankfurt | 7 | No Payload | STV","players":null},{"server_id":24,"name":"Uncletopia | Frankfurt | 8 | Community","name_short":"frk-8","host":"frk-1.de.uncletopia.com","port":27085,"enabled":true,"region":"eu","cc":"de","latitude":50.110924,"longitude":8.682127,"reserved":0,"last_update":"0001-01-01T00:00:00Z","name_a2s":"Uncletopia | Frankfurt | 8 | Community","protocol":17,"map":"workshop/koth_ramjam_v2_b2.ugc2865676487","folder":"tf","game":"Team Fortress","app_id":440,"player_count":0,"max_players":24,"Bots":0,"server_type":"Dedicated","server_os":"Linux","password":true,"vac":true,"version":"7708610","steam_id":85568392924742828,"keywords":["cp","nocrits","nodmgspread","uncletopia"],"game_id":440,"stv_port":27086,"stv_name":"Uncletopia | Frankfurt | 8 | Community | STV","players":null},{"server_id":202,"name":"Uncletopia | Hong Kong | 1 | All Maps","name_short":"hgk-1","host":"hgk-1.hk.uncletopia.com","port":27015,"enabled":true,"region":"asia","cc":"hk","latitude":22.302711,"longitude":114.177216,"reserved":0,"last_update":"0001-01-01T00:00:00Z","name_a2s":"Uncletopia | Hong Kong | 1 | All Maps","protocol":17,"map":"pl_badwater","folder":"tf","game":"Team Fortress","app_id":440,"player_count":10,"max_players":24,"Bots":0,"server_type":"Dedicated","server_os":"Linux","password":true,"vac":true,"version":"7708610","steam_id":85568392924494504,"keywords":["nocrits","nodmgspread","payload","uncletopia"],"game_id":440,"stv_port":27016,"stv_name":"Uncletopia | Hong Kong | 1 | All Maps | STV","players":[{"user_id":32,"name":"screaming sniper","steam_id":76561199085568674,"connected_time":65000000000,"state":"active","ping":51},{"user_id":19,"name":"Banagi [F2P]","steam_id":76561199373908273,"connected_time":1225000000000,"state":"active","ping":73},{"user_id":30,"name":"non_4","steam_id":76561198283054036,"connected_time":129000000000,"state":"active","ping":69},{"user_id":23,"name":"existix","steam_id":76561199171636601,"connected_time":780000000000,"state":"active","ping":57},{"user_id":25,"name":"themadlad67","steam_id":76561199309554436,"connected_time":657000000000,"state":"active","ping":223},{"user_id":26,"name":"Crit-A-Cola Fan","steam_id":76561198836956034,"connected_time":620000000000,"state":"active","ping":73},{"user_id":27,"name":"TomProPlayer","steam_id":76561199223292521,"connected_time":506000000000,"state":"active","ping":65},{"user_id":28,"name":"Violezine","steam_id":76561199000502615,"connected_time":442000000000,"state":"active","ping":75},{"user_id":31,"name":"Wx","steam_id":76561199217780897,"connected_time":109000000000,"state":"active","ping":62},{"user_id":33,"name":"quack","steam_id":76561198258934120,"connected_time":30000000000,"state":"active","ping":62}]},{"server_id":1,"name":"Uncletopia | Los Angeles | 1 | All Maps","name_short":"lax-1","host":"lax-1.us.uncletopia.com","port":27015,"enabled":true,"region":"us-west","cc":"us","latitude":33.94279,"longitude":-118.41004,"reserved":0,"last_update":"0001-01-01T00:00:00Z","name_a2s":"Uncletopia | Los Angeles | 1 | All Maps","protocol":17,"map":"koth_cascade","folder":"tf","game":"Team Fortress","app_id":440,"player_count":0,"max_players":24,"Bots":0,"server_type":"Dedicated","server_os":"Linux","password":true,"vac":true,"version":"7708610","steam_id":85568392924469991,"keywords":["cp","nocrits","nodmgspread","uncletopia"],"game_id":440,"stv_port":27016,"stv_name":"Uncletopia | Los Angeles | 1 | All Maps | STV","players":null},{"server_id":112,"name":"Uncletopia | Los Angeles | 2 | All Maps","name_short":"lax-2","host":"lax-1.us.uncletopia.com","port":27025,"enabled":true,"region":"us-west","cc":"us","latitude":33.94279,"longitude":-118.41004,"reserved":0,"last_update":"0001-01-01T00:00:00Z","name_a2s":"Uncletopia | Los Angeles | 2 | All Maps","protocol":17,"map":"pl_badwater","folder":"tf","game":"Team Fortress","app_id":440,"player_count":24,"max_players":24,"Bots":0,"server_type":"Dedicated","server_os":"Linux","password":true,"vac":true,"version":"7708610","steam_id":85568392924469992,"keywords":["nocrits","nodmgspread","payload","uncletopia"],"game_id":440,"stv_port":27026,"stv_name":"Uncletopia | Los Angeles | 2 | All Maps | STV","players":[{"user_id":71,"name":"paypur -rng","steam_id":76561198214370515,"connected_time":492000000000,"state":"active","ping":106},{"user_id":42,"name":"HeroOfTime","steam_id":76561199096218001,"connected_time":1821000000000,"state":"active","ping":52},{"user_id":69,"name":"Riboflavin","steam_id":76561198077328593,"connected_time":539000000000,"state":"active","ping":89},{"user_id":67,"name":"ldr","steam_id":76561198151135298,"connected_time":665000000000,"state":"active","ping":43},{"user_id":64,"name":"firestabber","steam_id":76561198057055577,"connected_time":721000000000,"state":"active","ping":84},{"user_id":57,"name":"Breasticle Gaming","steam_id":76561198081765494,"connected_time":1162000000000,"state":"active","ping":71},{"user_id":72,"name":"Frongus","steam_id":76561197979056451,"connected_time":486000000000,"state":"active","ping":68},{"user_id":56,"name":"Jon Irenicus","steam_id":76561197986551592,"connected_time":1215000000000,"state":"active","ping":109},{"user_id":58,"name":"NeenerzFon","steam_id":76561198080876204,"connected_time":1142000000000,"state":"active","ping":488},{"user_id":61,"name":"Rappsnitchknish","steam_id":76561198080935428,"connected_time":753000000000,"state":"active","ping":52},{"user_id":55,"name":"Avem","steam_id":76561198058763710,"connected_time":1272000000000,"state":"active","ping":46},{"user_id":70,"name":"Syringe Gun","steam_id":76561198032361889,"connected_time":534000000000,"state":"active","ping":57},{"user_id":77,"name":"video games","steam_id":76561198334059206,"connected_time":15000000000,"state":"spawning","ping":68},{"user_id":27,"name":"Plasic74x","steam_id":76561199058981206,"connected_time":2347000000000,"state":"active","ping":80},{"user_id":29,"name":"I'm sorry in advance","steam_id":76561198087380785,"connected_time":2321000000000,"state":"active","ping":57},{"user_id":52,"name":"Bauhaus","steam_id":76561198318126190,"connected_time":1569000000000,"state":"active","ping":161},{"user_id":31,"name":"[DATS➡] Sugar Meowth","steam_id":76561197995251793,"connected_time":2291000000000,"state":"active","ping":75},{"user_id":32,"name":"Shitty_Wizard","steam_id":76561198047889979,"connected_time":2282000000000,"state":"active","ping":85},{"user_id":33,"name":"Blackbeard","steam_id":76561198046952265,"connected_time":2280000000000,"state":"active","ping":74},{"user_id":34,"name":"GameGuru the Green Gryphon","steam_id":76561198118495354,"connected_time":2257000000000,"state":"active","ping":59},{"user_id":49,"name":"{ᴛʀ_ᴄᴇʀᴘ} shullers","steam_id":76561198889997809,"connected_time":1598000000000,"state":"active","ping":45},{"user_id":53,"name":"ElShaggy","steam_id":76561198148870214,"connected_time":1463000000000,"state":"active","ping":54},{"user_id":76,"name":"supcupman","steam_id":76561198051513866,"connected_time":248000000000,"state":"active","ping":67},{"user_id":60,"name":"radio","steam_id":76561198010226481,"connected_time":1023000000000,"state":"active","ping":52}]},{"server_id":324,"name":"Uncletopia | Los Angeles | 3 | All Maps","name_short":"lax-3","host":"lax-1.us.uncletopia.com","port":27035,"enabled":true,"region":"us-west","cc":"us","latitude":33.94279,"longitude":-118.41004,"reserved":0,"last_update":"0001-01-01T00:00:00Z","name_a2s":"Uncletopia | Los Angeles | 3 | All Maps","protocol":17,"map":"koth_highpass","folder":"tf","game":"Team Fortress","app_id":440,"player_count":0,"max_players":24,"Bots":0,"server_type":"Dedicated","server_os":"Linux","password":true,"vac":true,"version":"7708610","steam_id":85568392924510198,"keywords":["cp","nocrits","nodmgspread","uncletopia"],"game_id":440,"stv_port":27036,"stv_name":"Uncletopia | Los Angeles | 3 | All Maps | STV","players":null},{"server_id":25,"name":"Uncletopia | Los Angeles | 4 | No Payload","name_short":"lax-4","host":"lax-1.us.uncletopia.com","port":27045,"enabled":true,"region":"us-west","cc":"us","latitude":33.94279,"longitude":-118.41004,"reserved":0,"last_update":"0001-01-01T00:00:00Z","name_a2s":"Uncletopia | Los Angeles | 4 | No Payload","protocol":17,"map":"koth_lazarus","folder":"tf","game":"Team Fortress","app_id":440,"player_count":0,"max_players":24,"Bots":0,"server_type":"Dedicated","server_os":"Linux","password":true,"vac":true,"version":"7708610","steam_id":85568392924510199,"keywords":["cp","nocrits","nodmgspread","uncletopia"],"game_id":440,"stv_port":27046,"stv_name":"Uncletopia | Los Angeles | 4 | No Payload | STV","players":null},{"server_id":11,"name":"Uncletopia | London | 1 | All Maps","name_short":"lon-1","host":"lon-1.uk.uncletopia.com","port":27015,"enabled":true,"region":"eu","cc":"gb","latitude":51.509865,"longitude":-0.118092,"reserved":0,"last_update":"0001-01-01T00:00:00Z","name_a2s":"Uncletopia | London | 1 | All Maps","protocol":17,"map":"pl_pier","folder":"tf","game":"Team Fortress","app_id":440,"player_count":0,"max_players":24,"Bots":0,"server_type":"Dedicated","server_os":"Linux","password":true,"vac":true,"version":"7708610","steam_id":85568392924367362,"keywords":["nocrits","nodmgspread","payload","uncletopia"],"game_id":440,"stv_port":27016,"stv_name":"Uncletopia | London | 1 | All Maps | STV","players":null},{"server_id":114,"name":"Uncletopia | London | 2 | All Maps","name_short":"lon-2","host":"lon-1.uk.uncletopia.com","port":27025,"enabled":true,"region":"eu","cc":"gb","latitude":51.509865,"longitude":-0.118092,"reserved":0,"last_update":"0001-01-01T00:00:00Z","name_a2s":"Uncletopia | London | 2 | All Maps","protocol":17,"map":"cp_snakewater_final1","folder":"tf","game":"Team Fortress","app_id":440,"player_count":0,"max_players":24,"Bots":0,"server_type":"Dedicated","server_os":"Linux","password":true,"vac":true,"version":"7708610","steam_id":85568392924470941,"keywords":["cp","nocrits","nodmgspread","uncletopia"],"game_id":440,"stv_port":27026,"stv_name":"Uncletopia | London | 2 | All Maps | STV","players":null},{"server_id":320,"name":"Uncletopia | London | 3 | All Maps","name_short":"lon-3","host":"lon-1.uk.uncletopia.com","port":27035,"enabled":true,"region":"eu","cc":"gb","latitude":51.509865,"longitude":-0.118092,"reserved":0,"last_update":"0001-01-01T00:00:00Z","name_a2s":"Uncletopia | London | 3 | All Maps","protocol":17,"map":"cp_sunshine","folder":"tf","game":"Team Fortress","app_id":440,"player_count":0,"max_players":24,"Bots":0,"server_type":"Dedicated","server_os":"Linux","password":true,"vac":true,"version":"7708610","steam_id":85568392924510192,"keywords":["cp","nocrits","nodmgspread","uncletopia"],"game_id":440,"stv_port":27036,"stv_name":"Uncletopia | London | 3 | All Maps | STV","players":null},{"server_id":321,"name":"Uncletopia | London | 4 | All Maps","name_short":"lon-4","host":"lon-1.uk.uncletopia.com","port":27045,"enabled":true,"region":"eu","cc":"gb","latitude":51.509865,"longitude":-0.118092,"reserved":0,"last_update":"0001-01-01T00:00:00Z","name_a2s":"Uncletopia | London | 4 | All Maps","protocol":17,"map":"cp_sunshine","folder":"tf","game":"Team Fortress","app_id":440,"player_count":0,"max_players":24,"Bots":0,"server_type":"Dedicated","server_os":"Linux","password":true,"vac":true,"version":"7708610","steam_id":85568392924510193,"keywords":["cp","nocrits","nodmgspread","uncletopia"],"game_id":440,"stv_port":27046,"stv_name":"Uncletopia | London | 4 | All Maps | STV","players":null},{"server_id":21,"name":"Uncletopia | London | 5 | All Maps","name_short":"lon-5","host":"lon-1.uk.uncletopia.com","port":27055,"enabled":true,"region":"eu","cc":"gb","latitude":51.509865,"longitude":-0.118092,"reserved":0,"last_update":"0001-01-01T00:00:00Z","name_a2s":"Uncletopia | London | 5 | All Maps","protocol":17,"map":"koth_lakeside_final","folder":"tf","game":"Team Fortress","app_id":440,"player_count":0,"max_players":24,"Bots":0,"server_type":"Dedicated","server_os":"Linux","password":true,"vac":true,"version":"7708610","steam_id":85568392924742829,"keywords":["cp","nocrits","nodmgspread","uncletopia"],"game_id":440,"stv_port":0,"stv_name":"","players":null},{"server_id":22,"name":"Uncletopia | London | 6 | All Maps","name_short":"lon-6","host":"lon-1.uk.uncletopia.com","port":27065,"enabled":true,"region":"eu","cc":"gb","latitude":51.509865,"longitude":-0.118092,"reserved":0,"last_update":"0001-01-01T00:00:00Z","name_a2s":"Uncletopia | London | 6 | All Maps","protocol":17,"map":"cp_snakewater_final1","folder":"tf","game":"Team Fortress","app_id":440,"player_count":0,"max_players":24,"Bots":0,"server_type":"Dedicated","server_os":"Linux","password":true,"vac":true,"version":"7708610","steam_id":85568392924742830,"keywords":["cp","nocrits","nodmgspread","uncletopia"],"game_id":440,"stv_port":27066,"stv_name":"Uncletopia | London | 6 | All Maps | STV","players":null},{"server_id":40,"name":"Uncletopia | London | 7 | No Payload","name_short":"lon-7","host":"lon-1.uk.uncletopia.com","port":27075,"enabled":true,"region":"eu","cc":"gb","latitude":51.509865,"longitude":-0.118092,"reserved":0,"last_update":"0001-01-01T00:00:00Z","name_a2s":"Uncletopia | London | 7 | No Payload","protocol":17,"map":"plr_hightower","folder":"tf","game":"Team Fortress","app_id":440,"player_count":0,"max_players":24,"Bots":0,"server_type":"Dedicated","server_os":"Linux","password":true,"vac":true,"version":"7708610","steam_id":85568392924964314,"keywords":["nocrits","nodmgspread","payload","uncletopia"],"game_id":440,"stv_port":27076,"stv_name":"Uncletopia | London | 7 | No Payload | STV","players":null},{"server_id":41,"name":"Uncletopia | London | 8 | Community","name_short":"lon-8","host":"lon-1.uk.uncletopia.com","port":27085,"enabled":true,"region":"eu","cc":"gb","latitude":51.509865,"longitude":-0.118092,"reserved":0,"last_update":"0001-01-01T00:00:00Z","name_a2s":"Uncletopia | London | 8 | Community","protocol":17,"map":"workshop/cp_reckoner_rc6.ugc674719999","folder":"tf","game":"Team Fortress","app_id":440,"player_count":0,"max_players":24,"Bots":0,"server_type":"Dedicated","server_os":"Linux","password":true,"vac":true,"version":"7708610","steam_id":85568392924964315,"keywords":["cp","nocrits","nodmgspread","uncletopia"],"game_id":440,"stv_port":27086,"stv_name":"Uncletopia | London | 8 | Community | STV","players":null},{"server_id":300,"name":"Uncletopia | Montréal | 1 | All Maps","name_short":"mtl-1","host":"mtl-1.ca.uncletopia.com","port":27015,"enabled":true,"region":"us-east","cc":"ca","latitude":45.50889,"longitude":-73.56167,"reserved":0,"last_update":"0001-01-01T00:00:00Z","name_a2s":"Uncletopia | Montréal | 1 | All Maps","protocol":17,"map":"pl_badwater","folder":"tf","game":"Team Fortress","app_id":440,"player_count":0,"max_players":24,"Bots":0,"server_type":"Dedicated","server_os":"Linux","password":true,"vac":true,"version":"7708610","steam_id":85568392924500087,"keywords":["nocrits","nodmgspread","payload","uncletopia"],"game_id":440,"stv_port":27016,"stv_name":"Uncletopia | Montréal | 1 | All Maps | STV","players":null},{"server_id":301,"name":"Uncletopia | Montréal | 2 | All Maps","name_short":"mtl-2","host":"mtl-1.ca.uncletopia.com","port":27025,"enabled":true,"region":"us-east","cc":"ca","latitude":45.50889,"longitude":-73.56167,"reserved":0,"last_update":"0001-01-01T00:00:00Z","name_a2s":"Uncletopia | Montréal | 2 | All Maps","protocol":17,"map":"koth_cascade","folder":"tf","game":"Team Fortress","app_id":440,"player_count":0,"max_players":24,"Bots":0,"server_type":"Dedicated","server_os":"Linux","password":true,"vac":true,"version":"7708610","steam_id":85568392924500088,"keywords":["cp","nocrits","nodmgspread","uncletopia"],"game_id":440,"stv_port":27026,"stv_name":"Uncletopia | Montréal | 2 | All Maps | STV","players":null},{"server_id":302,"name":"Uncletopia | Montréal | 3 | All Maps","name_short":"mtl-3","host":"mtl-1.ca.uncletopia.com","port":27035,"enabled":true,"region":"us-east","cc":"ca","latitude":45.50889,"longitude":-73.56167,"reserved":0,"last_update":"0001-01-01T00:00:00Z","name_a2s":"Uncletopia | Montréal | 3 | All Maps","protocol":17,"map":"koth_highpass","folder":"tf","game":"Team Fortress","app_id":440,"player_count":0,"max_players":24,"Bots":0,"server_type":"Dedicated","server_os":"Linux","password":true,"vac":true,"version":"7708610","steam_id":85568392924500089,"keywords":["cp","nocrits","nodmgspread","uncletopia"],"game_id":440,"stv_port":27036,"stv_name":"Uncletopia | Montréal | 3 | All Maps | STV","players":null},{"server_id":303,"name":"Uncletopia | Montréal | 4 | No Payload","name_short":"mtl-4","host":"mtl-1.ca.uncletopia.com","port":27045,"enabled":true,"region":"us-east","cc":"ca","latitude":45.50889,"longitude":-73.56167,"reserved":0,"last_update":"0001-01-01T00:00:00Z","name_a2s":"Uncletopia | Montréal | 4 | No Payload","protocol":17,"map":"ctf_sawmill","folder":"tf","game":"Team Fortress","app_id":440,"player_count":0,"max_players":24,"Bots":0,"server_type":"Dedicated","server_os":"Linux","password":true,"vac":true,"version":"7708610","steam_id":85568392924500090,"keywords":["ctf","nocrits","nodmgspread","uncletopia"],"game_id":440,"stv_port":27046,"stv_name":"Uncletopia | Montréal | 4 | No Payload | STV","players":null},{"server_id":13,"name":"Uncletopia | New York City | 1 | All Maps","name_short":"nyc-1","host":"nyc-1.us.uncletopia.com","port":27015,"enabled":true,"region":"us-east","cc":"us","latitude":40.73061,"longitude":-73.93524,"reserved":0,"last_update":"0001-01-01T00:00:00Z","name_a2s":"Uncletopia | New York City | 1 | All Maps","protocol":17,"map":"pl_pier","folder":"tf","game":"Team Fortress","app_id":440,"player_count":0,"max_players":24,"Bots":0,"server_type":"Dedicated","server_os":"Linux","password":true,"vac":true,"version":"7708610","steam_id":85568392924469993,"keywords":["nocrits","nodmgspread","payload","uncletopia"],"game_id":440,"stv_port":27016,"stv_name":"Uncletopia | New York City | 1 | All Maps | STV","players":null},{"server_id":14,"name":"Uncletopia | New York City | 2 | All Maps","name_short":"nyc-2","host":"nyc-1.us.uncletopia.com","port":27025,"enabled":true,"region":"us-east","cc":"us","latitude":40.73061,"longitude":-73.93524,"reserved":0,"last_update":"0001-01-01T00:00:00Z","name_a2s":"Uncletopia | New York City | 2 | All Maps","protocol":17,"map":"cp_process_final","folder":"tf","game":"Team Fortress","app_id":440,"player_count":21,"max_players":24,"Bots":0,"server_type":"Dedicated","server_os":"Linux","password":true,"vac":true,"version":"7708610","steam_id":85568392924469994,"keywords":["cp","nocrits","nodmgspread","uncletopia"],"game_id":440,"stv_port":27026,"stv_name":"Uncletopia | New York City | 2 | All Maps | STV","players":[{"user_id":348,"name":"Tkdnate","steam_id":76561198150318353,"connected_time":4057000000000,"state":"active","ping":52},{"user_id":425,"name":"Technicality","steam_id":76561198210336967,"connected_time":51000000000,"state":"active","ping":53},{"user_id":352,"name":"Goose Pyro","steam_id":76561198994984332,"connected_time":3578000000000,"state":"active","ping":115},{"user_id":350,"name":"火星 | Marsy","steam_id":76561198014979892,"connected_time":3880000000000,"state":"active","ping":59},{"user_id":417,"name":"Marty Mailbox","steam_id":76561198024974886,"connected_time":446000000000,"state":"active","ping":78},{"user_id":393,"name":"money squared","steam_id":76561198046775352,"connected_time":1281000000000,"state":"active","ping":118},{"user_id":411,"name":"footp","steam_id":76561198001027361,"connected_time":551000000000,"state":"active","ping":61},{"user_id":385,"name":"kefkja","steam_id":76561198283963218,"connected_time":1567000000000,"state":"active","ping":78},{"user_id":424,"name":"shadow3004","steam_id":76561198064870076,"connected_time":177000000000,"state":"active","ping":93},{"user_id":384,"name":"catgirl","steam_id":76561198020736672,"connected_time":1778000000000,"state":"active","ping":59},{"user_id":394,"name":"Farseer Ulwithy","steam_id":76561197965179245,"connected_time":1229000000000,"state":"active","ping":110},{"user_id":413,"name":"kob","steam_id":76561198065109021,"connected_time":538000000000,"state":"active","ping":59},{"user_id":399,"name":"bruh","steam_id":76561198239090068,"connected_time":983000000000,"state":"active","ping":190},{"user_id":419,"name":"Joosh","steam_id":76561198268815225,"connected_time":385000000000,"state":"active","ping":75},{"user_id":403,"name":"ExtraSoap","steam_id":76561198008712409,"connected_time":827000000000,"state":"active","ping":45},{"user_id":404,"name":"Your Local Jester","steam_id":76561199120223717,"connected_time":810000000000,"state":"active","ping":59},{"user_id":422,"name":"ManBox","steam_id":76561198254180943,"connected_time":281000000000,"state":"active","ping":39},{"user_id":416,"name":"Gentlegen","steam_id":76561198257368619,"connected_time":476000000000,"state":"active","ping":88},{"user_id":405,"name":"Chechens Spotted","steam_id":76561199028910893,"connected_time":807000000000,"state":"active","ping":60},{"user_id":423,"name":"Tokyo_Timeshift_","steam_id":76561198048677523,"connected_time":242000000000,"state":"active","ping":68},{"user_id":420,"name":"Some Octopus Wizard","steam_id":76561198005470354,"connected_time":364000000000,"state":"active","ping":75}]},{"server_id":15,"name":"Uncletopia | New York City | 3 | All Maps","name_short":"nyc-3","host":"nyc-1.us.uncletopia.com","port":27035,"enabled":true,"region":"us-east","cc":"us","latitude":40.73061,"longitude":-73.93524,"reserved":0,"last_update":"0001-01-01T00:00:00Z","name_a2s":"Uncletopia | New York City | 3 | All Maps","protocol":17,"map":"cp_gravelpit","folder":"tf","game":"Team Fortress","app_id":440,"player_count":18,"max_players":24,"Bots":0,"server_type":"Dedicated","server_os":"Linux","password":true,"vac":true,"version":"7708610","steam_id":85568392924742820,"keywords":["cp","nocrits","nodmgspread","uncletopia"],"game_id":440,"stv_port":27036,"stv_name":"Uncletopia | New York City | 3 | All Maps | STV","players":[{"user_id":404,"name":"Inevitable","steam_id":76561198210050169,"connected_time":1540000000000,"state":"active","ping":46},{"user_id":415,"name":"beerinabox","steam_id":76561198070614450,"connected_time":96000000000,"state":"active","ping":83},{"user_id":416,"name":"Chilidestroy","steam_id":76561199101551797,"connected_time":84000000000,"state":"active","ping":79},{"user_id":390,"name":"StuartBell511","steam_id":76561198060931721,"connected_time":1797000000000,"state":"active","ping":59},{"user_id":382,"name":"Skeleton Bones Ghoulie","steam_id":76561199138772722,"connected_time":2620000000000,"state":"active","ping":125},{"user_id":414,"name":"smithy","steam_id":76561198927434314,"connected_time":125000000000,"state":"active","ping":84},{"user_id":375,"name":"weeb","steam_id":76561198106945226,"connected_time":3391000000000,"state":"active","ping":88},{"user_id":397,"name":"Certified Woman","steam_id":76561198034552198,"connected_time":1733000000000,"state":"active","ping":80},{"user_id":391,"name":"KRELLAH","steam_id":76561198287045069,"connected_time":1795000000000,"state":"active","ping":57},{"user_id":408,"name":"homophobic but i mean well","steam_id":76561198337692867,"connected_time":1100000000000,"state":"active","ping":144},{"user_id":398,"name":"EvenNine","steam_id":76561198207745293,"connected_time":1727000000000,"state":"active","ping":73},{"user_id":386,"name":"dnl","steam_id":76561198096413059,"connected_time":2317000000000,"state":"active","ping":124},{"user_id":403,"name":"Tri","steam_id":76561198001408156,"connected_time":1646000000000,"state":"active","ping":124},{"user_id":395,"name":"Ineffable","steam_id":76561198968869068,"connected_time":1755000000000,"state":"active","ping":73},{"user_id":399,"name":"TheBloodMoon","steam_id":76561198443717843,"connected_time":1727000000000,"state":"active","ping":60},{"user_id":400,"name":"Caerr","steam_id":76561198018698474,"connected_time":1716000000000,"state":"active","ping":87},{"user_id":402,"name":"sonic1394","steam_id":76561198054636788,"connected_time":1678000000000,"state":"active","ping":70},{"user_id":410,"name":"Khorne is up","steam_id":76561198118736962,"connected_time":1032000000000,"state":"active","ping":91}]},{"server_id":16,"name":"Uncletopia | New York City | 4 | Community","name_short":"nyc-4","host":"nyc-1.us.uncletopia.com","port":27045,"enabled":true,"region":"us-east","cc":"us","latitude":40.73061,"longitude":-73.93524,"reserved":0,"last_update":"0001-01-01T00:00:00Z","name_a2s":"Uncletopia | New York City | 4 | Community","protocol":17,"map":"workshop/koth_ramjam_v2_b2.ugc2865676487","folder":"tf","game":"Team Fortress","app_id":440,"player_count":0,"max_players":24,"Bots":0,"server_type":"Dedicated","server_os":"Linux","password":true,"vac":true,"version":"7708610","steam_id":85568392924742821,"keywords":["cp","nocrits","nodmgspread","uncletopia"],"game_id":440,"stv_port":27046,"stv_name":"Uncletopia | New York City | 4 | Community | STV","players":null},{"server_id":142,"name":"Uncletopia | São Paulo | 1 | All Maps","name_short":"sao-1","host":"sao-1.br.uncletopia.com","port":27015,"enabled":true,"region":"sa","cc":"br","latitude":-23.533773,"longitude":-46.62529,"reserved":0,"last_update":"0001-01-01T00:00:00Z","name_a2s":"Uncletopia | São Paulo | 1 | All Maps","protocol":17,"map":"koth_viaduct","folder":"tf","game":"Team Fortress","app_id":440,"player_count":0,"max_players":24,"Bots":0,"server_type":"Dedicated","server_os":"Linux","password":true,"vac":true,"version":"7708610","steam_id":85568392924469996,"keywords":["cp","nocrits","nodmgspread","uncletopia"],"game_id":440,"stv_port":27016,"stv_name":"Uncletopia | São Paulo | 1 | All Maps | STV","players":null},{"server_id":143,"name":"Uncletopia | São Paulo | 2 | All Maps","name_short":"sao-2","host":"sao-2.br.uncletopia.com","port":27015,"enabled":true,"region":"sa","cc":"br","latitude":-23.533773,"longitude":-46.62529,"reserved":0,"last_update":"0001-01-01T00:00:00Z","name_a2s":"Uncletopia | São Paulo | 2 | All Maps","protocol":17,"map":"koth_cascade","folder":"tf","game":"Team Fortress","app_id":440,"player_count":0,"max_players":24,"Bots":0,"server_type":"Dedicated","server_os":"Linux","password":true,"vac":true,"version":"7708610","steam_id":85568392924485349,"keywords":["cp","nocrits","nodmgspread","uncletopia"],"game_id":440,"stv_port":27016,"stv_name":"Uncletopia | São Paulo | 2 | All Maps | STV","players":null},{"server_id":7,"name":"Uncletopia | Seattle | 1 | All Maps","name_short":"sea-1","host":"sea-1.us.uncletopia.com","port":27015,"enabled":true,"region":"us-west","cc":"us","latitude":47.608013,"longitude":-122.33517,"reserved":0,"last_update":"0001-01-01T00:00:00Z","name_a2s":"Uncletopia | Seattle | 1 | All Maps","protocol":17,"map":"cp_granary","folder":"tf","game":"Team Fortress","app_id":440,"player_count":19,"max_players":24,"Bots":0,"server_type":"Dedicated","server_os":"Linux","password":true,"vac":true,"version":"7708610","steam_id":85568392924469997,"keywords":["cp","nocrits","nodmgspread","uncletopia"],"game_id":440,"stv_port":27016,"stv_name":"Uncletopia | Seattle | 1 | All Maps | STV","players":[{"user_id":310,"name":"a crazy hobo","steam_id":76561198289650060,"connected_time":1797000000000,"state":"active","ping":74},{"user_id":325,"name":"dust","steam_id":76561198045218909,"connected_time":1161000000000,"state":"active","ping":43},{"user_id":315,"name":"MazapanCabon28","steam_id":76561199243339919,"connected_time":1586000000000,"state":"active","ping":81},{"user_id":339,"name":"mhmyeah_yeahmhm","steam_id":76561198341190679,"connected_time":333000000000,"state":"active","ping":54},{"user_id":311,"name":"dougrocks421","steam_id":76561198165063918,"connected_time":1794000000000,"state":"active","ping":36},{"user_id":317,"name":"Grungus","steam_id":76561198047700230,"connected_time":1530000000000,"state":"active","ping":61},{"user_id":306,"name":"tacofever","steam_id":76561198010966507,"connected_time":2057000000000,"state":"active","ping":75},{"user_id":267,"name":"Mom","steam_id":76561198207936000,"connected_time":4819000000000,"state":"active","ping":61},{"user_id":294,"name":"Honeybunch","steam_id":76561198014850580,"connected_time":3252000000000,"state":"active","ping":33},{"user_id":335,"name":"Meat Popsicle","steam_id":76561197974158687,"connected_time":700000000000,"state":"active","ping":60},{"user_id":331,"name":"oil","steam_id":76561198099980149,"connected_time":740000000000,"state":"active","ping":68},{"user_id":279,"name":"Thicctor Belmont","steam_id":76561198841547193,"connected_time":4178000000000,"state":"active","ping":120},{"user_id":340,"name":"]+[ Randy Cockburn","steam_id":76561197994380909,"connected_time":127000000000,"state":"active","ping":76},{"user_id":334,"name":"blackdeathbeatle","steam_id":76561198041111271,"connected_time":703000000000,"state":"active","ping":43},{"user_id":324,"name":"Space Goblin","steam_id":76561198170426663,"connected_time":1212000000000,"state":"active","ping":53},{"user_id":336,"name":"McSpazatron","steam_id":76561198955942148,"connected_time":692000000000,"state":"active","ping":106},{"user_id":249,"name":"Fh","steam_id":76561198000903511,"connected_time":5629000000000,"state":"active","ping":62},{"user_id":338,"name":"Can of Oranges (Festive)","steam_id":76561199121813529,"connected_time":364000000000,"state":"active","ping":56},{"user_id":303,"name":"Pubk","steam_id":76561198095939571,"connected_time":2562000000000,"state":"active","ping":37}]},{"server_id":119,"name":"Uncletopia | Seattle | 2 | All Maps","name_short":"sea-2","host":"sea-1.us.uncletopia.com","port":27025,"enabled":true,"region":"us-west","cc":"us","latitude":47.608013,"longitude":-122.33517,"reserved":0,"last_update":"0001-01-01T00:00:00Z","name_a2s":"Uncletopia | Seattle | 2 | All Maps","protocol":17,"map":"cp_dustbowl","folder":"tf","game":"Team Fortress","app_id":440,"player_count":23,"max_players":24,"Bots":0,"server_type":"Dedicated","server_os":"Linux","password":true,"vac":true,"version":"7708610","steam_id":85568392924469998,"keywords":["cp","nocrits","nodmgspread","uncletopia"],"game_id":440,"stv_port":27026,"stv_name":"Uncletopia | Seattle | 2 | All Maps | STV","players":[{"user_id":191,"name":"Morse","steam_id":76561198039944542,"connected_time":1984000000000,"state":"active","ping":54},{"user_id":224,"name":"SollyAtarz","steam_id":76561198967745422,"connected_time":26000000000,"state":"active","ping":295},{"user_id":197,"name":"...","steam_id":76561198312298321,"connected_time":1670000000000,"state":"active","ping":102},{"user_id":205,"name":"lili.winters","steam_id":76561199391478575,"connected_time":549000000000,"state":"active","ping":65},{"user_id":202,"name":"Brando","steam_id":76561198078306678,"connected_time":786000000000,"state":"active","ping":92},{"user_id":199,"name":"Testicular Torsion","steam_id":76561197968179862,"connected_time":987000000000,"state":"active","ping":79},{"user_id":212,"name":"Brison","steam_id":76561198051370524,"connected_time":455000000000,"state":"active","ping":34},{"user_id":220,"name":"Black Jesus","steam_id":76561198076148442,"connected_time":213000000000,"state":"active","ping":76},{"user_id":218,"name":"amagicowl","steam_id":76561199060487814,"connected_time":353000000000,"state":"active","ping":81},{"user_id":211,"name":"squinzi","steam_id":76561198086520846,"connected_time":487000000000,"state":"active","ping":75},{"user_id":174,"name":"Petey","steam_id":76561198007339151,"connected_time":3523000000000,"state":"active","ping":80},{"user_id":213,"name":"slowdance","steam_id":76561198097427947,"connected_time":395000000000,"state":"active","ping":126},{"user_id":214,"name":"friend of the crow","steam_id":76561198146228439,"connected_time":393000000000,"state":"active","ping":49},{"user_id":200,"name":"Doozy","steam_id":76561198033106776,"connected_time":973000000000,"state":"active","ping":89},{"user_id":193,"name":"Goldbug","steam_id":76561198025221202,"connected_time":1881000000000,"state":"active","ping":68},{"user_id":222,"name":"A UsedNom","steam_id":76561198402832756,"connected_time":117000000000,"state":"active","ping":54},{"user_id":190,"name":"Crake","steam_id":76561198001959071,"connected_time":2329000000000,"state":"active","ping":52},{"user_id":216,"name":"CheekyMcCheek","steam_id":76561198081978491,"connected_time":377000000000,"state":"active","ping":87},{"user_id":189,"name":"sand","steam_id":76561199166176718,"connected_time":2393000000000,"state":"active","ping":65},{"user_id":176,"name":"Wanderer","steam_id":76561197983989461,"connected_time":3510000000000,"state":"active","ping":48},{"user_id":203,"name":"Encryptik","steam_id":76561198287754476,"connected_time":776000000000,"state":"active","ping":88},{"user_id":217,"name":"Brigadier Brownie","steam_id":76561198040852898,"connected_time":377000000000,"state":"active","ping":81},{"user_id":196,"name":"Discourse","steam_id":76561198984286678,"connected_time":1864000000000,"state":"active","ping":113}]},{"server_id":17,"name":"Uncletopia | San Francisco | 1 | All Maps","name_short":"sfo-1","host":"sfo-1.us.uncletopia.com","port":27015,"enabled":true,"region":"us-west","cc":"us","latitude":37.77397,"longitude":-122.4313,"reserved":0,"last_update":"0001-01-01T00:00:00Z","name_a2s":"Uncletopia | San Francisco | 1 | All Maps","protocol":17,"map":"koth_highpass","folder":"tf","game":"Team Fortress","app_id":440,"player_count":0,"max_players":24,"Bots":0,"server_type":"Dedicated","server_os":"Linux","password":true,"vac":true,"version":"7708610","steam_id":85568392924469999,"keywords":["cp","nocrits","nodmgspread","uncletopia"],"game_id":440,"stv_port":27016,"stv_name":"Uncletopia | San Francisco | 1 | All Maps | STV","players":null},{"server_id":18,"name":"Uncletopia | San Francisco | 2 | All Maps","name_short":"sfo-2","host":"sfo-1.us.uncletopia.com","port":27025,"enabled":true,"region":"us-west","cc":"us","latitude":37.77397,"longitude":-122.4313,"reserved":0,"last_update":"0001-01-01T00:00:00Z","name_a2s":"Uncletopia | San Francisco | 2 | All Maps","protocol":17,"map":"pl_upward","folder":"tf","game":"Team Fortress","app_id":440,"player_count":17,"max_players":24,"Bots":0,"server_type":"Dedicated","server_os":"Linux","password":true,"vac":true,"version":"7708610","steam_id":85568392924470000,"keywords":["nocrits","nodmgspread","payload","uncletopia"],"game_id":440,"stv_port":27026,"stv_name":"Uncletopia | San Francisco | 2 | All Maps | STV","players":[{"user_id":15,"name":"Dosario","steam_id":76561198298095535,"connected_time":1307000000000,"state":"active","ping":67},{"user_id":18,"name":"The Glizzanator","steam_id":76561198115355451,"connected_time":892000000000,"state":"active","ping":48},{"user_id":31,"name":"echelon","steam_id":76561198139172979,"connected_time":373000000000,"state":"active","ping":45},{"user_id":17,"name":"chimplicity","steam_id":76561198012097062,"connected_time":1141000000000,"state":"active","ping":68},{"user_id":19,"name":"BigButteryCrepes","steam_id":76561199153649549,"connected_time":884000000000,"state":"active","ping":46},{"user_id":20,"name":"❤madeleine❤","steam_id":76561198110142386,"connected_time":775000000000,"state":"active","ping":45},{"user_id":22,"name":"Marty Byrde IRL","steam_id":76561199427269098,"connected_time":528000000000,"state":"active","ping":107},{"user_id":32,"name":"ICEcold","steam_id":76561198154646418,"connected_time":207000000000,"state":"active","ping":93},{"user_id":24,"name":"Hernandez$","steam_id":76561198019324588,"connected_time":496000000000,"state":"active","ping":59},{"user_id":25,"name":"Jorjor Wel","steam_id":76561198059689125,"connected_time":488000000000,"state":"active","ping":63},{"user_id":26,"name":"tkeati","steam_id":76561198056356574,"connected_time":487000000000,"state":"active","ping":60},{"user_id":27,"name":"Stickey Zelensky","steam_id":76561198202254225,"connected_time":480000000000,"state":"active","ping":65},{"user_id":33,"name":"tum","steam_id":76561198084712019,"connected_time":112000000000,"state":"active","ping":95},{"user_id":34,"name":"Piss fetish connoisseur","steam_id":76561199387907037,"connected_time":105000000000,"state":"active","ping":250},{"user_id":35,"name":"Skeel","steam_id":76561198089049258,"connected_time":60000000000,"state":"active","ping":70},{"user_id":36,"name":"Gnome Chompski","steam_id":76561198003130703,"connected_time":56000000000,"state":"active","ping":100},{"user_id":37,"name":"big bang attack","steam_id":76561198886203540,"connected_time":20000000000,"state":"spawning","ping":60}]},{"server_id":19,"name":"Uncletopia | San Francisco | 3 | No Payload","name_short":"sfo-3","host":"sfo-1.us.uncletopia.com","port":27035,"enabled":true,"region":"us-west","cc":"us","latitude":37.77397,"longitude":-122.4313,"reserved":0,"last_update":"0001-01-01T00:00:00Z","name_a2s":"Uncletopia | San Francisco | 3 | No Payload","protocol":17,"map":"cp_coldfront","folder":"tf","game":"Team Fortress","app_id":440,"player_count":0,"max_players":24,"Bots":0,"server_type":"Dedicated","server_os":"Linux","password":true,"vac":true,"version":"7708610","steam_id":85568392924742824,"keywords":["cp","nocrits","nodmgspread","uncletopia"],"game_id":440,"stv_port":27036,"stv_name":"Uncletopia | San Francisco | 3 | No Payload | STV","players":null},{"server_id":20,"name":"Uncletopia | San Francisco | 4 | Community","name_short":"sfo-4","host":"sfo-1.us.uncletopia.com","port":27045,"enabled":true,"region":"us-west","cc":"us","latitude":37.77397,"longitude":-122.4313,"reserved":0,"last_update":"0001-01-01T00:00:00Z","name_a2s":"Uncletopia | San Francisco | 4 | Community","protocol":17,"map":"workshop/koth_synthetic_rc6a.ugc1549817316","folder":"tf","game":"Team Fortress","app_id":440,"player_count":0,"max_players":24,"Bots":0,"server_type":"Dedicated","server_os":"Linux","password":true,"vac":true,"version":"7708610","steam_id":85568392924742826,"keywords":["cp","nocrits","nodmgspread","uncletopia"],"game_id":440,"stv_port":27046,"stv_name":"Uncletopia | San Francisco | 4 | Community | STV","players":null},{"server_id":141,"name":"Uncletopia | Sydney | 1 | All Maps","name_short":"syd-1","host":"syd-1.au.uncletopia.com","port":27015,"enabled":true,"region":"au","cc":"au","latitude":-33.865143,"longitude":151.2099,"reserved":0,"last_update":"0001-01-01T00:00:00Z","name_a2s":"Uncletopia | Sydney | 1 | All Maps","protocol":17,"map":"pl_barnblitz","folder":"tf","game":"Team Fortress","app_id":440,"player_count":24,"max_players":24,"Bots":0,"server_type":"Dedicated","server_os":"Linux","password":true,"vac":true,"version":"7708610","steam_id":85568392924470001,"keywords":["nocrits","nodmgspread","payload","uncletopia"],"game_id":440,"stv_port":27016,"stv_name":"Uncletopia | Sydney | 1 | All Maps | STV","players":[{"user_id":44,"name":"Jonkles","steam_id":76561197988782005,"connected_time":1863000000000,"state":"active","ping":48},{"user_id":30,"name":"zen","steam_id":76561198302670452,"connected_time":2315000000000,"state":"active","ping":59},{"user_id":53,"name":"tex","steam_id":76561198364851711,"connected_time":1494000000000,"state":"active","ping":66},{"user_id":54,"name":"The Goodnight Kiwi","steam_id":76561198866433807,"connected_time":1471000000000,"state":"active","ping":60},{"user_id":24,"name":"clout","steam_id":76561198073310502,"connected_time":2885000000000,"state":"active","ping":73},{"user_id":59,"name":"SquidSide","steam_id":76561198867040000,"connected_time":936000000000,"state":"active","ping":67},{"user_id":27,"name":"Blazey 伊達 政宗","steam_id":76561197971082275,"connected_time":2651000000000,"state":"active","ping":119},{"user_id":28,"name":"Glockenspe (She/Her)","steam_id":76561199184115241,"connected_time":2506000000000,"state":"active","ping":45},{"user_id":48,"name":"Kumbya Kumbya Kumbya Kumbya","steam_id":76561198117979249,"connected_time":1760000000000,"state":"active","ping":98},{"user_id":34,"name":"cimpact","steam_id":76561198452258917,"connected_time":2143000000000,"state":"active","ping":146},{"user_id":55,"name":"D E T H","steam_id":76561198406959622,"connected_time":1434000000000,"state":"active","ping":50},{"user_id":43,"name":"ItsSnakey","steam_id":76561199187623513,"connected_time":1907000000000,"state":"active","ping":65},{"user_id":64,"name":"Tobo","steam_id":76561198372394405,"connected_time":649000000000,"state":"active","ping":51},{"user_id":39,"name":"adammagee","steam_id":76561197972653972,"connected_time":1962000000000,"state":"active","ping":55},{"user_id":40,"name":"Lancer","steam_id":76561198122813810,"connected_time":1961000000000,"state":"active","ping":82},{"user_id":65,"name":"Macca","steam_id":76561198010207998,"connected_time":273000000000,"state":"active","ping":45},{"user_id":42,"name":"pablo.gonzales2007","steam_id":76561199004828588,"connected_time":1912000000000,"state":"active","ping":57},{"user_id":45,"name":"Lateralus","steam_id":76561198007865860,"connected_time":1856000000000,"state":"active","ping":110},{"user_id":49,"name":"Mooty","steam_id":76561198301293435,"connected_time":1715000000000,"state":"active","ping":56},{"user_id":52,"name":"Golferjim","steam_id":76561197992365125,"connected_time":1574000000000,"state":"active","ping":76},{"user_id":51,"name":"huntsman spiper","steam_id":76561199005815714,"connected_time":1683000000000,"state":"active","ping":49},{"user_id":68,"name":"TheSaltyKoi","steam_id":76561198816704624,"connected_time":70000000000,"state":"active","ping":60},{"user_id":57,"name":"Owlenstein™","steam_id":76561198093983826,"connected_time":1260000000000,"state":"active","ping":116},{"user_id":66,"name":"bogan on a fence","steam_id":76561198052032702,"connected_time":248000000000,"state":"active","ping":114}]},{"server_id":123,"name":"Uncletopia | Sydney | 2 | All Maps","name_short":"syd-2","host":"syd-1.au.uncletopia.com","port":27025,"enabled":true,"region":"au","cc":"au","latitude":-33.865143,"longitude":151.2099,"reserved":0,"last_update":"0001-01-01T00:00:00Z","name_a2s":"Uncletopia | Sydney | 2 | All Maps","protocol":17,"map":"koth_viaduct","folder":"tf","game":"Team Fortress","app_id":440,"player_count":2,"max_players":24,"Bots":0,"server_type":"Dedicated","server_os":"Linux","password":true,"vac":true,"version":"7708610","steam_id":85568392924470002,"keywords":["cp","nocrits","nodmgspread","uncletopia"],"game_id":440,"stv_port":27026,"stv_name":"Uncletopia | Sydney | 2 | All Maps | STV","players":[{"user_id":7,"name":"starfinder","steam_id":76561199071758773,"connected_time":24000000000,"state":"spawning","ping":115},{"user_id":8,"name":"DIY Miracle","steam_id":76561198046228152,"connected_time":16000000000,"state":"spawning","ping":78}]},{"server_id":395,"name":"Uncletopia | Sydney | 3 | All Maps","name_short":"syd-3","host":"syd-1.au.uncletopia.com","port":27035,"enabled":true,"region":"au","cc":"au","latitude":-33.865143,"longitude":151.2099,"reserved":0,"last_update":"0001-01-01T00:00:00Z","name_a2s":"Uncletopia | Sydney | 3 | All Maps","protocol":17,"map":"koth_cascade","folder":"tf","game":"Team Fortress","app_id":440,"player_count":0,"max_players":24,"Bots":0,"server_type":"Dedicated","server_os":"Linux","password":true,"vac":true,"version":"7708610","steam_id":85568392925194467,"keywords":["cp","nocrits","nodmgspread","uncletopia"],"game_id":440,"stv_port":27036,"stv_name":"Uncletopia | Sydney | 3 | All Maps | STV","players":null},{"server_id":396,"name":"Uncletopia | Sydney | 4 | All Maps","name_short":"syd-4","host":"syd-1.au.uncletopia.com","port":27045,"enabled":true,"region":"au","cc":"au","latitude":-33.865143,"longitude":151.2099,"reserved":0,"last_update":"0001-01-01T00:00:00Z","name_a2s":"Uncletopia | Sydney | 4 | All Maps","protocol":17,"map":"koth_lakeside_final","folder":"tf","game":"Team Fortress","app_id":440,"player_count":0,"max_players":24,"Bots":0,"server_type":"Dedicated","server_os":"Linux","password":true,"vac":true,"version":"7708610","steam_id":85568392925397958,"keywords":["cp","nocrits","nodmgspread","uncletopia"],"game_id":440,"stv_port":0,"stv_name":"","players":null},{"server_id":58,"name":"Uncletopia | Sydney | 5 | No Payload","name_short":"syd-5","host":"syd-1.au.uncletopia.com","port":27055,"enabled":true,"region":"au","cc":"au","latitude":-33.865143,"longitude":151.2099,"reserved":0,"last_update":"0001-01-01T00:00:00Z","name_a2s":"Uncletopia | Sydney | 5 | No Payload","protocol":17,"map":"koth_cascade","folder":"tf","game":"Team Fortress","app_id":440,"player_count":0,"max_players":24,"Bots":0,"server_type":"Dedicated","server_os":"Linux","password":true,"vac":true,"version":"7708610","steam_id":85568392925397959,"keywords":["cp","nocrits","nodmgspread","uncletopia"],"game_id":440,"stv_port":0,"stv_name":"","players":null},{"server_id":59,"name":"Uncletopia | Sydney | 6 | Community","name_short":"syd-6","host":"syd-1.au.uncletopia.com","port":27065,"enabled":true,"region":"au","cc":"au","latitude":-33.865143,"longitude":151.2099,"reserved":0,"last_update":"0001-01-01T00:00:00Z","name_a2s":"Uncletopia | Sydney | 6 | Community","protocol":17,"map":"workshop/koth_synthetic_rc6a.ugc1549817316","folder":"tf","game":"Team Fortress","app_id":440,"player_count":0,"max_players":24,"Bots":0,"server_type":"Dedicated","server_os":"Linux","password":true,"vac":true,"version":"7708610","steam_id":85568392925397960,"keywords":["cp","nocrits","nodmgspread","uncletopia"],"game_id":440,"stv_port":27066,"stv_name":"Uncletopia | Sydney | 6 | Community | STV","players":null},{"server_id":49,"name":"Uncletopia | Warsaw | 1 | All Maps","name_short":"waw-1","host":"waw-1.pl.uncletopia.com","port":27015,"enabled":true,"region":"eu","cc":"pl","latitude":52.2297,"longitude":21.017532,"reserved":0,"last_update":"0001-01-01T00:00:00Z","name_a2s":"Uncletopia | Warsaw | 1 | All Maps","protocol":17,"map":"pl_pier","folder":"tf","game":"Team Fortress","app_id":440,"player_count":0,"max_players":24,"Bots":0,"server_type":"Dedicated","server_os":"Linux","password":true,"vac":true,"version":"7708610","steam_id":85568392925397850,"keywords":["nocrits","nodmgspread","payload","uncletopia"],"game_id":440,"stv_port":27016,"stv_name":"Uncletopia | Warsaw | 1 | All Maps | STV","players":null},{"server_id":50,"name":"Uncletopia | Warsaw | 2 | All Maps","name_short":"waw-2","host":"waw-1.pl.uncletopia.com","port":27025,"enabled":true,"region":"eu","cc":"pl","latitude":52.2297,"longitude":21.017532,"reserved":0,"last_update":"0001-01-01T00:00:00Z","name_a2s":"Uncletopia | Warsaw | 2 | All Maps","protocol":17,"map":"cp_mountainlab","folder":"tf","game":"Team Fortress","app_id":440,"player_count":0,"max_players":24,"Bots":0,"server_type":"Dedicated","server_os":"Linux","password":true,"vac":true,"version":"7708610","steam_id":85568392925397851,"keywords":["cp","nocrits","nodmgspread","uncletopia"],"game_id":440,"stv_port":27026,"stv_name":"Uncletopia | Warsaw | 2 | All Maps | STV","players":null},{"server_id":51,"name":"Uncletopia | Warsaw | 3 | All Maps","name_short":"waw-3","host":"waw-1.pl.uncletopia.com","port":27035,"enabled":true,"region":"eu","cc":"pl","latitude":52.2297,"longitude":21.017532,"reserved":0,"last_update":"0001-01-01T00:00:00Z","name_a2s":"Uncletopia | Warsaw | 3 | All Maps","protocol":17,"map":"koth_cascade","folder":"tf","game":"Team Fortress","app_id":440,"player_count":0,"max_players":24,"Bots":0,"server_type":"Dedicated","server_os":"Linux","password":true,"vac":true,"version":"7708610","steam_id":85568392925397852,"keywords":["cp","nocrits","nodmgspread","uncletopia"],"game_id":440,"stv_port":0,"stv_name":"","players":null},{"server_id":52,"name":"Uncletopia | Warsaw | 4 | All Maps","name_short":"waw-4","host":"waw-1.pl.uncletopia.com","port":27045,"enabled":true,"region":"eu","cc":"pl","latitude":52.2297,"longitude":21.017532,"reserved":0,"last_update":"0001-01-01T00:00:00Z","name_a2s":"Uncletopia | Warsaw | 4 | All Maps","protocol":17,"map":"pl_badwater","folder":"tf","game":"Team Fortress","app_id":440,"player_count":0,"max_players":24,"Bots":0,"server_type":"Dedicated","server_os":"Linux","password":true,"vac":true,"version":"7708610","steam_id":85568392925397853,"keywords":["nocrits","nodmgspread","payload","uncletopia"],"game_id":440,"stv_port":27046,"stv_name":"Uncletopia | Warsaw | 4 | All Maps | STV","players":null},{"server_id":53,"name":"Uncletopia | Warsaw | 5 | No Payload","name_short":"waw-5","host":"waw-1.pl.uncletopia.com","port":27055,"enabled":true,"region":"eu","cc":"pl","latitude":52.2297,"longitude":21.017532,"reserved":0,"last_update":"0001-01-01T00:00:00Z","name_a2s":"Uncletopia | Warsaw | 5 | No Payload","protocol":17,"map":"cp_dustbowl","folder":"tf","game":"Team Fortress","app_id":440,"player_count":0,"max_players":24,"Bots":0,"server_type":"Dedicated","server_os":"Linux","password":true,"vac":true,"version":"7708610","steam_id":85568392925397854,"keywords":["cp","nocrits","nodmgspread","uncletopia"],"game_id":440,"stv_port":0,"stv_name":"","players":null},{"server_id":54,"name":"Uncletopia | Warsaw | 6 | Community","name_short":"waw-6","host":"waw-1.pl.uncletopia.com","port":27065,"enabled":true,"region":"eu","cc":"pl","latitude":52.2297,"longitude":21.017532,"reserved":0,"last_update":"0001-01-01T00:00:00Z","name_a2s":"Uncletopia | Warsaw | 6 | Community","protocol":17,"map":"koth_highpass","folder":"tf","game":"Team Fortress","app_id":440,"player_count":0,"max_players":24,"Bots":0,"server_type":"Dedicated","server_os":"Linux","password":true,"vac":true,"version":"7708610","steam_id":85568392925397856,"keywords":["cp","nocrits","nodmgspread","uncletopia"],"game_id":440,"stv_port":0,"stv_name":"","players":null}]}