{"status":true,"message":"","result":[{"server_id":9,"name":"Uncletopia | Atlanta | 1 | All Maps","name_short":"atl-1","host":"atl-1.us.uncletopia.com","port":27015,"enabled":true,"region":"us-east","cc":"us","latitude":33.753746,"longitude":-84.38633,"reserved":0,"last_update":"0001-01-01T00:00:00Z","name_a2s":"Uncletopia | Atlanta | 1 | All Maps","protocol":17,"map":"cp_dustbowl","folder":"tf","game":"Team Fortress","app_id":440,"player_count":23,"max_players":24,"Bots":0,"server_type":"Dedicated","server_os":"Linux","password":true,"vac":true,"version":"7882260","steam_id":85568392924469982,"keywords":["cp","nocrits","nodmgspread","uncletopia"],"game_id":440,"stv_port":27016,"stv_name":"Uncletopia | Atlanta | 1 | All Maps | STV","players":[{"user_id":93,"name":"AdmiralCrunch","steam_id":76561198117444710,"connected_time":1529000000000,"state":"active","ping":45},{"user_id":12,"name":"Tannerdino","steam_id":76561198238169678,"connected_time":5431000000000,"state":"active","ping":73},{"user_id":114,"name":"troutsupply.net punks","steam_id":76561199140940650,"connected_time":101000000000,"state":"active","ping":45},{"user_id":107,"name":"Saucy Boy","steam_id":76561198178332031,"connected_time":695000000000,"state":"active","ping":86},{"user_id":81,"name":"いちごまろ","steam_id":76561198166100997,"connected_time":2593000000000,"state":"active","ping":64},{"user_id":118,"name":"[DEEP] Roz257","steam_id":76561198842844532,"connected_time":60000000000,"state":"spawning","ping":74},{"user_id":95,"name":"Trusty","steam_id":76561198035444237,"connected_time":1361000000000,"state":"active","ping":62},{"user_id":78,"name":"twizted","steam_id":76561197960407274,"connected_time":2809000000000,"state":"active","ping":88},{"user_id":74,"name":"Missing Minus","steam_id":76561198120822928,"connected_time":2878000000000,"state":"active","ping":43},{"user_id":92,"name":"luxin","steam_id":76561198399383047,"connected_time":1549000000000,"state":"active","ping":49},{"user_id":109,"name":"10KO!","steam_id":76561199134895220,"connected_time":660000000000,"state":"active","ping":75},{"user_id":119,"name":"☹","steam_id":76561198804763186,"connected_time":17000000000,"state":"spawning","ping":67},{"user_id":113,"name":"***FoRgIvEn***","steam_id":76561199216222247,"connected_time":215000000000,"state":"active","ping":82},{"user_id":116,"name":"malarkeyman","steam_id":76561198844473584,"connected_time":81000000000,"state":"active","ping":252},{"user_id":105,"name":"FheeseWurger Insouptitty","steam_id":76561198130772096,"connected_time":831000000000,"state":"active","ping":59},{"user_id":112,"name":"Speeder Mingus","steam_id":76561198106841910,"connected_time":547000000000,"state":"active","ping":94},{"user_id":91,"name":"BIG HOG","steam_id":76561198079923652,"connected_time":1560000000000,"state":"active","ping":60},{"user_id":117,"name":"Obelisk","steam_id":76561198049416866,"connected_time":69000000000,"state":"active","ping":46},{"user_id":87,"name":"Fraudulent Tuna","steam_id":76561197972268728,"connected_time":1730000000000,"state":"active","ping":73},{"user_id":85,"name":".#2 pooper southeast usa","steam_id":76561198057076267,"connected_time":2428000000000,"state":"active","ping":66},{"user_id":34,"name":"Mossed Ball","steam_id":76561199031256509,"connected_time":4914000000000,"state":"active","ping":80},{"user_id":120,"name":"Ashes!","steam_id":76561197998475441,"connected_time":6000000000,"state":"spawning","ping":102},{"user_id":48,"name":"Carl, Good to see you","steam_id":76561198070574075,"connected_time":3751000000000,"state":"active","ping":56}]},{"server_id":104,"name":"Uncletopia | Atlanta | 2 | All Maps","name_short":"atl-2","host":"atl-1.us.uncletopia.com","port":27025,"enabled":true,"region":"us-east","cc":"us","latitude":33.753746,"longitude":-84.38633,"reserved":0,"last_update":"0001-01-01T00:00:00Z","name_a2s":"Uncletopia | Atlanta | 2 | All Maps","protocol":17,"map":"koth_cascade","folder":"tf","game":"Team Fortress","app_id":440,"player_count":0,"max_players":24,"Bots":0,"server_type":"Dedicated","server_os":"Linux","password":true,"vac":true,"version":"7882260","steam_id":85568392924469983,"keywords":["cp","nocrits","nodmgspread","uncletopia"],"game_id":440,"stv_port":27026,"stv_name":"Uncletopia | Atlanta | 2 | All Maps | STV","players":null},{"server_id":400,"name":"Uncletopia | Atlanta | 3 | Community","name_short":"atl-3","host":"atl-1.us.uncletopia.com","port":27035,"enabled":true,"region":"us-east","cc":"us","latitude":33.753746,"longitude":-84.38633,"reserved":0,"last_update":"0001-01-01T00:00:00Z","name_a2s":"Uncletopia | Atlanta | 3 | Community","protocol":17,"map":"workshop/pl_emerge_rc2.ugc888027758","folder":"tf","game":"Team Fortress","app_id":440,"player_count":0,"max_players":24,"Bots":0,"server_type":"Dedicated","server_os":"Linux","password":true,"vac":true,"version":"7882260","steam_id":85568392924515187,"keywords":["nocrits","nodmgspread","payload","uncletopia"],"game_id":440,"stv_port":27036,"stv_name":"Uncletopia | Atlanta | 3 | Community | STV","players":null},{"server_id":401,"name":"Uncletopia | Atlanta | 4 | No Payload","name_short":"atl-4","host":"atl-1.us.uncletopia.com","port":27045,"enabled":true,"region":"us-east","cc":"us","latitude":33.753746,"longitude":-84.38633,"reserved":0,"last_update":"0001-01-01T00:00:00Z","name_a2s":"","protocol":0,"map":"","folder":"","game":"","app_id":0,"player_count":0,"max_players":0,"Bots":0,"server_type":"","server_os":"","password":false,"vac":false,"version":"","steam_id":0,"keywords":null,"game_id":0,"stv_port":0,"stv_name":"","players":null},{"server_id":2,"name":"Uncletopia | Chicago | 1 | All Maps","name_short":"chi-1","host":"chi-1.us.uncletopia.com","port":27015,"enabled":true,"region":"us-central","cc":"us","latitude":41.881832,"longitude":-87.62318,"reserved":0,"last_update":"0001-01-01T00:00:00Z","name_a2s":"Uncletopia | Chicago | 1 | All Maps","protocol":17,"map":"cp_mountainlab","folder":"tf","game":"Team Fortress","app_id":440,"player_count":0,"max_players":24,"Bots":0,"server_type":"Dedicated","server_os":"Linux","password":true,"vac":true,"version":"7882260","steam_id":85568392924469984,"keywords":["cp","nocrits","nodmgspread","uncletopia"],"game_id":440,"stv_port":27016,"stv_name":"Uncletopia | Chicago | 1 | All Maps | STV","players":null},{"server_id":106,"name":"Uncletopia | Chicago | 2 | All Maps","name_short":"chi-2","host":"chi-1.us.uncletopia.com","port":27025,"enabled":true,"region":"us-central","cc":"us","latitude":41.881832,"longitude":-87.62318,"reserved":0,"last_update":"0001-01-01T00:00:00Z","name_a2s":"Uncletopia | Chicago | 2 | All Maps","protocol":17,"map":"koth_lakeside_final","folder":"tf","game":"Team Fortress","app_id":440,"player_count":0,"max_players":24,"Bots":0,"server_type":"Dedicated","server_os":"Linux","password":true,"vac":true,"version":"7882260","steam_id":85568392924469985,"keywords":["cp","nocrits","nodmgspread","uncletopia"],"game_id":440,"stv_port":27026,"stv_name":"Uncletopia | Chicago | 2 | All Maps | STV","players":null},{"server_id":402,"name":"Uncletopia | Chicago | 3 | All Maps","name_short":"chi-3","host":"chi-1.us.uncletopia.com","port":27035,"enabled":true,"region":"us-central","cc":"us","latitude":41.881832,"longitude":-87.62318,"reserved":0,"last_update":"0001-01-01T00:00:00Z","name_a2s":"Uncletopia | Chicago | 3 | All Maps","protocol":17,"map":"pl_upward","folder":"tf","game":"Team Fortress","app_id":440,"player_count":17,"max_players":24,"Bots":0,"server_type":"Dedicated","server_os":"Linux","password":true,"vac":true,"version":"7882260","steam_id":85568392924515191,"keywords":["nocrits","nodmgspread","payload","uncletopia"],"game_id":440,"stv_port":27036,"stv_name":"Uncletopia | Chicago | 3 | All Maps | STV","players":[{"user_id":23,"name":"Petrichor","steam_id":76561198323397375,"connected_time":360000000000,"state":"active","ping":85},{"user_id":7,"name":"mwinrich9736","steam_id":76561198426120771,"connected_time":1858000000000,"state":"active","ping":77},{"user_id":8,"name":"King De","steam_id":76561198194427422,"connected_time":1560000000000,"state":"active","ping":52},{"user_id":12,"name":"starvin marvin","steam_id":76561198347286009,"connected_time":1068000000000,"state":"active","ping":75},{"user_id":10,"name":"katryna","steam_id":76561198023440304,"connected_time":1389000000000,"state":"active","ping":55},{"user_id":13,"name":"Griffin","steam_id":76561198159339442,"connected_time":953000000000,"state":"active","ping":66},{"user_id":25,"name":"luki*","steam_id":76561198356797796,"connected_time":287000000000,"state":"active","ping":172},{"user_id":16,"name":"SgtMaj Soggy Titties","steam_id":76561198067732216,"connected_time":721000000000,"state":"active","ping":40},{"user_id":27,"name":"Dr. Enforcicle (real)","steam_id":76561198964471859,"connected_time":71000000000,"state":"active","ping":77},{"user_id":18,"name":"Panther","steam_id":76561199026714125,"connected_time":621000000000,"state":"active","ping":71},{"user_id":19,"name":"Hylic","steam_id":76561199051314589,"connected_time":614000000000,"state":"active","ping":64},{"user_id":20,"name":"Tommy Pickles (Very Cool)","steam_id":76561198391261463,"connected_time":602000000000,"state":"active","ping":64},{"user_id":21,"name":"ultra lox","steam_id":76561199427318825,"connected_time":591000000000,"state":"active","ping":279},{"user_id":22,"name":"Toxic Skeleton","steam_id":76561198355612935,"connected_time":520000000000,"state":"active","ping":108},{"user_id":26,"name":"Its Dr.Stoned","steam_id":76561198079622791,"connected_time":168000000000,"state":"active","ping":71},{"user_id":28,"name":"carrion goat","steam_id":76561198262064871,"connected_time":67000000000,"state":"active","ping":55},{"user_id":29,"name":"saul goodman","steam_id":76561199165336576,"connected_time":4000000000,"state":"spawning","ping":1500}]},{"server_id":403,"name":"Uncletopia | Chicago | 4 | All Maps","name_short":"chi-4","host":"chi-1.us.uncletopia.com","port":27045,"enabled":true,"region":"us-central","cc":"us","latitude":41.881832,"longitude":-87.62318,"reserved":0,"last_update":"0001-01-01T00:00:00Z","name_a2s":"Uncletopia | Chicago | 4 | All Maps","protocol":17,"map":"koth_lakeside_final","folder":"tf","game":"Team Fortress","app_id":440,"player_count":0,"max_players":24,"Bots":0,"server_type":"Dedicated","server_os":"Linux","password":true,"vac":true,"version":"7882260","steam_id":85568392924515193,"keywords":["cp","nocrits","nodmgspread","uncletopia"],"game_id":440,"stv_port":27046,"stv_name":"Uncletopia | Chicago | 4 | All Maps | STV","players":null},{"server_id":36,"name":"Uncletopia | Chicago | 5 | All Maps","name_short":"chi-5","host":"chi-2.us.uncletopia.com","port":27015,"enabled":true,"region":"us-central","cc":"us","latitude":41.881832,"longitude":-87.62318,"reserved":0,"last_update":"0001-01-01T00:00:00Z","name_a2s":"Uncletopia | Chicago | 5 | All Maps","protocol":17,"map":"cp_dustbowl","folder":"tf","game":"Team Fortress","app_id":440,"player_count":0,"max_players":24,"Bots":0,"server_type":"Dedicated","server_os":"Linux","password":true,"vac":true,"version":"7882260","steam_id":85568392924866362,"keywords":["cp","nocrits","nodmgspread","uncletopia"],"game_id":440,"stv_port":27016,"stv_name":"Uncletopia | Chicago | 5 | All Maps | STV","players":null},{"server_id":37,"name":"Uncletopia | Chicago | 6 | All Maps","name_short":"chi-6","host":"chi-2.us.uncletopia.com","port":27025,"enabled":true,"region":"us-central","cc":"us","latitude":41.881832,"longitude":-87.62318,"reserved":0,"last_update":"0001-01-01T00:00:00Z","name_a2s":"Uncletopia | Chicago | 6 | All Maps","protocol":17,"map":"pl_snowycoast","folder":"tf","game":"Team Fortress","app_id":440,"player_count":0,"max_players":24,"Bots":0,"server_type":"Dedicated","server_os":"Linux","password":true,"vac":true,"version":"7882260","steam_id":85568392924866363,"keywords":["nocrits","nodmgspread","payload","uncletopia"],"game_id":440,"stv_port":27026,"stv_name":"Uncletopia | Chicago | 6 | All Maps | STV","players":null},{"server_id":38,"name":"Uncletopia | Chicago | 7 | Stopwatch Beta","name_short":"chi-7","host":"chi-2.us.uncletopia.com","port":27035,"enabled":true,"region":"us-central","cc":"us","latitude":41.881832,"longitude":-87.62318,"reserved":0,"last_update":"0001-01-01T00:00:00Z","name_a2s":"Uncletopia | Chicago | 7 | Stopwatch Beta","protocol":17,"map":"pl_upward","folder":"tf","game":"Team Fortress","app_id":440,"player_count":0,"max_players":24,"Bots":0,"server_type":"Dedicated","server_os":"Linux","password":true,"vac":true,"version":"7882260","steam_id":85568392924866364,"keywords":["nocrits","nodmgspread","payload","uncletopia"],"game_id":440,"stv_port":27036,"stv_name":"Uncletopia | Chicago | 7 | Stopwatch Beta | STV","players":null},{"server_id":39,"name":"Uncletopia | Chicago | 8 | Community","name_short":"chi-8","host":"chi-2.us.uncletopia.com","port":27045,"enabled":true,"region":"us-central","cc":"us","latitude":41.881832,"longitude":-87.62318,"reserved":0,"last_update":"0001-01-01T00:00:00Z","name_a2s":"Uncletopia | Chicago | 8 | Community","protocol":17,"map":"workshop/cp_alloy_rc3.ugc592805587","folder":"tf","game":"Team Fortress","app_id":440,"player_count":0,"max_players":24,"Bots":0,"server_type":"Dedicated","server_os":"Linux","password":true,"vac":true,"version":"7882260","steam_id":85568392924866365,"keywords":["cp","nocrits","nodmgspread","uncletopia"],"game_id":440,"stv_port":27046,"stv_name":"Uncletopia | Chicago | 8 | Community | STV","players":null},{"server_id":8,"name":"Uncletopia | Dallas | 1 | All Maps","name_short":"dal-1","host":"dal-1.us.uncletopia.com","port":27015,"enabled":true,"region":"us-central","cc":"us","latitude":32.779167,"longitude":-96.80889,"reserved":0,"last_update":"0001-01-01T00:00:00Z","name_a2s":"Uncletopia | Dallas | 1 | All Maps","protocol":17,"map":"koth_sawmill","folder":"tf","game":"Team Fortress","app_id":440,"player_count":21,"max_players":24,"Bots":0,"server_type":"Dedicated","server_os":"Linux","password":true,"vac":true,"version":"7882260","steam_id":85568392924469986,"keywords":["cp","nocrits","nodmgspread","uncletopia"],"game_id":440,"stv_port":27016,"stv_name":"Uncletopia | Dallas | 1 | All Maps | STV","players":[{"user_id":100,"name":"Limp Bizkit's Number 1 fan","steam_id":76561198820444541,"connected_time":458000000000,"state":"active","ping":101},{"user_id":6,"name":"elyktsorb","steam_id":76561198158964488,"connected_time":7364000000000,"state":"active","ping":72},{"user_id":107,"name":"caoz","steam_id":76561198357132470,"connected_time":151000000000,"state":"active","ping":72},{"user_id":96,"name":"Double Donk","steam_id":76561198209881263,"connected_time":1121000000000,"state":"active","ping":84},{"user_id":94,"name":"minecraft","steam_id":76561198104345201,"connected_time":1172000000000,"state":"active","ping":73},{"user_id":84,"name":"sssaturn","steam_id":76561198118761367,"connected_time":1930000000000,"state":"active","ping":73},{"user_id":69,"name":"PaC","steam_id":76561198081053203,"connected_time":3688000000000,"state":"active","ping":57},{"user_id":93,"name":"meat glasses","steam_id":76561198046742645,"connected_time":1271000000000,"state":"active","ping":90},{"user_id":108,"name":"BreadPunk","steam_id":76561198170185314,"connected_time":102000000000,"state":"active","ping":54},{"user_id":105,"name":"that wasnt funny pal","steam_id":76561198837926595,"connected_time":236000000000,"state":"active","ping":75},{"user_id":95,"name":"glue sniffer","steam_id":76561198044689778,"connected_time":1159000000000,"state":"active","ping":88},{"user_id":102,"name":"Midinight","steam_id":76561198071357054,"connected_time":349000000000,"state":"active","ping":85},{"user_id":63,"name":"PlugFromBehind","steam_id":76561198143283800,"connected_time":4306000000000,"state":"active","ping":48},{"user_id":79,"name":"Menacing Pyukumuku","steam_id":76561198120540307,"connected_time":2406000000000,"state":"active","ping":65},{"user_id":103,"name":"bilo9901","steam_id":76561198091930188,"connected_time":312000000000,"state":"active","ping":100},{"user_id":59,"name":"Zemlynn","steam_id":76561198072474034,"connected_time":5240000000000,"state":"active","ping":76},{"user_id":39,"name":"That70sDog","steam_id":76561198119396142,"connected_time":5916000000000,"state":"active","ping":65},{"user_id":97,"name":"carlos miguel","steam_id":76561198047688235,"connected_time":1090000000000,"state":"active","ping":77},{"user_id":106,"name":"ふわふわ毛布","steam_id":76561198088403016,"connected_time":217000000000,"state":"active","ping":180},{"user_id":98,"name":"matt_rolltide","steam_id":76561198796727164,"connected_time":1055000000000,"state":"active","ping":62},{"user_id":87,"name":"dogpetter39","steam_id":76561198869058885,"connected_time":1537000000000,"state":"active","ping":67}]},{"server_id":108,"name":"Uncletopia | Dallas | 2 | All Maps","name_short":"dal-2","host":"dal-1.us.uncletopia.com","port":27025,"enabled":true,"region":"us-central","cc":"us","latitude":32.779167,"longitude":-96.80889,"reserved":0,"last_update":"0001-01-01T00:00:00Z","name_a2s":"Uncletopia | Dallas | 2 | All Maps","protocol":17,"map":"pl_swiftwater_final1","folder":"tf","game":"Team Fortress","app_id":440,"player_count":13,"max_players":24,"Bots":0,"server_type":"Dedicated","server_os":"Linux","password":true,"vac":true,"version":"7882260","steam_id":85568392924469988,"keywords":["nocrits","nodmgspread","payload","uncletopia"],"game_id":440,"stv_port":27026,"stv_name":"Uncletopia | Dallas | 2 | All Maps | STV","players":[{"user_id":14,"name":"smaerdevahot","steam_id":76561198369075257,"connected_time":1880000000000,"state":"active","ping":107},{"user_id":42,"name":"Medic Boyfriend","steam_id":76561198104086771,"connected_time":695000000000,"state":"active","ping":74},{"user_id":10,"name":"Aisforlike","steam_id":76561199482110668,"connected_time":2419000000000,"state":"active","ping":35},{"user_id":11,"name":"odacovA","steam_id":76561199383345208,"connected_time":2405000000000,"state":"active","ping":42},{"user_id":13,"name":"Demonica","steam_id":76561198841858340,"connected_time":1941000000000,"state":"active","ping":73},{"user_id":15,"name":"Moonshine ❤","steam_id":76561198845493062,"connected_time":1814000000000,"state":"active","ping":127},{"user_id":19,"name":"Sup m8","steam_id":76561198081659121,"connected_time":1574000000000,"state":"active","ping":34},{"user_id":44,"name":"5yt","steam_id":76561198041643833,"connected_time":634000000000,"state":"active","ping":59},{"user_id":23,"name":"aintnowaiyboi","steam_id":76561198301372369,"connected_time":1467000000000,"state":"active","ping":33},{"user_id":27,"name":"Titus Tyrwitt","steam_id":76561197990779673,"connected_time":1383000000000,"state":"active","ping":73},{"user_id":36,"name":"Porky Minch","steam_id":76561198116168773,"connected_time":1139000000000,"state":"active","ping":75},{"user_id":40,"name":"Len","steam_id":76561199141913673,"connected_time":878000000000,"state":"active","ping":54},{"user_id":32,"name":"Jackie_Lope","steam_id":76561198048297412,"connected_time":1323000000000,"state":"active","ping":75}]},{"server_id":5,"name":"Uncletopia | Frankfurt | 1 | All Maps","name_short":"frk-1","host":"frk-1.de.uncletopia.com","port":27015,"enabled":true,"region":"eu","cc":"de","latitude":50.110924,"longitude":8.682127,"reserved":0,"last_update":"0001-01-01T00:00:00Z","name_a2s":"Uncletopia | Frankfurt | 1 | All Maps","protocol":17,"map":"cp_dustbowl","folder":"tf","game":"Team Fortress","app_id":440,"player_count":24,"max_players":24,"Bots":0,"server_type":"Dedicated","server_os":"Linux","password":true,"vac":true,"version":"7882260","steam_id":85568392924469989,"keywords":["cp","nocrits","nodmgspread","uncletopia"],"game_id":440,"stv_port":27016,"stv_name":"Uncletopia | Frankfurt | 1 | All Maps | STV","players":[{"user_id":200,"name":"HwK!","steam_id":76561198287835588,"connected_time":5333000000000,"state":"active","ping":88},{"user_id":253,"name":"Dolcelatte","steam_id":76561198038501770,"connected_time":2216000000000,"state":"active","ping":52},{"user_id":254,"name":"CarBombEnthusiast","steam_id":76561199448185434,"connected_time":2195000000000,"state":"active","ping":66},{"user_id":255,"name":"Dark Wizart","steam_id":76561198377689439,"connected_time":2157000000000,"state":"active","ping":70},{"user_id":256,"name":"Leibeigener","steam_id":76561199275478305,"connected_time":2104000000000,"state":"active","ping":41},{"user_id":307,"name":"autism's strongest sodlier.","steam_id":76561198317434881,"connected_time":733000000000,"state":"active","ping":60},{"user_id":304,"name":"Oxitocin","steam_id":76561198119542899,"connected_time":1326000000000,"state":"active","ping":74},{"user_id":239,"name":"Marcos","steam_id":76561198798925721,"connected_time":3384000000000,"state":"active","ping":76},{"user_id":308,"name":"SCRAMMMBLED","steam_id":76561197998307746,"connected_time":530000000000,"state":"active","ping":64},{"user_id":305,"name":"Zeta","steam_id":76561198101917105,"connected_time":1180000000000,"state":"active","ping":164},{"user_id":257,"name":"Perämiehenä","steam_id":76561197968945306,"connected_time":2082000000000,"state":"active","ping":76},{"user_id":311,"name":"Watermelon","steam_id":76561198078349914,"connected_time":354000000000,"state":"active","ping":61},{"user_id":309,"name":"[V.I.P] Элемент[174]","steam_id":76561198156737439,"connected_time":506000000000,"state":"active","ping":123},{"user_id":283,"name":"Loyde","steam_id":76561198029919524,"connected_time":1641000000000,"state":"active","ping":110},{"user_id":261,"name":"Laysketchup","steam_id":76561198798891390,"connected_time":2027000000000,"state":"active","ping":57},{"user_id":303,"name":"Negative IQ","steam_id":76561198110470565,"connected_time":1390000000000,"state":"active","ping":101},{"user_id":242,"name":"Hoff","steam_id":76561198138540938,"connected_time":3339000000000,"state":"active","ping":78},{"user_id":234,"name":"Urfangonultasadana","steam_id":76561199389286151,"connected_time":3714000000000,"state":"active","ping":94},{"user_id":247,"name":"Timpanojnoj","steam_id":76561197970334448,"connected_time":2770000000000,"state":"active","ping":75},{"user_id":263,"name":"aki42","steam_id":76561197979359811,"connected_time":1999000000000,"state":"active","ping":142},{"user_id":244,"name":"ĆpunTaBaLuga","steam_id":76561198843629649,"connected_time":3155000000000,"state":"active","ping":79},{"user_id":284,"name":"STANISLAV","steam_id":76561198007394937,"connected_time":1635000000000,"state":"active","ping":98},{"user_id":211,"name":"TonTon","steam_id":76561198145468895,"connected_time":4715000000000,"state":"active","ping":49},{"user_id":167,"name":"Емне_Гров","steam_id":76561198079990237,"connected_time":7389000000000,"state":"active","ping":120}]},{"server_id":110,"name":"Uncletopia | Frankfurt | 2 | All Maps","name_short":"frk-2","host":"frk-1.de.uncletopia.com","port":27025,"enabled":true,"region":"eu","cc":"de","latitude":50.110924,"longitude":8.682127,"reserved":0,"last_update":"0001-01-01T00:00:00Z","name_a2s":"Uncletopia | Frankfurt | 2 | All Maps","protocol":17,"map":"pl_swiftwater_final1","folder":"tf","game":"Team Fortress","app_id":440,"player_count":0,"max_players":24,"Bots":0,"server_type":"Dedicated","server_os":"Linux","password":true,"vac":true,"version":"7882260","steam_id":85568392924469990,"keywords":["nocrits","nodmgspread","payload","uncletopia"],"game_id":440,"stv_port":27026,"stv_name":"Uncletopia | Frankfurt | 2 | All Maps | STV","players":null},{"server_id":308,"name":"Uncletopia | Frankfurt | 3 | All Maps","name_short":"frk-3","host":"frk-1.de.uncletopia.com","port":27035,"enabled":true,"region":"eu","cc":"de","latitude":50.110924,"longitude":8.682127,"reserved":0,"last_update":"0001-01-01T00:00:00Z","name_a2s":"Uncletopia | Frankfurt | 3 | All Maps","protocol":17,"map":"pl_snowycoast","folder":"tf","game":"Team Fortress","app_id":440,"player_count":0,"max_players":24,"Bots":0,"server_type":"Dedicated","server_os":"Linux","password":true,"vac":true,"version":"7882260","steam_id":85568392924504274,"keywords":["nocrits","nodmgspread","payload","uncletopia"],"game_id":440,"stv_port":27036,"stv_name":"Uncletopia | Frankfurt | 3 | All Maps | STV","players":null},{"server_id":309,"name":"Uncletopia | Frankfurt | 4 | All Maps","name_short":"frk-4","host":"frk-1.de.uncletopia.com","port":27045,"enabled":true,"region":"eu","cc":"de","latitude":50.110924,"longitude":8.682127,"reserved":0,"last_update":"0001-01-01T00:00:00Z","name_a2s":"Uncletopia | Frankfurt | 4 | All Maps","protocol":17,"map":"koth_lakeside_final","folder":"tf","game":"Team Fortress","app_id":440,"player_count":0,"max_players":24,"Bots":0,"server_type":"Dedicated","server_os":"Linux","password":true,"vac":true,"version":"7882260","steam_id":85568392924504275,"keywords":["cp","nocrits","nodmgspread","uncletopia"],"game_id":440,"stv_port":27046,"stv_name":"Uncletopia | Frankfurt | 4 | All Maps | STV","players":null},{"server_id":310,"name":"Uncletopia | Frankfurt | 5 | All Maps","name_short":"frk-5","host":"frk-1.de.uncletopia.com","port":27055,"enabled":true,"region":"eu","cc":"de","latitude":50.110924,"longitude":8.682127,"reserved":0,"last_update":"0001-01-01T00:00:00Z","name_a2s":"Uncletopia | Frankfurt | 5 | All Maps","protocol":17,"map":"koth_viaduct","folder":"tf","game":"Team Fortress","app_id":440,"player_count":0,"max_players":24,"Bots":0,"server_type":"Dedicated","server_os":"Linux","password":true,"vac":true,"version":"7882260","steam_id":85568392924504277,"keywords":["cp","nocrits","nodmgspread","uncletopia"],"game_id":440,"stv_port":27056,"stv_name":"Uncletopia | Frankfurt | 5 | All Maps | STV","players":null},{"server_id":311,"name":"Uncletopia | Frankfurt | 6 | All Maps","name_short":"frk-6","host":"frk-1.de.uncletopia.com","port":27065,"enabled":true,"region":"eu","cc":"de","latitude":50.110924,"longitude":8.682127,"reserved":0,"last_update":"0001-01-01T00:00:00Z","name_a2s":"Uncletopia | Frankfurt | 6 | All Maps","protocol":17,"map":"cp_sunshine","folder":"tf","game":"Team Fortress","app_id":440,"player_count":23,"max_players":24,"Bots":0,"server_type":"Dedicated","server_os":"Linux","password":true,"vac":true,"version":"7882260","steam_id":85568392924504278,"keywords":["cp","nocrits","nodmgspread","uncletopia"],"game_id":440,"stv_port":27066,"stv_name":"Uncletopia | Frankfurt | 6 | All Maps | STV","players":[{"user_id":60,"name":"Melford","steam_id":76561198319650677,"connected_time":1104000000000,"state":"active","ping":152},{"user_id":79,"name":"Bill Bondy","steam_id":76561199414460378,"connected_time":348000000000,"state":"active","ping":63},{"user_id":67,"name":"mp1mp2mp3","steam_id":76561198088967665,"connected_time":700000000000,"state":"active","ping":85},{"user_id":78,"name":"AddamsFamilyReject","steam_id":76561198035046824,"connected_time":381000000000,"state":"active","ping":69},{"user_id":10,"name":"ran is running","steam_id":76561199443185667,"connected_time":4210000000000,"state":"active","ping":142},{"user_id":66,"name":"Milo","steam_id":76561198399302307,"connected_time":781000000000,"state":"active","ping":64},{"user_id":58,"name":"askulap","steam_id":76561197992018795,"connected_time":1261000000000,"state":"active","ping":99},{"user_id":80,"name":"Doktor Drip","steam_id":76561198843329045,"connected_time":347000000000,"state":"active","ping":94},{"user_id":16,"name":"piss man (real)","steam_id":76561198839843428,"connected_time":3849000000000,"state":"active","ping":122},{"user_id":17,"name":"SWAG MESSIAH Z V","steam_id":76561198992528373,"connected_time":3837000000000,"state":"active","ping":79},{"user_id":73,"name":"FanFish","steam_id":76561199389558024,"connected_time":562000000000,"state":"active","ping":63},{"user_id":81,"name":"正統派ラビ ビル・クリ","steam_id":76561198123475157,"connected_time":334000000000,"state":"active","ping":68},{"user_id":88,"name":"Suvis","steam_id":76561198153048602,"connected_time":141000000000,"state":"active","ping":84},{"user_id":69,"name":"The Daniella","steam_id":76561198023075547,"connected_time":649000000000,"state":"active","ping":63},{"user_id":83,"name":"Trollstoy","steam_id":76561198072017175,"connected_time":263000000000,"state":"active","ping":63},{"user_id":85,"name":"Marky","steam_id":76561199474556920,"connected_time":194000000000,"state":"active","ping":101},{"user_id":84,"name":"wvwaxhtp","steam_id":76561198237038646,"connected_time":239000000000,"state":"active","ping":58},{"user_id":51,"name":"prof","steam_id":76561199259054621,"connected_time":1748000000000,"state":"active","ping":66},{"user_id":86,"name":"Chopperson_","steam_id":76561198873728497,"connected_time":192000000000,"state":"active","ping":118},{"user_id":62,"name":"Zedespook","steam_id":76561198265479349,"connected_time":1020000000000,"state":"active","ping":58},{"user_id":71,"name":"Princess Fuzz","steam_id":76561198025783000,"connected_time":607000000000,"state":"active","ping":44},{"user_id":53,"name":"Muppburg","steam_id":76561198031070682,"connected_time":1738000000000,"state":"active","ping":73},{"user_id":63,"name":"Milosz52","steam_id":76561199060940204,"connected_time":1003000000000,"state":"active","ping":75}]},{"server_id":23,"name":"Uncletopia | Frankfurt | 7 | Stopwatch Beta","name_short":"frk-7","host":"frk-1.de.uncletopia.com","port":27075,"enabled":true,"region":"eu","cc":"de","latitude":50.110924,"longitude":8.682127,"reserved":0,"last_update":"0001-01-01T00:00:00Z","name_a2s":"Uncletopia | Frankfurt | 7 | Stopwatch Beta","protocol":17,"map":"pl_swiftwater_final1","folder":"tf","game":"Team Fortress","app_id":440,"player_count":0,"max_players":24,"Bots":0,"server_type":"Dedicated","server_os":"Linux","password":true,"vac":true,"version":"7882260","steam_id":85568392924742827,"keywords":["nocrits","nodmgspread","payload","uncletopia"],"game_id":440,"stv_port":27076,"stv_name":"Uncletopia | Frankfurt | 7 | Stopwatch Beta | STV","players":null},{"server_id":24,"name":"Uncletopia | Frankfurt | 8 | Community","name_short":"frk-8","host":"frk-1.de.uncletopia.com","port":27085,"enabled":true,"region":"eu","cc":"de","latitude":50.110924,"longitude":8.682127,"reserved":0,"last_update":"0001-01-01T00:00:00Z","name_a2s":"Uncletopia | Frankfurt | 8 | Community","protocol":17,"map":"workshop/rd_asteroid_redux_b1.ugc2154902912","folder":"tf","game":"Team Fortress","app_id":440,"player_count":0,"max_players":24,"Bots":0,"server_type":"Dedicated","server_os":"Linux","password":true,"vac":true,"version":"7882260","steam_id":85568392924742828,"keywords":["beta","nocrits","nodmgspread","rd","uncletopia"],"game_id":440,"stv_port":27086,"stv_name":"Uncletopia | Frankfurt | 8 | Community | STV","players":null},{"server_id":202,"name":"Uncletopia | Hong Kong | 1 | All Maps","name_short":"hgk-1","host":"hgk-1.hk.uncletopia.com","port":27015,"enabled":true,"region":"asia","cc":"hk","latitude":22.302711,"longitude":114.177216,"reserved":0,"last_update":"0001-01-01T00:00:00Z","name_a2s":"Uncletopia | Hong Kong | 1 | All Maps","protocol":17,"map":"pl_snowycoast","folder":"tf","game":"Team Fortress","app_id":440,"player_count":17,"max_players":24,"Bots":0,"server_type":"Dedicated","server_os":"Linux","password":true,"vac":true,"version":"7882260","steam_id":85568392924494504,"keywords":["nocrits","nodmgspread","payload","uncletopia"],"game_id":440,"stv_port":27016,"stv_name":"Uncletopia | Hong Kong | 1 | All Maps | STV","players":[{"user_id":486,"name":"Cazurey","steam_id":76561198005403459,"connected_time":2836000000000,"state":"active","ping":66},{"user_id":505,"name":"Top_Shy_Boi","steam_id":76561198038980044,"connected_time":1285000000000,"state":"active","ping":86},{"user_id":521,"name":"Recreational Heroin User","steam_id":76561198338185850,"connected_time":138000000000,"state":"active","ping":151},{"user_id":487,"name":"Beef Wellington","steam_id":76561197995635241,"connected_time":2819000000000,"state":"active","ping":122},{"user_id":210,"name":"쿠키","steam_id":76561197997220367,"connected_time":7482000000000,"state":"active","ping":44},{"user_id":323,"name":"母の肉団子@hao123.com","steam_id":76561198069561896,"connected_time":5327000000000,"state":"active","ping":31},{"user_id":409,"name":"Tyxant","steam_id":76561198091066056,"connected_time":4020000000000,"state":"active","ping":93},{"user_id":520,"name":"Waltuh (CEO of Chicanery)","steam_id":76561199257300024,"connected_time":287000000000,"state":"active","ping":71},{"user_id":502,"name":"P","steam_id":76561198304514505,"connected_time":1993000000000,"state":"active","ping":69},{"user_id":494,"name":"broccoli","steam_id":76561198838171912,"connected_time":2521000000000,"state":"active","ping":91},{"user_id":499,"name":"Hằng Ra đơ","steam_id":76561199373637717,"connected_time":2173000000000,"state":"active","ping":78},{"user_id":511,"name":"Thisismyname","steam_id":76561199223369287,"connected_time":1074000000000,"state":"active","ping":89},{"user_id":515,"name":"coundmith","steam_id":76561199230994355,"connected_time":758000000000,"state":"active","ping":76},{"user_id":516,"name":"8illY","steam_id":76561198143092870,"connected_time":750000000000,"state":"active","ping":43},{"user_id":517,"name":"m 1 k o","steam_id":76561198337154745,"connected_time":733000000000,"state":"active","ping":127},{"user_id":519,"name":"GAMA","steam_id":76561198049755630,"connected_time":620000000000,"state":"active","ping":109},{"user_id":189,"name":"DanePleaseOpenMoreAsiaServers","steam_id":76561199190321580,"connected_time":8595000000000,"state":"active","ping":72}]},{"server_id":1,"name":"Uncletopia | Los Angeles | 1 | All Maps","name_short":"lax-1","host":"lax-1.us.uncletopia.com","port":27015,"enabled":true,"region":"us-west","cc":"us","latitude":33.94279,"longitude":-118.41004,"reserved":0,"last_update":"0001-01-01T00:00:00Z","name_a2s":"Uncletopia | Los Angeles | 1 | All Maps","protocol":17,"map":"cp_coldfront","folder":"tf","game":"Team Fortress","app_id":440,"player_count":0,"max_players":24,"Bots":0,"server_type":"Dedicated","server_os":"Linux","password":true,"vac":true,"version":"7882260","steam_id":85568392924469991,"keywords":["cp","nocrits","nodmgspread","uncletopia"],"game_id":440,"stv_port":27016,"stv_name":"Uncletopia | Los Angeles | 1 | All Maps | STV","players":null},{"server_id":112,"name":"Uncletopia | Los Angeles | 2 | All Maps","name_short":"lax-2","host":"lax-1.us.uncletopia.com","port":27025,"enabled":true,"region":"us-west","cc":"us","latitude":33.94279,"longitude":-118.41004,"reserved":0,"last_update":"0001-01-01T00:00:00Z","name_a2s":"Uncletopia | Los Angeles | 2 | All Maps","protocol":17,"map":"cp_altitude","folder":"tf","game":"Team Fortress","app_id":440,"player_count":0,"max_players":24,"Bots":0,"server_type":"Dedicated","server_os":"Linux","password":true,"vac":true,"version":"7882260","steam_id":85568392924469992,"keywords":["cp","nocrits","nodmgspread","uncletopia"],"game_id":440,"stv_port":27026,"stv_name":"Uncletopia | Los Angeles | 2 | All Maps | STV","players":null},{"server_id":324,"name":"Uncletopia | Los Angeles | 3 | All Maps","name_short":"lax-3","host":"lax-1.us.uncletopia.com","port":27035,"enabled":true,"region":"us-west","cc":"us","latitude":33.94279,"longitude":-118.41004,"reserved":0,"last_update":"0001-01-01T00:00:00Z","name_a2s":"Uncletopia | Los Angeles | 3 | All Maps","protocol":17,"map":"pl_swiftwater_final1","folder":"tf","game":"Team Fortress","app_id":440,"player_count":0,"max_players":24,"Bots":0,"server_type":"Dedicated","server_os":"Linux","password":true,"vac":true,"version":"7882260","steam_id":85568392924510198,"keywords":["nocrits","nodmgspread","payload","uncletopia"],"game_id":440,"stv_port":27036,"stv_name":"Uncletopia | Los Angeles | 3 | All Maps | STV","players":null},{"server_id":25,"name":"Uncletopia | Los Angeles | 4 | Stopwatch Beta","name_short":"lax-4","host":"lax-1.us.uncletopia.com","port":27045,"enabled":true,"region":"us-west","cc":"us","latitude":33.94279,"longitude":-118.41004,"reserved":0,"last_update":"0001-01-01T00:00:00Z","name_a2s":"Uncletopia | Los Angeles | 4 | Stopwatch Beta","protocol":17,"map":"koth_viaduct","folder":"tf","game":"Team Fortress","app_id":440,"player_count":0,"max_players":24,"Bots":0,"server_type":"Dedicated","server_os":"Linux","password":true,"vac":true,"version":"7882260","steam_id":85568392924510199,"keywords":["cp","nocrits","nodmgspread","uncletopia"],"game_id":440,"stv_port":27046,"stv_name":"Uncletopia | Los Angeles | 4 | Stopwatch Beta | STV","players":null},{"server_id":11,"name":"Uncletopia | London | 1 | All Maps","name_short":"lon-1","host":"lon-1.uk.uncletopia.com","port":27015,"enabled":true,"region":"eu","cc":"gb","latitude":51.509865,"longitude":-0.118092,"reserved":0,"last_update":"0001-01-01T00:00:00Z","name_a2s":"Uncletopia | London | 1 | All Maps","protocol":17,"map":"pl_frontier_final","folder":"tf","game":"Team Fortress","app_id":440,"player_count":24,"max_players":24,"Bots":0,"server_type":"Dedicated","server_os":"Linux","password":true,"vac":true,"version":"7882260","steam_id":85568392924367362,"keywords":["nocrits","nodmgspread","payload","uncletopia"],"game_id":440,"stv_port":27016,"stv_name":"Uncletopia | London | 1 | All Maps | STV","players":[{"user_id":85,"name":"fishska","steam_id":76561198051166015,"connected_time":3406000000000,"state":"active","ping":57},{"user_id":118,"name":"Dr. Mike","steam_id":76561197991205793,"connected_time":818000000000,"state":"active","ping":83},{"user_id":110,"name":"Scobra [FR]","steam_id":76561198000734400,"connected_time":1160000000000,"state":"active","ping":115},{"user_id":105,"name":"Margret Thatcher Gaming","steam_id":76561198156544609,"connected_time":1364000000000,"state":"active","ping":77},{"user_id":104,"name":"Pyrolander","steam_id":76561198050785450,"connected_time":1366000000000,"state":"active","ping":44},{"user_id":112,"name":"Star_","steam_id":76561198160975698,"connected_time":1106000000000,"state":"active","ping":70},{"user_id":106,"name":"lofimonkeyjazz","steam_id":76561198117059662,"connected_time":1352000000000,"state":"active","ping":82},{"user_id":120,"name":"Borkz","steam_id":76561198287461065,"connected_time":516000000000,"state":"active","ping":57},{"user_id":65,"name":"Max Power","steam_id":76561198019269089,"connected_time":5042000000000,"state":"active","ping":59},{"user_id":125,"name":"peter","steam_id":76561198954685518,"connected_time":55000000000,"state":"active","ping":61},{"user_id":102,"name":"BlueBlueFox","steam_id":76561198053817230,"connected_time":1509000000000,"state":"active","ping":79},{"user_id":45,"name":"hot guy","steam_id":76561198083063005,"connected_time":6011000000000,"state":"active","ping":44},{"user_id":75,"name":"dry hair gaming","steam_id":76561198193357946,"connected_time":4340000000000,"state":"active","ping":99},{"user_id":101,"name":"nappo","steam_id":76561198060105180,"connected_time":1809000000000,"state":"active","ping":71},{"user_id":89,"name":"wardex","steam_id":76561198058776834,"connected_time":2730000000000,"state":"active","ping":60},{"user_id":86,"name":"That Brown Nerd","steam_id":76561198196685086,"connected_time":3392000000000,"state":"active","ping":60},{"user_id":103,"name":"Hydrone","steam_id":76561198046485365,"connected_time":1473000000000,"state":"active","ping":50},{"user_id":121,"name":"Maya","steam_id":76561198128616615,"connected_time":514000000000,"state":"active","ping":73},{"user_id":36,"name":"Piteras","steam_id":76561198858532207,"connected_time":6489000000000,"state":"active","ping":86},{"user_id":123,"name":"fregaropa","steam_id":76561198150806166,"connected_time":269000000000,"state":"active","ping":80},{"user_id":88,"name":"Purps","steam_id":76561198053886680,"connected_time":2849000000000,"state":"active","ping":44},{"user_id":124,"name":"Haha?","steam_id":76561198056882245,"connected_time":184000000000,"state":"active","ping":43},{"user_id":111,"name":"Helon","steam_id":76561198050761682,"connected_time":1156000000000,"state":"active","ping":65},{"user_id":119,"name":"Mr. Luigi","steam_id":76561198167312951,"connected_time":803000000000,"state":"active","ping":43}]},{"server_id":114,"name":"Uncletopia | London | 2 | All Maps","name_short":"lon-2","host":"lon-1.uk.uncletopia.com","port":27025,"enabled":true,"region":"eu","cc":"gb","latitude":51.509865,"longitude":-0.118092,"reserved":0,"last_update":"0001-01-01T00:00:00Z","name_a2s":"Uncletopia | London | 2 | All Maps","protocol":17,"map":"koth_viaduct","folder":"tf","game":"Team Fortress","app_id":440,"player_count":23,"max_players":24,"Bots":0,"server_type":"Dedicated","server_os":"Linux","password":true,"vac":true,"version":"7882260","steam_id":85568392924470941,"keywords":["cp","nocrits","nodmgspread","uncletopia"],"game_id":440,"stv_port":27026,"stv_name":"Uncletopia | London | 2 | All Maps | STV","players":[{"user_id":98,"name":"martin","steam_id":76561198448232451,"connected_time":2297000000000,"state":"active","ping":70},{"user_id":107,"name":"*DEAD*","steam_id":76561199199499453,"connected_time":1836000000000,"state":"active","ping":69},{"user_id":96,"name":"lukethepumpkin","steam_id":76561198204158335,"connected_time":2341000000000,"state":"active","ping":129},{"user_id":126,"name":"daniel balls","steam_id":76561199023050804,"connected_time":730000000000,"state":"active","ping":91},{"user_id":127,"name":"Makłowicz","steam_id":76561198281831506,"connected_time":659000000000,"state":"active","ping":89},{"user_id":125,"name":"medicinal man","steam_id":76561198202668788,"connected_time":764000000000,"state":"active","ping":66},{"user_id":139,"name":"t/tv Mads_TF","steam_id":76561198089261782,"connected_time":21000000000,"state":"active","ping":61},{"user_id":20,"name":"Kromo Chris","steam_id":76561198103273606,"connected_time":5402000000000,"state":"active","ping":71},{"user_id":104,"name":"I-I","steam_id":76561198267969436,"connected_time":2175000000000,"state":"active","ping":66},{"user_id":136,"name":"quote enemy of albania unquote","steam_id":76561198013502376,"connected_time":204000000000,"state":"active","ping":59},{"user_id":128,"name":"jge","steam_id":76561198123186387,"connected_time":640000000000,"state":"active","ping":60},{"user_id":113,"name":"B-17 FLYING FORTRESS","steam_id":76561199239974737,"connected_time":1314000000000,"state":"active","ping":83},{"user_id":123,"name":"SirSangoor","steam_id":76561198044462559,"connected_time":799000000000,"state":"active","ping":120},{"user_id":129,"name":"Kagawa","steam_id":76561199104212993,"connected_time":619000000000,"state":"active","ping":61},{"user_id":130,"name":"KRYPT1CC\u003c3","steam_id":76561198402896847,"connected_time":603000000000,"state":"active","ping":46},{"user_id":131,"name":"Inigo","steam_id":76561198107314768,"connected_time":542000000000,"state":"active","ping":69},{"user_id":137,"name":"murderwow","steam_id":76561198024566944,"connected_time":177000000000,"state":"active","ping":105},{"user_id":84,"name":"CrèmèdSphere","steam_id":76561198016962137,"connected_time":3234000000000,"state":"active","ping":69},{"user_id":88,"name":"LT.Steeamer","steam_id":76561198271938142,"connected_time":2888000000000,"state":"active","ping":62},{"user_id":132,"name":"Irish Angel","steam_id":76561198032059287,"connected_time":540000000000,"state":"active","ping":45},{"user_id":141,"name":"mohammed","steam_id":76561198156087581,"connected_time":16000000000,"state":"spawning","ping":85},{"user_id":109,"name":"rajAs","steam_id":76561198035928111,"connected_time":1770000000000,"state":"active","ping":84},{"user_id":134,"name":"Milk","steam_id":76561198125876588,"connected_time":485000000000,"state":"active","ping":38}]},{"server_id":320,"name":"Uncletopia | London | 3 | All Maps","name_short":"lon-3","host":"lon-1.uk.uncletopia.com","port":27035,"enabled":true,"region":"eu","cc":"gb","latitude":51.509865,"longitude":-0.118092,"reserved":0,"last_update":"0001-01-01T00:00:00Z","name_a2s":"Uncletopia | London | 3 | All Maps","protocol":17,"map":"pl_upward","folder":"tf","game":"Team Fortress","app_id":440,"player_count":24,"max_players":24,"Bots":0,"server_type":"Dedicated","server_os":"Linux","password":true,"vac":true,"version":"7882260","steam_id":85568392924510192,"keywords":["nocrits","nodmgspread","payload","uncletopia"],"game_id":440,"stv_port":27036,"stv_name":"Uncletopia | London | 3 | All Maps | STV","players":[{"user_id":408,"name":"John Fortress","steam_id":76561197984661199,"connected_time":2678000000000,"state":"active","ping":41},{"user_id":443,"name":"bonour74","steam_id":76561199089910337,"connected_time":682000000000,"state":"active","ping":156},{"user_id":337,"name":"snowycoast","steam_id":76561198346638308,"connected_time":6444000000000,"state":"active","ping":55},{"user_id":436,"name":"♥ Emma ♥","steam_id":76561198046796406,"connected_time":994000000000,"state":"active","ping":55},{"user_id":373,"name":"Mr.O #deletesniper","steam_id":76561198039567498,"connected_time":5171000000000,"state":"active","ping":57},{"user_id":416,"name":"mindas tf2.LT","steam_id":76561198056839438,"connected_time":2147000000000,"state":"active","ping":72},{"user_id":417,"name":"KnugenIV","steam_id":76561198127091993,"connected_time":2144000000000,"state":"active","ping":64},{"user_id":428,"name":"Ježek :)","steam_id":76561198127703483,"connected_time":1270000000000,"state":"active","ping":68},{"user_id":444,"name":"♉ LEIGULAS ♉","steam_id":76561198006815007,"connected_time":312000000000,"state":"active","ping":83},{"user_id":433,"name":"Gwishin","steam_id":76561198257158275,"connected_time":1056000000000,"state":"active","ping":152},{"user_id":437,"name":"☞LaZe☜","steam_id":76561198202191400,"connected_time":992000000000,"state":"active","ping":48},{"user_id":353,"name":"AmssoBador Spacelot","steam_id":76561197993444617,"connected_time":6092000000000,"state":"active","ping":103},{"user_id":434,"name":"Spillefuglen","steam_id":76561198065670387,"connected_time":1054000000000,"state":"active","ping":76},{"user_id":438,"name":"Bambi","steam_id":76561198166972711,"connected_time":960000000000,"state":"active","ping":57},{"user_id":419,"name":"Archer's Heatmaker","steam_id":76561198928406571,"connected_time":2041000000000,"state":"active","ping":172},{"user_id":422,"name":"Medieval Doktor","steam_id":76561198075373362,"connected_time":1992000000000,"state":"active","ping":41},{"user_id":445,"name":"Kahvi","steam_id":76561198723244199,"connected_time":307000000000,"state":"active","ping":76},{"user_id":439,"name":"PerpetuaForever","steam_id":76561198347444353,"connected_time":941000000000,"state":"active","ping":116},{"user_id":399,"name":"Pixar Cars on the PS2","steam_id":76561198079386295,"connected_time":3530000000000,"state":"active","ping":60},{"user_id":440,"name":"MØNSTER Kidou","steam_id":76561198077950315,"connected_time":931000000000,"state":"active","ping":89},{"user_id":441,"name":"kreeekz","steam_id":76561198014431602,"connected_time":774000000000,"state":"active","ping":79},{"user_id":400,"name":"blazeeight","steam_id":76561198159456502,"connected_time":3466000000000,"state":"active","ping":49},{"user_id":413,"name":"kilo","steam_id":76561198015641339,"connected_time":2421000000000,"state":"active","ping":81},{"user_id":450,"name":"happyrain TF2.LT","steam_id":76561198216693185,"connected_time":9000000000,"state":"active","ping":139}]},{"server_id":321,"name":"Uncletopia | London | 4 | All Maps","name_short":"lon-4","host":"lon-1.uk.uncletopia.com","port":27045,"enabled":true,"region":"eu","cc":"gb","latitude":51.509865,"longitude":-0.118092,"reserved":0,"last_update":"0001-01-01T00:00:00Z","name_a2s":"Uncletopia | London | 4 | All Maps","protocol":17,"map":"koth_viaduct","folder":"tf","game":"Team Fortress","app_id":440,"player_count":3,"max_players":24,"Bots":0,"server_type":"Dedicated","server_os":"Linux","password":true,"vac":true,"version":"7882260","steam_id":85568392924510193,"keywords":["cp","nocrits","nodmgspread","uncletopia"],"game_id":440,"stv_port":27046,"stv_name":"Uncletopia | London | 4 | All Maps | STV","players":[{"user_id":12,"name":"iokoieon","steam_id":76561198065009070,"connected_time":328000000000,"state":"active","ping":96},{"user_id":9,"name":"☆MiNTERRRRR☆","steam_id":76561198799866156,"connected_time":1161000000000,"state":"active","ping":133},{"user_id":11,"name":"Ray Lilith","steam_id":76561198133946866,"connected_time":497000000000,"state":"active","ping":55}]},{"server_id":21,"name":"Uncletopia | London | 5 | All Maps","name_short":"lon-5","host":"lon-1.uk.uncletopia.com","port":27055,"enabled":true,"region":"eu","cc":"gb","latitude":51.509865,"longitude":-0.118092,"reserved":0,"last_update":"0001-01-01T00:00:00Z","name_a2s":"Uncletopia | London | 5 | All Maps","protocol":17,"map":"koth_viaduct","folder":"tf","game":"Team Fortress","app_id":440,"player_count":0,"max_players":24,"Bots":0,"server_type":"Dedicated","server_os":"Linux","password":true,"vac":true,"version":"7882260","steam_id":85568392924742829,"keywords":["cp","nocrits","nodmgspread","uncletopia"],"game_id":440,"stv_port":27056,"stv_name":"Uncletopia | London | 5 | All Maps | STV","players":null},{"server_id":22,"name":"Uncletopia | London | 6 | All Maps","name_short":"lon-6","host":"lon-1.uk.uncletopia.com","port":27065,"enabled":true,"region":"eu","cc":"gb","latitude":51.509865,"longitude":-0.118092,"reserved":0,"last_update":"0001-01-01T00:00:00Z","name_a2s":"Uncletopia | London | 6 | All Maps","protocol":17,"map":"koth_lakeside_final","folder":"tf","game":"Team Fortress","app_id":440,"player_count":0,"max_players":24,"Bots":0,"server_type":"Dedicated","server_os":"Linux","password":true,"vac":true,"version":"7882260","steam_id":85568392924742830,"keywords":["cp","nocrits","nodmgspread","uncletopia"],"game_id":440,"stv_port":27066,"stv_name":"Uncletopia | London | 6 | All Maps | STV","players":null},{"server_id":40,"name":"Uncletopia | London | 7 | No Payload","name_short":"lon-7","host":"lon-1.uk.uncletopia.com","port":27075,"enabled":true,"region":"eu","cc":"gb","latitude":51.509865,"longitude":-0.118092,"reserved":0,"last_update":"0001-01-01T00:00:00Z","name_a2s":"Uncletopia | London | 7 | No Payload","protocol":17,"map":"cp_snakewater_final1","folder":"tf","game":"Team Fortress","app_id":440,"player_count":22,"max_players":24,"Bots":0,"server_type":"Dedicated","server_os":"Linux","password":true,"vac":true,"version":"7882260","steam_id":85568392924964314,"keywords":["cp","nocrits","nodmgspread","uncletopia"],"game_id":440,"stv_port":27076,"stv_name":"Uncletopia | London | 7 | No Payload | STV","players":[{"user_id":218,"name":"Mateen (pbuh)","steam_id":76561198253308058,"connected_time":1522000000000,"state":"active","ping":68},{"user_id":191,"name":"Lessoz","steam_id":76561199211572036,"connected_time":3386000000000,"state":"active","ping":87},{"user_id":203,"name":"Hussain_144","steam_id":76561198346029208,"connected_time":2540000000000,"state":"active","ping":177},{"user_id":204,"name":"FlameTheGame","steam_id":76561198841108519,"connected_time":2531000000000,"state":"active","ping":95},{"user_id":211,"name":"dog","steam_id":76561198063919822,"connected_time":2274000000000,"state":"active","ping":34},{"user_id":215,"name":"DobreStarachowickie","steam_id":76561198027126737,"connected_time":1652000000000,"state":"active","ping":72},{"user_id":229,"name":"I fart on the disabled","steam_id":76561198388750592,"connected_time":304000000000,"state":"active","ping":69},{"user_id":210,"name":"Albert","steam_id":76561198012869625,"connected_time":2355000000000,"state":"active","ping":83},{"user_id":227,"name":"Shark","steam_id":76561198205226501,"connected_time":455000000000,"state":"active","ping":154},{"user_id":209,"name":"Attomic","steam_id":76561198429145703,"connected_time":2400000000000,"state":"active","ping":59},{"user_id":193,"name":"M/S Jeeztonia","steam_id":76561198123592400,"connected_time":3353000000000,"state":"active","ping":99},{"user_id":226,"name":"literallyjasonx","steam_id":76561198835895387,"connected_time":979000000000,"state":"active","ping":69},{"user_id":219,"name":"Fasj.","steam_id":76561198049975379,"connected_time":1508000000000,"state":"active","ping":50},{"user_id":146,"name":"Sorcha The Wise","steam_id":76561198063220459,"connected_time":7637000000000,"state":"active","ping":54},{"user_id":231,"name":"SOULDOG","steam_id":76561199212057006,"connected_time":262000000000,"state":"active","ping":75},{"user_id":220,"name":"Tx_madmash","steam_id":76561198924656512,"connected_time":1471000000000,"state":"active","ping":62},{"user_id":171,"name":"Flare","steam_id":76561198039098320,"connected_time":5104000000000,"state":"active","ping":48},{"user_id":212,"name":"Rjsto","steam_id":76561198017519518,"connected_time":2219000000000,"state":"active","ping":103},{"user_id":198,"name":"MellowBoy-2354","steam_id":76561199080630632,"connected_time":3022000000000,"state":"active","ping":168},{"user_id":225,"name":"quickfast","steam_id":76561199438900919,"connected_time":1016000000000,"state":"active","ping":44},{"user_id":214,"name":"errisauroh","steam_id":76561198112701938,"connected_time":1967000000000,"state":"active","ping":60},{"user_id":213,"name":"slifer the executive producer","steam_id":76561198322087870,"connected_time":2197000000000,"state":"active","ping":110}]},{"server_id":41,"name":"Uncletopia | London | 8 | Community","name_short":"lon-8","host":"lon-1.uk.uncletopia.com","port":27085,"enabled":true,"region":"eu","cc":"gb","latitude":51.509865,"longitude":-0.118092,"reserved":0,"last_update":"0001-01-01T00:00:00Z","name_a2s":"Uncletopia | London | 8 | Community","protocol":17,"map":"workshop/cp_overgrown_rc7b.ugc503939302","folder":"tf","game":"Team Fortress","app_id":440,"player_count":0,"max_players":24,"Bots":0,"server_type":"Dedicated","server_os":"Linux","password":true,"vac":true,"version":"7882260","steam_id":85568392924964315,"keywords":["cp","nocrits","nodmgspread","uncletopia"],"game_id":440,"stv_port":27086,"stv_name":"Uncletopia | London | 8 | Community | STV","players":null},{"server_id":300,"name":"Uncletopia | Montréal | 1 | All Maps","name_short":"mtl-1","host":"mtl-1.ca.uncletopia.com","port":27015,"enabled":true,"region":"us-east","cc":"ca","latitude":45.50889,"longitude":-73.56167,"reserved":0,"last_update":"0001-01-01T00:00:00Z","name_a2s":"Uncletopia | Montréal | 1 | All Maps","protocol":17,"map":"cp_dustbowl","folder":"tf","game":"Team Fortress","app_id":440,"player_count":0,"max_players":24,"Bots":0,"server_type":"Dedicated","server_os":"Linux","password":true,"vac":true,"version":"7882260","steam_id":85568392924500087,"keywords":["cp","nocrits","nodmgspread","uncletopia"],"game_id":440,"stv_port":27016,"stv_name":"Uncletopia | Montréal | 1 | All Maps | STV","players":null},{"server_id":301,"name":"Uncletopia | Montréal | 2 | All Maps","name_short":"mtl-2","host":"mtl-1.ca.uncletopia.com","port":27025,"enabled":true,"region":"us-east","cc":"ca","latitude":45.50889,"longitude":-73.56167,"reserved":0,"last_update":"0001-01-01T00:00:00Z","name_a2s":"Uncletopia | Montréal | 2 | All Maps","protocol":17,"map":"pl_swiftwater_final1","folder":"tf","game":"Team Fortress","app_id":440,"player_count":0,"max_players":24,"Bots":0,"server_type":"Dedicated","server_os":"Linux","password":true,"vac":true,"version":"7882260","steam_id":85568392924500088,"keywords":["nocrits","nodmgspread","payload","uncletopia"],"game_id":440,"stv_port":27026,"stv_name":"Uncletopia | Montréal | 2 | All Maps | STV","players":null},{"server_id":302,"name":"Uncletopia | Montréal | 3 | All Maps","name_short":"mtl-3","host":"mtl-1.ca.uncletopia.com","port":27035,"enabled":true,"region":"us-east","cc":"ca","latitude":45.50889,"longitude":-73.56167,"reserved":0,"last_update":"0001-01-01T00:00:00Z","name_a2s":"Uncletopia | Montréal | 3 | All Maps","protocol":17,"map":"koth_highpass","folder":"tf","game":"Team Fortress","app_id":440,"player_count":0,"max_players":24,"Bots":0,"server_type":"Dedicated","server_os":"Linux","password":true,"vac":true,"version":"7882260","steam_id":85568392924500089,"keywords":["cp","nocrits","nodmgspread","uncletopia"],"game_id":440,"stv_port":27036,"stv_name":"Uncletopia | Montréal | 3 | All Maps | STV","players":null},{"server_id":303,"name":"Uncletopia | Montréal | 4 | No Payload","name_short":"mtl-4","host":"mtl-1.ca.uncletopia.com","port":27045,"enabled":true,"region":"us-east","cc":"ca","latitude":45.50889,"longitude":-73.56167,"reserved":0,"last_update":"0001-01-01T00:00:00Z","name_a2s":"Uncletopia | Montréal | 4 | No Payload","protocol":17,"map":"koth_highpass","folder":"tf","game":"Team Fortress","app_id":440,"player_count":0,"max_players":24,"Bots":0,"server_type":"Dedicated","server_os":"Linux","password":true,"vac":true,"version":"7882260","steam_id":85568392924500090,"keywords":["cp","nocrits","nodmgspread","uncletopia"],"game_id":440,"stv_port":27046,"stv_name":"Uncletopia | Montréal | 4 | No Payload | STV","players":null},{"server_id":13,"name":"Uncletopia | New York City | 1 | All Maps","name_short":"nyc-1","host":"nyc-1.us.uncletopia.com","port":27015,"enabled":true,"region":"us-east","cc":"us","latitude":40.73061,"longitude":-73.93524,"reserved":0,"last_update":"0001-01-01T00:00:00Z","name_a2s":"Uncletopia | New York City | 1 | All Maps","protocol":17,"map":"pl_badwater","folder":"tf","game":"Team Fortress","app_id":440,"player_count":24,"max_players":24,"Bots":0,"server_type":"Dedicated","server_os":"Linux","password":true,"vac":true,"version":"7882260","steam_id":85568392924469993,"keywords":["nocrits","nodmgspread","payload","uncletopia"],"game_id":440,"stv_port":27016,"stv_name":"Uncletopia | New York City | 1 | All Maps | STV","players":[{"user_id":41,"name":"SuperflySS","steam_id":76561198015603049,"connected_time":581000000000,"state":"active","ping":70},{"user_id":45,"name":"Nuuska muikkunen","steam_id":76561199017498395,"connected_time":446000000000,"state":"active","ping":146},{"user_id":34,"name":"theosw","steam_id":76561198404878570,"connected_time":920000000000,"state":"active","ping":63},{"user_id":25,"name":"Stuff550","steam_id":76561198823316498,"connected_time":1210000000000,"state":"active","ping":81},{"user_id":42,"name":"KyonHB","steam_id":76561198050311904,"connected_time":570000000000,"state":"active","ping":59},{"user_id":10,"name":"lucky","steam_id":76561198323426623,"connected_time":2605000000000,"state":"active","ping":89},{"user_id":35,"name":"MitcheyHD","steam_id":76561198066489645,"connected_time":834000000000,"state":"active","ping":66},{"user_id":43,"name":"asbestos","steam_id":76561198079178866,"connected_time":518000000000,"state":"active","ping":46},{"user_id":17,"name":"FS Jorda (She/Her)","steam_id":76561198071421459,"connected_time":1791000000000,"state":"active","ping":31},{"user_id":19,"name":"xboo1x","steam_id":76561198294661343,"connected_time":1732000000000,"state":"active","ping":40},{"user_id":47,"name":"James 4:4","steam_id":76561198121933439,"connected_time":363000000000,"state":"active","ping":78},{"user_id":37,"name":"purple","steam_id":76561198835313122,"connected_time":742000000000,"state":"active","ping":59},{"user_id":23,"name":"Skele Ton of Fun","steam_id":76561198154574280,"connected_time":1490000000000,"state":"active","ping":84},{"user_id":27,"name":"scrub","steam_id":76561198284916494,"connected_time":1169000000000,"state":"active","ping":42},{"user_id":29,"name":"shake","steam_id":76561199064204750,"connected_time":1014000000000,"state":"active","ping":68},{"user_id":30,"name":"DufsterYT","steam_id":76561199122486848,"connected_time":1006000000000,"state":"active","ping":79},{"user_id":44,"name":"NO SLEEP!","steam_id":76561199116681516,"connected_time":501000000000,"state":"active","ping":176},{"user_id":46,"name":"Steve Obi Wan Ben Larry Kenobi","steam_id":76561199154188122,"connected_time":419000000000,"state":"active","ping":72},{"user_id":48,"name":"Saul Goodman","steam_id":76561198968009574,"connected_time":321000000000,"state":"active","ping":69},{"user_id":49,"name":"smk","steam_id":76561198068027379,"connected_time":319000000000,"state":"active","ping":149},{"user_id":50,"name":"Muffin","steam_id":76561199156302434,"connected_time":301000000000,"state":"active","ping":74},{"user_id":51,"name":"Totally not CIA","steam_id":76561198237827742,"connected_time":296000000000,"state":"active","ping":45},{"user_id":52,"name":"Ave Dominus Nope","steam_id":76561198210565420,"connected_time":293000000000,"state":"active","ping":72},{"user_id":53,"name":"One Chill Daddio","steam_id":76561198074026282,"connected_time":224000000000,"state":"active","ping":61}]},{"server_id":14,"name":"Uncletopia | New York City | 2 | All Maps","name_short":"nyc-2","host":"nyc-1.us.uncletopia.com","port":27025,"enabled":true,"region":"us-east","cc":"us","latitude":40.73061,"longitude":-73.93524,"reserved":0,"last_update":"0001-01-01T00:00:00Z","name_a2s":"Uncletopia | New York City | 2 | All Maps","protocol":17,"map":"pl_frontier_final","folder":"tf","game":"Team Fortress","app_id":440,"player_count":0,"max_players":24,"Bots":0,"server_type":"Dedicated","server_os":"Linux","password":true,"vac":true,"version":"7882260","steam_id":85568392924469994,"keywords":["nocrits","nodmgspread","payload","uncletopia"],"game_id":440,"stv_port":27026,"stv_name":"Uncletopia | New York City | 2 | All Maps | STV","players":null},{"server_id":15,"name":"Uncletopia | New York City | 3 | Stopwatch Beta","name_short":"nyc-3","host":"nyc-1.us.uncletopia.com","port":27035,"enabled":true,"region":"us-east","cc":"us","latitude":40.73061,"longitude":-73.93524,"reserved":0,"last_update":"0001-01-01T00:00:00Z","name_a2s":"Uncletopia | New York City | 3 | Stopwatch Beta","protocol":17,"map":"pl_borneo","folder":"tf","game":"Team Fortress","app_id":440,"player_count":0,"max_players":24,"Bots":0,"server_type":"Dedicated","server_os":"Linux","password":true,"vac":true,"version":"7882260","steam_id":85568392924742820,"keywords":["nocrits","nodmgspread","payload","uncletopia"],"game_id":440,"stv_port":27036,"stv_name":"Uncletopia | New York City | 3 | Stopwatch Beta | STV","players":null},{"server_id":16,"name":"Uncletopia | New York City | 4 | Community","name_short":"nyc-4","host":"nyc-1.us.uncletopia.com","port":27045,"enabled":true,"region":"us-east","cc":"us","latitude":40.73061,"longitude":-73.93524,"reserved":0,"last_update":"0001-01-01T00:00:00Z","name_a2s":"Uncletopia | New York City | 4 | Community","protocol":17,"map":"cp_altitude","folder":"tf","game":"Team Fortress","app_id":440,"player_count":0,"max_players":24,"Bots":0,"server_type":"Dedicated","server_os":"Linux","password":true,"vac":true,"version":"7882260","steam_id":85568392924742821,"keywords":["cp","nocrits","nodmgspread","uncletopia"],"game_id":440,"stv_port":27046,"stv_name":"Uncletopia | New York City | 4 | Community | STV","players":null},{"server_id":142,"name":"Uncletopia | São Paulo | 1 | All Maps","name_short":"sao-1","host":"sao-1.br.uncletopia.com","port":27015,"enabled":true,"region":"sa","cc":"br","latitude":-23.533773,"longitude":-46.62529,"reserved":0,"last_update":"0001-01-01T00:00:00Z","name_a2s":"Uncletopia | São Paulo | 1 | All Maps","protocol":17,"map":"pl_upward","folder":"tf","game":"Team Fortress","app_id":440,"player_count":0,"max_players":24,"Bots":0,"server_type":"Dedicated","server_os":"Linux","password":true,"vac":true,"version":"7882260","steam_id":85568392924469996,"keywords":["nocrits","nodmgspread","payload","uncletopia"],"game_id":440,"stv_port":27016,"stv_name":"Uncletopia | São Paulo | 1 | All Maps | STV","players":null},{"server_id":143,"name":"Uncletopia | São Paulo | 2 | All Maps","name_short":"sao-2","host":"sao-2.br.uncletopia.com","port":27015,"enabled":true,"region":"sa","cc":"br","latitude":-23.533773,"longitude":-46.62529,"reserved":0,"last_update":"0001-01-01T00:00:00Z","name_a2s":"Uncletopia | São Paulo | 2 | All Maps","protocol":17,"map":"pl_frontier_final","folder":"tf","game":"Team Fortress","app_id":440,"player_count":0,"max_players":24,"Bots":0,"server_type":"Dedicated","server_os":"Linux","password":true,"vac":true,"version":"7882260","steam_id":85568392924485349,"keywords":["nocrits","nodmgspread","payload","uncletopia"],"game_id":440,"stv_port":27016,"stv_name":"Uncletopia | São Paulo | 2 | All Maps | STV","players":null},{"server_id":7,"name":"Uncletopia | Seattle | 1 | All Maps","name_short":"sea-1","host":"sea-1.us.uncletopia.com","port":27015,"enabled":true,"region":"us-west","cc":"us","latitude":47.608013,"longitude":-122.33517,"reserved":0,"last_update":"0001-01-01T00:00:00Z","name_a2s":"Uncletopia | Seattle | 1 | All Maps","protocol":17,"map":"pl_badwater","folder":"tf","game":"Team Fortress","app_id":440,"player_count":24,"max_players":24,"Bots":0,"server_type":"Dedicated","server_os":"Linux","password":true,"vac":true,"version":"7882260","steam_id":85568392924469997,"keywords":["nocrits","nodmgspread","payload","uncletopia"],"game_id":440,"stv_port":27016,"stv_name":"Uncletopia | Seattle | 1 | All Maps | STV","players":[{"user_id":118,"name":"Arche234","steam_id":76561198302695001,"connected_time":279000000000,"state":"active","ping":147},{"user_id":90,"name":"ChefBunny","steam_id":76561198243610560,"connected_time":2136000000000,"state":"active","ping":71},{"user_id":87,"name":"2023 cs 1.6 gamer","steam_id":76561198044220492,"connected_time":2525000000000,"state":"active","ping":46},{"user_id":104,"name":"Sartupial","steam_id":76561198443169940,"connected_time":969000000000,"state":"active","ping":100},{"user_id":111,"name":"Kronos_Titan","steam_id":76561199091925123,"connected_time":652000000000,"state":"active","ping":88},{"user_id":112,"name":"Ferran, Loathsome Hogsqueezer","steam_id":76561198004480302,"connected_time":596000000000,"state":"active","ping":80},{"user_id":58,"name":"uncle grandpa gaming","steam_id":76561198063024859,"connected_time":4802000000000,"state":"active","ping":119},{"user_id":119,"name":"The Caretaker","steam_id":76561198125241411,"connected_time":142000000000,"state":"active","ping":133},{"user_id":124,"name":"Honey","steam_id":76561198067374077,"connected_time":54000000000,"state":"active","ping":130},{"user_id":107,"name":"RedCo","steam_id":76561198335366889,"connected_time":844000000000,"state":"active","ping":105},{"user_id":85,"name":"dust | she/it","steam_id":76561198045218909,"connected_time":2677000000000,"state":"active","ping":37},{"user_id":113,"name":"kriddy","steam_id":76561198347660282,"connected_time":517000000000,"state":"active","ping":74},{"user_id":91,"name":"Danzig","steam_id":76561198084766105,"connected_time":2120000000000,"state":"active","ping":85},{"user_id":92,"name":"joemoe84g","steam_id":76561199141651280,"connected_time":2116000000000,"state":"active","ping":131},{"user_id":122,"name":"Bush.exe","steam_id":76561198124385307,"connected_time":91000000000,"state":"active","ping":119},{"user_id":115,"name":"Dawg","steam_id":76561198214090164,"connected_time":469000000000,"state":"active","ping":129},{"user_id":54,"name":"blozet","steam_id":76561199120161035,"connected_time":5328000000000,"state":"active","ping":96},{"user_id":116,"name":"lynks disease no sound","steam_id":76561198043465434,"connected_time":457000000000,"state":"active","ping":72},{"user_id":117,"name":"RocketofPanda(It/They)","steam_id":76561198133133187,"connected_time":440000000000,"state":"active","ping":85},{"user_id":121,"name":"PadrePockets","steam_id":76561197993251606,"connected_time":139000000000,"state":"active","ping":119},{"user_id":44,"name":"Red Hot Fish Princess [Dexgod]","steam_id":76561198017130786,"connected_time":6525000000000,"state":"active","ping":128},{"user_id":29,"name":"SMVFX","steam_id":76561199096033351,"connected_time":7880000000000,"state":"active","ping":66},{"user_id":30,"name":"mooni","steam_id":76561198263057303,"connected_time":7870000000000,"state":"active","ping":79},{"user_id":123,"name":"Cursed Dog","steam_id":76561198090785078,"connected_time":70000000000,"state":"active","ping":129}]},{"server_id":119,"name":"Uncletopia | Seattle | 2 | All Maps","name_short":"sea-2","host":"sea-1.us.uncletopia.com","port":27025,"enabled":true,"region":"us-west","cc":"us","latitude":47.608013,"longitude":-122.33517,"reserved":0,"last_update":"0001-01-01T00:00:00Z","name_a2s":"Uncletopia | Seattle | 2 | All Maps","protocol":17,"map":"koth_cascade","folder":"tf","game":"Team Fortress","app_id":440,"player_count":0,"max_players":24,"Bots":0,"server_type":"Dedicated","server_os":"Linux","password":true,"vac":true,"version":"7882260","steam_id":85568392924469998,"keywords":["cp","nocrits","nodmgspread","uncletopia"],"game_id":440,"stv_port":27026,"stv_name":"Uncletopia | Seattle | 2 | All Maps | STV","players":null},{"server_id":406,"name":"Uncletopia | Seattle | 3 | Stopwatch Beta","name_short":"sea-3","host":"sea-1.us.uncletopia.com","port":27035,"enabled":true,"region":"us-west","cc":"us","latitude":47.608013,"longitude":-122.33517,"reserved":0,"last_update":"0001-01-01T00:00:00Z","name_a2s":"Uncletopia | Seattle | 3 | Stopwatch Beta","protocol":17,"map":"koth_viaduct","folder":"tf","game":"Team Fortress","app_id":440,"player_count":0,"max_players":24,"Bots":0,"server_type":"Dedicated","server_os":"Linux","password":true,"vac":true,"version":"7882260","steam_id":85568392924515217,"keywords":["cp","nocrits","nodmgspread","uncletopia"],"game_id":440,"stv_port":27036,"stv_name":"Uncletopia | Seattle | 3 | Stopwatch Beta | STV","players":null},{"server_id":17,"name":"Uncletopia | San Francisco | 1 | All Maps","name_short":"sfo-1","host":"sfo-1.us.uncletopia.com","port":27015,"enabled":true,"region":"us-west","cc":"us","latitude":37.77397,"longitude":-122.4313,"reserved":0,"last_update":"0001-01-01T00:00:00Z","name_a2s":"Uncletopia | San Francisco | 1 | All Maps","protocol":17,"map":"pl_pier","folder":"tf","game":"Team Fortress","app_id":440,"player_count":0,"max_players":24,"Bots":0,"server_type":"Dedicated","server_os":"Linux","password":true,"vac":true,"version":"7882260","steam_id":85568392924469999,"keywords":["nocrits","nodmgspread","payload","uncletopia"],"game_id":440,"stv_port":27016,"stv_name":"Uncletopia | San Francisco | 1 | All Maps | STV","players":null},{"server_id":18,"name":"Uncletopia | San Francisco | 2 | All Maps","name_short":"sfo-2","host":"sfo-1.us.uncletopia.com","port":27025,"enabled":true,"region":"us-west","cc":"us","latitude":37.77397,"longitude":-122.4313,"reserved":0,"last_update":"0001-01-01T00:00:00Z","name_a2s":"Uncletopia | San Francisco | 2 | All Maps","protocol":17,"map":"pl_frontier_final","folder":"tf","game":"Team Fortress","app_id":440,"player_count":0,"max_players":24,"Bots":0,"server_type":"Dedicated","server_os":"Linux","password":true,"vac":true,"version":"7882260","steam_id":85568392924470000,"keywords":["nocrits","nodmgspread","payload","uncletopia"],"game_id":440,"stv_port":27026,"stv_name":"Uncletopia | San Francisco | 2 | All Maps | STV","players":null},{"server_id":19,"name":"Uncletopia | San Francisco | 3 | Stopwatch Beta","name_short":"sfo-3","host":"sfo-1.us.uncletopia.com","port":27035,"enabled":true,"region":"us-west","cc":"us","latitude":37.77397,"longitude":-122.4313,"reserved":0,"last_update":"0001-01-01T00:00:00Z","name_a2s":"Uncletopia | San Francisco | 3 | Stopwatch Beta","protocol":17,"map":"pl_snowycoast","folder":"tf","game":"Team Fortress","app_id":440,"player_count":0,"max_players":24,"Bots":0,"server_type":"Dedicated","server_os":"Linux","password":true,"vac":true,"version":"7882260","steam_id":85568392924742824,"keywords":["nocrits","nodmgspread","payload","uncletopia"],"game_id":440,"stv_port":27036,"stv_name":"Uncletopia | San Francisco | 3 | Stopwatch Beta | STV","players":null},{"server_id":20,"name":"Uncletopia | San Francisco | 4 | Community","name_short":"sfo-4","host":"sfo-1.us.uncletopia.com","port":27045,"enabled":true,"region":"us-west","cc":"us","latitude":37.77397,"longitude":-122.4313,"reserved":0,"last_update":"0001-01-01T00:00:00Z","name_a2s":"Uncletopia | San Francisco | 4 | Community","protocol":17,"map":"workshop/rd_asteroid_redux_b1.ugc2154902912","folder":"tf","game":"Team Fortress","app_id":440,"player_count":0,"max_players":24,"Bots":0,"server_type":"Dedicated","server_os":"Linux","password":true,"vac":true,"version":"7882260","steam_id":85568392924742826,"keywords":["beta","nocrits","nodmgspread","rd","uncletopia"],"game_id":440,"stv_port":27046,"stv_name":"Uncletopia | San Francisco | 4 | Community | STV","players":null},{"server_id":141,"name":"Uncletopia | Sydney | 1 | All Maps","name_short":"syd-1","host":"syd-1.au.uncletopia.com","port":27015,"enabled":true,"region":"au","cc":"au","latitude":-33.865143,"longitude":151.2099,"reserved":0,"last_update":"0001-01-01T00:00:00Z","name_a2s":"Uncletopia | Sydney | 1 | All Maps","protocol":17,"map":"plr_bananabay","folder":"tf","game":"Team Fortress","app_id":440,"player_count":0,"max_players":24,"Bots":0,"server_type":"Dedicated","server_os":"Linux","password":true,"vac":true,"version":"7882260","steam_id":85568392924470001,"keywords":["nocrits","nodmgspread","payload","uncletopia"],"game_id":440,"stv_port":27016,"stv_name":"Uncletopia | Sydney | 1 | All Maps | STV","players":null},{"server_id":123,"name":"Uncletopia | Sydney | 2 | All Maps","name_short":"syd-2","host":"syd-1.au.uncletopia.com","port":27025,"enabled":true,"region":"au","cc":"au","latitude":-33.865143,"longitude":151.2099,"reserved":0,"last_update":"0001-01-01T00:00:00Z","name_a2s":"Uncletopia | Sydney | 2 | All Maps","protocol":17,"map":"koth_lakeside_final","folder":"tf","game":"Team Fortress","app_id":440,"player_count":0,"max_players":24,"Bots":0,"server_type":"Dedicated","server_os":"Linux","password":true,"vac":true,"version":"7882260","steam_id":85568392924470002,"keywords":["cp","nocrits","nodmgspread","uncletopia"],"game_id":440,"stv_port":27026,"stv_name":"Uncletopia | Sydney | 2 | All Maps | STV","players":null},{"server_id":395,"name":"Uncletopia | Sydney | 3 | All Maps","name_short":"syd-3","host":"syd-1.au.uncletopia.com","port":27035,"enabled":true,"region":"au","cc":"au","latitude":-33.865143,"longitude":151.2099,"reserved":0,"last_update":"0001-01-01T00:00:00Z","name_a2s":"Uncletopia | Sydney | 3 | All Maps","protocol":17,"map":"koth_cascade","folder":"tf","game":"Team Fortress","app_id":440,"player_count":0,"max_players":24,"Bots":0,"server_type":"Dedicated","server_os":"Linux","password":true,"vac":true,"version":"7882260","steam_id":85568392925194467,"keywords":["cp","nocrits","nodmgspread","uncletopia"],"game_id":440,"stv_port":27036,"stv_name":"Uncletopia | Sydney | 3 | All Maps | STV","players":null},{"server_id":396,"name":"Uncletopia | Sydney | 4 | All Maps","name_short":"syd-4","host":"syd-1.au.uncletopia.com","port":27045,"enabled":true,"region":"au","cc":"au","latitude":-33.865143,"longitude":151.2099,"reserved":0,"last_update":"0001-01-01T00:00:00Z","name_a2s":"Uncletopia | Sydney | 4 | All Maps","protocol":17,"map":"koth_cascade","folder":"tf","game":"Team Fortress","app_id":440,"player_count":2,"max_players":24,"Bots":0,"server_type":"Dedicated","server_os":"Linux","password":true,"vac":true,"version":"7882260","steam_id":85568392925397958,"keywords":["cp","nocrits","nodmgspread","uncletopia"],"game_id":440,"stv_port":27046,"stv_name":"Uncletopia | Sydney | 4 | All Maps | STV","players":[{"user_id":42,"name":"mic_tv","steam_id":76561198358435803,"connected_time":2679000000000,"state":"active","ping":106},{"user_id":43,"name":"ARAB","steam_id":76561199170472382,"connected_time":2663000000000,"state":"active","ping":100}]},{"server_id":58,"name":"Uncletopia | Sydney | 5 | Stopwatch Beta","name_short":"syd-5","host":"syd-1.au.uncletopia.com","port":27055,"enabled":true,"region":"au","cc":"au","latitude":-33.865143,"longitude":151.2099,"reserved":0,"last_update":"0001-01-01T00:00:00Z","name_a2s":"Uncletopia | Sydney | 5 | Stopwatch Beta","protocol":17,"map":"koth_viaduct","folder":"tf","game":"Team Fortress","app_id":440,"player_count":0,"max_players":24,"Bots":0,"server_type":"Dedicated","server_os":"Linux","password":true,"vac":true,"version":"7882260","steam_id":85568392925397959,"keywords":["cp","nocrits","nodmgspread","uncletopia"],"game_id":440,"stv_port":27056,"stv_name":"Uncletopia | Sydney | 5 | Stopwatch Beta | STV","players":null},{"server_id":59,"name":"Uncletopia | Sydney | 6 | Community","name_short":"syd-6","host":"syd-1.au.uncletopia.com","port":27065,"enabled":true,"region":"au","cc":"au","latitude":-33.865143,"longitude":151.2099,"reserved":0,"last_update":"0001-01-01T00:00:00Z","name_a2s":"Uncletopia | Sydney | 6 | Community","protocol":17,"map":"workshop/koth_ashville_final.ugc2130459942","folder":"tf","game":"Team Fortress","app_id":440,"player_count":0,"max_players":24,"Bots":0,"server_type":"Dedicated","server_os":"Linux","password":true,"vac":true,"version":"7882260","steam_id":85568392925397960,"keywords":["cp","nocrits","nodmgspread","uncletopia"],"game_id":440,"stv_port":27066,"stv_name":"Uncletopia | Sydney | 6 | Community | STV","players":null},{"server_id":49,"name":"Uncletopia | Warsaw | 1 | All Maps","name_short":"waw-1","host":"waw-1.pl.uncletopia.com","port":27015,"enabled":true,"region":"eu","cc":"pl","latitude":52.2297,"longitude":21.017532,"reserved":0,"last_update":"0001-01-01T00:00:00Z","name_a2s":"","protocol":0,"map":"","folder":"","game":"","app_id":0,"player_count":0,"max_players":0,"Bots":0,"server_type":"","server_os":"","password":false,"vac":false,"version":"","steam_id":0,"keywords":null,"game_id":0,"stv_port":0,"stv_name":"","players":null},{"server_id":50,"name":"Uncletopia | Warsaw | 2 | All Maps","name_short":"waw-2","host":"waw-1.pl.uncletopia.com","port":27025,"enabled":true,"region":"eu","cc":"pl","latitude":52.2297,"longitude":21.017532,"reserved":0,"last_update":"0001-01-01T00:00:00Z","name_a2s":"Uncletopia | Warsaw | 2 | All Maps","protocol":17,"map":"koth_viaduct","folder":"tf","game":"Team Fortress","app_id":440,"player_count":0,"max_players":24,"Bots":0,"server_type":"Dedicated","server_os":"Linux","password":true,"vac":true,"version":"7882260","steam_id":85568392925397851,"keywords":["cp","nocrits","nodmgspread","uncletopia"],"game_id":440,"stv_port":27026,"stv_name":"Uncletopia | Warsaw | 2 | All Maps | STV","players":null},{"server_id":51,"name":"Uncletopia | Warsaw | 3 | All Maps","name_short":"waw-3","host":"waw-1.pl.uncletopia.com","port":27035,"enabled":true,"region":"eu","cc":"pl","latitude":52.2297,"longitude":21.017532,"reserved":0,"last_update":"0001-01-01T00:00:00Z","name_a2s":"Uncletopia | Warsaw | 3 | All Maps","protocol":17,"map":"pl_badwater","folder":"tf","game":"Team Fortress","app_id":440,"player_count":10,"max_players":24,"Bots":0,"server_type":"Dedicated","server_os":"Linux","password":true,"vac":true,"version":"7882260","steam_id":85568392925397852,"keywords":["nocrits","nodmgspread","payload","uncletopia"],"game_id":440,"stv_port":27036,"stv_name":"Uncletopia | Warsaw | 3 | All Maps | STV","players":[{"user_id":7,"name":"Kiz","steam_id":76561198811732820,"connected_time":376000000000,"state":"active","ping":93},{"user_id":13,"name":"DIErector of death","steam_id":76561199217741639,"connected_time":131000000000,"state":"active","ping":123},{"user_id":9,"name":"Very stiff dispenser","steam_id":76561198236441040,"connected_time":311000000000,"state":"active","ping":77},{"user_id":10,"name":"where am I?","steam_id":76561199407698465,"connected_time":297000000000,"state":"active","ping":109},{"user_id":11,"name":"xXtentioncableXx","steam_id":76561198082814549,"connected_time":251000000000,"state":"active","ping":72},{"user_id":12,"name":"H4llq","steam_id":76561198149946739,"connected_time":234000000000,"state":"active","ping":72},{"user_id":14,"name":"Gilbert","steam_id":76561198127732887,"connected_time":112000000000,"state":"active","ping":84},{"user_id":15,"name":"Gorzel","steam_id":76561198828273330,"connected_time":93000000000,"state":"active","ping":45},{"user_id":16,"name":"Fluffy","steam_id":76561199481767037,"connected_time":42000000000,"state":"active","ping":346},{"user_id":18,"name":"Tammrock","steam_id":76561198029322294,"connected_time":13000000000,"state":"active","ping":90}]},{"server_id":52,"name":"Uncletopia | Warsaw | 4 | All Maps","name_short":"waw-4","host":"waw-1.pl.uncletopia.com","port":27045,"enabled":true,"region":"eu","cc":"pl","latitude":52.2297,"longitude":21.017532,"reserved":0,"last_update":"0001-01-01T00:00:00Z","name_a2s":"Uncletopia | Warsaw | 4 | All Maps","protocol":17,"map":"koth_cascade","folder":"tf","game":"Team Fortress","app_id":440,"player_count":0,"max_players":24,"Bots":0,"server_type":"Dedicated","server_os":"Linux","password":true,"vac":true,"version":"7882260","steam_id":85568392925397853,"keywords":["cp","nocrits","nodmgspread","uncletopia"],"game_id":440,"stv_port":27046,"stv_name":"Uncletopia | Warsaw | 4 | All Maps | STV","players":null},{"server_id":53,"name":"Uncletopia | Warsaw | 5 | Stopwatch Beta","name_short":"waw-5","host":"waw-1.pl.uncletopia.com","port":27055,"enabled":true,"region":"eu","cc":"pl","latitude":52.2297,"longitude":21.017532,"reserved":0,"last_update":"0001-01-01T00:00:00Z","name_a2s":"Uncletopia | Warsaw | 5 | Stopwatch Beta","protocol":17,"map":"koth_highpass","folder":"tf","game":"Team Fortress","app_id":440,"player_count":0,"max_players":24,"Bots":0,"server_type":"Dedicated","server_os":"Linux","password":true,"vac":true,"version":"7882260","steam_id":85568392925397854,"keywords":["cp","nocrits","nodmgspread","uncletopia"],"game_id":440,"stv_port":27056,"stv_name":"Uncletopia | Warsaw | 5 | Stopwatch Beta | STV","players":null},{"server_id":54,"name":"Uncletopia | Warsaw | 6 | Community","name_short":"waw-6","host":"waw-1.pl.uncletopia.com","port":27065,"enabled":true,"region":"eu","cc":"pl","latitude":52.2297,"longitude":21.017532,"reserved":0,"last_update":"0001-01-01T00:00:00Z","name_a2s":"Uncletopia | Warsaw | 6 | Community","protocol":17,"map":"cp_dustbowl","folder":"tf","game":"Team Fortress","app_id":440,"player_count":0,"max_players":24,"Bots":0,"server_type":"Dedicated","server_os":"Linux","password":true,"vac":true,"version":"7882260","steam_id":85568392925397856,"keywords":["cp","nocrits","nodmgspread","uncletopia"],"game_id":440,"stv_port":27066,"stv_name":"Uncletopia | Warsaw | 6 | Community | STV","players":null}]}