{"status":true,"message":"","result":[{"server_id":9,"name":"Uncletopia | Atlanta | 1 | All Maps","name_short":"atl-1","host":"atl-1.us.uncletopia.com","port":27015,"enabled":true,"region":"us-east","cc":"us","latitude":33.753746,"longitude":-84.38633,"reserved":0,"last_update":"0001-01-01T00:00:00Z","name_a2s":"Uncletopia | Atlanta | 1 | All Maps","protocol":17,"map":"pl_barnblitz","folder":"tf","game":"Team Fortress","app_id":440,"player_count":24,"max_players":24,"Bots":0,"server_type":"Dedicated","server_os":"Linux","password":true,"vac":true,"version":"7757534","steam_id":85568392924469982,"keywords":["nocrits","nodmgspread","payload","uncletopia"],"game_id":440,"stv_port":27016,"stv_name":"Uncletopia | Atlanta | 1 | All Maps | STV","players":[{"user_id":516,"name":"The Canadian Femboy","steam_id":76561199198397328,"connected_time":1318000000000,"state":"active","ping":84},{"user_id":394,"name":"Thotimus Begonimus","steam_id":76561197970275938,"connected_time":6939000000000,"state":"active","ping":39},{"user_id":513,"name":"the-willy12","steam_id":76561199145029672,"connected_time":1526000000000,"state":"active","ping":90},{"user_id":528,"name":"fudo myoo","steam_id":76561198456258164,"connected_time":17000000000,"state":"spawning","ping":65},{"user_id":487,"name":"You Want Me","steam_id":76561198135492119,"connected_time":3187000000000,"state":"active","ping":68},{"user_id":466,"name":"Red","steam_id":76561198031865869,"connected_time":4578000000000,"state":"active","ping":61},{"user_id":509,"name":"G_Bob","steam_id":76561198098133233,"connected_time":1883000000000,"state":"active","ping":54},{"user_id":501,"name":"fleura","steam_id":76561199403319171,"connected_time":2938000000000,"state":"active","ping":105},{"user_id":527,"name":"HarryjusttHarry","steam_id":76561198982810452,"connected_time":182000000000,"state":"active","ping":127},{"user_id":521,"name":"KoolBucky","steam_id":76561198147927648,"connected_time":1282000000000,"state":"active","ping":61},{"user_id":526,"name":"Pidgeon Milk","steam_id":76561198028617381,"connected_time":225000000000,"state":"active","ping":73},{"user_id":514,"name":"karbomb","steam_id":76561198120744480,"connected_time":1326000000000,"state":"active","ping":67},{"user_id":493,"name":"Sideways","steam_id":76561198068436083,"connected_time":3096000000000,"state":"active","ping":61},{"user_id":478,"name":"Devilkid","steam_id":76561199082474364,"connected_time":4313000000000,"state":"active","ping":69},{"user_id":402,"name":"Dirt Man Dan","steam_id":76561198071586519,"connected_time":6375000000000,"state":"active","ping":91},{"user_id":506,"name":"Dude bro","steam_id":76561198249916746,"connected_time":2205000000000,"state":"active","ping":60},{"user_id":395,"name":"Pork Soda","steam_id":76561198119575082,"connected_time":6928000000000,"state":"active","ping":83},{"user_id":504,"name":"Bottom Trans Cowgirl","steam_id":76561198304239680,"connected_time":2226000000000,"state":"active","ping":77},{"user_id":484,"name":"Fox","steam_id":76561198063507627,"connected_time":3269000000000,"state":"active","ping":55},{"user_id":525,"name":"nemo","steam_id":76561198319990195,"connected_time":352000000000,"state":"active","ping":75},{"user_id":499,"name":"what a waste","steam_id":76561198398383076,"connected_time":3020000000000,"state":"active","ping":110},{"user_id":505,"name":"4 Itchy Tasty","steam_id":76561198009869383,"connected_time":2226000000000,"state":"active","ping":60},{"user_id":515,"name":"Xmoonsheep","steam_id":76561198158384685,"connected_time":1326000000000,"state":"active","ping":56},{"user_id":511,"name":"♥Bunny♥Slut♥","steam_id":76561198206376851,"connected_time":1726000000000,"state":"active","ping":135}]},{"server_id":400,"name":"Uncletopia | Atlanta | 3 | Community","name_short":"atl-3","host":"atl-1.us.uncletopia.com","port":27035,"enabled":true,"region":"us-east","cc":"us","latitude":33.753746,"longitude":-84.38633,"reserved":0,"last_update":"0001-01-01T00:00:00Z","name_a2s":"Uncletopia | Atlanta | 3 | Community","protocol":17,"map":"workshop/cp_hazyfort_rc6.ugc1365963729","folder":"tf","game":"Team Fortress","app_id":440,"player_count":0,"max_players":24,"Bots":0,"server_type":"Dedicated","server_os":"Linux","password":true,"vac":true,"version":"7757534","steam_id":85568392924515187,"keywords":["cp","nocrits","nodmgspread","uncletopia"],"game_id":440,"stv_port":27036,"stv_name":"Uncletopia | Atlanta | 3 | Community | STV","players":null},{"server_id":401,"name":"Uncletopia | Atlanta | 4 | No Payload","name_short":"atl-4","host":"atl-1.us.uncletopia.com","port":27045,"enabled":true,"region":"us-east","cc":"us","latitude":33.753746,"longitude":-84.38633,"reserved":0,"last_update":"0001-01-01T00:00:00Z","name_a2s":"","protocol":0,"map":"","folder":"","game":"","app_id":0,"player_count":0,"max_players":0,"Bots":0,"server_type":"","server_os":"","password":false,"vac":false,"version":"","steam_id":0,"keywords":null,"game_id":0,"stv_port":0,"stv_name":"","players":null},{"server_id":2,"name":"Uncletopia | Chicago | 1 | All Maps","name_short":"chi-1","host":"chi-1.us.uncletopia.com","port":27015,"enabled":true,"region":"us-central","cc":"us","latitude":41.881832,"longitude":-87.62318,"reserved":0,"last_update":"0001-01-01T00:00:00Z","name_a2s":"Uncletopia | Chicago | 1 | All Maps","protocol":17,"map":"pl_borneo","folder":"tf","game":"Team Fortress","app_id":440,"player_count":22,"max_players":24,"Bots":0,"server_type":"Dedicated","server_os":"Linux","password":true,"vac":true,"version":"7757534","steam_id":85568392924469984,"keywords":["nocrits","nodmgspread","payload","uncletopia"],"game_id":440,"stv_port":27016,"stv_name":"Uncletopia | Chicago | 1 | All Maps | STV","players":[{"user_id":151,"name":"[SK] Punish ♥ 牧濑红莉栖","steam_id":76561198207987376,"connected_time":1231000000000,"state":"active","ping":45},{"user_id":167,"name":"Yukon Cornelius","steam_id":76561198261512781,"connected_time":2000000000,"state":"spawning","ping":54},{"user_id":124,"name":"Ripheart","steam_id":76561198089661561,"connected_time":2896000000000,"state":"active","ping":35},{"user_id":158,"name":"loscemo","steam_id":76561197994884609,"connected_time":596000000000,"state":"active","ping":85},{"user_id":161,"name":"DO NOT call me BART SIMPSON!!","steam_id":76561198069113375,"connected_time":520000000000,"state":"active","ping":69},{"user_id":147,"name":"♥silly jester♥","steam_id":76561198079609974,"connected_time":1562000000000,"state":"active","ping":105},{"user_id":78,"name":"LegendaryMister151","steam_id":76561198064890524,"connected_time":5573000000000,"state":"active","ping":77},{"user_id":27,"name":"RaddahRaddah","steam_id":76561198194462829,"connected_time":8350000000000,"state":"active","ping":52},{"user_id":141,"name":"edwinbrood","steam_id":76561198044848769,"connected_time":1835000000000,"state":"active","ping":55},{"user_id":153,"name":"Dr_Spek","steam_id":76561198128667701,"connected_time":868000000000,"state":"active","ping":83},{"user_id":165,"name":"MEATBALL","steam_id":76561198028499312,"connected_time":6000000000,"state":"spawning","ping":57},{"user_id":143,"name":"Dilly Pickles","steam_id":76561198312068499,"connected_time":1816000000000,"state":"active","ping":76},{"user_id":168,"name":"Draconic Ballad","steam_id":76561198027191515,"connected_time":1000000000,"state":"spawning","ping":35},{"user_id":166,"name":"A Pyro Main","steam_id":76561198421760112,"connected_time":4000000000,"state":"spawning","ping":52},{"user_id":144,"name":"Kaypo","steam_id":76561198262420097,"connected_time":1809000000000,"state":"active","ping":60},{"user_id":109,"name":"TheGrassMan (He/Him)","steam_id":76561198118984048,"connected_time":4013000000000,"state":"active","ping":53},{"user_id":149,"name":"THE SUN","steam_id":76561198357428939,"connected_time":1299000000000,"state":"active","ping":76},{"user_id":155,"name":"Mister Frank","steam_id":76561198161473385,"connected_time":727000000000,"state":"active","ping":56},{"user_id":145,"name":"Owl Pacino","steam_id":76561197979970666,"connected_time":1786000000000,"state":"active","ping":54},{"user_id":152,"name":"ratsfungi2","steam_id":76561198799277669,"connected_time":1226000000000,"state":"active","ping":64},{"user_id":162,"name":"mr.edderkopper","steam_id":76561198152614478,"connected_time":498000000000,"state":"active","ping":52},{"user_id":164,"name":"D UCK","steam_id":76561198075844142,"connected_time":199000000000,"state":"active","ping":52}]},{"server_id":106,"name":"Uncletopia | Chicago | 2 | All Maps","name_short":"chi-2","host":"chi-1.us.uncletopia.com","port":27025,"enabled":true,"region":"us-central","cc":"us","latitude":41.881832,"longitude":-87.62318,"reserved":0,"last_update":"0001-01-01T00:00:00Z","name_a2s":"Uncletopia | Chicago | 2 | All Maps","protocol":17,"map":"koth_sawmill","folder":"tf","game":"Team Fortress","app_id":440,"player_count":24,"max_players":24,"Bots":0,"server_type":"Dedicated","server_os":"Linux","password":true,"vac":true,"version":"7757534","steam_id":85568392924469985,"keywords":["cp","nocrits","nodmgspread","uncletopia"],"game_id":440,"stv_port":27026,"stv_name":"Uncletopia | Chicago | 2 | All Maps | STV","players":[{"user_id":11,"name":"plank","steam_id":76561198133608972,"connected_time":4113000000000,"state":"active","ping":70},{"user_id":55,"name":"Training Bot [Easy]","steam_id":76561199119473164,"connected_time":1835000000000,"state":"active","ping":60},{"user_id":13,"name":"A Puppy","steam_id":76561198828184456,"connected_time":4031000000000,"state":"active","ping":58},{"user_id":49,"name":"promenade","steam_id":76561198060021258,"connected_time":2048000000000,"state":"active","ping":103},{"user_id":56,"name":"dwnkins","steam_id":76561198856016840,"connected_time":1787000000000,"state":"active","ping":71},{"user_id":57,"name":"Head Empty","steam_id":76561198830109854,"connected_time":1746000000000,"state":"active","ping":56},{"user_id":97,"name":"Peaceful Chaos","steam_id":76561198087989602,"connected_time":395000000000,"state":"active","ping":67},{"user_id":18,"name":"_Lusty_","steam_id":76561198876948142,"connected_time":3547000000000,"state":"active","ping":64},{"user_id":52,"name":"yeeye","steam_id":76561198094306054,"connected_time":1948000000000,"state":"active","ping":75},{"user_id":98,"name":"Joneatshorts","steam_id":76561199233449550,"connected_time":380000000000,"state":"active","ping":67},{"user_id":94,"name":"Remy the rat","steam_id":76561198080519558,"connected_time":504000000000,"state":"active","ping":76},{"user_id":91,"name":"ThinkingMonk112","steam_id":76561198432516310,"connected_time":835000000000,"state":"active","ping":71},{"user_id":99,"name":"fax","steam_id":76561198094228710,"connected_time":373000000000,"state":"active","ping":43},{"user_id":95,"name":"aero","steam_id":76561198297202459,"connected_time":410000000000,"state":"active","ping":61},{"user_id":60,"name":"thehookerslammer","steam_id":76561198050136796,"connected_time":1720000000000,"state":"active","ping":86},{"user_id":87,"name":"Lennu","steam_id":76561198060730154,"connected_time":1006000000000,"state":"active","ping":63},{"user_id":27,"name":"Jkbh1","steam_id":76561198093449670,"connected_time":3434000000000,"state":"active","ping":90},{"user_id":28,"name":"Pancakes","steam_id":76561198097983190,"connected_time":3424000000000,"state":"active","ping":66},{"user_id":70,"name":"DaHubs901","steam_id":76561198113212049,"connected_time":1580000000000,"state":"active","ping":85},{"user_id":31,"name":"waterdog","steam_id":76561198145791169,"connected_time":3367000000000,"state":"active","ping":68},{"user_id":96,"name":"isaiah","steam_id":76561197962607364,"connected_time":400000000000,"state":"active","ping":77},{"user_id":100,"name":"Slimeyboi","steam_id":76561199057487214,"connected_time":368000000000,"state":"active","ping":79},{"user_id":83,"name":"Tostada","steam_id":76561198383206211,"connected_time":1098000000000,"state":"active","ping":124},{"user_id":76,"name":"thundermuffin","steam_id":76561198067770965,"connected_time":1357000000000,"state":"active","ping":51}]},{"server_id":402,"name":"Uncletopia | Chicago | 3 | All Maps","name_short":"chi-3","host":"chi-1.us.uncletopia.com","port":27035,"enabled":true,"region":"us-central","cc":"us","latitude":41.881832,"longitude":-87.62318,"reserved":0,"last_update":"0001-01-01T00:00:00Z","name_a2s":"Uncletopia | Chicago | 3 | All Maps","protocol":17,"map":"pl_badwater","folder":"tf","game":"Team Fortress","app_id":440,"player_count":24,"max_players":24,"Bots":0,"server_type":"Dedicated","server_os":"Linux","password":true,"vac":true,"version":"7757534","steam_id":85568392924515191,"keywords":["nocrits","nodmgspread","payload","uncletopia"],"game_id":440,"stv_port":27036,"stv_name":"Uncletopia | Chicago | 3 | All Maps | STV","players":[{"user_id":51,"name":"Elizabeth truss","steam_id":76561198058250979,"connected_time":4070000000000,"state":"active","ping":71},{"user_id":73,"name":"Bird","steam_id":76561198247484514,"connected_time":1900000000000,"state":"active","ping":76},{"user_id":76,"name":"merge without looking","steam_id":76561198056702628,"connected_time":1513000000000,"state":"active","ping":62},{"user_id":53,"name":"OceanMan1997","steam_id":76561198840230320,"connected_time":3912000000000,"state":"active","ping":69},{"user_id":80,"name":"Patrick Star Gaming","steam_id":76561198189460395,"connected_time":1359000000000,"state":"active","ping":60},{"user_id":92,"name":"pablo","steam_id":76561199190247198,"connected_time":566000000000,"state":"active","ping":119},{"user_id":37,"name":"PeopleOrderOurPatties","steam_id":76561198323144922,"connected_time":4665000000000,"state":"active","ping":62},{"user_id":81,"name":"chicanery","steam_id":76561198081654907,"connected_time":1338000000000,"state":"active","ping":71},{"user_id":93,"name":"Kretim","steam_id":76561199204273483,"connected_time":518000000000,"state":"active","ping":73},{"user_id":84,"name":"Skrunkly","steam_id":76561198241629912,"connected_time":945000000000,"state":"active","ping":49},{"user_id":86,"name":"Rheibe","steam_id":76561198027228795,"connected_time":920000000000,"state":"active","ping":84},{"user_id":85,"name":"willsmith69","steam_id":76561198365512706,"connected_time":937000000000,"state":"active","ping":61},{"user_id":65,"name":"hierodule","steam_id":76561198023229665,"connected_time":2503000000000,"state":"active","ping":75},{"user_id":32,"name":"Rockgraham101","steam_id":76561198171740458,"connected_time":4864000000000,"state":"active","ping":74},{"user_id":87,"name":"C papi","steam_id":76561198027779564,"connected_time":909000000000,"state":"active","ping":74},{"user_id":91,"name":"athletesfoot","steam_id":76561197997331867,"connected_time":699000000000,"state":"active","ping":57},{"user_id":62,"name":"abomination","steam_id":76561198167974713,"connected_time":2545000000000,"state":"active","ping":70},{"user_id":23,"name":"The Dead Weight","steam_id":76561198056694098,"connected_time":5391000000000,"state":"active","ping":76},{"user_id":25,"name":"James","steam_id":76561198081313916,"connected_time":5352000000000,"state":"active","ping":77},{"user_id":88,"name":"nerd emoji pyro","steam_id":76561198070865575,"connected_time":904000000000,"state":"active","ping":86},{"user_id":89,"name":"EvilCoopz","steam_id":76561198080014161,"connected_time":883000000000,"state":"active","ping":80},{"user_id":82,"name":"bary","steam_id":76561197988317087,"connected_time":1326000000000,"state":"active","ping":69},{"user_id":78,"name":"daemon","steam_id":76561198001541433,"connected_time":1504000000000,"state":"active","ping":53},{"user_id":83,"name":"Knucklechuts","steam_id":76561198060367453,"connected_time":1319000000000,"state":"active","ping":74}]},{"server_id":403,"name":"Uncletopia | Chicago | 4 | All Maps","name_short":"chi-4","host":"chi-1.us.uncletopia.com","port":27045,"enabled":true,"region":"us-central","cc":"us","latitude":41.881832,"longitude":-87.62318,"reserved":0,"last_update":"0001-01-01T00:00:00Z","name_a2s":"Uncletopia | Chicago | 4 | All Maps","protocol":17,"map":"koth_viaduct","folder":"tf","game":"Team Fortress","app_id":440,"player_count":24,"max_players":24,"Bots":0,"server_type":"Dedicated","server_os":"Linux","password":true,"vac":true,"version":"7757534","steam_id":85568392924515193,"keywords":["cp","nocrits","nodmgspread","uncletopia"],"game_id":440,"stv_port":27046,"stv_name":"Uncletopia | Chicago | 4 | All Maps | STV","players":[{"user_id":187,"name":"noah","steam_id":76561198173310157,"connected_time":4815000000000,"state":"active","ping":57},{"user_id":160,"name":"Toastie","steam_id":76561198246760934,"connected_time":6560000000000,"state":"active","ping":56},{"user_id":193,"name":"The Caretaker","steam_id":76561198125241411,"connected_time":4500000000000,"state":"active","ping":100},{"user_id":225,"name":"Freezer Fox YT","steam_id":76561198060542607,"connected_time":594000000000,"state":"active","ping":84},{"user_id":171,"name":"Stock Medic","steam_id":76561198065479730,"connected_time":6100000000000,"state":"active","ping":45},{"user_id":228,"name":"The Samurai","steam_id":76561198412525293,"connected_time":386000000000,"state":"active","ping":95},{"user_id":188,"name":"BigDeac","steam_id":76561198091237274,"connected_time":4807000000000,"state":"active","ping":65},{"user_id":226,"name":"poiuytrewqwqwqwqwqwqwqwqwqwqwqw","steam_id":76561199105253001,"connected_time":580000000000,"state":"active","ping":69},{"user_id":205,"name":"Dictatorial Karelian","steam_id":76561198196736457,"connected_time":2885000000000,"state":"active","ping":158},{"user_id":145,"name":"Nespreco","steam_id":76561198252035336,"connected_time":7438000000000,"state":"active","ping":86},{"user_id":189,"name":"RaPids","steam_id":76561198082496100,"connected_time":4795000000000,"state":"active","ping":77},{"user_id":202,"name":"McGangBang","steam_id":76561198862379865,"connected_time":3331000000000,"state":"active","ping":58},{"user_id":223,"name":"John Dungus (the real one)","steam_id":76561198049191027,"connected_time":991000000000,"state":"active","ping":58},{"user_id":194,"name":"-W3E- grim10465","steam_id":76561198045698581,"connected_time":4451000000000,"state":"active","ping":45},{"user_id":207,"name":"super","steam_id":76561198800358844,"connected_time":2695000000000,"state":"active","ping":84},{"user_id":219,"name":"autumnal.messenger","steam_id":76561199345816635,"connected_time":1425000000000,"state":"active","ping":110},{"user_id":206,"name":"doctor sex md","steam_id":76561198150678175,"connected_time":2883000000000,"state":"active","ping":103},{"user_id":210,"name":"Macko","steam_id":76561198452005461,"connected_time":2381000000000,"state":"active","ping":83},{"user_id":179,"name":"bird","steam_id":76561199144340440,"connected_time":5666000000000,"state":"active","ping":61},{"user_id":157,"name":"Can we get much dumber?(jack)","steam_id":76561198044762365,"connected_time":6663000000000,"state":"active","ping":49},{"user_id":227,"name":"Pourpel","steam_id":76561198059125470,"connected_time":490000000000,"state":"active","ping":71},{"user_id":214,"name":"uzr","steam_id":76561198799343084,"connected_time":2206000000000,"state":"active","ping":108},{"user_id":208,"name":"Swifgz","steam_id":76561198162875756,"connected_time":2408000000000,"state":"active","ping":60},{"user_id":220,"name":"woosh","steam_id":76561198173020438,"connected_time":1171000000000,"state":"active","ping":81}]},{"server_id":36,"name":"Uncletopia | Chicago | 5 | All Maps","name_short":"chi-5","host":"chi-2.us.uncletopia.com","port":27015,"enabled":true,"region":"us-central","cc":"us","latitude":41.881832,"longitude":-87.62318,"reserved":0,"last_update":"0001-01-01T00:00:00Z","name_a2s":"Uncletopia | Chicago | 5 | All Maps","protocol":17,"map":"koth_cascade","folder":"tf","game":"Team Fortress","app_id":440,"player_count":0,"max_players":24,"Bots":0,"server_type":"Dedicated","server_os":"Linux","password":true,"vac":true,"version":"7757534","steam_id":85568392924866362,"keywords":["cp","nocrits","nodmgspread","uncletopia"],"game_id":440,"stv_port":27016,"stv_name":"Uncletopia | Chicago | 5 | All Maps | STV","players":null},{"server_id":37,"name":"Uncletopia | Chicago | 6 | All Maps","name_short":"chi-6","host":"chi-2.us.uncletopia.com","port":27025,"enabled":true,"region":"us-central","cc":"us","latitude":41.881832,"longitude":-87.62318,"reserved":0,"last_update":"0001-01-01T00:00:00Z","name_a2s":"Uncletopia | Chicago | 6 | All Maps","protocol":17,"map":"koth_cascade","folder":"tf","game":"Team Fortress","app_id":440,"player_count":0,"max_players":24,"Bots":0,"server_type":"Dedicated","server_os":"Linux","password":true,"vac":true,"version":"7757534","steam_id":85568392924866363,"keywords":["cp","nocrits","nodmgspread","uncletopia"],"game_id":440,"stv_port":27026,"stv_name":"Uncletopia | Chicago | 6 | All Maps | STV","players":null},{"server_id":38,"name":"Uncletopia | Chicago | 7 | Stopwatch Beta","name_short":"chi-7","host":"chi-2.us.uncletopia.com","port":27035,"enabled":true,"region":"us-central","cc":"us","latitude":41.881832,"longitude":-87.62318,"reserved":0,"last_update":"0001-01-01T00:00:00Z","name_a2s":"Uncletopia | Chicago | 7 | Stopwatch Beta","protocol":17,"map":"pl_upward","folder":"tf","game":"Team Fortress","app_id":440,"player_count":1,"max_players":24,"Bots":0,"server_type":"Dedicated","server_os":"Linux","password":true,"vac":true,"version":"7757534","steam_id":85568392924866364,"keywords":["nocrits","nodmgspread","payload","uncletopia"],"game_id":440,"stv_port":27036,"stv_name":"Uncletopia | Chicago | 7 | Stopwatch Beta | STV","players":[{"user_id":15,"name":"Spex","steam_id":76561198404566859,"connected_time":114000000000,"state":"active","ping":71}]},{"server_id":39,"name":"Uncletopia | Chicago | 8 | Community","name_short":"chi-8","host":"chi-2.us.uncletopia.com","port":27045,"enabled":true,"region":"us-central","cc":"us","latitude":41.881832,"longitude":-87.62318,"reserved":0,"last_update":"0001-01-01T00:00:00Z","name_a2s":"Uncletopia | Chicago | 8 | Community","protocol":17,"map":"pl_barnblitz","folder":"tf","game":"Team Fortress","app_id":440,"player_count":0,"max_players":24,"Bots":0,"server_type":"Dedicated","server_os":"Linux","password":true,"vac":true,"version":"7757534","steam_id":85568392924866365,"keywords":["nocrits","nodmgspread","payload","uncletopia"],"game_id":440,"stv_port":27046,"stv_name":"Uncletopia | Chicago | 8 | Community | STV","players":null},{"server_id":8,"name":"Uncletopia | Dallas | 1 | All Maps","name_short":"dal-1","host":"dal-1.us.uncletopia.com","port":27015,"enabled":true,"region":"us-central","cc":"us","latitude":32.779167,"longitude":-96.80889,"reserved":0,"last_update":"0001-01-01T00:00:00Z","name_a2s":"Uncletopia | Dallas | 1 | All Maps","protocol":17,"map":"koth_cascade","folder":"tf","game":"Team Fortress","app_id":440,"player_count":0,"max_players":24,"Bots":0,"server_type":"Dedicated","server_os":"Linux","password":true,"vac":true,"version":"7757534","steam_id":85568392924469986,"keywords":["cp","nocrits","nodmgspread","uncletopia"],"game_id":440,"stv_port":27016,"stv_name":"Uncletopia | Dallas | 1 | All Maps | STV","players":null},{"server_id":108,"name":"Uncletopia | Dallas | 2 | All Maps","name_short":"dal-2","host":"dal-1.us.uncletopia.com","port":27025,"enabled":true,"region":"us-central","cc":"us","latitude":32.779167,"longitude":-96.80889,"reserved":0,"last_update":"0001-01-01T00:00:00Z","name_a2s":"Uncletopia | Dallas | 2 | All Maps","protocol":17,"map":"koth_highpass","folder":"tf","game":"Team Fortress","app_id":440,"player_count":0,"max_players":24,"Bots":0,"server_type":"Dedicated","server_os":"Linux","password":true,"vac":true,"version":"7757534","steam_id":85568392924469988,"keywords":["cp","nocrits","nodmgspread","uncletopia"],"game_id":440,"stv_port":27026,"stv_name":"Uncletopia | Dallas | 2 | All Maps | STV","players":null},{"server_id":5,"name":"Uncletopia | Frankfurt | 1 | All Maps","name_short":"frk-1","host":"frk-1.de.uncletopia.com","port":27015,"enabled":true,"region":"eu","cc":"de","latitude":50.110924,"longitude":8.682127,"reserved":0,"last_update":"0001-01-01T00:00:00Z","name_a2s":"Uncletopia | Frankfurt | 1 | All Maps","protocol":17,"map":"koth_highpass","folder":"tf","game":"Team Fortress","app_id":440,"player_count":16,"max_players":24,"Bots":0,"server_type":"Dedicated","server_os":"Linux","password":true,"vac":true,"version":"7757534","steam_id":85568392924469989,"keywords":["cp","nocrits","nodmgspread","uncletopia"],"game_id":440,"stv_port":27016,"stv_name":"Uncletopia | Frankfurt | 1 | All Maps | STV","players":[{"user_id":587,"name":"Forgotten Weapons","steam_id":76561198047955867,"connected_time":309000000000,"state":"active","ping":91},{"user_id":588,"name":"eduardo","steam_id":76561198014491925,"connected_time":305000000000,"state":"active","ping":72},{"user_id":581,"name":"themantics","steam_id":76561198049276592,"connected_time":1316000000000,"state":"active","ping":47},{"user_id":494,"name":"Carrot Arc","steam_id":76561198164957006,"connected_time":7100000000000,"state":"active","ping":82},{"user_id":558,"name":"Hyvis","steam_id":76561199006818758,"connected_time":2377000000000,"state":"active","ping":89},{"user_id":591,"name":"Better Call Medic","steam_id":76561198939711234,"connected_time":230000000000,"state":"active","ping":101},{"user_id":598,"name":"M1TH-EXE","steam_id":76561198421057702,"connected_time":40000000000,"state":"active","ping":62},{"user_id":526,"name":"kbbq","steam_id":76561198346638308,"connected_time":4120000000000,"state":"active","ping":57},{"user_id":592,"name":"Gappy-8","steam_id":76561198046298765,"connected_time":223000000000,"state":"active","ping":107},{"user_id":595,"name":"i heal gay people","steam_id":76561198032167311,"connected_time":181000000000,"state":"active","ping":79},{"user_id":596,"name":"silly by choice gamer by law","steam_id":76561198216039925,"connected_time":157000000000,"state":"active","ping":336},{"user_id":557,"name":"Keelan","steam_id":76561198013665543,"connected_time":2398000000000,"state":"active","ping":81},{"user_id":577,"name":"C4RLT0N","steam_id":76561198114107021,"connected_time":1365000000000,"state":"active","ping":45},{"user_id":560,"name":"Yaire","steam_id":76561198017343510,"connected_time":2348000000000,"state":"active","ping":70},{"user_id":574,"name":"uhrensohn","steam_id":76561198087348269,"connected_time":1963000000000,"state":"active","ping":53},{"user_id":569,"name":"Sgreff","steam_id":76561198036304365,"connected_time":2272000000000,"state":"active","ping":59}]},{"server_id":110,"name":"Uncletopia | Frankfurt | 2 | All Maps","name_short":"frk-2","host":"frk-1.de.uncletopia.com","port":27025,"enabled":true,"region":"eu","cc":"de","latitude":50.110924,"longitude":8.682127,"reserved":0,"last_update":"0001-01-01T00:00:00Z","name_a2s":"Uncletopia | Frankfurt | 2 | All Maps","protocol":17,"map":"cp_steel","folder":"tf","game":"Team Fortress","app_id":440,"player_count":23,"max_players":24,"Bots":0,"server_type":"Dedicated","server_os":"Linux","password":true,"vac":true,"version":"7757534","steam_id":85568392924469990,"keywords":["cp","nocrits","nodmgspread","uncletopia"],"game_id":440,"stv_port":27026,"stv_name":"Uncletopia | Frankfurt | 2 | All Maps | STV","players":[{"user_id":148,"name":"Fpaoullis","steam_id":76561198897866131,"connected_time":3565000000000,"state":"active","ping":93},{"user_id":162,"name":"eat bean","steam_id":76561198199110998,"connected_time":3107000000000,"state":"active","ping":68},{"user_id":185,"name":"hananamanna","steam_id":76561198006570285,"connected_time":1170000000000,"state":"active","ping":104},{"user_id":178,"name":"Miton","steam_id":76561197970323209,"connected_time":2312000000000,"state":"active","ping":84},{"user_id":176,"name":"Jonak","steam_id":76561198080832458,"connected_time":2464000000000,"state":"active","ping":76},{"user_id":187,"name":"Hildreth","steam_id":76561197995254867,"connected_time":831000000000,"state":"active","ping":60},{"user_id":181,"name":"S0LDaTo","steam_id":76561198269413360,"connected_time":1541000000000,"state":"active","ping":70},{"user_id":199,"name":"blue","steam_id":76561198216200092,"connected_time":13000000000,"state":"spawning","ping":58},{"user_id":169,"name":"Homicidal Tendencies","steam_id":76561198828681043,"connected_time":2730000000000,"state":"active","ping":57},{"user_id":164,"name":"wise tree gaming","steam_id":76561198149679759,"connected_time":2928000000000,"state":"active","ping":55},{"user_id":194,"name":"Laki","steam_id":76561198126078953,"connected_time":436000000000,"state":"active","ping":119},{"user_id":197,"name":"Kruthal","steam_id":76561198245726582,"connected_time":99000000000,"state":"active","ping":73},{"user_id":195,"name":"Tuga inglesa","steam_id":76561198442803577,"connected_time":265000000000,"state":"active","ping":89},{"user_id":145,"name":"PizzaPete123","steam_id":76561198089478290,"connected_time":3697000000000,"state":"active","ping":54},{"user_id":193,"name":"Juiceydough","steam_id":76561197997323419,"connected_time":696000000000,"state":"active","ping":96},{"user_id":123,"name":"Tre3","steam_id":76561198054795379,"connected_time":5830000000000,"state":"active","ping":59},{"user_id":179,"name":"sHIFTINGvORTEX","steam_id":76561198231648332,"connected_time":2016000000000,"state":"active","ping":72},{"user_id":116,"name":"Fat Pigeon","steam_id":76561198817940142,"connected_time":6017000000000,"state":"active","ping":59},{"user_id":183,"name":"made you cream?","steam_id":76561198844612042,"connected_time":1315000000000,"state":"active","ping":88},{"user_id":165,"name":"Festive Erma","steam_id":76561198038718342,"connected_time":2873000000000,"state":"active","ping":84},{"user_id":196,"name":"Kavary","steam_id":76561198024792146,"connected_time":237000000000,"state":"active","ping":76},{"user_id":198,"name":"komantoN^-","steam_id":76561198017929662,"connected_time":75000000000,"state":"active","ping":56},{"user_id":174,"name":"dn4k","steam_id":76561199221755690,"connected_time":2638000000000,"state":"active","ping":75}]},{"server_id":308,"name":"Uncletopia | Frankfurt | 3 | All Maps","name_short":"frk-3","host":"frk-1.de.uncletopia.com","port":27035,"enabled":true,"region":"eu","cc":"de","latitude":50.110924,"longitude":8.682127,"reserved":0,"last_update":"0001-01-01T00:00:00Z","name_a2s":"Uncletopia | Frankfurt | 3 | All Maps","protocol":17,"map":"pl_badwater","folder":"tf","game":"Team Fortress","app_id":440,"player_count":24,"max_players":24,"Bots":0,"server_type":"Dedicated","server_os":"Linux","password":true,"vac":true,"version":"7757534","steam_id":85568392924504274,"keywords":["nocrits","nodmgspread","payload","uncletopia"],"game_id":440,"stv_port":27036,"stv_name":"Uncletopia | Frankfurt | 3 | All Maps | STV","players":[{"user_id":384,"name":"many thanks","steam_id":76561198089003514,"connected_time":158000000000,"state":"active","ping":41},{"user_id":336,"name":"HOI","steam_id":76561198061182117,"connected_time":3638000000000,"state":"active","ping":64},{"user_id":372,"name":"[NG] ryft","steam_id":76561198429138254,"connected_time":650000000000,"state":"active","ping":72},{"user_id":182,"name":"Arcader","steam_id":76561198109860110,"connected_time":13536000000000,"state":"active","ping":88},{"user_id":349,"name":"KingofCubes","steam_id":76561198258037513,"connected_time":2159000000000,"state":"active","ping":69},{"user_id":373,"name":"deVychu","steam_id":76561198078032019,"connected_time":611000000000,"state":"active","ping":75},{"user_id":371,"name":"cazador","steam_id":76561198123096922,"connected_time":665000000000,"state":"active","ping":105},{"user_id":374,"name":"scantron","steam_id":76561199103959197,"connected_time":604000000000,"state":"active","ping":88},{"user_id":376,"name":"krVsh","steam_id":76561198370541349,"connected_time":470000000000,"state":"active","ping":63},{"user_id":385,"name":"xristosblin","steam_id":76561199043074852,"connected_time":93000000000,"state":"active","ping":84},{"user_id":351,"name":"Saymesal","steam_id":76561198886917393,"connected_time":2140000000000,"state":"active","ping":76},{"user_id":382,"name":"just snippin.","steam_id":76561199011293286,"connected_time":372000000000,"state":"active","ping":93},{"user_id":327,"name":"Let Me Help (Sous Chef)","steam_id":76561198004553646,"connected_time":4026000000000,"state":"active","ping":186},{"user_id":380,"name":"hourglass","steam_id":76561198166613799,"connected_time":431000000000,"state":"active","ping":76},{"user_id":377,"name":"\u003eSix in swedish + y","steam_id":76561198372971096,"connected_time":459000000000,"state":"active","ping":73},{"user_id":315,"name":"yyny","steam_id":76561198066287297,"connected_time":4584000000000,"state":"active","ping":45},{"user_id":353,"name":"Deva Path","steam_id":76561198085763542,"connected_time":2131000000000,"state":"active","ping":80},{"user_id":354,"name":"Mor'du","steam_id":76561198274105878,"connected_time":2131000000000,"state":"active","ping":86},{"user_id":366,"name":"Redsy","steam_id":76561198360088412,"connected_time":1071000000000,"state":"active","ping":143},{"user_id":367,"name":"Malok","steam_id":76561198371117880,"connected_time":999000000000,"state":"active","ping":60},{"user_id":379,"name":"Conan the Librarian","steam_id":76561198007224654,"connected_time":436000000000,"state":"active","ping":89},{"user_id":381,"name":"CaparezzaMunnezza","steam_id":76561198262231733,"connected_time":419000000000,"state":"active","ping":75},{"user_id":332,"name":"Caskye","steam_id":76561198165430888,"connected_time":3825000000000,"state":"active","ping":84},{"user_id":364,"name":"BSantos57","steam_id":76561198000597094,"connected_time":1309000000000,"state":"active","ping":92}]},{"server_id":309,"name":"Uncletopia | Frankfurt | 4 | All Maps","name_short":"frk-4","host":"frk-1.de.uncletopia.com","port":27045,"enabled":true,"region":"eu","cc":"de","latitude":50.110924,"longitude":8.682127,"reserved":0,"last_update":"0001-01-01T00:00:00Z","name_a2s":"Uncletopia | Frankfurt | 4 | All Maps","protocol":17,"map":"pl_frontier_final","folder":"tf","game":"Team Fortress","app_id":440,"player_count":4,"max_players":24,"Bots":0,"server_type":"Dedicated","server_os":"Linux","password":true,"vac":true,"version":"7757534","steam_id":85568392924504275,"keywords":["nocrits","nodmgspread","payload","uncletopia"],"game_id":440,"stv_port":27046,"stv_name":"Uncletopia | Frankfurt | 4 | All Maps | STV","players":[{"user_id":228,"name":"zilaz","steam_id":76561198416395887,"connected_time":1863000000000,"state":"active","ping":52},{"user_id":229,"name":"Devon","steam_id":76561198965263346,"connected_time":1858000000000,"state":"active","ping":70},{"user_id":230,"name":"kuzya","steam_id":76561198348240722,"connected_time":1847000000000,"state":"active","ping":137},{"user_id":182,"name":"Refre35","steam_id":76561198971840738,"connected_time":5712000000000,"state":"active","ping":75}]},{"server_id":310,"name":"Uncletopia | Frankfurt | 5 | All Maps","name_short":"frk-5","host":"frk-1.de.uncletopia.com","port":27055,"enabled":true,"region":"eu","cc":"de","latitude":50.110924,"longitude":8.682127,"reserved":0,"last_update":"0001-01-01T00:00:00Z","name_a2s":"Uncletopia | Frankfurt | 5 | All Maps","protocol":17,"map":"cp_mountainlab","folder":"tf","game":"Team Fortress","app_id":440,"player_count":0,"max_players":24,"Bots":0,"server_type":"Dedicated","server_os":"Linux","password":true,"vac":true,"version":"7757534","steam_id":85568392924504277,"keywords":["cp","nocrits","nodmgspread","uncletopia"],"game_id":440,"stv_port":27056,"stv_name":"Uncletopia | Frankfurt | 5 | All Maps | STV","players":null},{"server_id":311,"name":"Uncletopia | Frankfurt | 6 | All Maps","name_short":"frk-6","host":"frk-1.de.uncletopia.com","port":27065,"enabled":true,"region":"eu","cc":"de","latitude":50.110924,"longitude":8.682127,"reserved":0,"last_update":"0001-01-01T00:00:00Z","name_a2s":"Uncletopia | Frankfurt | 6 | All Maps","protocol":17,"map":"pl_snowycoast","folder":"tf","game":"Team Fortress","app_id":440,"player_count":20,"max_players":24,"Bots":0,"server_type":"Dedicated","server_os":"Linux","password":true,"vac":true,"version":"7757534","steam_id":85568392924504278,"keywords":["nocrits","nodmgspread","payload","uncletopia"],"game_id":440,"stv_port":27066,"stv_name":"Uncletopia | Frankfurt | 6 | All Maps | STV","players":[{"user_id":435,"name":"ReDareX0","steam_id":76561199268414394,"connected_time":269000000000,"state":"active","ping":167},{"user_id":419,"name":"MR.CRAB","steam_id":76561198329833659,"connected_time":1284000000000,"state":"active","ping":66},{"user_id":425,"name":"_Starlight_","steam_id":76561197993885738,"connected_time":697000000000,"state":"active","ping":66},{"user_id":418,"name":"Kerrygold (454 grammes)","steam_id":76561197968575924,"connected_time":1289000000000,"state":"active","ping":73},{"user_id":429,"name":"Hansi","steam_id":76561198035577047,"connected_time":512000000000,"state":"active","ping":58},{"user_id":298,"name":"Welder","steam_id":76561198355300561,"connected_time":9418000000000,"state":"active","ping":71},{"user_id":386,"name":"guiseppe","steam_id":76561198046129681,"connected_time":3630000000000,"state":"active","ping":96},{"user_id":431,"name":"Zero (Orbital Gear Mastermind)","steam_id":76561198017416816,"connected_time":482000000000,"state":"active","ping":55},{"user_id":423,"name":"d u k k i","steam_id":76561198071807437,"connected_time":746000000000,"state":"active","ping":84},{"user_id":420,"name":"Albert Einstein","steam_id":76561198351190006,"connected_time":1266000000000,"state":"active","ping":82},{"user_id":421,"name":"Mati [EST]","steam_id":76561197994743813,"connected_time":1265000000000,"state":"active","ping":113},{"user_id":432,"name":"Mike Kerman","steam_id":76561198038257570,"connected_time":356000000000,"state":"active","ping":82},{"user_id":441,"name":"pip boy","steam_id":76561197960530280,"connected_time":29000000000,"state":"active","ping":60},{"user_id":433,"name":"fantach ඞ","steam_id":76561198838120425,"connected_time":341000000000,"state":"active","ping":97},{"user_id":434,"name":"Rafii","steam_id":76561198144011814,"connected_time":320000000000,"state":"active","ping":69},{"user_id":409,"name":"saalvberg","steam_id":76561199409062000,"connected_time":1812000000000,"state":"active","ping":72},{"user_id":424,"name":"Thors","steam_id":76561197968739075,"connected_time":702000000000,"state":"active","ping":45},{"user_id":396,"name":"grand cru promille","steam_id":76561198054162681,"connected_time":2415000000000,"state":"active","ping":81},{"user_id":438,"name":"DooWooD","steam_id":76561198335810106,"connected_time":105000000000,"state":"active","ping":79},{"user_id":437,"name":"Leituga","steam_id":76561198051127598,"connected_time":136000000000,"state":"active","ping":101}]},{"server_id":23,"name":"Uncletopia | Frankfurt | 7 | Stopwatch Beta","name_short":"frk-7","host":"frk-1.de.uncletopia.com","port":27075,"enabled":true,"region":"eu","cc":"de","latitude":50.110924,"longitude":8.682127,"reserved":0,"last_update":"0001-01-01T00:00:00Z","name_a2s":"Uncletopia | Frankfurt | 7 | Stopwatch Beta","protocol":17,"map":"workshop/koth_product_final.ugc454272353","folder":"tf","game":"Team Fortress","app_id":440,"player_count":0,"max_players":24,"Bots":0,"server_type":"Dedicated","server_os":"Linux","password":true,"vac":true,"version":"7757534","steam_id":85568392924742827,"keywords":["cp","nocrits","nodmgspread","uncletopia"],"game_id":440,"stv_port":27076,"stv_name":"Uncletopia | Frankfurt | 7 | Stopwatch Beta | STV","players":null},{"server_id":24,"name":"Uncletopia | Frankfurt | 8 | Community","name_short":"frk-8","host":"frk-1.de.uncletopia.com","port":27085,"enabled":true,"region":"eu","cc":"de","latitude":50.110924,"longitude":8.682127,"reserved":0,"last_update":"0001-01-01T00:00:00Z","name_a2s":"Uncletopia | Frankfurt | 8 | Community","protocol":17,"map":"workshop/koth_trenchfoot_b1a.ugc731436616","folder":"tf","game":"Team Fortress","app_id":440,"player_count":0,"max_players":24,"Bots":0,"server_type":"Dedicated","server_os":"Linux","password":true,"vac":true,"version":"7757534","steam_id":85568392924742828,"keywords":["cp","nocrits","nodmgspread","uncletopia"],"game_id":440,"stv_port":27086,"stv_name":"Uncletopia | Frankfurt | 8 | Community | STV","players":null},{"server_id":202,"name":"Uncletopia | Hong Kong | 1 | All Maps","name_short":"hgk-1","host":"hgk-1.hk.uncletopia.com","port":27015,"enabled":true,"region":"asia","cc":"hk","latitude":22.302711,"longitude":114.177216,"reserved":0,"last_update":"0001-01-01T00:00:00Z","name_a2s":"Uncletopia | Hong Kong | 1 | All Maps","protocol":17,"map":"koth_viaduct","folder":"tf","game":"Team Fortress","app_id":440,"player_count":0,"max_players":24,"Bots":0,"server_type":"Dedicated","server_os":"Linux","password":true,"vac":true,"version":"7757534","steam_id":85568392924494504,"keywords":["cp","nocrits","nodmgspread","uncletopia"],"game_id":440,"stv_port":27016,"stv_name":"Uncletopia | Hong Kong | 1 | All Maps | STV","players":null},{"server_id":1,"name":"Uncletopia | Los Angeles | 1 | All Maps","name_short":"lax-1","host":"lax-1.us.uncletopia.com","port":27015,"enabled":true,"region":"us-west","cc":"us","latitude":33.94279,"longitude":-118.41004,"reserved":0,"last_update":"0001-01-01T00:00:00Z","name_a2s":"Uncletopia | Los Angeles | 1 | All Maps","protocol":17,"map":"koth_lakeside_final","folder":"tf","game":"Team Fortress","app_id":440,"player_count":0,"max_players":24,"Bots":0,"server_type":"Dedicated","server_os":"Linux","password":true,"vac":true,"version":"7757534","steam_id":85568392924469991,"keywords":["cp","nocrits","nodmgspread","uncletopia"],"game_id":440,"stv_port":27016,"stv_name":"Uncletopia | Los Angeles | 1 | All Maps | STV","players":null},{"server_id":112,"name":"Uncletopia | Los Angeles | 2 | All Maps","name_short":"lax-2","host":"lax-1.us.uncletopia.com","port":27025,"enabled":true,"region":"us-west","cc":"us","latitude":33.94279,"longitude":-118.41004,"reserved":0,"last_update":"0001-01-01T00:00:00Z","name_a2s":"Uncletopia | Los Angeles | 2 | All Maps","protocol":17,"map":"koth_cascade","folder":"tf","game":"Team Fortress","app_id":440,"player_count":0,"max_players":24,"Bots":0,"server_type":"Dedicated","server_os":"Linux","password":true,"vac":true,"version":"7757534","steam_id":85568392924469992,"keywords":["cp","nocrits","nodmgspread","uncletopia"],"game_id":440,"stv_port":27026,"stv_name":"Uncletopia | Los Angeles | 2 | All Maps | STV","players":null},{"server_id":324,"name":"Uncletopia | Los Angeles | 3 | All Maps","name_short":"lax-3","host":"lax-1.us.uncletopia.com","port":27035,"enabled":true,"region":"us-west","cc":"us","latitude":33.94279,"longitude":-118.41004,"reserved":0,"last_update":"0001-01-01T00:00:00Z","name_a2s":"Uncletopia | Los Angeles | 3 | All Maps","protocol":17,"map":"pl_snowycoast","folder":"tf","game":"Team Fortress","app_id":440,"player_count":0,"max_players":24,"Bots":0,"server_type":"Dedicated","server_os":"Linux","password":true,"vac":true,"version":"7757534","steam_id":85568392924510198,"keywords":["nocrits","nodmgspread","payload","uncletopia"],"game_id":440,"stv_port":27036,"stv_name":"Uncletopia | Los Angeles | 3 | All Maps | STV","players":null},{"server_id":25,"name":"Uncletopia | Los Angeles | 4 | Stopwatch Beta","name_short":"lax-4","host":"lax-1.us.uncletopia.com","port":27045,"enabled":true,"region":"us-west","cc":"us","latitude":33.94279,"longitude":-118.41004,"reserved":0,"last_update":"0001-01-01T00:00:00Z","name_a2s":"Uncletopia | Los Angeles | 4 | Stopwatch Beta","protocol":17,"map":"pl_frontier_final","folder":"tf","game":"Team Fortress","app_id":440,"player_count":0,"max_players":24,"Bots":0,"server_type":"Dedicated","server_os":"Linux","password":true,"vac":true,"version":"7757534","steam_id":85568392924510199,"keywords":["nocrits","nodmgspread","payload","uncletopia"],"game_id":440,"stv_port":27046,"stv_name":"Uncletopia | Los Angeles | 4 | Stopwatch Beta | STV","players":null},{"server_id":11,"name":"Uncletopia | London | 1 | All Maps","name_short":"lon-1","host":"lon-1.uk.uncletopia.com","port":27015,"enabled":true,"region":"eu","cc":"gb","latitude":51.509865,"longitude":-0.118092,"reserved":0,"last_update":"0001-01-01T00:00:00Z","name_a2s":"Uncletopia | London | 1 | All Maps","protocol":17,"map":"pl_upward","folder":"tf","game":"Team Fortress","app_id":440,"player_count":21,"max_players":24,"Bots":0,"server_type":"Dedicated","server_os":"Linux","password":true,"vac":true,"version":"7757534","steam_id":85568392924367362,"keywords":["nocrits","nodmgspread","payload","uncletopia"],"game_id":440,"stv_port":27016,"stv_name":"Uncletopia | London | 1 | All Maps | STV","players":[{"user_id":506,"name":"get crunk or whatever","steam_id":76561198239265962,"connected_time":8530000000000,"state":"active","ping":67},{"user_id":604,"name":"MIAM LES PÂTES AU JAMBON ®","steam_id":76561198204821037,"connected_time":39000000000,"state":"active","ping":58},{"user_id":603,"name":"Porasnal","steam_id":76561198282678462,"connected_time":119000000000,"state":"active","ping":63},{"user_id":605,"name":"lvl. 50 honkler","steam_id":76561198061688660,"connected_time":15000000000,"state":"active","ping":114},{"user_id":536,"name":"Moja jaja šlajdraju","steam_id":76561198280390098,"connected_time":6040000000000,"state":"active","ping":85},{"user_id":606,"name":"Joff-tchoff-tchoffo-tchoffo-tch","steam_id":76561198044167743,"connected_time":11000000000,"state":"active","ping":124},{"user_id":579,"name":"Cheese pizza connoisseur","steam_id":76561199062160061,"connected_time":1475000000000,"state":"active","ping":55},{"user_id":585,"name":"Dominus.","steam_id":76561199065917088,"connected_time":1014000000000,"state":"active","ping":61},{"user_id":520,"name":"Silent Person","steam_id":76561198107763537,"connected_time":7996000000000,"state":"active","ping":72},{"user_id":601,"name":"Dodoshka","steam_id":76561198093464840,"connected_time":197000000000,"state":"active","ping":108},{"user_id":597,"name":"When Life gives you Lemons","steam_id":76561198318290663,"connected_time":416000000000,"state":"active","ping":59},{"user_id":578,"name":"triangle","steam_id":76561198046838168,"connected_time":2045000000000,"state":"active","ping":60},{"user_id":577,"name":"Dr.Doof","steam_id":76561198357725388,"connected_time":2243000000000,"state":"active","ping":60},{"user_id":599,"name":"MATT","steam_id":76561198863013731,"connected_time":215000000000,"state":"active","ping":47},{"user_id":589,"name":"tactical783","steam_id":76561199051688560,"connected_time":923000000000,"state":"active","ping":73},{"user_id":572,"name":"Aaron","steam_id":76561197990046953,"connected_time":2297000000000,"state":"active","ping":61},{"user_id":582,"name":"dec","steam_id":76561198009660168,"connected_time":1356000000000,"state":"active","ping":46},{"user_id":591,"name":"Panda","steam_id":76561198176342325,"connected_time":858000000000,"state":"active","ping":99},{"user_id":602,"name":"MorVill","steam_id":76561198809859945,"connected_time":140000000000,"state":"active","ping":53},{"user_id":600,"name":"Velma","steam_id":76561198047359132,"connected_time":214000000000,"state":"active","ping":70},{"user_id":592,"name":"EdgyKItro","steam_id":76561199018665986,"connected_time":834000000000,"state":"active","ping":105}]},{"server_id":114,"name":"Uncletopia | London | 2 | All Maps","name_short":"lon-2","host":"lon-1.uk.uncletopia.com","port":27025,"enabled":true,"region":"eu","cc":"gb","latitude":51.509865,"longitude":-0.118092,"reserved":0,"last_update":"0001-01-01T00:00:00Z","name_a2s":"Uncletopia | London | 2 | All Maps","protocol":17,"map":"pl_barnblitz","folder":"tf","game":"Team Fortress","app_id":440,"player_count":24,"max_players":24,"Bots":0,"server_type":"Dedicated","server_os":"Linux","password":true,"vac":true,"version":"7757534","steam_id":85568392924470941,"keywords":["nocrits","nodmgspread","payload","uncletopia"],"game_id":440,"stv_port":27026,"stv_name":"Uncletopia | London | 2 | All Maps | STV","players":[{"user_id":281,"name":"bum","steam_id":76561198060105180,"connected_time":2148000000000,"state":"active","ping":60},{"user_id":296,"name":"Nitrogue","steam_id":76561198349928418,"connected_time":1376000000000,"state":"active","ping":152},{"user_id":300,"name":"f0x","steam_id":76561198072921704,"connected_time":1012000000000,"state":"active","ping":65},{"user_id":288,"name":"arty","steam_id":76561198007971021,"connected_time":1655000000000,"state":"active","ping":62},{"user_id":253,"name":"Cave Johnson","steam_id":76561198366456565,"connected_time":3431000000000,"state":"active","ping":72},{"user_id":246,"name":"Uncle Terry","steam_id":76561198396415736,"connected_time":3874000000000,"state":"active","ping":63},{"user_id":182,"name":"New","steam_id":76561198402195911,"connected_time":8327000000000,"state":"active","ping":115},{"user_id":289,"name":"Noob_with_source","steam_id":76561198870362103,"connected_time":1646000000000,"state":"active","ping":58},{"user_id":273,"name":"jeff sharty","steam_id":76561198064342804,"connected_time":2307000000000,"state":"active","ping":75},{"user_id":255,"name":"Bupo","steam_id":76561198999675536,"connected_time":3404000000000,"state":"active","ping":97},{"user_id":290,"name":"nicholasjf","steam_id":76561198110717638,"connected_time":1608000000000,"state":"active","ping":58},{"user_id":291,"name":"Alexei","steam_id":76561197987169026,"connected_time":1595000000000,"state":"active","ping":48},{"user_id":303,"name":"Dwevy","steam_id":76561198090379437,"connected_time":359000000000,"state":"active","ping":51},{"user_id":304,"name":"Hoopty","steam_id":76561198057012442,"connected_time":303000000000,"state":"active","ping":74},{"user_id":298,"name":"v0rt3x","steam_id":76561198034695233,"connected_time":1162000000000,"state":"active","ping":67},{"user_id":264,"name":"balanced diet","steam_id":76561198240320806,"connected_time":2590000000000,"state":"active","ping":72},{"user_id":287,"name":"Edla","steam_id":76561198062815315,"connected_time":1664000000000,"state":"active","ping":110},{"user_id":294,"name":"Kraftlos","steam_id":76561198074350350,"connected_time":1528000000000,"state":"active","ping":126},{"user_id":302,"name":"Koi-Koi","steam_id":76561198045527771,"connected_time":698000000000,"state":"active","ping":54},{"user_id":265,"name":"alex","steam_id":76561197995857448,"connected_time":2578000000000,"state":"active","ping":48},{"user_id":216,"name":"Harpenden, Harpenden, Harpenden","steam_id":76561198118138546,"connected_time":5811000000000,"state":"active","ping":44},{"user_id":261,"name":"Sch","steam_id":76561198071341689,"connected_time":3298000000000,"state":"active","ping":64},{"user_id":299,"name":"Dispenser Gaming","steam_id":76561198855333841,"connected_time":1135000000000,"state":"active","ping":75},{"user_id":307,"name":"Bageldorf","steam_id":76561198145710422,"connected_time":262000000000,"state":"active","ping":190}]},{"server_id":320,"name":"Uncletopia | London | 3 | All Maps","name_short":"lon-3","host":"lon-1.uk.uncletopia.com","port":27035,"enabled":true,"region":"eu","cc":"gb","latitude":51.509865,"longitude":-0.118092,"reserved":0,"last_update":"0001-01-01T00:00:00Z","name_a2s":"Uncletopia | London | 3 | All Maps","protocol":17,"map":"cp_sunshine","folder":"tf","game":"Team Fortress","app_id":440,"player_count":20,"max_players":24,"Bots":0,"server_type":"Dedicated","server_os":"Linux","password":true,"vac":true,"version":"7757534","steam_id":85568392924510192,"keywords":["cp","nocrits","nodmgspread","uncletopia"],"game_id":440,"stv_port":27036,"stv_name":"Uncletopia | London | 3 | All Maps | STV","players":[{"user_id":647,"name":"Mophead","steam_id":76561198161328553,"connected_time":2312000000000,"state":"active","ping":51},{"user_id":648,"name":"Not Adam","steam_id":76561198859771189,"connected_time":2304000000000,"state":"active","ping":54},{"user_id":679,"name":"UnusualBrit","steam_id":76561198255679838,"connected_time":221000000000,"state":"active","ping":53},{"user_id":674,"name":"Orex","steam_id":76561198272296530,"connected_time":757000000000,"state":"active","ping":71},{"user_id":649,"name":"ike","steam_id":76561198039845647,"connected_time":2304000000000,"state":"active","ping":56},{"user_id":678,"name":"Gaem Geck","steam_id":76561198057966907,"connected_time":265000000000,"state":"active","ping":46},{"user_id":675,"name":"Yuval","steam_id":76561198241802390,"connected_time":462000000000,"state":"active","ping":116},{"user_id":654,"name":"Garden Freeman","steam_id":76561199073314677,"connected_time":2047000000000,"state":"active","ping":80},{"user_id":655,"name":"Deskey","steam_id":76561198042397332,"connected_time":1974000000000,"state":"active","ping":45},{"user_id":656,"name":"Printified","steam_id":76561198063534010,"connected_time":1940000000000,"state":"active","ping":165},{"user_id":657,"name":"Certified Hood pybro (ua)","steam_id":76561198970562699,"connected_time":1887000000000,"state":"active","ping":53},{"user_id":681,"name":"JohnarasGamer1","steam_id":76561198365929872,"connected_time":109000000000,"state":"active","ping":93},{"user_id":658,"name":"Gaggle Grammlers","steam_id":76561198844668821,"connected_time":1872000000000,"state":"active","ping":61},{"user_id":682,"name":"ashley","steam_id":76561198448551449,"connected_time":100000000000,"state":"active","ping":36},{"user_id":660,"name":"Eyy_Cucasi","steam_id":76561198271767632,"connected_time":1841000000000,"state":"active","ping":95},{"user_id":661,"name":"Scottish Scout","steam_id":76561199471438051,"connected_time":1813000000000,"state":"active","ping":49},{"user_id":677,"name":"Rolloden","steam_id":76561198069414404,"connected_time":346000000000,"state":"active","ping":74},{"user_id":683,"name":"Maranhadas","steam_id":76561198152856761,"connected_time":89000000000,"state":"active","ping":138},{"user_id":680,"name":"Funky Dude","steam_id":76561198271837212,"connected_time":150000000000,"state":"active","ping":47},{"user_id":669,"name":"A Featherless Biped","steam_id":76561198307904901,"connected_time":1610000000000,"state":"active","ping":45}]},{"server_id":321,"name":"Uncletopia | London | 4 | All Maps","name_short":"lon-4","host":"lon-1.uk.uncletopia.com","port":27045,"enabled":true,"region":"eu","cc":"gb","latitude":51.509865,"longitude":-0.118092,"reserved":0,"last_update":"0001-01-01T00:00:00Z","name_a2s":"Uncletopia | London | 4 | All Maps","protocol":17,"map":"cp_steel","folder":"tf","game":"Team Fortress","app_id":440,"player_count":12,"max_players":24,"Bots":0,"server_type":"Dedicated","server_os":"Linux","password":true,"vac":true,"version":"7757534","steam_id":85568392924510193,"keywords":["cp","nocrits","nodmgspread","uncletopia"],"game_id":440,"stv_port":27046,"stv_name":"Uncletopia | London | 4 | All Maps | STV","players":[{"user_id":129,"name":"Tort","steam_id":76561198329646769,"connected_time":1075000000000,"state":"active","ping":47},{"user_id":97,"name":"Adopted?","steam_id":76561198118667043,"connected_time":2611000000000,"state":"active","ping":41},{"user_id":105,"name":"The Deadly Doughnut","steam_id":76561198079049349,"connected_time":2392000000000,"state":"active","ping":56},{"user_id":140,"name":"Arcticpyro","steam_id":76561198010708923,"connected_time":613000000000,"state":"active","ping":67},{"user_id":141,"name":"ThironGamma","steam_id":76561197967412936,"connected_time":492000000000,"state":"active","ping":61},{"user_id":132,"name":"Flint","steam_id":76561197995920776,"connected_time":931000000000,"state":"active","ping":45},{"user_id":142,"name":"Ceol","steam_id":76561198003955789,"connected_time":336000000000,"state":"active","ping":138},{"user_id":126,"name":"Negromancer","steam_id":76561198065912877,"connected_time":1243000000000,"state":"active","ping":86},{"user_id":137,"name":"Sodsboy","steam_id":76561198030482006,"connected_time":772000000000,"state":"active","ping":41},{"user_id":139,"name":"Ineluctable Sex Predator","steam_id":76561197995971061,"connected_time":647000000000,"state":"active","ping":90},{"user_id":143,"name":"E","steam_id":76561198166340115,"connected_time":151000000000,"state":"active","ping":62},{"user_id":80,"name":"dotdotdot","steam_id":76561198057628751,"connected_time":3781000000000,"state":"active","ping":60}]},{"server_id":21,"name":"Uncletopia | London | 5 | All Maps","name_short":"lon-5","host":"lon-1.uk.uncletopia.com","port":27055,"enabled":true,"region":"eu","cc":"gb","latitude":51.509865,"longitude":-0.118092,"reserved":0,"last_update":"0001-01-01T00:00:00Z","name_a2s":"Uncletopia | London | 5 | All Maps","protocol":17,"map":"pl_swiftwater_final1","folder":"tf","game":"Team Fortress","app_id":440,"player_count":24,"max_players":24,"Bots":0,"server_type":"Dedicated","server_os":"Linux","password":true,"vac":true,"version":"7757534","steam_id":85568392924742829,"keywords":["nocrits","nodmgspread","payload","uncletopia"],"game_id":440,"stv_port":27056,"stv_name":"Uncletopia | London | 5 | All Maps | STV","players":[{"user_id":366,"name":"Muffin","steam_id":76561198134575280,"connected_time":24000000000,"state":"active","ping":60},{"user_id":341,"name":"curse these metal hands","steam_id":76561198056531586,"connected_time":1215000000000,"state":"active","ping":59},{"user_id":299,"name":"pezza","steam_id":76561197995173247,"connected_time":3812000000000,"state":"active","ping":58},{"user_id":252,"name":"decriminalise goblins","steam_id":76561198048257605,"connected_time":6103000000000,"state":"active","ping":49},{"user_id":307,"name":"The storm that is approaching","steam_id":76561198982155864,"connected_time":3283000000000,"state":"active","ping":77},{"user_id":364,"name":"X45Y","steam_id":76561198112534025,"connected_time":100000000000,"state":"active","ping":46},{"user_id":345,"name":"sex havin'","steam_id":76561198169857427,"connected_time":1067000000000,"state":"active","ping":76},{"user_id":361,"name":"Toast Nook","steam_id":76561199093949301,"connected_time":229000000000,"state":"active","ping":85},{"user_id":354,"name":"silly goose","steam_id":76561198274536610,"connected_time":760000000000,"state":"active","ping":179},{"user_id":353,"name":"d-_-b","steam_id":76561199069470978,"connected_time":775000000000,"state":"active","ping":80},{"user_id":320,"name":"gibb (official)","steam_id":76561198074097655,"connected_time":2887000000000,"state":"active","ping":44},{"user_id":359,"name":"gagalak","steam_id":76561198089979108,"connected_time":457000000000,"state":"active","ping":107},{"user_id":338,"name":"Kizerain","steam_id":76561198058400427,"connected_time":1417000000000,"state":"active","ping":45},{"user_id":321,"name":"After8","steam_id":76561198090750865,"connected_time":2866000000000,"state":"active","ping":75},{"user_id":322,"name":"Moyai gaming","steam_id":76561198071207848,"connected_time":2841000000000,"state":"active","ping":60},{"user_id":339,"name":"Uncle Moomin","steam_id":76561198011628656,"connected_time":1398000000000,"state":"active","ping":77},{"user_id":362,"name":"AActualIdiot","steam_id":76561199226253482,"connected_time":219000000000,"state":"active","ping":162},{"user_id":348,"name":"BELADIT","steam_id":76561198011911501,"connected_time":954000000000,"state":"active","ping":75},{"user_id":365,"name":"Repays","steam_id":76561198082993000,"connected_time":73000000000,"state":"active","ping":42},{"user_id":325,"name":"Shlongulator","steam_id":76561198149779201,"connected_time":2776000000000,"state":"active","ping":55},{"user_id":358,"name":"QuorglepleegJR","steam_id":76561198984658438,"connected_time":519000000000,"state":"active","ping":54},{"user_id":351,"name":"Snowberry Kush(no audio)","steam_id":76561198392280580,"connected_time":857000000000,"state":"active","ping":150},{"user_id":363,"name":"Johnny Lawrence #JohnnyMaxxing","steam_id":76561199367141671,"connected_time":163000000000,"state":"active","ping":119},{"user_id":327,"name":"Domino2002_PL","steam_id":76561198080192820,"connected_time":2768000000000,"state":"active","ping":76}]},{"server_id":22,"name":"Uncletopia | London | 6 | All Maps","name_short":"lon-6","host":"lon-1.uk.uncletopia.com","port":27065,"enabled":true,"region":"eu","cc":"gb","latitude":51.509865,"longitude":-0.118092,"reserved":0,"last_update":"0001-01-01T00:00:00Z","name_a2s":"Uncletopia | London | 6 | All Maps","protocol":17,"map":"cp_process_final","folder":"tf","game":"Team Fortress","app_id":440,"player_count":22,"max_players":24,"Bots":0,"server_type":"Dedicated","server_os":"Linux","password":true,"vac":true,"version":"7757534","steam_id":85568392924742830,"keywords":["cp","nocrits","nodmgspread","uncletopia"],"game_id":440,"stv_port":27066,"stv_name":"Uncletopia | London | 6 | All Maps | STV","players":[{"user_id":151,"name":"Udinese Dion","steam_id":76561198067931573,"connected_time":630000000000,"state":"active","ping":63},{"user_id":106,"name":"Joseph Stalin","steam_id":76561198033199746,"connected_time":3662000000000,"state":"active","ping":46},{"user_id":153,"name":"Capcom","steam_id":76561198821482125,"connected_time":503000000000,"state":"active","ping":64},{"user_id":138,"name":"bomberman","steam_id":76561199066513442,"connected_time":1363000000000,"state":"active","ping":74},{"user_id":147,"name":"wordrc","steam_id":76561198418788895,"connected_time":740000000000,"state":"active","ping":74},{"user_id":94,"name":"Miles","steam_id":76561198084891833,"connected_time":4630000000000,"state":"active","ping":41},{"user_id":91,"name":"•stepbro•","steam_id":76561198119607160,"connected_time":5003000000000,"state":"active","ping":68},{"user_id":154,"name":"Lag","steam_id":76561198159360376,"connected_time":265000000000,"state":"active","ping":37},{"user_id":157,"name":"zak","steam_id":76561197998895428,"connected_time":167000000000,"state":"active","ping":67},{"user_id":155,"name":"Michael Brecker","steam_id":76561198106684566,"connected_time":243000000000,"state":"active","ping":77},{"user_id":61,"name":"Hexagon","steam_id":76561198151205758,"connected_time":7145000000000,"state":"active","ping":63},{"user_id":156,"name":"Spoingus","steam_id":76561198161402859,"connected_time":208000000000,"state":"active","ping":75},{"user_id":148,"name":"VolcanicArts","steam_id":76561198063453246,"connected_time":739000000000,"state":"active","ping":51},{"user_id":159,"name":"SPONGE","steam_id":76561198040933472,"connected_time":97000000000,"state":"active","ping":72},{"user_id":87,"name":".quickfast.","steam_id":76561199438900919,"connected_time":5219000000000,"state":"active","ping":44},{"user_id":152,"name":"Azula","steam_id":76561198388555202,"connected_time":557000000000,"state":"active","ping":47},{"user_id":161,"name":"the skromagleboker","steam_id":76561198410322806,"connected_time":2000000000,"state":"spawning","ping":160},{"user_id":139,"name":"Smarties McFlurry","steam_id":76561198196259989,"connected_time":1349000000000,"state":"active","ping":47},{"user_id":126,"name":"etc","steam_id":76561197998394797,"connected_time":2199000000000,"state":"active","ping":48},{"user_id":110,"name":"Zerfesh","steam_id":76561198117534358,"connected_time":3533000000000,"state":"active","ping":102},{"user_id":130,"name":"Mariachi Dave","steam_id":76561198074274900,"connected_time":1966000000000,"state":"active","ping":43},{"user_id":123,"name":"Jim Milton","steam_id":76561198055788070,"connected_time":2686000000000,"state":"active","ping":60}]},{"server_id":40,"name":"Uncletopia | London | 7 | No Payload","name_short":"lon-7","host":"lon-1.uk.uncletopia.com","port":27075,"enabled":true,"region":"eu","cc":"gb","latitude":51.509865,"longitude":-0.118092,"reserved":0,"last_update":"0001-01-01T00:00:00Z","name_a2s":"Uncletopia | London | 7 | No Payload","protocol":17,"map":"cp_gullywash_final1","folder":"tf","game":"Team Fortress","app_id":440,"player_count":0,"max_players":24,"Bots":0,"server_type":"Dedicated","server_os":"Linux","password":true,"vac":true,"version":"7757534","steam_id":85568392924964314,"keywords":["cp","nocrits","nodmgspread","uncletopia"],"game_id":440,"stv_port":27076,"stv_name":"Uncletopia | London | 7 | No Payload | STV","players":null},{"server_id":41,"name":"Uncletopia | London | 8 | Community","name_short":"lon-8","host":"lon-1.uk.uncletopia.com","port":27085,"enabled":true,"region":"eu","cc":"gb","latitude":51.509865,"longitude":-0.118092,"reserved":0,"last_update":"0001-01-01T00:00:00Z","name_a2s":"Uncletopia | London | 8 | Community","protocol":17,"map":"workshop/koth_kemptown_rc1.ugc767410655","folder":"tf","game":"Team Fortress","app_id":440,"player_count":0,"max_players":24,"Bots":0,"server_type":"Dedicated","server_os":"Linux","password":true,"vac":true,"version":"7757534","steam_id":85568392924964315,"keywords":["cp","nocrits","nodmgspread","uncletopia"],"game_id":440,"stv_port":27086,"stv_name":"Uncletopia | London | 8 | Community | STV","players":null},{"server_id":300,"name":"Uncletopia | Montréal | 1 | All Maps","name_short":"mtl-1","host":"mtl-1.ca.uncletopia.com","port":27015,"enabled":true,"region":"us-east","cc":"ca","latitude":45.50889,"longitude":-73.56167,"reserved":0,"last_update":"0001-01-01T00:00:00Z","name_a2s":"Uncletopia | Montréal | 1 | All Maps","protocol":17,"map":"pl_upward","folder":"tf","game":"Team Fortress","app_id":440,"player_count":0,"max_players":24,"Bots":0,"server_type":"Dedicated","server_os":"Linux","password":true,"vac":true,"version":"7757534","steam_id":85568392924500087,"keywords":["nocrits","nodmgspread","payload","uncletopia"],"game_id":440,"stv_port":27016,"stv_name":"Uncletopia | Montréal | 1 | All Maps | STV","players":null},{"server_id":301,"name":"Uncletopia | Montréal | 2 | All Maps","name_short":"mtl-2","host":"mtl-1.ca.uncletopia.com","port":27025,"enabled":true,"region":"us-east","cc":"ca","latitude":45.50889,"longitude":-73.56167,"reserved":0,"last_update":"0001-01-01T00:00:00Z","name_a2s":"Uncletopia | Montréal | 2 | All Maps","protocol":17,"map":"pl_snowycoast","folder":"tf","game":"Team Fortress","app_id":440,"player_count":0,"max_players":24,"Bots":0,"server_type":"Dedicated","server_os":"Linux","password":true,"vac":true,"version":"7757534","steam_id":85568392924500088,"keywords":["nocrits","nodmgspread","payload","uncletopia"],"game_id":440,"stv_port":27026,"stv_name":"Uncletopia | Montréal | 2 | All Maps | STV","players":null},{"server_id":302,"name":"Uncletopia | Montréal | 3 | All Maps","name_short":"mtl-3","host":"mtl-1.ca.uncletopia.com","port":27035,"enabled":true,"region":"us-east","cc":"ca","latitude":45.50889,"longitude":-73.56167,"reserved":0,"last_update":"0001-01-01T00:00:00Z","name_a2s":"Uncletopia | Montréal | 3 | All Maps","protocol":17,"map":"cp_process_final","folder":"tf","game":"Team Fortress","app_id":440,"player_count":0,"max_players":24,"Bots":0,"server_type":"Dedicated","server_os":"Linux","password":true,"vac":true,"version":"7757534","steam_id":85568392924500089,"keywords":["cp","nocrits","nodmgspread","uncletopia"],"game_id":440,"stv_port":27036,"stv_name":"Uncletopia | Montréal | 3 | All Maps | STV","players":null},{"server_id":303,"name":"Uncletopia | Montréal | 4 | No Payload","name_short":"mtl-4","host":"mtl-1.ca.uncletopia.com","port":27045,"enabled":true,"region":"us-east","cc":"ca","latitude":45.50889,"longitude":-73.56167,"reserved":0,"last_update":"0001-01-01T00:00:00Z","name_a2s":"Uncletopia | Montréal | 4 | No Payload","protocol":17,"map":"pl_borneo","folder":"tf","game":"Team Fortress","app_id":440,"player_count":0,"max_players":24,"Bots":0,"server_type":"Dedicated","server_os":"Linux","password":true,"vac":true,"version":"7757534","steam_id":85568392924500090,"keywords":["nocrits","nodmgspread","payload","uncletopia"],"game_id":440,"stv_port":27046,"stv_name":"Uncletopia | Montréal | 4 | No Payload | STV","players":null},{"server_id":13,"name":"Uncletopia | New York City | 1 | All Maps","name_short":"nyc-1","host":"nyc-1.us.uncletopia.com","port":27015,"enabled":true,"region":"us-east","cc":"us","latitude":40.73061,"longitude":-73.93524,"reserved":0,"last_update":"0001-01-01T00:00:00Z","name_a2s":"Uncletopia | New York City | 1 | All Maps","protocol":17,"map":"pl_borneo","folder":"tf","game":"Team Fortress","app_id":440,"player_count":24,"max_players":24,"Bots":0,"server_type":"Dedicated","server_os":"Linux","password":true,"vac":true,"version":"7757534","steam_id":85568392924469993,"keywords":["nocrits","nodmgspread","payload","uncletopia"],"game_id":440,"stv_port":27016,"stv_name":"Uncletopia | New York City | 1 | All Maps | STV","players":[{"user_id":322,"name":"azathoth","steam_id":76561198019944381,"connected_time":2937000000000,"state":"active","ping":80},{"user_id":184,"name":"localization files","steam_id":76561197997139225,"connected_time":12461000000000,"state":"active","ping":44},{"user_id":335,"name":"TardWiz","steam_id":76561199123431050,"connected_time":1694000000000,"state":"active","ping":56},{"user_id":353,"name":"sauce","steam_id":76561198068430673,"connected_time":659000000000,"state":"active","ping":68},{"user_id":360,"name":"wack","steam_id":76561198095697330,"connected_time":96000000000,"state":"active","ping":70},{"user_id":356,"name":"Kritzburgh","steam_id":76561198149466938,"connected_time":567000000000,"state":"active","ping":51},{"user_id":354,"name":"cyzer","steam_id":76561198051920905,"connected_time":610000000000,"state":"active","ping":61},{"user_id":327,"name":"Verilog","steam_id":76561197975820283,"connected_time":2414000000000,"state":"active","ping":79},{"user_id":355,"name":"Ursus Ludius","steam_id":76561198025470722,"connected_time":603000000000,"state":"active","ping":63},{"user_id":351,"name":"Salmon","steam_id":76561198285883040,"connected_time":740000000000,"state":"active","ping":129},{"user_id":346,"name":"Nic0","steam_id":76561198305690218,"connected_time":1005000000000,"state":"active","ping":56},{"user_id":347,"name":"Violet42","steam_id":76561198072927887,"connected_time":1005000000000,"state":"active","ping":51},{"user_id":348,"name":"President Vex","steam_id":76561198157557477,"connected_time":999000000000,"state":"active","ping":89},{"user_id":357,"name":"BigBubble42","steam_id":76561198136286123,"connected_time":540000000000,"state":"active","ping":68},{"user_id":358,"name":"stardust","steam_id":76561198413930183,"connected_time":338000000000,"state":"active","ping":46},{"user_id":307,"name":"nut","steam_id":76561198395577807,"connected_time":4156000000000,"state":"active","ping":42},{"user_id":328,"name":"vinny6","steam_id":76561198386735728,"connected_time":2408000000000,"state":"active","ping":45},{"user_id":341,"name":"Antknee","steam_id":76561198263793809,"connected_time":1112000000000,"state":"active","ping":130},{"user_id":331,"name":"Zeek","steam_id":76561197987204351,"connected_time":2349000000000,"state":"active","ping":45},{"user_id":320,"name":"BowlzingShoes","steam_id":76561199127110073,"connected_time":3046000000000,"state":"active","ping":93},{"user_id":332,"name":"Silberman","steam_id":76561199061086990,"connected_time":2339000000000,"state":"active","ping":161},{"user_id":333,"name":"fLock","steam_id":76561198091578187,"connected_time":2316000000000,"state":"active","ping":65},{"user_id":321,"name":"moodi catgirl","steam_id":76561198124028045,"connected_time":3024000000000,"state":"active","ping":93},{"user_id":359,"name":"aimee","steam_id":76561198834309212,"connected_time":238000000000,"state":"active","ping":62}]},{"server_id":14,"name":"Uncletopia | New York City | 2 | All Maps","name_short":"nyc-2","host":"nyc-1.us.uncletopia.com","port":27025,"enabled":true,"region":"us-east","cc":"us","latitude":40.73061,"longitude":-73.93524,"reserved":0,"last_update":"0001-01-01T00:00:00Z","name_a2s":"Uncletopia | New York City | 2 | All Maps","protocol":17,"map":"cp_snakewater_final1","folder":"tf","game":"Team Fortress","app_id":440,"player_count":24,"max_players":24,"Bots":0,"server_type":"Dedicated","server_os":"Linux","password":true,"vac":true,"version":"7757534","steam_id":85568392924469994,"keywords":["cp","nocrits","nodmgspread","uncletopia"],"game_id":440,"stv_port":27026,"stv_name":"Uncletopia | New York City | 2 | All Maps | STV","players":[{"user_id":15,"name":"Marshall","steam_id":76561198042570322,"connected_time":6592000000000,"state":"active","ping":79},{"user_id":111,"name":"A Gas Salesman!","steam_id":76561198081877626,"connected_time":64000000000,"state":"active","ping":81},{"user_id":94,"name":"Uncle Majic the Hip Hop Magicia","steam_id":76561198107924303,"connected_time":575000000000,"state":"active","ping":44},{"user_id":79,"name":"piflle","steam_id":76561199283873577,"connected_time":2153000000000,"state":"active","ping":70},{"user_id":95,"name":"DJ Absolute Garbage","steam_id":76561198068000747,"connected_time":522000000000,"state":"active","ping":47},{"user_id":101,"name":"Post nut clarity","steam_id":76561198060246831,"connected_time":411000000000,"state":"active","ping":80},{"user_id":72,"name":"Æéáø Réáöér","steam_id":76561198003608020,"connected_time":2966000000000,"state":"active","ping":59},{"user_id":97,"name":"Get.Bopped","steam_id":76561198443000188,"connected_time":464000000000,"state":"active","ping":93},{"user_id":98,"name":"nickname 123","steam_id":76561198080234033,"connected_time":463000000000,"state":"active","ping":76},{"user_id":110,"name":"Weerk","steam_id":76561199209543551,"connected_time":192000000000,"state":"active","ping":109},{"user_id":100,"name":"The Menace 2023","steam_id":76561199197961413,"connected_time":460000000000,"state":"active","ping":37},{"user_id":90,"name":"Pepsiman","steam_id":76561198436946165,"connected_time":819000000000,"state":"active","ping":75},{"user_id":102,"name":"Alexthegreat","steam_id":76561197996796222,"connected_time":392000000000,"state":"active","ping":45},{"user_id":103,"name":"ecks","steam_id":76561197978114705,"connected_time":380000000000,"state":"active","ping":79},{"user_id":64,"name":"Cj Lightning","steam_id":76561198044265072,"connected_time":3659000000000,"state":"active","ping":57},{"user_id":37,"name":"Deal yo","steam_id":76561198282395338,"connected_time":5723000000000,"state":"active","ping":69},{"user_id":104,"name":"nhbiker","steam_id":76561198081277675,"connected_time":375000000000,"state":"active","ping":45},{"user_id":105,"name":"basalt","steam_id":76561199173989941,"connected_time":331000000000,"state":"active","ping":79},{"user_id":106,"name":"Squid121","steam_id":76561198038832034,"connected_time":331000000000,"state":"active","ping":128},{"user_id":112,"name":"Only One Jhakobi","steam_id":76561197993641141,"connected_time":33000000000,"state":"spawning","ping":73},{"user_id":89,"name":"Barney Calhoun Enjoyer","steam_id":76561198049419309,"connected_time":997000000000,"state":"active","ping":72},{"user_id":109,"name":"rumes","steam_id":76561198349219467,"connected_time":234000000000,"state":"active","ping":106},{"user_id":107,"name":"David De Bergerac","steam_id":76561198010306294,"connected_time":330000000000,"state":"active","ping":112},{"user_id":108,"name":"Boom Spy \u003c3","steam_id":76561198126796502,"connected_time":308000000000,"state":"active","ping":80}]},{"server_id":15,"name":"Uncletopia | New York City | 3 | Stopwatch Beta","name_short":"nyc-3","host":"nyc-1.us.uncletopia.com","port":27035,"enabled":true,"region":"us-east","cc":"us","latitude":40.73061,"longitude":-73.93524,"reserved":0,"last_update":"0001-01-01T00:00:00Z","name_a2s":"Uncletopia | New York City | 3 | Stopwatch Beta","protocol":17,"map":"cp_mountainlab","folder":"tf","game":"Team Fortress","app_id":440,"player_count":0,"max_players":24,"Bots":0,"server_type":"Dedicated","server_os":"Linux","password":true,"vac":true,"version":"7757534","steam_id":85568392924742820,"keywords":["cp","nocrits","nodmgspread","uncletopia"],"game_id":440,"stv_port":27036,"stv_name":"Uncletopia | New York City | 3 | Stopwatch Beta | STV","players":null},{"server_id":16,"name":"Uncletopia | New York City | 4 | Community","name_short":"nyc-4","host":"nyc-1.us.uncletopia.com","port":27045,"enabled":true,"region":"us-east","cc":"us","latitude":40.73061,"longitude":-73.93524,"reserved":0,"last_update":"0001-01-01T00:00:00Z","name_a2s":"Uncletopia | New York City | 4 | Community","protocol":17,"map":"workshop/cp_hazyfort_rc6.ugc1365963729","folder":"tf","game":"Team Fortress","app_id":440,"player_count":0,"max_players":24,"Bots":0,"server_type":"Dedicated","server_os":"Linux","password":true,"vac":true,"version":"7757534","steam_id":85568392924742821,"keywords":["cp","nocrits","nodmgspread","uncletopia"],"game_id":440,"stv_port":27046,"stv_name":"Uncletopia | New York City | 4 | Community | STV","players":null},{"server_id":142,"name":"Uncletopia | São Paulo | 1 | All Maps","name_short":"sao-1","host":"sao-1.br.uncletopia.com","port":27015,"enabled":true,"region":"sa","cc":"br","latitude":-23.533773,"longitude":-46.62529,"reserved":0,"last_update":"0001-01-01T00:00:00Z","name_a2s":"Uncletopia | São Paulo | 1 | All Maps","protocol":17,"map":"koth_lakeside_final","folder":"tf","game":"Team Fortress","app_id":440,"player_count":0,"max_players":24,"Bots":0,"server_type":"Dedicated","server_os":"Linux","password":true,"vac":true,"version":"7757534","steam_id":85568392924469996,"keywords":["cp","nocrits","nodmgspread","uncletopia"],"game_id":440,"stv_port":27016,"stv_name":"Uncletopia | São Paulo | 1 | All Maps | STV","players":null},{"server_id":143,"name":"Uncletopia | São Paulo | 2 | All Maps","name_short":"sao-2","host":"sao-2.br.uncletopia.com","port":27015,"enabled":true,"region":"sa","cc":"br","latitude":-23.533773,"longitude":-46.62529,"reserved":0,"last_update":"0001-01-01T00:00:00Z","name_a2s":"Uncletopia | São Paulo | 2 | All Maps","protocol":17,"map":"pl_badwater","folder":"tf","game":"Team Fortress","app_id":440,"player_count":2,"max_players":24,"Bots":0,"server_type":"Dedicated","server_os":"Linux","password":true,"vac":true,"version":"7757534","steam_id":85568392924485349,"keywords":["nocrits","nodmgspread","payload","uncletopia"],"game_id":440,"stv_port":27016,"stv_name":"Uncletopia | São Paulo | 2 | All Maps | STV","players":[{"user_id":14,"name":"homero si jugara lol","steam_id":76561199137420893,"connected_time":397000000000,"state":"active","ping":61},{"user_id":15,"name":"Isen","steam_id":76561198282557354,"connected_time":12000000000,"state":"spawning","ping":56}]},{"server_id":7,"name":"Uncletopia | Seattle | 1 | All Maps","name_short":"sea-1","host":"sea-1.us.uncletopia.com","port":27015,"enabled":true,"region":"us-west","cc":"us","latitude":47.608013,"longitude":-122.33517,"reserved":0,"last_update":"0001-01-01T00:00:00Z","name_a2s":"Uncletopia | Seattle | 1 | All Maps","protocol":17,"map":"pl_badwater","folder":"tf","game":"Team Fortress","app_id":440,"player_count":24,"max_players":24,"Bots":0,"server_type":"Dedicated","server_os":"Linux","password":true,"vac":true,"version":"7757534","steam_id":85568392924469997,"keywords":["nocrits","nodmgspread","payload","uncletopia"],"game_id":440,"stv_port":27016,"stv_name":"Uncletopia | Seattle | 1 | All Maps | STV","players":[{"user_id":365,"name":"Dimple","steam_id":76561198980324190,"connected_time":1146000000000,"state":"active","ping":47},{"user_id":370,"name":"sweaterfan","steam_id":76561199389567214,"connected_time":435000000000,"state":"active","ping":107},{"user_id":369,"name":"Coffee","steam_id":76561198154646418,"connected_time":460000000000,"state":"active","ping":104},{"user_id":366,"name":"Oxferd Crow","steam_id":76561198096916018,"connected_time":1144000000000,"state":"active","ping":73},{"user_id":355,"name":"fwoov","steam_id":76561198129166260,"connected_time":2533000000000,"state":"active","ping":75},{"user_id":361,"name":"mega","steam_id":76561198089520959,"connected_time":1179000000000,"state":"active","ping":102},{"user_id":358,"name":"mr. nine","steam_id":76561198097599414,"connected_time":1784000000000,"state":"active","ping":85},{"user_id":373,"name":"captain red","steam_id":76561198191587983,"connected_time":298000000000,"state":"active","ping":82},{"user_id":341,"name":"xXx1337ChimkinNugGaymer420xXx","steam_id":76561198149063013,"connected_time":4044000000000,"state":"active","ping":113},{"user_id":325,"name":"crow","steam_id":76561198046802071,"connected_time":5145000000000,"state":"active","ping":112},{"user_id":364,"name":"whimmu","steam_id":76561198370839794,"connected_time":1162000000000,"state":"active","ping":102},{"user_id":367,"name":"redindy","steam_id":76561198070154445,"connected_time":950000000000,"state":"active","ping":134},{"user_id":377,"name":"I will kill you","steam_id":76561198136533830,"connected_time":114000000000,"state":"active","ping":110},{"user_id":368,"name":"kk","steam_id":76561198891915736,"connected_time":574000000000,"state":"active","ping":76},{"user_id":343,"name":"Raniel Dicciardo","steam_id":76561198053859538,"connected_time":3698000000000,"state":"active","ping":84},{"user_id":362,"name":"Elbis Premsly","steam_id":76561198067717795,"connected_time":1173000000000,"state":"active","ping":64},{"user_id":375,"name":"〣dust〣 -she/her-","steam_id":76561198045218909,"connected_time":175000000000,"state":"active","ping":42},{"user_id":372,"name":"Franz","steam_id":76561198041929745,"connected_time":349000000000,"state":"active","ping":76},{"user_id":261,"name":"Daz","steam_id":76561198041431938,"connected_time":9281000000000,"state":"active","ping":127},{"user_id":339,"name":"48","steam_id":76561198894676484,"connected_time":4097000000000,"state":"active","ping":82},{"user_id":235,"name":"The strongest ⑨ ball","steam_id":76561198126760743,"connected_time":10806000000000,"state":"active","ping":61},{"user_id":349,"name":"Pneumo.","steam_id":76561197987911883,"connected_time":3306000000000,"state":"active","ping":76},{"user_id":359,"name":"Sloppy John (Extra Sauce)","steam_id":76561198359703432,"connected_time":1773000000000,"state":"active","ping":75},{"user_id":363,"name":"DK360","steam_id":76561198796783094,"connected_time":1173000000000,"state":"active","ping":51}]},{"server_id":119,"name":"Uncletopia | Seattle | 2 | All Maps","name_short":"sea-2","host":"sea-1.us.uncletopia.com","port":27025,"enabled":true,"region":"us-west","cc":"us","latitude":47.608013,"longitude":-122.33517,"reserved":0,"last_update":"0001-01-01T00:00:00Z","name_a2s":"Uncletopia | Seattle | 2 | All Maps","protocol":17,"map":"pl_borneo","folder":"tf","game":"Team Fortress","app_id":440,"player_count":24,"max_players":24,"Bots":0,"server_type":"Dedicated","server_os":"Linux","password":true,"vac":true,"version":"7757534","steam_id":85568392924469998,"keywords":["nocrits","nodmgspread","payload","uncletopia"],"game_id":440,"stv_port":27026,"stv_name":"Uncletopia | Seattle | 2 | All Maps | STV","players":[{"user_id":89,"name":"KingSteve42","steam_id":76561198409455888,"connected_time":24000000000,"state":"active","ping":111},{"user_id":79,"name":"Metals","steam_id":76561198107793165,"connected_time":694000000000,"state":"active","ping":70},{"user_id":80,"name":"Dragonsofdra","steam_id":76561198253369292,"connected_time":680000000000,"state":"active","ping":71},{"user_id":32,"name":"Court Wizard, Sir Dr. Clydesdal","steam_id":76561198149267697,"connected_time":2866000000000,"state":"active","ping":61},{"user_id":30,"name":"o o o o o o o o o","steam_id":76561197993757506,"connected_time":3443000000000,"state":"active","ping":62},{"user_id":59,"name":"aon135","steam_id":76561197966931637,"connected_time":2000000000000,"state":"active","ping":60},{"user_id":83,"name":"Tora","steam_id":76561198133375902,"connected_time":638000000000,"state":"active","ping":76},{"user_id":72,"name":"JabzillaJr","steam_id":76561198241284082,"connected_time":931000000000,"state":"active","ping":71},{"user_id":88,"name":"Melior Mk.II","steam_id":76561199037461970,"connected_time":87000000000,"state":"active","ping":113},{"user_id":69,"name":"Nüþ","steam_id":76561198043956703,"connected_time":1096000000000,"state":"active","ping":75},{"user_id":46,"name":"Oomitch","steam_id":76561198071702759,"connected_time":2501000000000,"state":"active","ping":52},{"user_id":61,"name":"nappyzappy","steam_id":76561198095118953,"connected_time":1966000000000,"state":"active","ping":74},{"user_id":73,"name":"Milkf porn","steam_id":76561198152601497,"connected_time":920000000000,"state":"active","ping":88},{"user_id":81,"name":"Röntgen","steam_id":76561197993492325,"connected_time":668000000000,"state":"active","ping":76},{"user_id":82,"name":"1000 Ping","steam_id":76561198098330939,"connected_time":666000000000,"state":"active","ping":100},{"user_id":48,"name":"Jack the Snacc","steam_id":76561198045758861,"connected_time":2479000000000,"state":"active","ping":93},{"user_id":74,"name":"Nobuunga","steam_id":76561198100614981,"connected_time":880000000000,"state":"active","ping":52},{"user_id":75,"name":"pizzaguy4","steam_id":76561198058821622,"connected_time":874000000000,"state":"active","ping":90},{"user_id":84,"name":"frozenwasanokmovie","steam_id":76561198157407952,"connected_time":623000000000,"state":"active","ping":81},{"user_id":70,"name":"[chef] iron","steam_id":76561197970888616,"connected_time":1094000000000,"state":"active","ping":72},{"user_id":76,"name":"klevin","steam_id":76561198799106535,"connected_time":819000000000,"state":"active","ping":109},{"user_id":66,"name":"Decimus","steam_id":76561198341781527,"connected_time":1891000000000,"state":"active","ping":132},{"user_id":85,"name":"Boastful","steam_id":76561198328586756,"connected_time":607000000000,"state":"active","ping":114},{"user_id":67,"name":"K o y ō t e","steam_id":76561198397407059,"connected_time":1871000000000,"state":"active","ping":40}]},{"server_id":406,"name":"Uncletopia | Seattle | 3 | Stopwatch Beta","name_short":"sea-3","host":"sea-1.us.uncletopia.com","port":27035,"enabled":true,"region":"us-west","cc":"us","latitude":47.608013,"longitude":-122.33517,"reserved":0,"last_update":"0001-01-01T00:00:00Z","name_a2s":"Uncletopia | Seattle | 3 | Stopwatch Beta","protocol":17,"map":"pl_barnblitz","folder":"tf","game":"Team Fortress","app_id":440,"player_count":0,"max_players":24,"Bots":0,"server_type":"Dedicated","server_os":"Linux","password":true,"vac":true,"version":"7757534","steam_id":85568392924515217,"keywords":["nocrits","nodmgspread","payload","uncletopia"],"game_id":440,"stv_port":27036,"stv_name":"Uncletopia | Seattle | 3 | Stopwatch Beta | STV","players":null},{"server_id":17,"name":"Uncletopia | San Francisco | 1 | All Maps","name_short":"sfo-1","host":"sfo-1.us.uncletopia.com","port":27015,"enabled":true,"region":"us-west","cc":"us","latitude":37.77397,"longitude":-122.4313,"reserved":0,"last_update":"0001-01-01T00:00:00Z","name_a2s":"Uncletopia | San Francisco | 1 | All Maps","protocol":17,"map":"cp_sunshine","folder":"tf","game":"Team Fortress","app_id":440,"player_count":24,"max_players":24,"Bots":0,"server_type":"Dedicated","server_os":"Linux","password":true,"vac":true,"version":"7757534","steam_id":85568392924469999,"keywords":["cp","nocrits","nodmgspread","uncletopia"],"game_id":440,"stv_port":27016,"stv_name":"Uncletopia | San Francisco | 1 | All Maps | STV","players":[{"user_id":217,"name":"Mechoid","steam_id":76561198017214397,"connected_time":627000000000,"state":"active","ping":68},{"user_id":219,"name":"Dentivent","steam_id":76561197971953043,"connected_time":141000000000,"state":"active","ping":64},{"user_id":209,"name":"Dojoloachfr","steam_id":76561198826298849,"connected_time":1243000000000,"state":"active","ping":127},{"user_id":224,"name":"chiswola","steam_id":76561198046920142,"connected_time":93000000000,"state":"active","ping":117},{"user_id":100,"name":"Buswolley","steam_id":76561197995205571,"connected_time":7797000000000,"state":"active","ping":54},{"user_id":216,"name":"PLak-PlaK","steam_id":76561198115688122,"connected_time":778000000000,"state":"active","ping":83},{"user_id":211,"name":"Moscow Medic","steam_id":76561198071040516,"connected_time":1158000000000,"state":"active","ping":108},{"user_id":188,"name":"Drowse","steam_id":76561198029794548,"connected_time":2896000000000,"state":"active","ping":61},{"user_id":200,"name":"Cob","steam_id":76561198042518365,"connected_time":1769000000000,"state":"active","ping":45},{"user_id":178,"name":"Superman123389","steam_id":76561198267472539,"connected_time":3308000000000,"state":"active","ping":89},{"user_id":227,"name":"Frenchfry_Addict","steam_id":76561199156867989,"connected_time":14000000000,"state":"active","ping":100},{"user_id":54,"name":"Cheeeeeeeen","steam_id":76561198986388085,"connected_time":11465000000000,"state":"active","ping":124},{"user_id":220,"name":"dude","steam_id":76561198253202693,"connected_time":134000000000,"state":"active","ping":119},{"user_id":208,"name":"Dali","steam_id":76561198077593486,"connected_time":1307000000000,"state":"active","ping":73},{"user_id":218,"name":"elgorro","steam_id":76561199178622703,"connected_time":484000000000,"state":"active","ping":66},{"user_id":181,"name":"DemoLiberTF2","steam_id":76561198095378689,"connected_time":3267000000000,"state":"active","ping":91},{"user_id":168,"name":"MORE BOUNCE TO THE OUNCE","steam_id":76561198243399336,"connected_time":4022000000000,"state":"active","ping":65},{"user_id":142,"name":"toodles","steam_id":76561198025463883,"connected_time":5819000000000,"state":"active","ping":73},{"user_id":193,"name":"bottom pride burger","steam_id":76561198322247602,"connected_time":2439000000000,"state":"active","ping":56},{"user_id":182,"name":"ScoutSecoTF2","steam_id":76561198366212156,"connected_time":3262000000000,"state":"active","ping":110},{"user_id":223,"name":"Duolingo Tryhards","steam_id":76561198079631656,"connected_time":126000000000,"state":"active","ping":52},{"user_id":222,"name":"Gray","steam_id":76561197997214168,"connected_time":127000000000,"state":"active","ping":55},{"user_id":204,"name":"wes","steam_id":76561198273536400,"connected_time":1530000000000,"state":"active","ping":120},{"user_id":192,"name":"20 pc mcnugget","steam_id":76561198056330171,"connected_time":2583000000000,"state":"active","ping":90}]},{"server_id":18,"name":"Uncletopia | San Francisco | 2 | All Maps","name_short":"sfo-2","host":"sfo-1.us.uncletopia.com","port":27025,"enabled":true,"region":"us-west","cc":"us","latitude":37.77397,"longitude":-122.4313,"reserved":0,"last_update":"0001-01-01T00:00:00Z","name_a2s":"Uncletopia | San Francisco | 2 | All Maps","protocol":17,"map":"pl_borneo","folder":"tf","game":"Team Fortress","app_id":440,"player_count":0,"max_players":24,"Bots":0,"server_type":"Dedicated","server_os":"Linux","password":true,"vac":true,"version":"7757534","steam_id":85568392924470000,"keywords":["nocrits","nodmgspread","payload","uncletopia"],"game_id":440,"stv_port":27026,"stv_name":"Uncletopia | San Francisco | 2 | All Maps | STV","players":null},{"server_id":19,"name":"Uncletopia | San Francisco | 3 | Stopwatch Beta","name_short":"sfo-3","host":"sfo-1.us.uncletopia.com","port":27035,"enabled":true,"region":"us-west","cc":"us","latitude":37.77397,"longitude":-122.4313,"reserved":0,"last_update":"0001-01-01T00:00:00Z","name_a2s":"Uncletopia | San Francisco | 3 | Stopwatch Beta","protocol":17,"map":"pl_borneo","folder":"tf","game":"Team Fortress","app_id":440,"player_count":0,"max_players":24,"Bots":0,"server_type":"Dedicated","server_os":"Linux","password":true,"vac":true,"version":"7757534","steam_id":85568392924742824,"keywords":["nocrits","nodmgspread","payload","uncletopia"],"game_id":440,"stv_port":27036,"stv_name":"Uncletopia | San Francisco | 3 | Stopwatch Beta | STV","players":null},{"server_id":20,"name":"Uncletopia | San Francisco | 4 | Community","name_short":"sfo-4","host":"sfo-1.us.uncletopia.com","port":27045,"enabled":true,"region":"us-west","cc":"us","latitude":37.77397,"longitude":-122.4313,"reserved":0,"last_update":"0001-01-01T00:00:00Z","name_a2s":"Uncletopia | San Francisco | 4 | Community","protocol":17,"map":"koth_highpass","folder":"tf","game":"Team Fortress","app_id":440,"player_count":0,"max_players":24,"Bots":0,"server_type":"Dedicated","server_os":"Linux","password":true,"vac":true,"version":"7757534","steam_id":85568392924742826,"keywords":["cp","nocrits","nodmgspread","uncletopia"],"game_id":440,"stv_port":27046,"stv_name":"Uncletopia | San Francisco | 4 | Community | STV","players":null},{"server_id":141,"name":"Uncletopia | Sydney | 1 | All Maps","name_short":"syd-1","host":"syd-1.au.uncletopia.com","port":27015,"enabled":true,"region":"au","cc":"au","latitude":-33.865143,"longitude":151.2099,"reserved":0,"last_update":"0001-01-01T00:00:00Z","name_a2s":"Uncletopia | Sydney | 1 | All Maps","protocol":17,"map":"cp_process_final","folder":"tf","game":"Team Fortress","app_id":440,"player_count":0,"max_players":24,"Bots":0,"server_type":"Dedicated","server_os":"Linux","password":true,"vac":true,"version":"7757534","steam_id":85568392924470001,"keywords":["cp","nocrits","nodmgspread","uncletopia"],"game_id":440,"stv_port":27016,"stv_name":"Uncletopia | Sydney | 1 | All Maps | STV","players":null},{"server_id":123,"name":"Uncletopia | Sydney | 2 | All Maps","name_short":"syd-2","host":"syd-1.au.uncletopia.com","port":27025,"enabled":true,"region":"au","cc":"au","latitude":-33.865143,"longitude":151.2099,"reserved":0,"last_update":"0001-01-01T00:00:00Z","name_a2s":"Uncletopia | Sydney | 2 | All Maps","protocol":17,"map":"koth_viaduct","folder":"tf","game":"Team Fortress","app_id":440,"player_count":0,"max_players":24,"Bots":0,"server_type":"Dedicated","server_os":"Linux","password":true,"vac":true,"version":"7757534","steam_id":85568392924470002,"keywords":["cp","nocrits","nodmgspread","uncletopia"],"game_id":440,"stv_port":27026,"stv_name":"Uncletopia | Sydney | 2 | All Maps | STV","players":null},{"server_id":395,"name":"Uncletopia | Sydney | 3 | All Maps","name_short":"syd-3","host":"syd-1.au.uncletopia.com","port":27035,"enabled":true,"region":"au","cc":"au","latitude":-33.865143,"longitude":151.2099,"reserved":0,"last_update":"0001-01-01T00:00:00Z","name_a2s":"Uncletopia | Sydney | 3 | All Maps","protocol":17,"map":"pl_upward","folder":"tf","game":"Team Fortress","app_id":440,"player_count":0,"max_players":24,"Bots":0,"server_type":"Dedicated","server_os":"Linux","password":true,"vac":true,"version":"7757534","steam_id":85568392925194467,"keywords":["nocrits","nodmgspread","payload","uncletopia"],"game_id":440,"stv_port":27036,"stv_name":"Uncletopia | Sydney | 3 | All Maps | STV","players":null},{"server_id":396,"name":"Uncletopia | Sydney | 4 | All Maps","name_short":"syd-4","host":"syd-1.au.uncletopia.com","port":27045,"enabled":true,"region":"au","cc":"au","latitude":-33.865143,"longitude":151.2099,"reserved":0,"last_update":"0001-01-01T00:00:00Z","name_a2s":"Uncletopia | Sydney | 4 | All Maps","protocol":17,"map":"koth_lakeside_final","folder":"tf","game":"Team Fortress","app_id":440,"player_count":0,"max_players":24,"Bots":0,"server_type":"Dedicated","server_os":"Linux","password":true,"vac":true,"version":"7757534","steam_id":85568392925397958,"keywords":["cp","nocrits","nodmgspread","uncletopia"],"game_id":440,"stv_port":27046,"stv_name":"Uncletopia | Sydney | 4 | All Maps | STV","players":null},{"server_id":58,"name":"Uncletopia | Sydney | 5 | Stopwatch Beta","name_short":"syd-5","host":"syd-1.au.uncletopia.com","port":27055,"enabled":true,"region":"au","cc":"au","latitude":-33.865143,"longitude":151.2099,"reserved":0,"last_update":"0001-01-01T00:00:00Z","name_a2s":"Uncletopia | Sydney | 5 | Stopwatch Beta","protocol":17,"map":"koth_highpass","folder":"tf","game":"Team Fortress","app_id":440,"player_count":0,"max_players":24,"Bots":0,"server_type":"Dedicated","server_os":"Linux","password":true,"vac":true,"version":"7757534","steam_id":85568392925397959,"keywords":["cp","nocrits","nodmgspread","uncletopia"],"game_id":440,"stv_port":27056,"stv_name":"Uncletopia | Sydney | 5 | Stopwatch Beta | STV","players":null},{"server_id":59,"name":"Uncletopia | Sydney | 6 | Community","name_short":"syd-6","host":"syd-1.au.uncletopia.com","port":27065,"enabled":true,"region":"au","cc":"au","latitude":-33.865143,"longitude":151.2099,"reserved":0,"last_update":"0001-01-01T00:00:00Z","name_a2s":"Uncletopia | Sydney | 6 | Community","protocol":17,"map":"cp_sunshine","folder":"tf","game":"Team Fortress","app_id":440,"player_count":0,"max_players":24,"Bots":0,"server_type":"Dedicated","server_os":"Linux","password":true,"vac":true,"version":"7757534","steam_id":85568392925397960,"keywords":["cp","nocrits","nodmgspread","uncletopia"],"game_id":440,"stv_port":27066,"stv_name":"Uncletopia | Sydney | 6 | Community | STV","players":null},{"server_id":49,"name":"Uncletopia | Warsaw | 1 | All Maps","name_short":"waw-1","host":"waw-1.pl.uncletopia.com","port":27015,"enabled":true,"region":"eu","cc":"pl","latitude":52.2297,"longitude":21.017532,"reserved":0,"last_update":"0001-01-01T00:00:00Z","name_a2s":"","protocol":0,"map":"","folder":"","game":"","app_id":0,"player_count":0,"max_players":0,"Bots":0,"server_type":"","server_os":"","password":false,"vac":false,"version":"","steam_id":0,"keywords":null,"game_id":0,"stv_port":0,"stv_name":"","players":null},{"server_id":50,"name":"Uncletopia | Warsaw | 2 | All Maps","name_short":"waw-2","host":"waw-1.pl.uncletopia.com","port":27025,"enabled":true,"region":"eu","cc":"pl","latitude":52.2297,"longitude":21.017532,"reserved":0,"last_update":"0001-01-01T00:00:00Z","name_a2s":"Uncletopia | Warsaw | 2 | All Maps","protocol":17,"map":"pl_badwater","folder":"tf","game":"Team Fortress","app_id":440,"player_count":0,"max_players":24,"Bots":0,"server_type":"Dedicated","server_os":"Linux","password":true,"vac":true,"version":"7757534","steam_id":85568392925397851,"keywords":["nocrits","nodmgspread","payload","uncletopia"],"game_id":440,"stv_port":27026,"stv_name":"Uncletopia | Warsaw | 2 | All Maps | STV","players":null},{"server_id":51,"name":"Uncletopia | Warsaw | 3 | All Maps","name_short":"waw-3","host":"waw-1.pl.uncletopia.com","port":27035,"enabled":true,"region":"eu","cc":"pl","latitude":52.2297,"longitude":21.017532,"reserved":0,"last_update":"0001-01-01T00:00:00Z","name_a2s":"Uncletopia | Warsaw | 3 | All Maps","protocol":17,"map":"koth_lakeside_final","folder":"tf","game":"Team Fortress","app_id":440,"player_count":0,"max_players":24,"Bots":0,"server_type":"Dedicated","server_os":"Linux","password":true,"vac":true,"version":"7757534","steam_id":85568392925397852,"keywords":["cp","nocrits","nodmgspread","uncletopia"],"game_id":440,"stv_port":27036,"stv_name":"Uncletopia | Warsaw | 3 | All Maps | STV","players":null},{"server_id":52,"name":"Uncletopia | Warsaw | 4 | All Maps","name_short":"waw-4","host":"waw-1.pl.uncletopia.com","port":27045,"enabled":true,"region":"eu","cc":"pl","latitude":52.2297,"longitude":21.017532,"reserved":0,"last_update":"0001-01-01T00:00:00Z","name_a2s":"Uncletopia | Warsaw | 4 | All Maps","protocol":17,"map":"koth_lakeside_final","folder":"tf","game":"Team Fortress","app_id":440,"player_count":20,"max_players":24,"Bots":0,"server_type":"Dedicated","server_os":"Linux","password":true,"vac":true,"version":"7757534","steam_id":85568392925397853,"keywords":["cp","nocrits","nodmgspread","uncletopia"],"game_id":440,"stv_port":27046,"stv_name":"Uncletopia | Warsaw | 4 | All Maps | STV","players":[{"user_id":52,"name":"NozAr","steam_id":76561198313286576,"connected_time":343000000000,"state":"active","ping":91},{"user_id":10,"name":"Ninjaworrier10","steam_id":76561198143531687,"connected_time":3470000000000,"state":"spawning","ping":271},{"user_id":38,"name":"xXauntmildredXx","steam_id":76561198013299640,"connected_time":1643000000000,"state":"spawning","ping":82},{"user_id":11,"name":"AncientOwO","steam_id":76561198356392614,"connected_time":3284000000000,"state":"active","ping":140},{"user_id":8,"name":"ShellyPlains19","steam_id":76561198917578392,"connected_time":5105000000000,"state":"spawning","ping":73},{"user_id":19,"name":"cohcohmilke","steam_id":76561198124857170,"connected_time":2628000000000,"state":"spawning","ping":97},{"user_id":13,"name":"Tooshpoon","steam_id":76561199067414150,"connected_time":3114000000000,"state":"active","ping":91},{"user_id":14,"name":"qspiraxq","steam_id":76561198139689312,"connected_time":3061000000000,"state":"active","ping":85},{"user_id":51,"name":"LookSee","steam_id":76561199189260488,"connected_time":454000000000,"state":"active","ping":140},{"user_id":22,"name":"Sleepyguy","steam_id":76561198008520542,"connected_time":2298000000000,"state":"active","ping":176},{"user_id":23,"name":"nep-nep","steam_id":76561198303149838,"connected_time":2279000000000,"state":"active","ping":118},{"user_id":29,"name":"Толя Полено","steam_id":76561198389203546,"connected_time":1890000000000,"state":"spawning","ping":77},{"user_id":45,"name":"Swedde","steam_id":76561198297296440,"connected_time":1322000000000,"state":"active","ping":102},{"user_id":32,"name":"Hellych","steam_id":76561198889316478,"connected_time":1837000000000,"state":"spawning","ping":67},{"user_id":33,"name":"Schrödinger","steam_id":76561198992901500,"connected_time":1836000000000,"state":"spawning","ping":68},{"user_id":50,"name":"D3m0no","steam_id":76561198183267067,"connected_time":749000000000,"state":"active","ping":80},{"user_id":37,"name":"EGirlGang","steam_id":76561198257435792,"connected_time":1738000000000,"state":"spawning","ping":120},{"user_id":53,"name":"Master Chef","steam_id":76561198066714909,"connected_time":183000000000,"state":"active","ping":68},{"user_id":48,"name":"Rivgane","steam_id":76561198126661604,"connected_time":1007000000000,"state":"spawning","ping":177},{"user_id":44,"name":"reho-iwnw","steam_id":76561198348062373,"connected_time":1393000000000,"state":"spawning","ping":201}]},{"server_id":53,"name":"Uncletopia | Warsaw | 5 | Stopwatch Beta","name_short":"waw-5","host":"waw-1.pl.uncletopia.com","port":27055,"enabled":true,"region":"eu","cc":"pl","latitude":52.2297,"longitude":21.017532,"reserved":0,"last_update":"0001-01-01T00:00:00Z","name_a2s":"Uncletopia | Warsaw | 5 | Stopwatch Beta","protocol":17,"map":"pl_barnblitz","folder":"tf","game":"Team Fortress","app_id":440,"player_count":0,"max_players":24,"Bots":0,"server_type":"Dedicated","server_os":"Linux","password":true,"vac":true,"version":"7757534","steam_id":85568392925397854,"keywords":["nocrits","nodmgspread","payload","uncletopia"],"game_id":440,"stv_port":27056,"stv_name":"Uncletopia | Warsaw | 5 | Stopwatch Beta | STV","players":null},{"server_id":54,"name":"Uncletopia | Warsaw | 6 | Community","name_short":"waw-6","host":"waw-1.pl.uncletopia.com","port":27065,"enabled":true,"region":"eu","cc":"pl","latitude":52.2297,"longitude":21.017532,"reserved":0,"last_update":"0001-01-01T00:00:00Z","name_a2s":"Uncletopia | Warsaw | 6 | Community","protocol":17,"map":"workshop/pl_vigil_rc9.ugc1266210012","folder":"tf","game":"Team Fortress","app_id":440,"player_count":0,"max_players":24,"Bots":0,"server_type":"Dedicated","server_os":"Linux","password":true,"vac":true,"version":"7757534","steam_id":85568392925397856,"keywords":["nocrits","nodmgspread","payload","uncletopia"],"game_id":440,"stv_port":27066,"stv_name":"Uncletopia | Warsaw | 6 | Community | STV","players":null}]}