{"status":true,"message":"","result":[{"server_id":9,"name":"Uncletopia | Atlanta | 1 | All Maps","name_short":"atl-1","host":"atl-1.us.uncletopia.com","port":27015,"enabled":true,"region":"us-east","cc":"us","latitude":33.753746,"longitude":-84.38633,"reserved":0,"last_update":"0001-01-01T00:00:00Z","name_a2s":"Uncletopia | Atlanta | 1 | All Maps","protocol":17,"map":"pl_upward","folder":"tf","game":"Team Fortress","app_id":440,"player_count":23,"max_players":24,"Bots":0,"server_type":"Dedicated","server_os":"Linux","password":true,"vac":true,"version":"7961495","steam_id":85568392924469982,"keywords":["nocrits","nodmgspread","payload","uncletopia"],"game_id":440,"stv_port":27016,"stv_name":"Uncletopia | Atlanta | 1 | All Maps | STV","players":[{"user_id":450,"name":"Taskrabbits","steam_id":76561198366682546,"connected_time":1407000000000,"state":"spawning","ping":173},{"user_id":451,"name":"harold of rock salt kingdom","steam_id":76561199016285746,"connected_time":1318000000000,"state":"spawning","ping":188},{"user_id":453,"name":"Timmy The Tyrant","steam_id":76561199156409732,"connected_time":1306000000000,"state":"spawning","ping":146},{"user_id":463,"name":"Decolour","steam_id":76561199045608372,"connected_time":461000000000,"state":"spawning","ping":141},{"user_id":455,"name":"the.land.of.avalon","steam_id":76561198245431668,"connected_time":1289000000000,"state":"spawning","ping":191},{"user_id":425,"name":"Kiss Master","steam_id":76561198289572271,"connected_time":3055000000000,"state":"spawning","ping":81},{"user_id":465,"name":"smog monster","steam_id":76561198118954499,"connected_time":440000000000,"state":"spawning","ping":133},{"user_id":469,"name":"MONKE","steam_id":76561199211345801,"connected_time":16000000000,"state":"spawning","ping":87},{"user_id":466,"name":"Pango","steam_id":76561198069811545,"connected_time":33000000000,"state":"spawning","ping":143},{"user_id":427,"name":"SnazzyCelestial","steam_id":76561198328763813,"connected_time":2914000000000,"state":"spawning","ping":95},{"user_id":439,"name":"Ok-Par","steam_id":76561199221067945,"connected_time":2407000000000,"state":"spawning","ping":122},{"user_id":464,"name":"ryce","steam_id":76561198114572309,"connected_time":461000000000,"state":"spawning","ping":87},{"user_id":467,"name":"ATL1 | cola","steam_id":76561198374390458,"connected_time":22000000000,"state":"spawning","ping":161},{"user_id":460,"name":"A_Malebolgia","steam_id":76561198097722818,"connected_time":962000000000,"state":"spawning","ping":151},{"user_id":456,"name":"Nightman","steam_id":76561198089513762,"connected_time":1283000000000,"state":"spawning","ping":128},{"user_id":432,"name":"Speed Spell IV","steam_id":76561198298364415,"connected_time":2796000000000,"state":"spawning","ping":213},{"user_id":457,"name":"Buttons :)","steam_id":76561198139478534,"connected_time":1283000000000,"state":"spawning","ping":187},{"user_id":458,"name":"(Ô)Ô)Wandering Singer(Ô(Ô)","steam_id":76561198126477141,"connected_time":1262000000000,"state":"spawning","ping":124},{"user_id":395,"name":"big steve","steam_id":76561199037050183,"connected_time":3858000000000,"state":"spawning","ping":184},{"user_id":468,"name":"bruh","steam_id":76561198305505479,"connected_time":22000000000,"state":"spawning","ping":140},{"user_id":442,"name":"Dreszerg","steam_id":76561198838757422,"connected_time":1891000000000,"state":"spawning","ping":186},{"user_id":459,"name":"chaffy","steam_id":76561198021754567,"connected_time":1253000000000,"state":"spawning","ping":147},{"user_id":282,"name":"loser","steam_id":76561198259380127,"connected_time":6205000000000,"state":"spawning","ping":162}]},{"server_id":104,"name":"Uncletopia | Atlanta | 2 | All Maps","name_short":"atl-2","host":"atl-1.us.uncletopia.com","port":27025,"enabled":true,"region":"us-east","cc":"us","latitude":33.753746,"longitude":-84.38633,"reserved":0,"last_update":"0001-01-01T00:00:00Z","name_a2s":"Uncletopia | Atlanta | 2 | All Maps","protocol":17,"map":"cp_mercenarypark","folder":"tf","game":"Team Fortress","app_id":440,"player_count":24,"max_players":24,"Bots":0,"server_type":"Dedicated","server_os":"Linux","password":true,"vac":true,"version":"7961495","steam_id":85568392924469983,"keywords":["cp","nocrits","nodmgspread","uncletopia"],"game_id":440,"stv_port":27026,"stv_name":"Uncletopia | Atlanta | 2 | All Maps | STV","players":[{"user_id":10,"name":"The Dead Weight","steam_id":76561198056694098,"connected_time":16726000000000,"state":"active","ping":46},{"user_id":169,"name":"Gungus Dingaling","steam_id":76561198018270898,"connected_time":3233000000000,"state":"active","ping":71},{"user_id":128,"name":"Naffty","steam_id":76561198119734981,"connected_time":6525000000000,"state":"active","ping":70},{"user_id":216,"name":"Milk Drinker","steam_id":76561198324190845,"connected_time":532000000000,"state":"active","ping":75},{"user_id":212,"name":"blamblam","steam_id":76561198091049434,"connected_time":752000000000,"state":"active","ping":57},{"user_id":101,"name":"James","steam_id":76561198081313916,"connected_time":9010000000000,"state":"active","ping":56},{"user_id":196,"name":"Monkey Mode","steam_id":76561197961267543,"connected_time":1570000000000,"state":"active","ping":52},{"user_id":219,"name":"U ω U","steam_id":76561198118802562,"connected_time":493000000000,"state":"active","ping":124},{"user_id":203,"name":"Megatronn","steam_id":76561198796716496,"connected_time":1274000000000,"state":"active","ping":58},{"user_id":217,"name":"a Hippobottomus","steam_id":76561198126853441,"connected_time":525000000000,"state":"active","ping":60},{"user_id":207,"name":"He rolls his own","steam_id":76561198058162684,"connected_time":834000000000,"state":"active","ping":76},{"user_id":209,"name":"Technomancer","steam_id":76561198137758683,"connected_time":784000000000,"state":"active","ping":87},{"user_id":141,"name":"metalfan666","steam_id":76561198386344068,"connected_time":5563000000000,"state":"active","ping":75},{"user_id":191,"name":"Neat","steam_id":76561198046049949,"connected_time":1740000000000,"state":"active","ping":102},{"user_id":220,"name":"somewhat silly","steam_id":76561198010269150,"connected_time":363000000000,"state":"active","ping":111},{"user_id":218,"name":"Portal2Player","steam_id":76561198062870114,"connected_time":522000000000,"state":"active","ping":81},{"user_id":215,"name":"Classy Crow","steam_id":76561198208586049,"connected_time":614000000000,"state":"active","ping":119},{"user_id":206,"name":"da pwo","steam_id":76561198963115673,"connected_time":861000000000,"state":"active","ping":76},{"user_id":182,"name":"confield","steam_id":76561198004322265,"connected_time":2590000000000,"state":"active","ping":49},{"user_id":211,"name":"AcexPak","steam_id":76561199379459604,"connected_time":772000000000,"state":"active","ping":96},{"user_id":213,"name":"BigBubble42","steam_id":76561198136286123,"connected_time":694000000000,"state":"active","ping":48},{"user_id":214,"name":"-π- BakaD","steam_id":76561197960559169,"connected_time":679000000000,"state":"active","ping":59},{"user_id":160,"name":"the pizza","steam_id":76561198221331476,"connected_time":3982000000000,"state":"active","ping":95},{"user_id":186,"name":"Rockgraham101","steam_id":76561198171740458,"connected_time":2523000000000,"state":"active","ping":50}]},{"server_id":400,"name":"Uncletopia | Atlanta | 3 | Stopwatch","name_short":"atl-3","host":"atl-1.us.uncletopia.com","port":27035,"enabled":true,"region":"us-east","cc":"us","latitude":33.753746,"longitude":-84.38633,"reserved":0,"last_update":"0001-01-01T00:00:00Z","name_a2s":"Uncletopia | Atlanta | 3 | Stopwatch","protocol":17,"map":"workshop/koth_product_final.ugc454272353","folder":"tf","game":"Team Fortress","app_id":440,"player_count":0,"max_players":24,"Bots":0,"server_type":"Dedicated","server_os":"Linux","password":true,"vac":true,"version":"7961495","steam_id":85568392924515187,"keywords":["cp","nocrits","nodmgspread","uncletopia"],"game_id":440,"stv_port":27036,"stv_name":"Uncletopia | Atlanta | 3 | Stopwatch | STV","players":null},{"server_id":401,"name":"Uncletopia | Atlanta | 4 | Community","name_short":"atl-4","host":"atl-1.us.uncletopia.com","port":27045,"enabled":true,"region":"us-east","cc":"us","latitude":33.753746,"longitude":-84.38633,"reserved":0,"last_update":"0001-01-01T00:00:00Z","name_a2s":"Uncletopia | Atlanta | 4 | Community","protocol":17,"map":"workshop/pl_emerge_rc2.ugc888027758","folder":"tf","game":"Team Fortress","app_id":440,"player_count":0,"max_players":24,"Bots":0,"server_type":"Dedicated","server_os":"Linux","password":true,"vac":true,"version":"7961495","steam_id":85568392924515188,"keywords":["nocrits","nodmgspread","payload","uncletopia"],"game_id":440,"stv_port":27046,"stv_name":"Uncletopia | Atlanta | 4 | Community | STV","players":null},{"server_id":2,"name":"Uncletopia | Chicago | 1 | All Maps","name_short":"chi-1","host":"chi-1.us.uncletopia.com","port":27015,"enabled":true,"region":"us-central","cc":"us","latitude":41.881832,"longitude":-87.62318,"reserved":0,"last_update":"0001-01-01T00:00:00Z","name_a2s":"Uncletopia | Chicago | 1 | All Maps","protocol":17,"map":"pl_barnblitz","folder":"tf","game":"Team Fortress","app_id":440,"player_count":24,"max_players":24,"Bots":0,"server_type":"Dedicated","server_os":"Linux","password":true,"vac":true,"version":"7961495","steam_id":85568392924469984,"keywords":["nocrits","nodmgspread","payload","uncletopia"],"game_id":440,"stv_port":27016,"stv_name":"Uncletopia | Chicago | 1 | All Maps | STV","players":[{"user_id":346,"name":"what the freak","steam_id":76561198080754727,"connected_time":1464000000000,"state":"active","ping":83},{"user_id":326,"name":"Beebo, Son of Beebo","steam_id":76561198055948497,"connected_time":2408000000000,"state":"active","ping":54},{"user_id":331,"name":"Yam Jazzy Jim","steam_id":76561198000788950,"connected_time":2071000000000,"state":"active","ping":71},{"user_id":347,"name":"büddeh","steam_id":76561198070735936,"connected_time":1427000000000,"state":"active","ping":56},{"user_id":348,"name":"benedro05","steam_id":76561198269369429,"connected_time":1423000000000,"state":"active","ping":55},{"user_id":352,"name":"Letters","steam_id":76561198035508148,"connected_time":493000000000,"state":"active","ping":72},{"user_id":320,"name":"LavenderSys","steam_id":76561198289106015,"connected_time":2870000000000,"state":"active","ping":81},{"user_id":315,"name":"HumFreY","steam_id":76561198076639682,"connected_time":2987000000000,"state":"active","ping":71},{"user_id":355,"name":"Kazmirl","steam_id":76561198116008410,"connected_time":344000000000,"state":"active","ping":106},{"user_id":360,"name":"noho hank","steam_id":76561198046650995,"connected_time":51000000000,"state":"spawning","ping":113},{"user_id":359,"name":"Cakepeep","steam_id":76561199168555813,"connected_time":242000000000,"state":"active","ping":63},{"user_id":342,"name":"SweetPeaches69","steam_id":76561198908187710,"connected_time":1552000000000,"state":"active","ping":85},{"user_id":253,"name":"Joyous Jenny","steam_id":76561198127998866,"connected_time":7829000000000,"state":"active","ping":74},{"user_id":290,"name":"qory","steam_id":76561198152064890,"connected_time":4655000000000,"state":"active","ping":53},{"user_id":343,"name":"grape juice -rng","steam_id":76561198093829623,"connected_time":1533000000000,"state":"active","ping":81},{"user_id":340,"name":"grey","steam_id":76561198050618142,"connected_time":1558000000000,"state":"active","ping":90},{"user_id":305,"name":"ุ","steam_id":76561198170624701,"connected_time":3398000000000,"state":"active","ping":75},{"user_id":353,"name":"Fungus","steam_id":76561198085926415,"connected_time":485000000000,"state":"active","ping":87},{"user_id":338,"name":"Stacks63bs","steam_id":76561198067797130,"connected_time":1725000000000,"state":"active","ping":85},{"user_id":356,"name":"Dogma","steam_id":76561198879961615,"connected_time":327000000000,"state":"active","ping":65},{"user_id":302,"name":"beesechurger™","steam_id":76561198867219032,"connected_time":3707000000000,"state":"active","ping":56},{"user_id":358,"name":"i need a beer","steam_id":76561198031400151,"connected_time":249000000000,"state":"active","ping":59},{"user_id":354,"name":"bologna forklift 2012","steam_id":76561198199061206,"connected_time":424000000000,"state":"active","ping":44},{"user_id":329,"name":"Greaseball","steam_id":76561198240220178,"connected_time":2214000000000,"state":"active","ping":77}]},{"server_id":106,"name":"Uncletopia | Chicago | 2 | All Maps","name_short":"chi-2","host":"chi-1.us.uncletopia.com","port":27025,"enabled":true,"region":"us-central","cc":"us","latitude":41.881832,"longitude":-87.62318,"reserved":0,"last_update":"0001-01-01T00:00:00Z","name_a2s":"Uncletopia | Chicago | 2 | All Maps","protocol":17,"map":"pl_badwater","folder":"tf","game":"Team Fortress","app_id":440,"player_count":3,"max_players":24,"Bots":0,"server_type":"Dedicated","server_os":"Linux","password":true,"vac":true,"version":"7961495","steam_id":85568392924469985,"keywords":["nocrits","nodmgspread","payload","uncletopia"],"game_id":440,"stv_port":27026,"stv_name":"Uncletopia | Chicago | 2 | All Maps | STV","players":[{"user_id":26,"name":"Baby gaming","steam_id":76561198867319323,"connected_time":786000000000,"state":"active","ping":57},{"user_id":27,"name":"thetroupegang","steam_id":76561198340510098,"connected_time":707000000000,"state":"active","ping":58},{"user_id":29,"name":"Zeebop","steam_id":76561198148332988,"connected_time":130000000000,"state":"active","ping":53}]},{"server_id":402,"name":"Uncletopia | Chicago | 3 | All Maps","name_short":"chi-3","host":"chi-1.us.uncletopia.com","port":27035,"enabled":true,"region":"us-central","cc":"us","latitude":41.881832,"longitude":-87.62318,"reserved":0,"last_update":"0001-01-01T00:00:00Z","name_a2s":"Uncletopia | Chicago | 3 | All Maps","protocol":17,"map":"pl_snowycoast","folder":"tf","game":"Team Fortress","app_id":440,"player_count":24,"max_players":24,"Bots":0,"server_type":"Dedicated","server_os":"Linux","password":true,"vac":true,"version":"7961495","steam_id":85568392924515191,"keywords":["nocrits","nodmgspread","payload","uncletopia"],"game_id":440,"stv_port":27036,"stv_name":"Uncletopia | Chicago | 3 | All Maps | STV","players":[{"user_id":179,"name":"roast pig with apple in mouth","steam_id":76561198051353647,"connected_time":2232000000000,"state":"active","ping":61},{"user_id":203,"name":"flare","steam_id":76561198048623485,"connected_time":225000000000,"state":"active","ping":60},{"user_id":196,"name":"✧･ﾟhooligan!!","steam_id":76561198874149130,"connected_time":669000000000,"state":"active","ping":73},{"user_id":204,"name":"Cooldogjoe","steam_id":76561198105543698,"connected_time":208000000000,"state":"active","ping":59},{"user_id":195,"name":"Rein","steam_id":76561198300340427,"connected_time":681000000000,"state":"active","ping":62},{"user_id":201,"name":"IlikeChowMien","steam_id":76561199466131782,"connected_time":275000000000,"state":"active","ping":84},{"user_id":176,"name":"two sentient corn cobs kissing","steam_id":76561198238842076,"connected_time":2403000000000,"state":"active","ping":75},{"user_id":186,"name":"Epha","steam_id":76561198079379951,"connected_time":1914000000000,"state":"active","ping":63},{"user_id":200,"name":"Beef Wellington","steam_id":76561198049837377,"connected_time":296000000000,"state":"active","ping":50},{"user_id":197,"name":"B.","steam_id":76561198040445907,"connected_time":660000000000,"state":"active","ping":74},{"user_id":202,"name":"thrompo","steam_id":76561197996845059,"connected_time":268000000000,"state":"active","ping":62},{"user_id":198,"name":"old sloth cheese","steam_id":76561198248696144,"connected_time":635000000000,"state":"active","ping":91},{"user_id":205,"name":"SIN K4RMA","steam_id":76561198869287223,"connected_time":167000000000,"state":"active","ping":78},{"user_id":159,"name":"Blaze","steam_id":76561198043797702,"connected_time":2885000000000,"state":"active","ping":74},{"user_id":194,"name":"Cassini","steam_id":76561198318526294,"connected_time":1225000000000,"state":"active","ping":60},{"user_id":189,"name":"The Don","steam_id":76561198322125657,"connected_time":1846000000000,"state":"active","ping":111},{"user_id":163,"name":"-cc- cannanza * \u003c3 teafy","steam_id":76561198103496593,"connected_time":2791000000000,"state":"active","ping":79},{"user_id":190,"name":"pipikopf","steam_id":76561198064196489,"connected_time":1817000000000,"state":"active","ping":86},{"user_id":172,"name":"MMAD","steam_id":76561198026446420,"connected_time":2560000000000,"state":"active","ping":81},{"user_id":138,"name":"la goblina","steam_id":76561198094225038,"connected_time":4076000000000,"state":"active","ping":47},{"user_id":188,"name":"lordstinkdemon666","steam_id":76561198073914311,"connected_time":1882000000000,"state":"active","ping":99},{"user_id":192,"name":"mio","steam_id":76561198239286750,"connected_time":1566000000000,"state":"active","ping":68},{"user_id":152,"name":"TheGrassMan (He/Him)","steam_id":76561198118984048,"connected_time":3489000000000,"state":"active","ping":66},{"user_id":147,"name":"Torensz64(But weezer)","steam_id":76561198239036482,"connected_time":3814000000000,"state":"active","ping":57}]},{"server_id":403,"name":"Uncletopia | Chicago | 4 | All Maps","name_short":"chi-4","host":"chi-1.us.uncletopia.com","port":27045,"enabled":true,"region":"us-central","cc":"us","latitude":41.881832,"longitude":-87.62318,"reserved":0,"last_update":"0001-01-01T00:00:00Z","name_a2s":"Uncletopia | Chicago | 4 | All Maps","protocol":17,"map":"pl_badwater","folder":"tf","game":"Team Fortress","app_id":440,"player_count":24,"max_players":24,"Bots":0,"server_type":"Dedicated","server_os":"Linux","password":true,"vac":true,"version":"7961495","steam_id":85568392924515193,"keywords":["nocrits","nodmgspread","payload","uncletopia"],"game_id":440,"stv_port":27046,"stv_name":"Uncletopia | Chicago | 4 | All Maps | STV","players":[{"user_id":295,"name":"Cogenheimer","steam_id":76561198146321550,"connected_time":1754000000000,"state":"active","ping":86},{"user_id":243,"name":"Sunshine","steam_id":76561198885528098,"connected_time":5550000000000,"state":"active","ping":70},{"user_id":296,"name":"Julio Quantez","steam_id":76561198216600608,"connected_time":1734000000000,"state":"active","ping":75},{"user_id":297,"name":"Crombun","steam_id":76561198031559642,"connected_time":1719000000000,"state":"active","ping":74},{"user_id":311,"name":"★Deebo★","steam_id":76561198060081522,"connected_time":1298000000000,"state":"active","ping":79},{"user_id":298,"name":"IsleBound","steam_id":76561198278451717,"connected_time":1706000000000,"state":"active","ping":57},{"user_id":299,"name":"Walka","steam_id":76561198074325951,"connected_time":1654000000000,"state":"active","ping":81},{"user_id":289,"name":"creamgravy573","steam_id":76561198093308746,"connected_time":2124000000000,"state":"active","ping":76},{"user_id":310,"name":"Valentime!","steam_id":76561198093806229,"connected_time":1333000000000,"state":"active","ping":48},{"user_id":321,"name":"Jamal27 -iwnl-","steam_id":76561198068654532,"connected_time":522000000000,"state":"active","ping":75},{"user_id":322,"name":"frid","steam_id":76561198005806915,"connected_time":373000000000,"state":"active","ping":60},{"user_id":325,"name":"Julius Caper","steam_id":76561199190216106,"connected_time":144000000000,"state":"active","ping":74},{"user_id":280,"name":"EpochSpruce","steam_id":76561198067653839,"connected_time":2483000000000,"state":"active","ping":71},{"user_id":309,"name":"Red-Raven","steam_id":76561197971130794,"connected_time":1362000000000,"state":"active","ping":104},{"user_id":312,"name":"Olitude","steam_id":76561199238964574,"connected_time":993000000000,"state":"active","ping":70},{"user_id":318,"name":"organsblue","steam_id":76561199050461421,"connected_time":608000000000,"state":"active","ping":112},{"user_id":301,"name":"jello","steam_id":76561199274158922,"connected_time":1574000000000,"state":"active","ping":99},{"user_id":319,"name":"Hero Smasher","steam_id":76561198150681669,"connected_time":601000000000,"state":"active","ping":101},{"user_id":320,"name":"Brandino!","steam_id":76561198000446932,"connected_time":592000000000,"state":"active","ping":83},{"user_id":316,"name":"otwtomarsoffdabars(spacecore)","steam_id":76561199085974120,"connected_time":627000000000,"state":"active","ping":75},{"user_id":304,"name":"i should go","steam_id":76561198194614289,"connected_time":1548000000000,"state":"active","ping":64},{"user_id":326,"name":"Gotta Move That Gear Up","steam_id":76561197993467034,"connected_time":126000000000,"state":"active","ping":55},{"user_id":307,"name":"SQ | Work-Mann","steam_id":76561198136662801,"connected_time":1513000000000,"state":"active","ping":74},{"user_id":308,"name":"Amtyk","steam_id":76561197979130554,"connected_time":1489000000000,"state":"active","ping":62}]},{"server_id":36,"name":"Uncletopia | Chicago | 5 | All Maps","name_short":"chi-5","host":"chi-2.us.uncletopia.com","port":27015,"enabled":true,"region":"us-central","cc":"us","latitude":41.881832,"longitude":-87.62318,"reserved":0,"last_update":"0001-01-01T00:00:00Z","name_a2s":"Uncletopia | Chicago | 5 | All Maps","protocol":17,"map":"koth_viaduct","folder":"tf","game":"Team Fortress","app_id":440,"player_count":0,"max_players":24,"Bots":0,"server_type":"Dedicated","server_os":"Linux","password":true,"vac":true,"version":"7961495","steam_id":85568392924866362,"keywords":["cp","nocrits","nodmgspread","uncletopia"],"game_id":440,"stv_port":27016,"stv_name":"Uncletopia | Chicago | 5 | All Maps | STV","players":null},{"server_id":37,"name":"Uncletopia | Chicago | 6 | All Maps","name_short":"chi-6","host":"chi-2.us.uncletopia.com","port":27025,"enabled":true,"region":"us-central","cc":"us","latitude":41.881832,"longitude":-87.62318,"reserved":0,"last_update":"0001-01-01T00:00:00Z","name_a2s":"Uncletopia | Chicago | 6 | All Maps","protocol":17,"map":"pl_goldrush","folder":"tf","game":"Team Fortress","app_id":440,"player_count":24,"max_players":24,"Bots":0,"server_type":"Dedicated","server_os":"Linux","password":true,"vac":true,"version":"7961495","steam_id":85568392924866363,"keywords":["nocrits","nodmgspread","payload","uncletopia"],"game_id":440,"stv_port":27026,"stv_name":"Uncletopia | Chicago | 6 | All Maps | STV","players":[{"user_id":124,"name":"OddSlaush","steam_id":76561198043898488,"connected_time":2521000000000,"state":"active","ping":105},{"user_id":122,"name":"Coms","steam_id":76561198204995668,"connected_time":2666000000000,"state":"active","ping":96},{"user_id":123,"name":"I Can't Dance","steam_id":76561198212377560,"connected_time":2566000000000,"state":"active","ping":57},{"user_id":182,"name":"Johnny Lawrence #JohnnyMaxxing","steam_id":76561199367141671,"connected_time":79000000000,"state":"active","ping":70},{"user_id":158,"name":"run fast fall down","steam_id":76561198167207112,"connected_time":919000000000,"state":"active","ping":74},{"user_id":171,"name":"Chemzo","steam_id":76561199092858118,"connected_time":674000000000,"state":"active","ping":59},{"user_id":172,"name":"Pixelated Pussy","steam_id":76561198002511088,"connected_time":665000000000,"state":"active","ping":106},{"user_id":169,"name":"Mr.Bones","steam_id":76561198205170595,"connected_time":702000000000,"state":"active","ping":98},{"user_id":178,"name":"PK","steam_id":76561198368722500,"connected_time":188000000000,"state":"active","ping":73},{"user_id":156,"name":"Ojen","steam_id":76561197998414482,"connected_time":1113000000000,"state":"active","ping":60},{"user_id":179,"name":"gkdish","steam_id":76561198044006981,"connected_time":109000000000,"state":"active","ping":69},{"user_id":160,"name":"Hamhog","steam_id":76561198353967566,"connected_time":912000000000,"state":"active","ping":81},{"user_id":177,"name":"Mcmuffin124","steam_id":76561198077883022,"connected_time":223000000000,"state":"active","ping":105},{"user_id":161,"name":"Eyesak1316","steam_id":76561199091309029,"connected_time":901000000000,"state":"active","ping":90},{"user_id":180,"name":"`*`//[K3L]`*`\\\\","steam_id":76561199155872076,"connected_time":104000000000,"state":"active","ping":88},{"user_id":163,"name":"Hexadecatrack","steam_id":76561198044480181,"connected_time":865000000000,"state":"active","ping":50},{"user_id":132,"name":"corntent","steam_id":76561198824847948,"connected_time":2288000000000,"state":"active","ping":60},{"user_id":183,"name":"The_Epic_Conclusion","steam_id":76561198084250179,"connected_time":62000000000,"state":"active","ping":116},{"user_id":136,"name":"Peppino Spaghetti","steam_id":76561198830014081,"connected_time":2211000000000,"state":"active","ping":94},{"user_id":141,"name":"Top Frog","steam_id":76561198072793446,"connected_time":1906000000000,"state":"active","ping":84},{"user_id":137,"name":"Spy on cart","steam_id":76561198025466913,"connected_time":2207000000000,"state":"active","ping":102},{"user_id":185,"name":"[12V] Marv","steam_id":76561198158638384,"connected_time":21000000000,"state":"active","ping":75},{"user_id":166,"name":"BoOBY_GRABER@gmail.com","steam_id":76561198082293009,"connected_time":843000000000,"state":"active","ping":85},{"user_id":155,"name":"VPratt","steam_id":76561198351195424,"connected_time":1153000000000,"state":"active","ping":120}]},{"server_id":38,"name":"Uncletopia | Chicago | 7 | Stopwatch","name_short":"chi-7","host":"chi-2.us.uncletopia.com","port":27035,"enabled":true,"region":"us-central","cc":"us","latitude":41.881832,"longitude":-87.62318,"reserved":0,"last_update":"0001-01-01T00:00:00Z","name_a2s":"Uncletopia | Chicago | 7 | Stopwatch","protocol":17,"map":"pl_badwater","folder":"tf","game":"Team Fortress","app_id":440,"player_count":0,"max_players":24,"Bots":0,"server_type":"Dedicated","server_os":"Linux","password":true,"vac":true,"version":"7961495","steam_id":85568392924866364,"keywords":["nocrits","nodmgspread","payload","uncletopia"],"game_id":440,"stv_port":27036,"stv_name":"Uncletopia | Chicago | 7 | Stopwatch | STV","players":null},{"server_id":39,"name":"Uncletopia | Chicago | 8 | Community","name_short":"chi-8","host":"chi-2.us.uncletopia.com","port":27045,"enabled":true,"region":"us-central","cc":"us","latitude":41.881832,"longitude":-87.62318,"reserved":0,"last_update":"0001-01-01T00:00:00Z","name_a2s":"Uncletopia | Chicago | 8 | Community","protocol":17,"map":"workshop/pl_cashworks_final1.ugc2904065412","folder":"tf","game":"Team Fortress","app_id":440,"player_count":0,"max_players":24,"Bots":0,"server_type":"Dedicated","server_os":"Linux","password":true,"vac":true,"version":"7961495","steam_id":85568392924866365,"keywords":["nocrits","nodmgspread","payload","uncletopia"],"game_id":440,"stv_port":27046,"stv_name":"Uncletopia | Chicago | 8 | Community | STV","players":null},{"server_id":8,"name":"Uncletopia | Dallas | 1 | All Maps","name_short":"dal-1","host":"dal-1.us.uncletopia.com","port":27015,"enabled":true,"region":"us-central","cc":"us","latitude":32.779167,"longitude":-96.80889,"reserved":0,"last_update":"0001-01-01T00:00:00Z","name_a2s":"Uncletopia | Dallas | 1 | All Maps","protocol":17,"map":"cp_sunshine","folder":"tf","game":"Team Fortress","app_id":440,"player_count":24,"max_players":24,"Bots":0,"server_type":"Dedicated","server_os":"Linux","password":true,"vac":true,"version":"7961495","steam_id":85568392924469986,"keywords":["cp","nocrits","nodmgspread","uncletopia"],"game_id":440,"stv_port":27016,"stv_name":"Uncletopia | Dallas | 1 | All Maps | STV","players":[{"user_id":69,"name":"Dragon Mommy from Caelid","steam_id":76561198338424715,"connected_time":3355000000000,"state":"active","ping":83},{"user_id":79,"name":"Thunder","steam_id":76561198097721532,"connected_time":2419000000000,"state":"active","ping":74},{"user_id":98,"name":"Ahkmid the Emoji Turban Guy","steam_id":76561198142599650,"connected_time":818000000000,"state":"active","ping":76},{"user_id":107,"name":"Legit_Jaxer","steam_id":76561198172234053,"connected_time":205000000000,"state":"active","ping":108},{"user_id":108,"name":"Sponge","steam_id":76561198099024378,"connected_time":185000000000,"state":"active","ping":46},{"user_id":112,"name":"Frank Fortain","steam_id":76561198953613972,"connected_time":22000000000,"state":"active","ping":48},{"user_id":103,"name":"I am Thaco","steam_id":76561197992956852,"connected_time":222000000000,"state":"active","ping":78},{"user_id":104,"name":"Karma","steam_id":76561198320530905,"connected_time":222000000000,"state":"active","ping":48},{"user_id":72,"name":"Darling","steam_id":76561198127525888,"connected_time":2740000000000,"state":"active","ping":53},{"user_id":26,"name":"Jimmy Cumstains","steam_id":76561198044086931,"connected_time":5016000000000,"state":"active","ping":96},{"user_id":109,"name":"cq","steam_id":76561198029337542,"connected_time":157000000000,"state":"active","ping":64},{"user_id":110,"name":"BojackWojack","steam_id":76561198422425920,"connected_time":139000000000,"state":"active","ping":91},{"user_id":28,"name":"Grassman (Cc)","steam_id":76561198026488532,"connected_time":4982000000000,"state":"active","ping":89},{"user_id":111,"name":"AlejandritoXDS","steam_id":76561199147041246,"connected_time":50000000000,"state":"spawning","ping":102},{"user_id":83,"name":"TrashPanda (she/her)","steam_id":76561198447864095,"connected_time":2283000000000,"state":"active","ping":69},{"user_id":92,"name":"Kim Jong Un stan","steam_id":76561199139182003,"connected_time":1490000000000,"state":"active","ping":79},{"user_id":95,"name":"Caught a Thundah","steam_id":76561198054495572,"connected_time":1223000000000,"state":"active","ping":54},{"user_id":91,"name":"Talented","steam_id":76561198800259660,"connected_time":1736000000000,"state":"active","ping":86},{"user_id":93,"name":"CherryPieRed2023","steam_id":76561198998007496,"connected_time":1366000000000,"state":"active","ping":109},{"user_id":66,"name":"Rat God","steam_id":76561198066161598,"connected_time":3766000000000,"state":"active","ping":90},{"user_id":71,"name":"ThatOnePersonCalledCaine","steam_id":76561198089836391,"connected_time":2842000000000,"state":"active","ping":83},{"user_id":94,"name":"Imrgrim","steam_id":76561198135866481,"connected_time":1316000000000,"state":"active","ping":75},{"user_id":65,"name":"Kantamoe","steam_id":76561198046661611,"connected_time":3843000000000,"state":"active","ping":83},{"user_id":100,"name":"Mick","steam_id":76561198972619900,"connected_time":580000000000,"state":"active","ping":59}]},{"server_id":108,"name":"Uncletopia | Dallas | 2 | All Maps","name_short":"dal-2","host":"dal-1.us.uncletopia.com","port":27025,"enabled":true,"region":"us-central","cc":"us","latitude":32.779167,"longitude":-96.80889,"reserved":0,"last_update":"0001-01-01T00:00:00Z","name_a2s":"Uncletopia | Dallas | 2 | All Maps","protocol":17,"map":"pl_upward","folder":"tf","game":"Team Fortress","app_id":440,"player_count":24,"max_players":24,"Bots":0,"server_type":"Dedicated","server_os":"Linux","password":true,"vac":true,"version":"7961495","steam_id":85568392924469988,"keywords":["nocrits","nodmgspread","payload","uncletopia"],"game_id":440,"stv_port":27026,"stv_name":"Uncletopia | Dallas | 2 | All Maps | STV","players":[{"user_id":198,"name":"Squirrel","steam_id":76561198010044046,"connected_time":232000000000,"state":"active","ping":86},{"user_id":199,"name":"moe","steam_id":76561198929586245,"connected_time":229000000000,"state":"active","ping":73},{"user_id":188,"name":"Ono","steam_id":76561198024377986,"connected_time":1220000000000,"state":"active","ping":89},{"user_id":194,"name":"Wiggs is the Shiggs","steam_id":76561198078379719,"connected_time":1086000000000,"state":"active","ping":84},{"user_id":202,"name":"SANTA IS REAL","steam_id":76561199103766971,"connected_time":41000000000,"state":"active","ping":107},{"user_id":189,"name":"Broadsword #LGM","steam_id":76561198011160411,"connected_time":1216000000000,"state":"active","ping":89},{"user_id":197,"name":"Willham","steam_id":76561198065755781,"connected_time":972000000000,"state":"active","ping":88},{"user_id":174,"name":"greentop_","steam_id":76561198209650964,"connected_time":1500000000000,"state":"active","ping":80},{"user_id":192,"name":"kyrgyzstan3","steam_id":76561198207940136,"connected_time":1131000000000,"state":"active","ping":60},{"user_id":173,"name":"Brain Magic","steam_id":76561198010201477,"connected_time":1614000000000,"state":"active","ping":91},{"user_id":164,"name":"Yopi","steam_id":76561198004298898,"connected_time":2504000000000,"state":"active","ping":84},{"user_id":152,"name":"summerlis","steam_id":76561198165324438,"connected_time":3375000000000,"state":"active","ping":71},{"user_id":153,"name":"Nintenjoe","steam_id":76561198821530178,"connected_time":3367000000000,"state":"active","ping":92},{"user_id":166,"name":"Mocha Josie","steam_id":76561198066452726,"connected_time":2336000000000,"state":"active","ping":93},{"user_id":196,"name":"linus theift tip","steam_id":76561199009102678,"connected_time":1066000000000,"state":"active","ping":79},{"user_id":136,"name":"SkadooshPlayz","steam_id":76561198310986662,"connected_time":3835000000000,"state":"active","ping":100},{"user_id":167,"name":"Shipmunk","steam_id":76561198063062670,"connected_time":2333000000000,"state":"active","ping":82},{"user_id":156,"name":"Contract/Acheivement helper","steam_id":76561199230325479,"connected_time":3198000000000,"state":"active","ping":85},{"user_id":185,"name":"artichoke","steam_id":76561198980994364,"connected_time":1271000000000,"state":"active","ping":122},{"user_id":201,"name":"antoniov00gaming","steam_id":76561198364632073,"connected_time":114000000000,"state":"active","ping":92},{"user_id":200,"name":"kira","steam_id":76561198277979851,"connected_time":204000000000,"state":"active","ping":88},{"user_id":182,"name":"trash beast","steam_id":76561198015792736,"connected_time":1371000000000,"state":"active","ping":80},{"user_id":176,"name":"Trigger","steam_id":76561198220120368,"connected_time":1495000000000,"state":"active","ping":45},{"user_id":183,"name":"yaldabaoth","steam_id":76561198084606869,"connected_time":1361000000000,"state":"active","ping":81}]},{"server_id":404,"name":"Uncletopia | Dallas | 3 | All Maps","name_short":"dal-3","host":"dal-1.us.uncletopia.com","port":27035,"enabled":true,"region":"us-central","cc":"us","latitude":32.779167,"longitude":-96.80889,"reserved":0,"last_update":"0001-01-01T00:00:00Z","name_a2s":"Uncletopia | Dallas | 3 | All Maps","protocol":17,"map":"ctf_2fort","folder":"tf","game":"Team Fortress","app_id":440,"player_count":22,"max_players":24,"Bots":0,"server_type":"Dedicated","server_os":"Linux","password":true,"vac":true,"version":"7961495","steam_id":85568392924515219,"keywords":["cp","nocrits","nodmgspread","uncletopia"],"game_id":440,"stv_port":27036,"stv_name":"Uncletopia | Dallas | 3 | All Maps | STV","players":[{"user_id":441,"name":"Killer-Of-Night","steam_id":76561198054038830,"connected_time":3527000000000,"state":"connecting","ping":104},{"user_id":452,"name":"AXELORDX","steam_id":76561198136639581,"connected_time":2009000000000,"state":"connecting","ping":62},{"user_id":437,"name":"Scrappy-Doo has been Drafted","steam_id":76561198292152534,"connected_time":3852000000000,"state":"connecting","ping":108},{"user_id":482,"name":"I Am Alpharius","steam_id":76561198033100226,"connected_time":16000000000,"state":"connecting","ping":74},{"user_id":471,"name":"Dqzz","steam_id":76561199440761155,"connected_time":1395000000000,"state":"connecting","ping":121},{"user_id":456,"name":"Ockulus","steam_id":76561199069638460,"connected_time":1882000000000,"state":"connecting","ping":103},{"user_id":445,"name":"chickin","steam_id":76561199054804211,"connected_time":3100000000000,"state":"connecting","ping":98},{"user_id":480,"name":"Universe Man","steam_id":76561197997710655,"connected_time":653000000000,"state":"connecting","ping":90},{"user_id":458,"name":"Pissless Pissmass Pissman","steam_id":76561198409907417,"connected_time":1821000000000,"state":"connecting","ping":90},{"user_id":460,"name":"HeabSaysNo","steam_id":76561198041983433,"connected_time":1731000000000,"state":"connecting","ping":76},{"user_id":461,"name":"twizted","steam_id":76561197960407274,"connected_time":1714000000000,"state":"connecting","ping":103},{"user_id":462,"name":"Lord_Dabbatron","steam_id":76561199058480985,"connected_time":1680000000000,"state":"connecting","ping":56},{"user_id":463,"name":"asm_ghost","steam_id":76561199205363547,"connected_time":1672000000000,"state":"connecting","ping":103},{"user_id":472,"name":"✨ Rarity ✨","steam_id":76561199172206856,"connected_time":1384000000000,"state":"connecting","ping":62},{"user_id":464,"name":"The Gremlin","steam_id":76561198419066993,"connected_time":1668000000000,"state":"connecting","ping":122},{"user_id":465,"name":"astrobob911","steam_id":76561199099110654,"connected_time":1630000000000,"state":"connecting","ping":106},{"user_id":473,"name":"KiloeJet","steam_id":76561199084636926,"connected_time":1383000000000,"state":"connecting","ping":84},{"user_id":467,"name":"132 mensa","steam_id":76561197961263312,"connected_time":1573000000000,"state":"connecting","ping":92},{"user_id":468,"name":"gerf.","steam_id":76561198811706201,"connected_time":1551000000000,"state":"connecting","ping":74}]},{"server_id":405,"name":"Uncletopia | Dallas | 4 | Community","name_short":"dal-4","host":"dal-1.us.uncletopia.com","port":27045,"enabled":true,"region":"us-central","cc":"us","latitude":32.779167,"longitude":-96.80889,"reserved":0,"last_update":"0001-01-01T00:00:00Z","name_a2s":"Uncletopia | Dallas | 4 | Community","protocol":17,"map":"pl_pier","folder":"tf","game":"Team Fortress","app_id":440,"player_count":4,"max_players":24,"Bots":0,"server_type":"Dedicated","server_os":"Linux","password":true,"vac":true,"version":"7961495","steam_id":85568392924515220,"keywords":["nocrits","nodmgspread","payload","uncletopia"],"game_id":440,"stv_port":27046,"stv_name":"Uncletopia | Dallas | 4 | Community | STV","players":[{"user_id":6,"name":"Dakota","steam_id":76561198134092308,"connected_time":782000000000,"state":"active","ping":54},{"user_id":7,"name":"Donnie","steam_id":76561198837857545,"connected_time":773000000000,"state":"active","ping":153},{"user_id":9,"name":"femboy =＾● ⋏ ●＾=","steam_id":76561199052450127,"connected_time":309000000000,"state":"active","ping":71},{"user_id":10,"name":"Iaskedgaming","steam_id":76561199191154439,"connected_time":295000000000,"state":"active","ping":47}]},{"server_id":5,"name":"Uncletopia | Frankfurt | 1 | All Maps","name_short":"frk-1","host":"frk-1.de.uncletopia.com","port":27015,"enabled":true,"region":"eu","cc":"de","latitude":50.110924,"longitude":8.682127,"reserved":0,"last_update":"0001-01-01T00:00:00Z","name_a2s":"Uncletopia | Frankfurt | 1 | All Maps","protocol":17,"map":"pl_barnblitz","folder":"tf","game":"Team Fortress","app_id":440,"player_count":24,"max_players":24,"Bots":0,"server_type":"Dedicated","server_os":"Linux","password":true,"vac":true,"version":"7961495","steam_id":85568392924469989,"keywords":["nocrits","nodmgspread","payload","uncletopia"],"game_id":440,"stv_port":27016,"stv_name":"Uncletopia | Frankfurt | 1 | All Maps | STV","players":[{"user_id":770,"name":"CatInTheFestiveHat","steam_id":76561198096468920,"connected_time":568000000000,"state":"active","ping":45},{"user_id":748,"name":"SNEAKY TURTLE","steam_id":76561198172177650,"connected_time":2624000000000,"state":"active","ping":80},{"user_id":759,"name":"henrique_best","steam_id":76561199317304919,"connected_time":1604000000000,"state":"active","ping":77},{"user_id":777,"name":"Kaibz","steam_id":76561197975012611,"connected_time":4000000000,"state":"spawning","ping":43},{"user_id":732,"name":"LOBZIK","steam_id":76561198114830120,"connected_time":3572000000000,"state":"active","ping":76},{"user_id":746,"name":"r^f nyanezt","steam_id":76561198253734265,"connected_time":2682000000000,"state":"active","ping":93},{"user_id":772,"name":"Skip ♥","steam_id":76561198197425385,"connected_time":512000000000,"state":"active","ping":61},{"user_id":761,"name":"bilgobaggings","steam_id":76561198041520751,"connected_time":1584000000000,"state":"active","ping":58},{"user_id":696,"name":"r^f shrrrrrrekkkkk","steam_id":76561198347241576,"connected_time":5859000000000,"state":"active","ping":89},{"user_id":773,"name":"The Last Knight","steam_id":76561198041622040,"connected_time":457000000000,"state":"active","ping":137},{"user_id":774,"name":"MEGOS","steam_id":76561198172740637,"connected_time":423000000000,"state":"active","ping":52},{"user_id":763,"name":"Sabour","steam_id":76561197963965445,"connected_time":1579000000000,"state":"active","ping":58},{"user_id":775,"name":"Yelowchy","steam_id":76561198199416121,"connected_time":414000000000,"state":"active","ping":65},{"user_id":722,"name":"LiterallyRyanGosling","steam_id":76561199017856691,"connected_time":4196000000000,"state":"active","ping":69},{"user_id":764,"name":"kingdead4","steam_id":76561198079576655,"connected_time":1577000000000,"state":"active","ping":69},{"user_id":765,"name":"Arthur","steam_id":76561198066109166,"connected_time":1560000000000,"state":"active","ping":76},{"user_id":766,"name":"{♠}_MR. JESTER _{♠}","steam_id":76561198152371294,"connected_time":1535000000000,"state":"active","ping":66},{"user_id":755,"name":"LOW SKILL ISSUE","steam_id":76561198001711780,"connected_time":2432000000000,"state":"active","ping":75},{"user_id":737,"name":"Snowmotion","steam_id":76561198075022454,"connected_time":3467000000000,"state":"active","ping":61},{"user_id":754,"name":"jjkun786","steam_id":76561199438517484,"connected_time":2463000000000,"state":"active","ping":89},{"user_id":767,"name":"flick","steam_id":76561198083505031,"connected_time":1511000000000,"state":"active","ping":60},{"user_id":749,"name":"else1","steam_id":76561197996558319,"connected_time":2619000000000,"state":"active","ping":75},{"user_id":750,"name":"F2P Challenge","steam_id":76561199498773639,"connected_time":2609000000000,"state":"active","ping":75},{"user_id":776,"name":"Necator","steam_id":76561198094006970,"connected_time":378000000000,"state":"active","ping":61}]},{"server_id":110,"name":"Uncletopia | Frankfurt | 2 | All Maps","name_short":"frk-2","host":"frk-1.de.uncletopia.com","port":27025,"enabled":true,"region":"eu","cc":"de","latitude":50.110924,"longitude":8.682127,"reserved":0,"last_update":"0001-01-01T00:00:00Z","name_a2s":"Uncletopia | Frankfurt | 2 | All Maps","protocol":17,"map":"cp_dustbowl","folder":"tf","game":"Team Fortress","app_id":440,"player_count":0,"max_players":24,"Bots":0,"server_type":"Dedicated","server_os":"Linux","password":true,"vac":true,"version":"7961495","steam_id":85568392924469990,"keywords":["cp","nocrits","nodmgspread","uncletopia"],"game_id":440,"stv_port":27026,"stv_name":"Uncletopia | Frankfurt | 2 | All Maps | STV","players":null},{"server_id":308,"name":"Uncletopia | Frankfurt | 3 | All Maps","name_short":"frk-3","host":"frk-1.de.uncletopia.com","port":27035,"enabled":true,"region":"eu","cc":"de","latitude":50.110924,"longitude":8.682127,"reserved":0,"last_update":"0001-01-01T00:00:00Z","name_a2s":"Uncletopia | Frankfurt | 3 | All Maps","protocol":17,"map":"pl_borneo","folder":"tf","game":"Team Fortress","app_id":440,"player_count":24,"max_players":24,"Bots":0,"server_type":"Dedicated","server_os":"Linux","password":true,"vac":true,"version":"7961495","steam_id":85568392924504274,"keywords":["nocrits","nodmgspread","payload","uncletopia"],"game_id":440,"stv_port":27036,"stv_name":"Uncletopia | Frankfurt | 3 | All Maps | STV","players":[{"user_id":338,"name":"Sosig","steam_id":76561199012155377,"connected_time":703000000000,"state":"active","ping":40},{"user_id":349,"name":"FlipFlop the Clown","steam_id":76561198042388446,"connected_time":171000000000,"state":"active","ping":78},{"user_id":339,"name":"Lao","steam_id":76561198004528684,"connected_time":686000000000,"state":"active","ping":80},{"user_id":344,"name":"selzic ★","steam_id":76561198068100717,"connected_time":504000000000,"state":"active","ping":61},{"user_id":335,"name":"Ashley","steam_id":76561198056152479,"connected_time":1432000000000,"state":"active","ping":45},{"user_id":340,"name":"Vito","steam_id":76561198103978102,"connected_time":665000000000,"state":"active","ping":78},{"user_id":289,"name":"Swagmaster","steam_id":76561198045828392,"connected_time":5174000000000,"state":"active","ping":55},{"user_id":341,"name":"setta","steam_id":76561198055240082,"connected_time":652000000000,"state":"active","ping":77},{"user_id":329,"name":"Spitfire","steam_id":76561198037876300,"connected_time":2330000000000,"state":"active","ping":39},{"user_id":254,"name":"Skarp","steam_id":76561198034398376,"connected_time":8089000000000,"state":"active","ping":45},{"user_id":342,"name":"filthy","steam_id":76561198089069719,"connected_time":543000000000,"state":"active","ping":60},{"user_id":302,"name":"Беляш-eбляш","steam_id":76561198122946306,"connected_time":4714000000000,"state":"active","ping":75},{"user_id":348,"name":"ja","steam_id":76561199228540618,"connected_time":275000000000,"state":"active","ping":71},{"user_id":308,"name":"Vitun vittu","steam_id":76561198110679463,"connected_time":4605000000000,"state":"active","ping":74},{"user_id":330,"name":"Cosmic Gamer","steam_id":76561198027357981,"connected_time":2316000000000,"state":"active","ping":91},{"user_id":331,"name":"worgeral","steam_id":76561198050781898,"connected_time":2300000000000,"state":"active","ping":66},{"user_id":309,"name":"sui","steam_id":76561198185348855,"connected_time":4595000000000,"state":"active","ping":67},{"user_id":346,"name":"\u003e\u003c\u003e","steam_id":76561198152392309,"connected_time":482000000000,"state":"active","ping":57},{"user_id":322,"name":"Real (Real)","steam_id":76561198323425034,"connected_time":3135000000000,"state":"active","ping":68},{"user_id":323,"name":"Grog the caveman","steam_id":76561199040975062,"connected_time":3125000000000,"state":"active","ping":74},{"user_id":319,"name":"Suetolog","steam_id":76561199053090212,"connected_time":3577000000000,"state":"active","ping":49},{"user_id":287,"name":"Gorgeous George","steam_id":76561198144256544,"connected_time":5365000000000,"state":"active","ping":60},{"user_id":267,"name":"Lyncurion","steam_id":76561199260022725,"connected_time":6787000000000,"state":"active","ping":80},{"user_id":337,"name":"Duke Fishlord","steam_id":76561198079928327,"connected_time":1363000000000,"state":"active","ping":64}]},{"server_id":309,"name":"Uncletopia | Frankfurt | 4 | All Maps","name_short":"frk-4","host":"frk-1.de.uncletopia.com","port":27045,"enabled":true,"region":"eu","cc":"de","latitude":50.110924,"longitude":8.682127,"reserved":0,"last_update":"0001-01-01T00:00:00Z","name_a2s":"Uncletopia | Frankfurt | 4 | All Maps","protocol":17,"map":"cp_process_final","folder":"tf","game":"Team Fortress","app_id":440,"player_count":3,"max_players":24,"Bots":0,"server_type":"Dedicated","server_os":"Linux","password":true,"vac":true,"version":"7961495","steam_id":85568392924504275,"keywords":["cp","nocrits","nodmgspread","uncletopia"],"game_id":440,"stv_port":27046,"stv_name":"Uncletopia | Frankfurt | 4 | All Maps | STV","players":[{"user_id":535,"name":"BLP_TF2","steam_id":76561199306940806,"connected_time":2198000000000,"state":"active","ping":152},{"user_id":548,"name":"yer_nerd","steam_id":76561199435454093,"connected_time":400000000000,"state":"active","ping":145},{"user_id":547,"name":"Calsim","steam_id":76561198164877219,"connected_time":606000000000,"state":"active","ping":52}]},{"server_id":310,"name":"Uncletopia | Frankfurt | 5 | All Maps","name_short":"frk-5","host":"frk-1.de.uncletopia.com","port":27055,"enabled":true,"region":"eu","cc":"de","latitude":50.110924,"longitude":8.682127,"reserved":0,"last_update":"0001-01-01T00:00:00Z","name_a2s":"Uncletopia | Frankfurt | 5 | All Maps","protocol":17,"map":"pl_barnblitz","folder":"tf","game":"Team Fortress","app_id":440,"player_count":0,"max_players":24,"Bots":0,"server_type":"Dedicated","server_os":"Linux","password":true,"vac":true,"version":"7961495","steam_id":85568392924504277,"keywords":["nocrits","nodmgspread","payload","uncletopia"],"game_id":440,"stv_port":27056,"stv_name":"Uncletopia | Frankfurt | 5 | All Maps | STV","players":null},{"server_id":311,"name":"Uncletopia | Frankfurt | 6 | All Maps","name_short":"frk-6","host":"frk-1.de.uncletopia.com","port":27065,"enabled":true,"region":"eu","cc":"de","latitude":50.110924,"longitude":8.682127,"reserved":0,"last_update":"0001-01-01T00:00:00Z","name_a2s":"Uncletopia | Frankfurt | 6 | All Maps","protocol":17,"map":"pl_pier","folder":"tf","game":"Team Fortress","app_id":440,"player_count":24,"max_players":24,"Bots":0,"server_type":"Dedicated","server_os":"Linux","password":true,"vac":true,"version":"7961495","steam_id":85568392924504278,"keywords":["nocrits","nodmgspread","payload","uncletopia"],"game_id":440,"stv_port":27066,"stv_name":"Uncletopia | Frankfurt | 6 | All Maps | STV","players":[{"user_id":251,"name":"Zamorocian","steam_id":76561198076604017,"connected_time":5560000000000,"state":"active","ping":59},{"user_id":322,"name":"Rezzarezz","steam_id":76561198092020043,"connected_time":373000000000,"state":"active","ping":60},{"user_id":316,"name":"Futaro","steam_id":76561198084534929,"connected_time":468000000000,"state":"active","ping":61},{"user_id":315,"name":"Toseína","steam_id":76561198107652375,"connected_time":579000000000,"state":"active","ping":54},{"user_id":317,"name":"Snowy Squill","steam_id":76561198073504207,"connected_time":455000000000,"state":"active","ping":75},{"user_id":308,"name":"Lucky Number 13","steam_id":76561198043951279,"connected_time":1247000000000,"state":"active","ping":102},{"user_id":272,"name":"skam","steam_id":76561198393181352,"connected_time":3327000000000,"state":"active","ping":75},{"user_id":327,"name":"Hannü","steam_id":76561197969886128,"connected_time":252000000000,"state":"active","ping":68},{"user_id":323,"name":"Prawo Jazdy","steam_id":76561198121589024,"connected_time":369000000000,"state":"active","ping":71},{"user_id":329,"name":"Visphiric","steam_id":76561198071938027,"connected_time":127000000000,"state":"active","ping":54},{"user_id":313,"name":"Barbo","steam_id":76561198149438431,"connected_time":794000000000,"state":"active","ping":47},{"user_id":328,"name":"Jouppi","steam_id":76561198063725468,"connected_time":202000000000,"state":"active","ping":98},{"user_id":326,"name":"flip flop man(Lee)","steam_id":76561198374860339,"connected_time":297000000000,"state":"active","ping":61},{"user_id":304,"name":"Stefman","steam_id":76561199025104038,"connected_time":1361000000000,"state":"active","ping":54},{"user_id":286,"name":"Grb.","steam_id":76561198067950470,"connected_time":2241000000000,"state":"active","ping":61},{"user_id":303,"name":"Clydios","steam_id":76561198332311225,"connected_time":1377000000000,"state":"active","ping":75},{"user_id":293,"name":"akciq ⁧⁧respect","steam_id":76561198390963456,"connected_time":2062000000000,"state":"active","ping":85},{"user_id":299,"name":"Mr.Shpee","steam_id":76561198158701474,"connected_time":1837000000000,"state":"active","ping":75},{"user_id":319,"name":"Sluggalugs","steam_id":76561198031684690,"connected_time":447000000000,"state":"active","ping":74},{"user_id":330,"name":"METhOphetamine","steam_id":76561198068216224,"connected_time":89000000000,"state":"active","ping":55},{"user_id":321,"name":"Hazo","steam_id":76561198137686270,"connected_time":408000000000,"state":"active","ping":99},{"user_id":324,"name":"Not A Fake Uncletopia Server","steam_id":76561198152871288,"connected_time":367000000000,"state":"active","ping":69},{"user_id":325,"name":"biggerbob1212","steam_id":76561198090078480,"connected_time":357000000000,"state":"active","ping":151},{"user_id":298,"name":"http kid","steam_id":76561198876791756,"connected_time":1875000000000,"state":"active","ping":98}]},{"server_id":23,"name":"Uncletopia | Frankfurt | 7 | Stopwatch","name_short":"frk-7","host":"frk-1.de.uncletopia.com","port":27075,"enabled":true,"region":"eu","cc":"de","latitude":50.110924,"longitude":8.682127,"reserved":0,"last_update":"0001-01-01T00:00:00Z","name_a2s":"Uncletopia | Frankfurt | 7 | Stopwatch","protocol":17,"map":"koth_lakeside_final","folder":"tf","game":"Team Fortress","app_id":440,"player_count":0,"max_players":24,"Bots":0,"server_type":"Dedicated","server_os":"Linux","password":true,"vac":true,"version":"7961495","steam_id":85568392924742827,"keywords":["cp","nocrits","nodmgspread","uncletopia"],"game_id":440,"stv_port":27076,"stv_name":"Uncletopia | Frankfurt | 7 | Stopwatch | STV","players":null},{"server_id":24,"name":"Uncletopia | Frankfurt | 8 | Community","name_short":"frk-8","host":"frk-1.de.uncletopia.com","port":27085,"enabled":true,"region":"eu","cc":"de","latitude":50.110924,"longitude":8.682127,"reserved":0,"last_update":"0001-01-01T00:00:00Z","name_a2s":"Uncletopia | Frankfurt | 8 | Community","protocol":17,"map":"workshop/koth_kemptown_rc1.ugc767410655","folder":"tf","game":"Team Fortress","app_id":440,"player_count":0,"max_players":24,"Bots":0,"server_type":"Dedicated","server_os":"Linux","password":true,"vac":true,"version":"7961495","steam_id":85568392924742828,"keywords":["cp","nocrits","nodmgspread","uncletopia"],"game_id":440,"stv_port":27086,"stv_name":"Uncletopia | Frankfurt | 8 | Community | STV","players":null},{"server_id":202,"name":"Uncletopia | Hong Kong | 1 | All Maps","name_short":"hgk-1","host":"hgk-1.hk.uncletopia.com","port":27015,"enabled":true,"region":"asia","cc":"hk","latitude":22.302711,"longitude":114.177216,"reserved":0,"last_update":"0001-01-01T00:00:00Z","name_a2s":"Uncletopia | Hong Kong | 1 | All Maps","protocol":17,"map":"pl_frontier_final","folder":"tf","game":"Team Fortress","app_id":440,"player_count":0,"max_players":24,"Bots":0,"server_type":"Dedicated","server_os":"Linux","password":true,"vac":true,"version":"7961495","steam_id":85568392924494504,"keywords":["nocrits","nodmgspread","payload","uncletopia"],"game_id":440,"stv_port":27016,"stv_name":"Uncletopia | Hong Kong | 1 | All Maps | STV","players":null},{"server_id":1,"name":"Uncletopia | Los Angeles | 1 | All Maps","name_short":"lax-1","host":"lax-1.us.uncletopia.com","port":27015,"enabled":true,"region":"us-west","cc":"us","latitude":33.94279,"longitude":-118.41004,"reserved":0,"last_update":"0001-01-01T00:00:00Z","name_a2s":"Uncletopia | Los Angeles | 1 | All Maps","protocol":17,"map":"cp_process_final","folder":"tf","game":"Team Fortress","app_id":440,"player_count":0,"max_players":24,"Bots":0,"server_type":"Dedicated","server_os":"Linux","password":true,"vac":true,"version":"7961495","steam_id":85568392924469991,"keywords":["cp","nocrits","nodmgspread","uncletopia"],"game_id":440,"stv_port":27016,"stv_name":"Uncletopia | Los Angeles | 1 | All Maps | STV","players":null},{"server_id":112,"name":"Uncletopia | Los Angeles | 2 | All Maps","name_short":"lax-2","host":"lax-1.us.uncletopia.com","port":27025,"enabled":true,"region":"us-west","cc":"us","latitude":33.94279,"longitude":-118.41004,"reserved":0,"last_update":"0001-01-01T00:00:00Z","name_a2s":"Uncletopia | Los Angeles | 2 | All Maps","protocol":17,"map":"pl_snowycoast","folder":"tf","game":"Team Fortress","app_id":440,"player_count":0,"max_players":24,"Bots":0,"server_type":"Dedicated","server_os":"Linux","password":true,"vac":true,"version":"7961495","steam_id":85568392924469992,"keywords":["nocrits","nodmgspread","payload","uncletopia"],"game_id":440,"stv_port":27026,"stv_name":"Uncletopia | Los Angeles | 2 | All Maps | STV","players":null},{"server_id":324,"name":"Uncletopia | Los Angeles | 3 | All Maps","name_short":"lax-3","host":"lax-1.us.uncletopia.com","port":27035,"enabled":true,"region":"us-west","cc":"us","latitude":33.94279,"longitude":-118.41004,"reserved":0,"last_update":"0001-01-01T00:00:00Z","name_a2s":"Uncletopia | Los Angeles | 3 | All Maps","protocol":17,"map":"koth_cascade","folder":"tf","game":"Team Fortress","app_id":440,"player_count":0,"max_players":24,"Bots":0,"server_type":"Dedicated","server_os":"Linux","password":true,"vac":true,"version":"7961495","steam_id":85568392924510198,"keywords":["cp","nocrits","nodmgspread","uncletopia"],"game_id":440,"stv_port":27036,"stv_name":"Uncletopia | Los Angeles | 3 | All Maps | STV","players":null},{"server_id":25,"name":"Uncletopia | Los Angeles | 4 | Stopwatch","name_short":"lax-4","host":"lax-1.us.uncletopia.com","port":27045,"enabled":true,"region":"us-west","cc":"us","latitude":33.94279,"longitude":-118.41004,"reserved":0,"last_update":"0001-01-01T00:00:00Z","name_a2s":"Uncletopia | Los Angeles | 4 | Stopwatch","protocol":17,"map":"pl_barnblitz","folder":"tf","game":"Team Fortress","app_id":440,"player_count":0,"max_players":24,"Bots":0,"server_type":"Dedicated","server_os":"Linux","password":true,"vac":true,"version":"7961495","steam_id":85568392924510199,"keywords":["nocrits","nodmgspread","payload","uncletopia"],"game_id":440,"stv_port":27046,"stv_name":"Uncletopia | Los Angeles | 4 | Stopwatch | STV","players":null},{"server_id":11,"name":"Uncletopia | London | 1 | All Maps","name_short":"lon-1","host":"lon-1.uk.uncletopia.com","port":27015,"enabled":true,"region":"eu","cc":"gb","latitude":51.509865,"longitude":-0.118092,"reserved":0,"last_update":"0001-01-01T00:00:00Z","name_a2s":"Uncletopia | London | 1 | All Maps","protocol":17,"map":"pl_upward","folder":"tf","game":"Team Fortress","app_id":440,"player_count":19,"max_players":24,"Bots":0,"server_type":"Dedicated","server_os":"Linux","password":true,"vac":true,"version":"7961495","steam_id":85568392924367362,"keywords":["nocrits","nodmgspread","payload","uncletopia"],"game_id":440,"stv_port":27016,"stv_name":"Uncletopia | London | 1 | All Maps | STV","players":[{"user_id":777,"name":"KnugenIV","steam_id":76561198127091993,"connected_time":2061000000000,"state":"spawning","ping":55},{"user_id":784,"name":"rummy","steam_id":76561197997573379,"connected_time":979000000000,"state":"spawning","ping":56},{"user_id":786,"name":"❤","steam_id":76561198304902462,"connected_time":742000000000,"state":"spawning","ping":34},{"user_id":788,"name":"Fancy Raccoon","steam_id":76561198176331663,"connected_time":20000000000,"state":"spawning","ping":43},{"user_id":782,"name":"vortegan","steam_id":76561198266614530,"connected_time":1196000000000,"state":"spawning","ping":37},{"user_id":778,"name":"shooer!","steam_id":76561198110531281,"connected_time":2042000000000,"state":"spawning","ping":52},{"user_id":774,"name":"Dromeka","steam_id":76561198963557200,"connected_time":2237000000000,"state":"spawning","ping":47},{"user_id":771,"name":"Aaron","steam_id":76561197990046953,"connected_time":2270000000000,"state":"spawning","ping":38},{"user_id":773,"name":"SKY_","steam_id":76561198080980508,"connected_time":2264000000000,"state":"spawning","ping":48},{"user_id":704,"name":"Purps","steam_id":76561198053886680,"connected_time":8236000000000,"state":"spawning","ping":24},{"user_id":783,"name":"xva","steam_id":76561198969286813,"connected_time":1196000000000,"state":"spawning","ping":77},{"user_id":733,"name":"BreadBubbles","steam_id":76561198174332826,"connected_time":4942000000000,"state":"spawning","ping":73},{"user_id":785,"name":"Slifer, The Hunter","steam_id":76561198062255803,"connected_time":775000000000,"state":"spawning","ping":67},{"user_id":755,"name":"scarfweather","steam_id":76561198121331836,"connected_time":3969000000000,"state":"spawning","ping":48},{"user_id":756,"name":"Oisklet","steam_id":76561198105734948,"connected_time":3963000000000,"state":"spawning","ping":75},{"user_id":779,"name":"A Succulent Chinese Meal","steam_id":76561198069472440,"connected_time":1998000000000,"state":"spawning","ping":78},{"user_id":781,"name":"SeaKane","steam_id":76561198165453318,"connected_time":1333000000000,"state":"spawning","ping":49},{"user_id":787,"name":"GoblinGaming w/ Jazz","steam_id":76561198360395476,"connected_time":57000000000,"state":"spawning","ping":32},{"user_id":770,"name":"teddy","steam_id":76561198007436837,"connected_time":2279000000000,"state":"spawning","ping":45}]},{"server_id":114,"name":"Uncletopia | London | 2 | All Maps","name_short":"lon-2","host":"lon-1.uk.uncletopia.com","port":27025,"enabled":true,"region":"eu","cc":"gb","latitude":51.509865,"longitude":-0.118092,"reserved":0,"last_update":"0001-01-01T00:00:00Z","name_a2s":"Uncletopia | London | 2 | All Maps","protocol":17,"map":"koth_highpass","folder":"tf","game":"Team Fortress","app_id":440,"player_count":1,"max_players":24,"Bots":0,"server_type":"Dedicated","server_os":"Linux","password":true,"vac":true,"version":"7961495","steam_id":85568392924470941,"keywords":["cp","nocrits","nodmgspread","uncletopia"],"game_id":440,"stv_port":27026,"stv_name":"Uncletopia | London | 2 | All Maps | STV","players":[{"user_id":710,"name":"Lynx","steam_id":76561198859731914,"connected_time":1175000000000,"state":"active","ping":101}]},{"server_id":320,"name":"Uncletopia | London | 3 | All Maps","name_short":"lon-3","host":"lon-1.uk.uncletopia.com","port":27035,"enabled":true,"region":"eu","cc":"gb","latitude":51.509865,"longitude":-0.118092,"reserved":0,"last_update":"0001-01-01T00:00:00Z","name_a2s":"Uncletopia | London | 3 | All Maps","protocol":17,"map":"pl_pier","folder":"tf","game":"Team Fortress","app_id":440,"player_count":1,"max_players":24,"Bots":0,"server_type":"Dedicated","server_os":"Linux","password":true,"vac":true,"version":"7961495","steam_id":85568392924510192,"keywords":["nocrits","nodmgspread","payload","uncletopia"],"game_id":440,"stv_port":27036,"stv_name":"Uncletopia | London | 3 | All Maps | STV","players":[{"user_id":548,"name":"Pancholín","steam_id":76561198262777640,"connected_time":63000000000,"state":"spawning","ping":119}]},{"server_id":321,"name":"Uncletopia | London | 4 | All Maps","name_short":"lon-4","host":"lon-1.uk.uncletopia.com","port":27045,"enabled":true,"region":"eu","cc":"gb","latitude":51.509865,"longitude":-0.118092,"reserved":0,"last_update":"0001-01-01T00:00:00Z","name_a2s":"Uncletopia | London | 4 | All Maps","protocol":17,"map":"pl_barnblitz","folder":"tf","game":"Team Fortress","app_id":440,"player_count":22,"max_players":24,"Bots":0,"server_type":"Dedicated","server_os":"Linux","password":true,"vac":true,"version":"7961495","steam_id":85568392924510193,"keywords":["nocrits","nodmgspread","payload","uncletopia"],"game_id":440,"stv_port":27046,"stv_name":"Uncletopia | London | 4 | All Maps | STV","players":[{"user_id":436,"name":"Lilypadio","steam_id":76561198090146457,"connected_time":2876000000000,"state":"active","ping":36},{"user_id":457,"name":"tacungus","steam_id":76561198041416682,"connected_time":2180000000000,"state":"active","ping":53},{"user_id":476,"name":"shenanigan","steam_id":76561198043452925,"connected_time":644000000000,"state":"active","ping":97},{"user_id":478,"name":"Heisenburger","steam_id":76561199098248458,"connected_time":45000000000,"state":"spawning","ping":84},{"user_id":472,"name":"is it your crocodile?","steam_id":76561198346638308,"connected_time":1204000000000,"state":"active","ping":59},{"user_id":477,"name":"Wobblyboyz","steam_id":76561198289356209,"connected_time":414000000000,"state":"active","ping":74},{"user_id":481,"name":"Kaestal","steam_id":76561198033174157,"connected_time":16000000000,"state":"spawning","ping":171},{"user_id":441,"name":"thomas.jensen96","steam_id":76561198798803845,"connected_time":2736000000000,"state":"active","ping":45},{"user_id":445,"name":"Agro | KritzKast","steam_id":76561197970498549,"connected_time":2618000000000,"state":"active","ping":29},{"user_id":440,"name":"bigmouth strikes again","steam_id":76561198307037169,"connected_time":2788000000000,"state":"active","ping":46},{"user_id":446,"name":"☁ Lou1smeister ☁","steam_id":76561198004032968,"connected_time":2600000000000,"state":"active","ping":75},{"user_id":464,"name":"אבא","steam_id":76561198184360615,"connected_time":1456000000000,"state":"active","ping":106},{"user_id":462,"name":"DrHappiness","steam_id":76561198132854516,"connected_time":1893000000000,"state":"active","ping":56},{"user_id":422,"name":"smiley","steam_id":76561198042245117,"connected_time":3596000000000,"state":"active","ping":54},{"user_id":470,"name":"stun","steam_id":76561198276681691,"connected_time":1274000000000,"state":"active","ping":47},{"user_id":443,"name":"lawn","steam_id":76561198001243486,"connected_time":2664000000000,"state":"active","ping":45},{"user_id":359,"name":"TomNoSocks","steam_id":76561198114071046,"connected_time":7017000000000,"state":"connecting","ping":62},{"user_id":479,"name":"Mat-Shades","steam_id":76561198013998031,"connected_time":37000000000,"state":"active","ping":161},{"user_id":449,"name":"Endi","steam_id":76561198914938199,"connected_time":2453000000000,"state":"active","ping":99},{"user_id":451,"name":"Zakucat","steam_id":76561198025422211,"connected_time":2405000000000,"state":"active","ping":37},{"user_id":473,"name":"meistjr","steam_id":76561198077240093,"connected_time":1167000000000,"state":"active","ping":57},{"user_id":471,"name":"maybe","steam_id":76561198963378933,"connected_time":1273000000000,"state":"active","ping":39}]},{"server_id":21,"name":"Uncletopia | London | 5 | All Maps","name_short":"lon-5","host":"lon-1.uk.uncletopia.com","port":27055,"enabled":true,"region":"eu","cc":"gb","latitude":51.509865,"longitude":-0.118092,"reserved":0,"last_update":"0001-01-01T00:00:00Z","name_a2s":"Uncletopia | London | 5 | All Maps","protocol":17,"map":"cp_process_final","folder":"tf","game":"Team Fortress","app_id":440,"player_count":0,"max_players":24,"Bots":0,"server_type":"Dedicated","server_os":"Linux","password":true,"vac":true,"version":"7961495","steam_id":85568392924742829,"keywords":["cp","nocrits","nodmgspread","uncletopia"],"game_id":440,"stv_port":27056,"stv_name":"Uncletopia | London | 5 | All Maps | STV","players":null},{"server_id":22,"name":"Uncletopia | London | 6 | All Maps","name_short":"lon-6","host":"lon-1.uk.uncletopia.com","port":27065,"enabled":true,"region":"eu","cc":"gb","latitude":51.509865,"longitude":-0.118092,"reserved":0,"last_update":"0001-01-01T00:00:00Z","name_a2s":"Uncletopia | London | 6 | All Maps","protocol":17,"map":"ctf_sawmill","folder":"tf","game":"Team Fortress","app_id":440,"player_count":22,"max_players":24,"Bots":0,"server_type":"Dedicated","server_os":"Linux","password":true,"vac":true,"version":"7961495","steam_id":85568392924742830,"keywords":["ctf","nocrits","nodmgspread","uncletopia"],"game_id":440,"stv_port":27066,"stv_name":"Uncletopia | London | 6 | All Maps | STV","players":[{"user_id":531,"name":"Spaguetti","steam_id":76561198002913092,"connected_time":84000000000,"state":"active","ping":84},{"user_id":507,"name":"Captain Puddleboat","steam_id":76561198053913970,"connected_time":1641000000000,"state":"active","ping":53},{"user_id":519,"name":"Hero + Rico","steam_id":76561198023844754,"connected_time":852000000000,"state":"active","ping":73},{"user_id":514,"name":"cansado","steam_id":76561198003898089,"connected_time":1103000000000,"state":"active","ping":73},{"user_id":518,"name":"☩ Knightz ☩","steam_id":76561198040936414,"connected_time":930000000000,"state":"active","ping":106},{"user_id":532,"name":"TravelerFinis","steam_id":76561199181244690,"connected_time":84000000000,"state":"active","ping":157},{"user_id":515,"name":"Jayem","steam_id":76561198076470685,"connected_time":1077000000000,"state":"active","ping":61},{"user_id":516,"name":"Spongelica Slobblecoque","steam_id":76561198009072273,"connected_time":1070000000000,"state":"active","ping":57},{"user_id":492,"name":"Vivid","steam_id":76561198346546144,"connected_time":3319000000000,"state":"active","ping":43},{"user_id":468,"name":"Mason Troy Adams (Real) (Hunter","steam_id":76561198310010748,"connected_time":4321000000000,"state":"active","ping":58},{"user_id":534,"name":"[HOL] Solringen","steam_id":76561198003584681,"connected_time":31000000000,"state":"active","ping":74},{"user_id":421,"name":"LordTrap.exe","steam_id":76561198318089716,"connected_time":8995000000000,"state":"active","ping":53},{"user_id":480,"name":"It's a me Malario","steam_id":76561198176546013,"connected_time":3846000000000,"state":"active","ping":48},{"user_id":489,"name":"A Cat","steam_id":76561199015740181,"connected_time":3458000000000,"state":"active","ping":60},{"user_id":482,"name":"tapeworms!","steam_id":76561198069649097,"connected_time":3816000000000,"state":"active","ping":56},{"user_id":333,"name":":3","steam_id":76561198169471853,"connected_time":15159000000000,"state":"active","ping":40},{"user_id":517,"name":"Jackal","steam_id":76561198263001231,"connected_time":1065000000000,"state":"active","ping":43},{"user_id":523,"name":"R@DIO","steam_id":76561197995533046,"connected_time":647000000000,"state":"active","ping":87},{"user_id":504,"name":"Gelato","steam_id":76561198282596343,"connected_time":2151000000000,"state":"active","ping":39},{"user_id":501,"name":"Paint","steam_id":76561198166823873,"connected_time":2274000000000,"state":"active","ping":56},{"user_id":533,"name":"Feelsbadman","steam_id":76561198002461001,"connected_time":38000000000,"state":"active","ping":85},{"user_id":530,"name":"Golden","steam_id":76561198797157132,"connected_time":182000000000,"state":"active","ping":96}]},{"server_id":40,"name":"Uncletopia | London | 7 | Stopwatch","name_short":"lon-7","host":"lon-1.uk.uncletopia.com","port":27075,"enabled":true,"region":"eu","cc":"gb","latitude":51.509865,"longitude":-0.118092,"reserved":0,"last_update":"0001-01-01T00:00:00Z","name_a2s":"Uncletopia | London | 7 | Stopwatch","protocol":17,"map":"workshop/koth_product_final.ugc454272353","folder":"tf","game":"Team Fortress","app_id":440,"player_count":0,"max_players":24,"Bots":0,"server_type":"Dedicated","server_os":"Linux","password":true,"vac":true,"version":"7961495","steam_id":85568392924964314,"keywords":["cp","nocrits","nodmgspread","uncletopia"],"game_id":440,"stv_port":27076,"stv_name":"Uncletopia | London | 7 | Stopwatch | STV","players":null},{"server_id":41,"name":"Uncletopia | London | 8 | Community","name_short":"lon-8","host":"lon-1.uk.uncletopia.com","port":27085,"enabled":true,"region":"eu","cc":"gb","latitude":51.509865,"longitude":-0.118092,"reserved":0,"last_update":"0001-01-01T00:00:00Z","name_a2s":"Uncletopia | London | 8 | Community","protocol":17,"map":"workshop/koth_kemptown_rc1.ugc767410655","folder":"tf","game":"Team Fortress","app_id":440,"player_count":0,"max_players":24,"Bots":0,"server_type":"Dedicated","server_os":"Linux","password":true,"vac":true,"version":"7961495","steam_id":85568392924964315,"keywords":["cp","nocrits","nodmgspread","uncletopia"],"game_id":440,"stv_port":27086,"stv_name":"Uncletopia | London | 8 | Community | STV","players":null},{"server_id":300,"name":"Uncletopia | Montréal | 1 | One Thousand Uncles","name_short":"mtl-1","host":"mtl-1.ca.uncletopia.com","port":27015,"enabled":true,"region":"us-east","cc":"ca","latitude":45.50889,"longitude":-73.56167,"reserved":0,"last_update":"0001-01-01T00:00:00Z","name_a2s":"","protocol":0,"map":"","folder":"","game":"","app_id":0,"player_count":1,"max_players":0,"Bots":0,"server_type":"","server_os":"","password":false,"vac":false,"version":"","steam_id":0,"keywords":null,"game_id":0,"stv_port":0,"stv_name":"","players":[{"user_id":178,"name":"DIZ","steam_id":76561199065119525,"connected_time":224000000000,"state":"active","ping":58}]},{"server_id":301,"name":"Uncletopia | Montréal | 2 | One Thousand Uncles","name_short":"mtl-2","host":"mtl-1.ca.uncletopia.com","port":27025,"enabled":true,"region":"us-east","cc":"ca","latitude":45.50889,"longitude":-73.56167,"reserved":0,"last_update":"0001-01-01T00:00:00Z","name_a2s":"","protocol":0,"map":"","folder":"","game":"","app_id":0,"player_count":4,"max_players":0,"Bots":0,"server_type":"","server_os":"","password":false,"vac":false,"version":"","steam_id":0,"keywords":null,"game_id":0,"stv_port":0,"stv_name":"","players":[{"user_id":2,"name":"Willi the Gifter of Chaos","steam_id":76561198066508251,"connected_time":4446000000000,"state":"active","ping":48},{"user_id":35,"name":"pan","steam_id":76561199019732036,"connected_time":1346000000000,"state":"active","ping":52},{"user_id":36,"name":"Rhutebeer","steam_id":76561198018302761,"connected_time":457000000000,"state":"active","ping":99},{"user_id":38,"name":"Dinosaur","steam_id":76561199079626189,"connected_time":35000000000,"state":"active","ping":74}]},{"server_id":302,"name":"Uncletopia | Montréal | 3 | One Thousand Uncles","name_short":"mtl-3","host":"mtl-1.ca.uncletopia.com","port":27035,"enabled":true,"region":"us-east","cc":"ca","latitude":45.50889,"longitude":-73.56167,"reserved":0,"last_update":"0001-01-01T00:00:00Z","name_a2s":"","protocol":0,"map":"","folder":"","game":"","app_id":0,"player_count":0,"max_players":0,"Bots":0,"server_type":"","server_os":"","password":false,"vac":false,"version":"","steam_id":0,"keywords":null,"game_id":0,"stv_port":0,"stv_name":"","players":null},{"server_id":13,"name":"Uncletopia | New York City | 1 | All Maps","name_short":"nyc-1","host":"nyc-1.us.uncletopia.com","port":27015,"enabled":true,"region":"us-east","cc":"us","latitude":40.73061,"longitude":-73.93524,"reserved":0,"last_update":"0001-01-01T00:00:00Z","name_a2s":"Uncletopia | New York City | 1 | All Maps","protocol":17,"map":"koth_highpass","folder":"tf","game":"Team Fortress","app_id":440,"player_count":24,"max_players":24,"Bots":0,"server_type":"Dedicated","server_os":"Linux","password":true,"vac":true,"version":"7961495","steam_id":85568392924469993,"keywords":["cp","nocrits","nodmgspread","uncletopia"],"game_id":440,"stv_port":27016,"stv_name":"Uncletopia | New York City | 1 | All Maps | STV","players":[{"user_id":161,"name":"backwoods","steam_id":76561198328109873,"connected_time":1734000000000,"state":"active","ping":54},{"user_id":190,"name":"pine","steam_id":76561198156891654,"connected_time":277000000000,"state":"active","ping":46},{"user_id":46,"name":"FrosbeeChill","steam_id":76561198182510862,"connected_time":9823000000000,"state":"active","ping":56},{"user_id":136,"name":"Hi, I'm Jesus","steam_id":76561198015327152,"connected_time":2417000000000,"state":"active","ping":46},{"user_id":191,"name":"nalezinik","steam_id":76561198030026119,"connected_time":259000000000,"state":"active","ping":63},{"user_id":158,"name":"drifter","steam_id":76561197980692654,"connected_time":1809000000000,"state":"active","ping":49},{"user_id":132,"name":"flashwingfan2010","steam_id":76561199056223827,"connected_time":3505000000000,"state":"active","ping":48},{"user_id":162,"name":"the sludge","steam_id":76561198268816354,"connected_time":1723000000000,"state":"active","ping":67},{"user_id":182,"name":"Chin (SFM Comms Open)","steam_id":76561198953123833,"connected_time":812000000000,"state":"active","ping":112},{"user_id":184,"name":"mywither","steam_id":76561199057425346,"connected_time":702000000000,"state":"active","ping":87},{"user_id":170,"name":"Rated_C","steam_id":76561199226478414,"connected_time":1538000000000,"state":"active","ping":95},{"user_id":164,"name":"Lemon Soda","steam_id":76561198140208761,"connected_time":1644000000000,"state":"active","ping":54},{"user_id":179,"name":"FemboyNero","steam_id":76561198449565973,"connected_time":926000000000,"state":"active","ping":69},{"user_id":125,"name":"I Missed","steam_id":76561199128672031,"connected_time":3790000000000,"state":"active","ping":59},{"user_id":167,"name":"your moms car","steam_id":76561199389283507,"connected_time":1627000000000,"state":"active","ping":82},{"user_id":192,"name":"Dookie","steam_id":76561198351946658,"connected_time":231000000000,"state":"active","ping":56},{"user_id":185,"name":"Brick","steam_id":76561198401918732,"connected_time":658000000000,"state":"active","ping":73},{"user_id":174,"name":"Walnut","steam_id":76561198320544849,"connected_time":1148000000000,"state":"active","ping":92},{"user_id":188,"name":"Hawkborne","steam_id":76561198107249245,"connected_time":517000000000,"state":"active","ping":97},{"user_id":152,"name":"Reiner","steam_id":76561199201762178,"connected_time":2098000000000,"state":"active","ping":81},{"user_id":187,"name":"Guardian","steam_id":76561199008367158,"connected_time":581000000000,"state":"active","ping":80},{"user_id":193,"name":"Dareu","steam_id":76561198081781710,"connected_time":5000000000,"state":"spawning","ping":82},{"user_id":180,"name":"I'm gonna eat you","steam_id":76561198073769916,"connected_time":924000000000,"state":"active","ping":122},{"user_id":74,"name":"Fly_Johnson","steam_id":76561198882285873,"connected_time":8644000000000,"state":"active","ping":58}]},{"server_id":14,"name":"Uncletopia | New York City | 2 | All Maps","name_short":"nyc-2","host":"nyc-1.us.uncletopia.com","port":27025,"enabled":true,"region":"us-east","cc":"us","latitude":40.73061,"longitude":-73.93524,"reserved":0,"last_update":"0001-01-01T00:00:00Z","name_a2s":"Uncletopia | New York City | 2 | All Maps","protocol":17,"map":"pl_frontier_final","folder":"tf","game":"Team Fortress","app_id":440,"player_count":24,"max_players":24,"Bots":0,"server_type":"Dedicated","server_os":"Linux","password":true,"vac":true,"version":"7961495","steam_id":85568392924469994,"keywords":["nocrits","nodmgspread","payload","uncletopia"],"game_id":440,"stv_port":27026,"stv_name":"Uncletopia | New York City | 2 | All Maps | STV","players":[{"user_id":280,"name":"Kartyac","steam_id":76561197991069005,"connected_time":569000000000,"state":"active","ping":65},{"user_id":285,"name":"MLWeegee","steam_id":76561198096399823,"connected_time":113000000000,"state":"active","ping":42},{"user_id":228,"name":"Carson","steam_id":76561198076771071,"connected_time":4240000000000,"state":"active","ping":68},{"user_id":262,"name":"astron","steam_id":76561198058546328,"connected_time":1131000000000,"state":"active","ping":74},{"user_id":259,"name":"imng","steam_id":76561198014988031,"connected_time":1588000000000,"state":"active","ping":73},{"user_id":263,"name":"ryan","steam_id":76561198113269869,"connected_time":1115000000000,"state":"active","ping":176},{"user_id":264,"name":"bones!?!?","steam_id":76561198084646266,"connected_time":1112000000000,"state":"active","ping":87},{"user_id":265,"name":"swan","steam_id":76561198012569200,"connected_time":1087000000000,"state":"active","ping":57},{"user_id":286,"name":"Arthur SSJ2","steam_id":76561198043678479,"connected_time":98000000000,"state":"active","ping":63},{"user_id":267,"name":"abolish the federal reserve","steam_id":76561198047796437,"connected_time":939000000000,"state":"active","ping":131},{"user_id":268,"name":"pinkissocool {f2p}","steam_id":76561198989599828,"connected_time":838000000000,"state":"active","ping":51},{"user_id":269,"name":"Golden","steam_id":76561199128320581,"connected_time":811000000000,"state":"active","ping":110},{"user_id":270,"name":"Λlxium","steam_id":76561198131272900,"connected_time":805000000000,"state":"active","ping":83},{"user_id":227,"name":"kiwiichie ₍ᐢᐢ₎","steam_id":76561198315449521,"connected_time":4970000000000,"state":"active","ping":88},{"user_id":271,"name":"R{FITH}™ Little Buddy","steam_id":76561198094891050,"connected_time":775000000000,"state":"active","ping":101},{"user_id":282,"name":"leumas","steam_id":76561198240408540,"connected_time":478000000000,"state":"active","ping":47},{"user_id":273,"name":"EmeraldCola","steam_id":76561198066663687,"connected_time":689000000000,"state":"active","ping":57},{"user_id":287,"name":"Ginger Jesus","steam_id":76561198052386458,"connected_time":64000000000,"state":"active","ping":45},{"user_id":275,"name":"Just PYE","steam_id":76561199439622967,"connected_time":627000000000,"state":"active","ping":103},{"user_id":276,"name":"o.oli","steam_id":76561198045607732,"connected_time":615000000000,"state":"active","ping":35},{"user_id":277,"name":"samingames1234","steam_id":76561198394112052,"connected_time":615000000000,"state":"active","ping":50},{"user_id":278,"name":"xsupergoku14","steam_id":76561198107615712,"connected_time":592000000000,"state":"active","ping":61},{"user_id":279,"name":"AllMightyLoaf","steam_id":76561198093057217,"connected_time":576000000000,"state":"active","ping":75},{"user_id":283,"name":"Gram Tokers Count Doinkula","steam_id":76561198112811565,"connected_time":382000000000,"state":"active","ping":60}]},{"server_id":15,"name":"Uncletopia | New York City | 3 | Stopwatch","name_short":"nyc-3","host":"nyc-1.us.uncletopia.com","port":27035,"enabled":true,"region":"us-east","cc":"us","latitude":40.73061,"longitude":-73.93524,"reserved":0,"last_update":"0001-01-01T00:00:00Z","name_a2s":"Uncletopia | New York City | 3 | Stopwatch","protocol":17,"map":"workshop/pl_barnblitz_pro7.ugc582280235","folder":"tf","game":"Team Fortress","app_id":440,"player_count":0,"max_players":24,"Bots":0,"server_type":"Dedicated","server_os":"Linux","password":true,"vac":true,"version":"7961495","steam_id":85568392924742820,"keywords":["nocrits","nodmgspread","payload","uncletopia"],"game_id":440,"stv_port":27036,"stv_name":"Uncletopia | New York City | 3 | Stopwatch | STV","players":null},{"server_id":16,"name":"Uncletopia | New York City | 4 | Community","name_short":"nyc-4","host":"nyc-1.us.uncletopia.com","port":27045,"enabled":true,"region":"us-east","cc":"us","latitude":40.73061,"longitude":-73.93524,"reserved":0,"last_update":"0001-01-01T00:00:00Z","name_a2s":"Uncletopia | New York City | 4 | Community","protocol":17,"map":"workshop/koth_ramjam_rc1.ugc459778887","folder":"tf","game":"Team Fortress","app_id":440,"player_count":0,"max_players":24,"Bots":0,"server_type":"Dedicated","server_os":"Linux","password":true,"vac":true,"version":"7961495","steam_id":85568392924742821,"keywords":["cp","nocrits","nodmgspread","uncletopia"],"game_id":440,"stv_port":27046,"stv_name":"Uncletopia | New York City | 4 | Community | STV","players":null},{"server_id":142,"name":"Uncletopia | São Paulo | 1 | All Maps","name_short":"sao-1","host":"sao-1.br.uncletopia.com","port":27015,"enabled":true,"region":"sa","cc":"br","latitude":-23.533773,"longitude":-46.62529,"reserved":0,"last_update":"0001-01-01T00:00:00Z","name_a2s":"Uncletopia | São Paulo | 1 | All Maps","protocol":17,"map":"koth_highpass","folder":"tf","game":"Team Fortress","app_id":440,"player_count":0,"max_players":24,"Bots":0,"server_type":"Dedicated","server_os":"Linux","password":true,"vac":true,"version":"7961495","steam_id":85568392924469996,"keywords":["cp","nocrits","nodmgspread","uncletopia"],"game_id":440,"stv_port":27016,"stv_name":"Uncletopia | São Paulo | 1 | All Maps | STV","players":null},{"server_id":143,"name":"Uncletopia | São Paulo | 2 | Community","name_short":"sao-2","host":"sao-2.br.uncletopia.com","port":27015,"enabled":true,"region":"sa","cc":"br","latitude":-23.533773,"longitude":-46.62529,"reserved":0,"last_update":"0001-01-01T00:00:00Z","name_a2s":"Uncletopia | São Paulo | 2 | Community","protocol":17,"map":"workshop/cp_sulfur_rc2.ugc619869471","folder":"tf","game":"Team Fortress","app_id":440,"player_count":0,"max_players":24,"Bots":0,"server_type":"Dedicated","server_os":"Linux","password":true,"vac":true,"version":"7961495","steam_id":85568392924485349,"keywords":["cp","nocrits","nodmgspread","uncletopia"],"game_id":440,"stv_port":27016,"stv_name":"Uncletopia | São Paulo | 2 | Community | STV","players":null},{"server_id":7,"name":"Uncletopia | Seattle | 1 | All Maps","name_short":"sea-1","host":"sea-1.us.uncletopia.com","port":27015,"enabled":true,"region":"us-west","cc":"us","latitude":47.608013,"longitude":-122.33517,"reserved":0,"last_update":"0001-01-01T00:00:00Z","name_a2s":"Uncletopia | Seattle | 1 | All Maps","protocol":17,"map":"cp_snakewater_final1","folder":"tf","game":"Team Fortress","app_id":440,"player_count":24,"max_players":24,"Bots":0,"server_type":"Dedicated","server_os":"Linux","password":true,"vac":true,"version":"7961495","steam_id":85568392924469997,"keywords":["cp","nocrits","nodmgspread","uncletopia"],"game_id":440,"stv_port":27016,"stv_name":"Uncletopia | Seattle | 1 | All Maps | STV","players":[{"user_id":565,"name":"MacchuPeachu","steam_id":76561199093242587,"connected_time":3730000000000,"state":"active","ping":59},{"user_id":546,"name":"Dongus","steam_id":76561197979056451,"connected_time":4412000000000,"state":"active","ping":55},{"user_id":607,"name":"Meso","steam_id":76561199088153190,"connected_time":773000000000,"state":"active","ping":67},{"user_id":573,"name":"sadlaxx","steam_id":76561198061354919,"connected_time":3154000000000,"state":"active","ping":73},{"user_id":613,"name":"tophawkyy","steam_id":76561199075934685,"connected_time":54000000000,"state":"active","ping":80},{"user_id":608,"name":"Vincent Van Bro","steam_id":76561197966919802,"connected_time":773000000000,"state":"active","ping":45},{"user_id":575,"name":"Peppy","steam_id":76561198866629645,"connected_time":2762000000000,"state":"active","ping":59},{"user_id":602,"name":"OWHY","steam_id":76561198450073779,"connected_time":1163000000000,"state":"active","ping":45},{"user_id":578,"name":"Punished Jeff #NeverSimpAgain","steam_id":76561198304252584,"connected_time":2307000000000,"state":"active","ping":71},{"user_id":609,"name":"Rev","steam_id":76561199060355036,"connected_time":747000000000,"state":"active","ping":36},{"user_id":600,"name":"Human Resources Manager","steam_id":76561198066386411,"connected_time":1168000000000,"state":"active","ping":74},{"user_id":606,"name":"hamletespacial","steam_id":76561199084414649,"connected_time":945000000000,"state":"active","ping":101},{"user_id":581,"name":"DaddyGalaxy","steam_id":76561198139697796,"connected_time":2256000000000,"state":"active","ping":59},{"user_id":610,"name":"Mr. Carfox","steam_id":76561198041664428,"connected_time":738000000000,"state":"active","ping":62},{"user_id":548,"name":"Mer","steam_id":76561198192171041,"connected_time":4408000000000,"state":"active","ping":151},{"user_id":596,"name":"miscellaneous","steam_id":76561199436642954,"connected_time":1749000000000,"state":"active","ping":39},{"user_id":552,"name":"Set","steam_id":76561198063949642,"connected_time":4378000000000,"state":"active","ping":39},{"user_id":598,"name":"RedlineRush","steam_id":76561198122437356,"connected_time":1338000000000,"state":"active","ping":49},{"user_id":593,"name":"vfa","steam_id":76561198055729118,"connected_time":1874000000000,"state":"active","ping":61},{"user_id":585,"name":"GoblinActual","steam_id":76561198330743199,"connected_time":2153000000000,"state":"active","ping":74},{"user_id":597,"name":"Tapler","steam_id":76561198338119327,"connected_time":1702000000000,"state":"active","ping":42},{"user_id":559,"name":"Whimsy!","steam_id":76561197989578836,"connected_time":4130000000000,"state":"active","ping":64},{"user_id":601,"name":"cielael","steam_id":76561198043971956,"connected_time":1166000000000,"state":"active","ping":75},{"user_id":612,"name":"Knock on the sky and listen","steam_id":76561198077597130,"connected_time":537000000000,"state":"active","ping":65}]},{"server_id":119,"name":"Uncletopia | Seattle | 2 | All Maps","name_short":"sea-2","host":"sea-1.us.uncletopia.com","port":27025,"enabled":true,"region":"us-west","cc":"us","latitude":47.608013,"longitude":-122.33517,"reserved":0,"last_update":"0001-01-01T00:00:00Z","name_a2s":"Uncletopia | Seattle | 2 | All Maps","protocol":17,"map":"koth_cascade","folder":"tf","game":"Team Fortress","app_id":440,"player_count":0,"max_players":24,"Bots":0,"server_type":"Dedicated","server_os":"Linux","password":true,"vac":true,"version":"7961495","steam_id":85568392924469998,"keywords":["cp","nocrits","nodmgspread","uncletopia"],"game_id":440,"stv_port":27026,"stv_name":"Uncletopia | Seattle | 2 | All Maps | STV","players":null},{"server_id":406,"name":"Uncletopia | Seattle | 3 | Stopwatch","name_short":"sea-3","host":"sea-1.us.uncletopia.com","port":27035,"enabled":true,"region":"us-west","cc":"us","latitude":47.608013,"longitude":-122.33517,"reserved":0,"last_update":"0001-01-01T00:00:00Z","name_a2s":"Uncletopia | Seattle | 3 | Stopwatch","protocol":17,"map":"pl_pier","folder":"tf","game":"Team Fortress","app_id":440,"player_count":0,"max_players":24,"Bots":0,"server_type":"Dedicated","server_os":"Linux","password":true,"vac":true,"version":"7961495","steam_id":85568392924515217,"keywords":["nocrits","nodmgspread","payload","uncletopia"],"game_id":440,"stv_port":27036,"stv_name":"Uncletopia | Seattle | 3 | Stopwatch | STV","players":null},{"server_id":17,"name":"Uncletopia | San Francisco | 1 | All Maps","name_short":"sfo-1","host":"sfo-1.us.uncletopia.com","port":27015,"enabled":true,"region":"us-west","cc":"us","latitude":37.77397,"longitude":-122.4313,"reserved":0,"last_update":"0001-01-01T00:00:00Z","name_a2s":"Uncletopia | San Francisco | 1 | All Maps","protocol":17,"map":"koth_cascade","folder":"tf","game":"Team Fortress","app_id":440,"player_count":3,"max_players":24,"Bots":0,"server_type":"Dedicated","server_os":"Linux","password":true,"vac":true,"version":"7961495","steam_id":85568392924469999,"keywords":["cp","nocrits","nodmgspread","uncletopia"],"game_id":440,"stv_port":27016,"stv_name":"Uncletopia | San Francisco | 1 | All Maps | STV","players":[{"user_id":11,"name":"maxbarajas0701","steam_id":76561199263722226,"connected_time":1168000000000,"state":"active","ping":67},{"user_id":12,"name":"Arkán","steam_id":76561198205702933,"connected_time":968000000000,"state":"active","ping":50},{"user_id":14,"name":"BlazedBunny","steam_id":76561198243610560,"connected_time":91000000000,"state":"active","ping":87}]},{"server_id":18,"name":"Uncletopia | San Francisco | 2 | All Maps","name_short":"sfo-2","host":"sfo-1.us.uncletopia.com","port":27025,"enabled":true,"region":"us-west","cc":"us","latitude":37.77397,"longitude":-122.4313,"reserved":0,"last_update":"0001-01-01T00:00:00Z","name_a2s":"Uncletopia | San Francisco | 2 | All Maps","protocol":17,"map":"koth_highpass","folder":"tf","game":"Team Fortress","app_id":440,"player_count":3,"max_players":24,"Bots":0,"server_type":"Dedicated","server_os":"Linux","password":true,"vac":true,"version":"7961495","steam_id":85568392924470000,"keywords":["cp","nocrits","nodmgspread","uncletopia"],"game_id":440,"stv_port":27026,"stv_name":"Uncletopia | San Francisco | 2 | All Maps | STV","players":[{"user_id":23,"name":"Sul Gutmun","steam_id":76561198308817394,"connected_time":121000000000,"state":"active","ping":99},{"user_id":24,"name":"cool beans","steam_id":76561198321591685,"connected_time":107000000000,"state":"active","ping":78},{"user_id":25,"name":"Dr,Dan64","steam_id":76561199013363718,"connected_time":96000000000,"state":"active","ping":101}]},{"server_id":19,"name":"Uncletopia | San Francisco | 3 | Stopwatch","name_short":"sfo-3","host":"sfo-1.us.uncletopia.com","port":27035,"enabled":true,"region":"us-west","cc":"us","latitude":37.77397,"longitude":-122.4313,"reserved":0,"last_update":"0001-01-01T00:00:00Z","name_a2s":"Uncletopia | San Francisco | 3 | Stopwatch","protocol":17,"map":"pl_pier","folder":"tf","game":"Team Fortress","app_id":440,"player_count":0,"max_players":24,"Bots":0,"server_type":"Dedicated","server_os":"Linux","password":true,"vac":true,"version":"7961495","steam_id":85568392924742824,"keywords":["nocrits","nodmgspread","payload","uncletopia"],"game_id":440,"stv_port":27036,"stv_name":"Uncletopia | San Francisco | 3 | Stopwatch | STV","players":null},{"server_id":20,"name":"Uncletopia | San Francisco | 4 | Community","name_short":"sfo-4","host":"sfo-1.us.uncletopia.com","port":27045,"enabled":true,"region":"us-west","cc":"us","latitude":37.77397,"longitude":-122.4313,"reserved":0,"last_update":"0001-01-01T00:00:00Z","name_a2s":"Uncletopia | San Francisco | 4 | Community","protocol":17,"map":"pl_pier","folder":"tf","game":"Team Fortress","app_id":440,"player_count":0,"max_players":24,"Bots":0,"server_type":"Dedicated","server_os":"Linux","password":true,"vac":true,"version":"7961495","steam_id":85568392924742826,"keywords":["nocrits","nodmgspread","payload","uncletopia"],"game_id":440,"stv_port":27046,"stv_name":"Uncletopia | San Francisco | 4 | Community | STV","players":null},{"server_id":141,"name":"Uncletopia | Sydney | 1 | All Maps","name_short":"syd-1","host":"syd-1.au.uncletopia.com","port":27015,"enabled":true,"region":"au","cc":"au","latitude":-33.865143,"longitude":151.2099,"reserved":0,"last_update":"0001-01-01T00:00:00Z","name_a2s":"Uncletopia | Sydney | 1 | All Maps","protocol":17,"map":"koth_viaduct","folder":"tf","game":"Team Fortress","app_id":440,"player_count":0,"max_players":24,"Bots":0,"server_type":"Dedicated","server_os":"Linux","password":true,"vac":true,"version":"7961495","steam_id":85568392924470001,"keywords":["cp","nocrits","nodmgspread","uncletopia"],"game_id":440,"stv_port":27016,"stv_name":"Uncletopia | Sydney | 1 | All Maps | STV","players":null},{"server_id":123,"name":"Uncletopia | Sydney | 2 | All Maps","name_short":"syd-2","host":"syd-1.au.uncletopia.com","port":27025,"enabled":true,"region":"au","cc":"au","latitude":-33.865143,"longitude":151.2099,"reserved":0,"last_update":"0001-01-01T00:00:00Z","name_a2s":"Uncletopia | Sydney | 2 | All Maps","protocol":17,"map":"koth_lakeside_final","folder":"tf","game":"Team Fortress","app_id":440,"player_count":0,"max_players":24,"Bots":0,"server_type":"Dedicated","server_os":"Linux","password":true,"vac":true,"version":"7961495","steam_id":85568392924470002,"keywords":["cp","nocrits","nodmgspread","uncletopia"],"game_id":440,"stv_port":27026,"stv_name":"Uncletopia | Sydney | 2 | All Maps | STV","players":null},{"server_id":395,"name":"Uncletopia | Sydney | 3 | All Maps","name_short":"syd-3","host":"syd-1.au.uncletopia.com","port":27035,"enabled":true,"region":"au","cc":"au","latitude":-33.865143,"longitude":151.2099,"reserved":0,"last_update":"0001-01-01T00:00:00Z","name_a2s":"Uncletopia | Sydney | 3 | All Maps","protocol":17,"map":"pl_frontier_final","folder":"tf","game":"Team Fortress","app_id":440,"player_count":0,"max_players":24,"Bots":0,"server_type":"Dedicated","server_os":"Linux","password":true,"vac":true,"version":"7961495","steam_id":85568392925194467,"keywords":["nocrits","nodmgspread","payload","uncletopia"],"game_id":440,"stv_port":27036,"stv_name":"Uncletopia | Sydney | 3 | All Maps | STV","players":null},{"server_id":396,"name":"Uncletopia | Sydney | 4 | All Maps","name_short":"syd-4","host":"syd-1.au.uncletopia.com","port":27045,"enabled":true,"region":"au","cc":"au","latitude":-33.865143,"longitude":151.2099,"reserved":0,"last_update":"0001-01-01T00:00:00Z","name_a2s":"Uncletopia | Sydney | 4 | All Maps","protocol":17,"map":"cp_process_final","folder":"tf","game":"Team Fortress","app_id":440,"player_count":0,"max_players":24,"Bots":0,"server_type":"Dedicated","server_os":"Linux","password":true,"vac":true,"version":"7961495","steam_id":85568392925397958,"keywords":["cp","nocrits","nodmgspread","uncletopia"],"game_id":440,"stv_port":27046,"stv_name":"Uncletopia | Sydney | 4 | All Maps | STV","players":null},{"server_id":58,"name":"Uncletopia | Sydney | 5 | Stopwatch","name_short":"syd-5","host":"syd-1.au.uncletopia.com","port":27055,"enabled":true,"region":"au","cc":"au","latitude":-33.865143,"longitude":151.2099,"reserved":0,"last_update":"0001-01-01T00:00:00Z","name_a2s":"Uncletopia | Sydney | 5 | Stopwatch","protocol":17,"map":"pl_frontier_final","folder":"tf","game":"Team Fortress","app_id":440,"player_count":0,"max_players":24,"Bots":0,"server_type":"Dedicated","server_os":"Linux","password":true,"vac":true,"version":"7961495","steam_id":85568392925397959,"keywords":["nocrits","nodmgspread","payload","uncletopia"],"game_id":440,"stv_port":27056,"stv_name":"Uncletopia | Sydney | 5 | Stopwatch | STV","players":null},{"server_id":59,"name":"Uncletopia | Sydney | 6 | Community","name_short":"syd-6","host":"syd-1.au.uncletopia.com","port":27065,"enabled":true,"region":"au","cc":"au","latitude":-33.865143,"longitude":151.2099,"reserved":0,"last_update":"0001-01-01T00:00:00Z","name_a2s":"Uncletopia | Sydney | 6 | Community","protocol":17,"map":"cp_sunshine","folder":"tf","game":"Team Fortress","app_id":440,"player_count":0,"max_players":24,"Bots":0,"server_type":"Dedicated","server_os":"Linux","password":true,"vac":true,"version":"7961495","steam_id":85568392925397960,"keywords":["cp","nocrits","nodmgspread","uncletopia"],"game_id":440,"stv_port":27066,"stv_name":"Uncletopia | Sydney | 6 | Community | STV","players":null},{"server_id":49,"name":"Uncletopia | Warsaw | 1 | One Thousand Uncles","name_short":"waw-1","host":"waw-1.pl.uncletopia.com","port":27015,"enabled":true,"region":"eu","cc":"pl","latitude":52.2297,"longitude":21.017532,"reserved":0,"last_update":"0001-01-01T00:00:00Z","name_a2s":"Uncletopia | Warsaw | 1 | One Thousand Uncles","protocol":17,"map":"pl_goldrush","folder":"tf","game":"Team Fortress","app_id":440,"player_count":19,"max_players":32,"Bots":16,"server_type":"Dedicated","server_os":"Linux","password":true,"vac":true,"version":"7961495","steam_id":85568392925397850,"keywords":["alltalk","bots","danepve","increased_maxplayers","nocrits","norespawntime","payload","uncletopia"],"game_id":440,"stv_port":0,"stv_name":"","players":[{"user_id":627,"name":"erdemozgurytt","steam_id":76561199500260951,"connected_time":2934000000000,"state":"active","ping":91},{"user_id":621,"name":"tyroksi :D","steam_id":76561198103875245,"connected_time":3881000000000,"state":"active","ping":105},{"user_id":633,"name":"tralalaOuiOui","steam_id":76561197963471507,"connected_time":1567000000000,"state":"active","ping":63}]},{"server_id":50,"name":"Uncletopia | Warsaw | 2 | One Thousand Uncles","name_short":"waw-2","host":"waw-1.pl.uncletopia.com","port":27025,"enabled":true,"region":"eu","cc":"pl","latitude":52.2297,"longitude":21.017532,"reserved":0,"last_update":"0001-01-01T00:00:00Z","name_a2s":"Uncletopia | Warsaw | 2 | One Thousand Uncles","protocol":17,"map":"cp_egypt_final","folder":"tf","game":"Team Fortress","app_id":440,"player_count":0,"max_players":32,"Bots":0,"server_type":"Dedicated","server_os":"Linux","password":true,"vac":true,"version":"7961495","steam_id":85568392925397851,"keywords":["alltalk","cp","danepve","increased_maxplayers","nocrits","norespawntime","uncletopia"],"game_id":440,"stv_port":0,"stv_name":"","players":null},{"server_id":51,"name":"Uncletopia | Warsaw | 3 | All Maps","name_short":"waw-3","host":"waw-1.pl.uncletopia.com","port":27035,"enabled":true,"region":"eu","cc":"pl","latitude":52.2297,"longitude":21.017532,"reserved":0,"last_update":"0001-01-01T00:00:00Z","name_a2s":"Uncletopia | Warsaw | 3 | All Maps","protocol":17,"map":"cp_dustbowl","folder":"tf","game":"Team Fortress","app_id":440,"player_count":0,"max_players":24,"Bots":0,"server_type":"Dedicated","server_os":"Linux","password":true,"vac":true,"version":"7961495","steam_id":85568392925397852,"keywords":["cp","nocrits","nodmgspread","uncletopia"],"game_id":440,"stv_port":27036,"stv_name":"Uncletopia | Warsaw | 3 | All Maps | STV","players":null},{"server_id":52,"name":"Uncletopia | Warsaw | 4 | All Maps","name_short":"waw-4","host":"waw-1.pl.uncletopia.com","port":27045,"enabled":true,"region":"eu","cc":"pl","latitude":52.2297,"longitude":21.017532,"reserved":0,"last_update":"0001-01-01T00:00:00Z","name_a2s":"Uncletopia | Warsaw | 4 | All Maps","protocol":17,"map":"cp_coldfront","folder":"tf","game":"Team Fortress","app_id":440,"player_count":0,"max_players":24,"Bots":0,"server_type":"Dedicated","server_os":"Linux","password":true,"vac":true,"version":"7961495","steam_id":85568392925397853,"keywords":["cp","nocrits","nodmgspread","uncletopia"],"game_id":440,"stv_port":27046,"stv_name":"Uncletopia | Warsaw | 4 | All Maps | STV","players":null},{"server_id":53,"name":"Uncletopia | Warsaw | 5 | Stopwatch","name_short":"waw-5","host":"waw-1.pl.uncletopia.com","port":27055,"enabled":true,"region":"eu","cc":"pl","latitude":52.2297,"longitude":21.017532,"reserved":0,"last_update":"0001-01-01T00:00:00Z","name_a2s":"Uncletopia | Warsaw | 5 | Stopwatch","protocol":17,"map":"workshop/pl_badwater_pro_v12.ugc2142942074","folder":"tf","game":"Team Fortress","app_id":440,"player_count":0,"max_players":24,"Bots":0,"server_type":"Dedicated","server_os":"Linux","password":true,"vac":true,"version":"7961495","steam_id":85568392925397854,"keywords":["nocrits","nodmgspread","payload","uncletopia"],"game_id":440,"stv_port":27056,"stv_name":"Uncletopia | Warsaw | 5 | Stopwatch | STV","players":null},{"server_id":54,"name":"Uncletopia | Warsaw | 6 | Community","name_short":"waw-6","host":"waw-1.pl.uncletopia.com","port":27065,"enabled":true,"region":"eu","cc":"pl","latitude":52.2297,"longitude":21.017532,"reserved":0,"last_update":"0001-01-01T00:00:00Z","name_a2s":"Uncletopia | Warsaw | 6 | Community","protocol":17,"map":"workshop/rd_asteroid_redux_b1.ugc2154902912","folder":"tf","game":"Team Fortress","app_id":440,"player_count":0,"max_players":24,"Bots":0,"server_type":"Dedicated","server_os":"Linux","password":true,"vac":true,"version":"7961495","steam_id":85568392925397856,"keywords":["beta","nocrits","nodmgspread","rd","uncletopia"],"game_id":440,"stv_port":27066,"stv_name":"Uncletopia | Warsaw | 6 | Community | STV","players":null}]}