{"status":true,"message":"","result":[{"server_id":9,"name":"Uncletopia | Atlanta | 1 | All Maps","name_short":"atl-1","host":"atl-1.us.uncletopia.com","port":27015,"enabled":true,"region":"us-east","cc":"us","latitude":33.753746,"longitude":-84.38633,"reserved":0,"last_update":"0001-01-01T00:00:00Z","name_a2s":"Uncletopia | Atlanta | 1 | All Maps","protocol":17,"map":"pl_borneo","folder":"tf","game":"Team Fortress","app_id":440,"player_count":24,"max_players":24,"Bots":0,"server_type":"Dedicated","server_os":"Linux","password":true,"vac":true,"version":"7757534","steam_id":85568392924469982,"keywords":["nocrits","nodmgspread","payload","uncletopia"],"game_id":440,"stv_port":27016,"stv_name":"Uncletopia | Atlanta | 1 | All Maps | STV","players":[{"user_id":397,"name":"truundrscr","steam_id":76561198213525809,"connected_time":543000000000,"state":"active","ping":120},{"user_id":393,"name":"火星 | Marsy","steam_id":76561198014979892,"connected_time":884000000000,"state":"active","ping":66},{"user_id":398,"name":"Monkery Man","steam_id":76561199083374021,"connected_time":504000000000,"state":"active","ping":72},{"user_id":382,"name":"Mage","steam_id":76561198285026879,"connected_time":3428000000000,"state":"active","ping":81},{"user_id":406,"name":"cheeks","steam_id":76561197993371179,"connected_time":19000000000,"state":"spawning","ping":39},{"user_id":274,"name":"lil hog","steam_id":76561199230929836,"connected_time":12806000000000,"state":"active","ping":72},{"user_id":375,"name":"FemboyNate","steam_id":76561198146636410,"connected_time":3553000000000,"state":"active","ping":68},{"user_id":402,"name":"BLU1 | Lav4ie They/Them","steam_id":76561198825997674,"connected_time":468000000000,"state":"active","ping":50},{"user_id":399,"name":"Genetic Komodo","steam_id":76561198174806758,"connected_time":502000000000,"state":"active","ping":67},{"user_id":362,"name":"stink","steam_id":76561198099318923,"connected_time":5130000000000,"state":"active","ping":77},{"user_id":391,"name":"ATL1 | Kramer","steam_id":76561198083595936,"connected_time":1516000000000,"state":"active","ping":75},{"user_id":363,"name":"ATLS1 | SparkStorm","steam_id":76561198095817025,"connected_time":5122000000000,"state":"active","ping":39},{"user_id":404,"name":"ButrBread","steam_id":76561198880227689,"connected_time":306000000000,"state":"active","ping":56},{"user_id":380,"name":"Stuart Little 2","steam_id":76561198097272509,"connected_time":3505000000000,"state":"active","ping":52},{"user_id":357,"name":"sansa musa","steam_id":76561198163723555,"connected_time":5673000000000,"state":"active","ping":76},{"user_id":377,"name":"Do People Actually Like Me","steam_id":76561198838757422,"connected_time":3550000000000,"state":"active","ping":94},{"user_id":396,"name":"The Professor","steam_id":76561198113760863,"connected_time":687000000000,"state":"active","ping":60},{"user_id":388,"name":"Oddball","steam_id":76561198040440984,"connected_time":1998000000000,"state":"active","ping":82},{"user_id":389,"name":"floofy","steam_id":76561198389769098,"connected_time":1989000000000,"state":"active","ping":86},{"user_id":400,"name":"killing dogs","steam_id":76561198041348890,"connected_time":498000000000,"state":"active","ping":69},{"user_id":378,"name":"Anna","steam_id":76561197999657118,"connected_time":3518000000000,"state":"active","ping":93},{"user_id":379,"name":"BLU1 | Psionic Box","steam_id":76561198151019322,"connected_time":3516000000000,"state":"active","ping":85},{"user_id":395,"name":"façade","steam_id":76561199157009256,"connected_time":850000000000,"state":"active","ping":100},{"user_id":390,"name":"squaggles!","steam_id":76561197994995011,"connected_time":1668000000000,"state":"active","ping":65}]},{"server_id":400,"name":"Uncletopia | Atlanta | 3 | Community","name_short":"atl-3","host":"atl-1.us.uncletopia.com","port":27035,"enabled":true,"region":"us-east","cc":"us","latitude":33.753746,"longitude":-84.38633,"reserved":0,"last_update":"0001-01-01T00:00:00Z","name_a2s":"Uncletopia | Atlanta | 3 | Community","protocol":17,"map":"workshop/koth_bagel_rc5.ugc2514036946","folder":"tf","game":"Team Fortress","app_id":440,"player_count":17,"max_players":32,"Bots":0,"server_type":"Dedicated","server_os":"Linux","password":true,"vac":true,"version":"7757534","steam_id":85568392924515187,"keywords":["cp","increased_maxplayers","nocrits","nodmgspread","uncletopia"],"game_id":440,"stv_port":27036,"stv_name":"Uncletopia | Atlanta | 3 | Community | STV","players":[{"user_id":497,"name":"Blizzard501","steam_id":76561197991397004,"connected_time":1275000000000,"state":"active","ping":72},{"user_id":498,"name":"Skysillade","steam_id":76561198175485754,"connected_time":1208000000000,"state":"active","ping":71},{"user_id":499,"name":"Lean Monster","steam_id":76561198143460115,"connected_time":1202000000000,"state":"active","ping":100},{"user_id":500,"name":"merge without looking","steam_id":76561198056702628,"connected_time":1163000000000,"state":"active","ping":49},{"user_id":501,"name":"Wungus","steam_id":76561198328512509,"connected_time":1161000000000,"state":"active","ping":78},{"user_id":503,"name":"PrinceNeckbeard","steam_id":76561199091167784,"connected_time":1014000000000,"state":"active","ping":84},{"user_id":506,"name":"Pringzz","steam_id":76561198336156254,"connected_time":930000000000,"state":"active","ping":49},{"user_id":510,"name":"Trans Bumblebee","steam_id":76561198119393205,"connected_time":118000000000,"state":"active","ping":60},{"user_id":508,"name":"Lynux","steam_id":76561198343651916,"connected_time":525000000000,"state":"active","ping":131},{"user_id":509,"name":"Marshy","steam_id":76561198421784454,"connected_time":313000000000,"state":"active","ping":115},{"user_id":511,"name":"Quantum Fisticist","steam_id":76561198093640165,"connected_time":75000000000,"state":"active","ping":49},{"user_id":512,"name":"TacoBell™ Toilet","steam_id":76561198221619936,"connected_time":59000000000,"state":"active","ping":101},{"user_id":513,"name":"Honda Element","steam_id":76561198086907573,"connected_time":58000000000,"state":"active","ping":68},{"user_id":514,"name":"Snow","steam_id":76561198151556270,"connected_time":51000000000,"state":"active","ping":105},{"user_id":515,"name":"aviandalek","steam_id":76561198407347650,"connected_time":37000000000,"state":"active","ping":83},{"user_id":516,"name":"Romo","steam_id":76561198243101572,"connected_time":9000000000,"state":"spawning","ping":80}]},{"server_id":401,"name":"Uncletopia | Atlanta | 4 | No Payload","name_short":"atl-4","host":"atl-1.us.uncletopia.com","port":27045,"enabled":true,"region":"us-east","cc":"us","latitude":33.753746,"longitude":-84.38633,"reserved":0,"last_update":"0001-01-01T00:00:00Z","name_a2s":"","protocol":0,"map":"","folder":"","game":"","app_id":0,"player_count":0,"max_players":0,"Bots":0,"server_type":"","server_os":"","password":false,"vac":false,"version":"","steam_id":0,"keywords":null,"game_id":0,"stv_port":0,"stv_name":"","players":null},{"server_id":2,"name":"Uncletopia | Chicago | 1 | All Maps","name_short":"chi-1","host":"chi-1.us.uncletopia.com","port":27015,"enabled":true,"region":"us-central","cc":"us","latitude":41.881832,"longitude":-87.62318,"reserved":0,"last_update":"0001-01-01T00:00:00Z","name_a2s":"Uncletopia | Chicago | 1 | All Maps","protocol":17,"map":"pl_badwater","folder":"tf","game":"Team Fortress","app_id":440,"player_count":24,"max_players":24,"Bots":0,"server_type":"Dedicated","server_os":"Linux","password":true,"vac":true,"version":"7757534","steam_id":85568392924469984,"keywords":["nocrits","nodmgspread","payload","uncletopia"],"game_id":440,"stv_port":27016,"stv_name":"Uncletopia | Chicago | 1 | All Maps | STV","players":[{"user_id":238,"name":"Sage","steam_id":76561198143101697,"connected_time":2787000000000,"state":"active","ping":98},{"user_id":231,"name":"Monkey","steam_id":76561198031015186,"connected_time":3291000000000,"state":"active","ping":74},{"user_id":234,"name":"MEATBALL","steam_id":76561198028499312,"connected_time":3255000000000,"state":"active","ping":54},{"user_id":232,"name":"Maxxycat","steam_id":76561198194062681,"connected_time":3282000000000,"state":"active","ping":57},{"user_id":241,"name":"PKBEAST_7","steam_id":76561198177136537,"connected_time":2544000000000,"state":"active","ping":92},{"user_id":264,"name":"MosBlunted","steam_id":76561198259380127,"connected_time":522000000000,"state":"active","ping":60},{"user_id":262,"name":"TeeTree","steam_id":76561198862307874,"connected_time":730000000000,"state":"active","ping":64},{"user_id":263,"name":"Glory","steam_id":76561198013975080,"connected_time":671000000000,"state":"active","ping":76},{"user_id":253,"name":"❤ Ashley ❤","steam_id":76561198056428303,"connected_time":1681000000000,"state":"active","ping":105},{"user_id":258,"name":"Tallyden","steam_id":76561197998572962,"connected_time":1344000000000,"state":"active","ping":63},{"user_id":235,"name":"wack","steam_id":76561198095697330,"connected_time":3254000000000,"state":"active","ping":74},{"user_id":265,"name":"edwinbrood","steam_id":76561198044848769,"connected_time":514000000000,"state":"active","ping":61},{"user_id":247,"name":"yodieland","steam_id":76561198143727547,"connected_time":1734000000000,"state":"active","ping":114},{"user_id":236,"name":"phone","steam_id":76561198029268743,"connected_time":3245000000000,"state":"active","ping":60},{"user_id":267,"name":"Coolman3214","steam_id":76561198443366140,"connected_time":385000000000,"state":"active","ping":84},{"user_id":237,"name":"STOCK","steam_id":76561198100734688,"connected_time":3244000000000,"state":"active","ping":74},{"user_id":183,"name":"Pawn Cushman","steam_id":76561198221635676,"connected_time":5876000000000,"state":"active","ping":72},{"user_id":249,"name":"Sudiak","steam_id":76561198119246214,"connected_time":1719000000000,"state":"active","ping":70},{"user_id":251,"name":"Xx_HeavyMainInMVM_xX","steam_id":76561198811738907,"connected_time":1706000000000,"state":"active","ping":69},{"user_id":242,"name":"Astoriae!","steam_id":76561199090168858,"connected_time":2541000000000,"state":"active","ping":68},{"user_id":252,"name":"Tinnitus Enjoyer","steam_id":76561198046526036,"connected_time":1702000000000,"state":"active","ping":104},{"user_id":159,"name":"the dishtv1605","steam_id":76561198061284371,"connected_time":6732000000000,"state":"active","ping":39},{"user_id":270,"name":"warrior","steam_id":76561198361999761,"connected_time":123000000000,"state":"active","ping":106},{"user_id":224,"name":"alber","steam_id":76561199021737235,"connected_time":3809000000000,"state":"active","ping":75}]},{"server_id":106,"name":"Uncletopia | Chicago | 2 | All Maps","name_short":"chi-2","host":"chi-1.us.uncletopia.com","port":27025,"enabled":true,"region":"us-central","cc":"us","latitude":41.881832,"longitude":-87.62318,"reserved":0,"last_update":"0001-01-01T00:00:00Z","name_a2s":"Uncletopia | Chicago | 2 | All Maps","protocol":17,"map":"pl_upward","folder":"tf","game":"Team Fortress","app_id":440,"player_count":24,"max_players":24,"Bots":0,"server_type":"Dedicated","server_os":"Linux","password":true,"vac":true,"version":"7757534","steam_id":85568392924469985,"keywords":["nocrits","nodmgspread","payload","uncletopia"],"game_id":440,"stv_port":27026,"stv_name":"Uncletopia | Chicago | 2 | All Maps | STV","players":[{"user_id":176,"name":"Dundramino","steam_id":76561198196976154,"connected_time":1068000000000,"state":"active","ping":71},{"user_id":137,"name":"Kritzburgh","steam_id":76561198149466938,"connected_time":4095000000000,"state":"active","ping":62},{"user_id":183,"name":"michaelgaupp281","steam_id":76561199467412609,"connected_time":568000000000,"state":"active","ping":53},{"user_id":184,"name":"mothman","steam_id":76561198162481704,"connected_time":505000000000,"state":"active","ping":83},{"user_id":181,"name":"BeefChuck MuscleFuck","steam_id":76561198023361567,"connected_time":674000000000,"state":"active","ping":60},{"user_id":155,"name":"tabasco","steam_id":76561198355094896,"connected_time":2192000000000,"state":"active","ping":74},{"user_id":185,"name":"ryqset","steam_id":76561198349299874,"connected_time":485000000000,"state":"active","ping":85},{"user_id":194,"name":"miner","steam_id":76561198073035221,"connected_time":367000000000,"state":"active","ping":59},{"user_id":186,"name":"genset90","steam_id":76561199025671520,"connected_time":475000000000,"state":"active","ping":85},{"user_id":149,"name":"Puke Skyfucker","steam_id":76561198012846213,"connected_time":2774000000000,"state":"active","ping":70},{"user_id":187,"name":"Strangelove","steam_id":76561198353773611,"connected_time":455000000000,"state":"active","ping":85},{"user_id":175,"name":"MeKaso TropStar","steam_id":76561199109895840,"connected_time":1187000000000,"state":"active","ping":75},{"user_id":178,"name":"pɘtɘr","steam_id":76561199170206030,"connected_time":850000000000,"state":"active","ping":75},{"user_id":189,"name":"Jöhn Smith","steam_id":76561198996230924,"connected_time":449000000000,"state":"active","ping":69},{"user_id":190,"name":"peggle fan","steam_id":76561198117181511,"connected_time":446000000000,"state":"active","ping":55},{"user_id":191,"name":"BannedMist","steam_id":76561198905992575,"connected_time":430000000000,"state":"active","ping":61},{"user_id":177,"name":"koompa_stomp","steam_id":76561198073081735,"connected_time":906000000000,"state":"active","ping":99},{"user_id":160,"name":"Congo","steam_id":76561198219267845,"connected_time":2095000000000,"state":"active","ping":81},{"user_id":195,"name":"BigOrca54","steam_id":76561198181360271,"connected_time":264000000000,"state":"active","ping":57},{"user_id":192,"name":"Fleetway","steam_id":76561198392105594,"connected_time":426000000000,"state":"active","ping":73},{"user_id":193,"name":"grassman","steam_id":76561197972835907,"connected_time":422000000000,"state":"active","ping":79},{"user_id":130,"name":"huh6750","steam_id":76561199094058555,"connected_time":5119000000000,"state":"active","ping":56},{"user_id":150,"name":"chloe","steam_id":76561198369849908,"connected_time":2359000000000,"state":"active","ping":87}]},{"server_id":402,"name":"Uncletopia | Chicago | 3 | All Maps","name_short":"chi-3","host":"chi-1.us.uncletopia.com","port":27035,"enabled":true,"region":"us-central","cc":"us","latitude":41.881832,"longitude":-87.62318,"reserved":0,"last_update":"0001-01-01T00:00:00Z","name_a2s":"Uncletopia | Chicago | 3 | All Maps","protocol":17,"map":"cp_mountainlab","folder":"tf","game":"Team Fortress","app_id":440,"player_count":24,"max_players":24,"Bots":0,"server_type":"Dedicated","server_os":"Linux","password":true,"vac":true,"version":"7757534","steam_id":85568392924515191,"keywords":["cp","nocrits","nodmgspread","uncletopia"],"game_id":440,"stv_port":27036,"stv_name":"Uncletopia | Chicago | 3 | All Maps | STV","players":[{"user_id":550,"name":"tooth","steam_id":76561197986437643,"connected_time":561000000000,"state":"active","ping":59},{"user_id":538,"name":"Kakyōin Noriaki","steam_id":76561198123809642,"connected_time":1094000000000,"state":"active","ping":66},{"user_id":547,"name":"the doo doo man","steam_id":76561198057076267,"connected_time":649000000000,"state":"active","ping":75},{"user_id":542,"name":"Dacia Sandero","steam_id":76561198106762185,"connected_time":904000000000,"state":"active","ping":112},{"user_id":556,"name":"Sir Tax Evasion","steam_id":76561199117781098,"connected_time":307000000000,"state":"active","ping":71},{"user_id":544,"name":"TheTruthOfTheCessationOfDukkha","steam_id":76561198214370515,"connected_time":723000000000,"state":"active","ping":69},{"user_id":535,"name":"Biosock Infiknit","steam_id":76561198072693794,"connected_time":1549000000000,"state":"active","ping":51},{"user_id":555,"name":"ʕ•ᴥ•ʔ the bear","steam_id":76561197989591976,"connected_time":354000000000,"state":"active","ping":77},{"user_id":536,"name":"hack fraud","steam_id":76561198015036066,"connected_time":1533000000000,"state":"active","ping":98},{"user_id":553,"name":"Moofins","steam_id":76561198050291949,"connected_time":462000000000,"state":"active","ping":75},{"user_id":534,"name":"Yimberly","steam_id":76561199206923109,"connected_time":1822000000000,"state":"active","ping":85},{"user_id":537,"name":"Delta","steam_id":76561198086026192,"connected_time":1276000000000,"state":"active","ping":142},{"user_id":549,"name":"MrhobbitRequiem","steam_id":76561198976215013,"connected_time":607000000000,"state":"active","ping":74},{"user_id":530,"name":"Yam Jazzy Jim","steam_id":76561198000788950,"connected_time":1861000000000,"state":"active","ping":68},{"user_id":551,"name":"ShitsandGiggles™","steam_id":76561198058708019,"connected_time":560000000000,"state":"active","ping":55},{"user_id":554,"name":"Frost","steam_id":76561198953970191,"connected_time":445000000000,"state":"active","ping":70},{"user_id":510,"name":"an inebriated newt fancier","steam_id":76561197985428155,"connected_time":3411000000000,"state":"active","ping":59},{"user_id":545,"name":"Antknee","steam_id":76561198263793809,"connected_time":720000000000,"state":"active","ping":77},{"user_id":532,"name":"SKULL GOODMAN","steam_id":76561198062560907,"connected_time":1833000000000,"state":"active","ping":60},{"user_id":533,"name":"Bevan(The Manager)","steam_id":76561198073890273,"connected_time":1832000000000,"state":"active","ping":112},{"user_id":511,"name":"AvocadoUnderwearA27","steam_id":76561199217910435,"connected_time":3391000000000,"state":"active","ping":60},{"user_id":518,"name":"CJDGuy","steam_id":76561198213009545,"connected_time":2509000000000,"state":"active","ping":99},{"user_id":505,"name":"Bee","steam_id":76561198074681324,"connected_time":3444000000000,"state":"active","ping":60},{"user_id":515,"name":"gabagool","steam_id":76561198012131766,"connected_time":2665000000000,"state":"active","ping":51}]},{"server_id":403,"name":"Uncletopia | Chicago | 4 | All Maps","name_short":"chi-4","host":"chi-1.us.uncletopia.com","port":27045,"enabled":true,"region":"us-central","cc":"us","latitude":41.881832,"longitude":-87.62318,"reserved":0,"last_update":"0001-01-01T00:00:00Z","name_a2s":"Uncletopia | Chicago | 4 | All Maps","protocol":17,"map":"pl_borneo","folder":"tf","game":"Team Fortress","app_id":440,"player_count":24,"max_players":24,"Bots":0,"server_type":"Dedicated","server_os":"Linux","password":true,"vac":true,"version":"7757534","steam_id":85568392924515193,"keywords":["nocrits","nodmgspread","payload","uncletopia"],"game_id":440,"stv_port":27046,"stv_name":"Uncletopia | Chicago | 4 | All Maps | STV","players":[{"user_id":516,"name":"new years hooters","steam_id":76561198068022595,"connected_time":5123000000000,"state":"active","ping":63},{"user_id":578,"name":"banana man","steam_id":76561199385170644,"connected_time":258000000000,"state":"active","ping":58},{"user_id":559,"name":"Lawnmower","steam_id":76561198186680197,"connected_time":2126000000000,"state":"active","ping":95},{"user_id":581,"name":"Rendoas","steam_id":76561198002105259,"connected_time":236000000000,"state":"active","ping":69},{"user_id":537,"name":"Beany","steam_id":76561198102299438,"connected_time":3169000000000,"state":"active","ping":70},{"user_id":571,"name":"boom","steam_id":76561199059257565,"connected_time":1265000000000,"state":"active","ping":98},{"user_id":572,"name":"Cornelius","steam_id":76561198123447388,"connected_time":1247000000000,"state":"active","ping":45},{"user_id":502,"name":"HumFreY","steam_id":76561198076639682,"connected_time":6047000000000,"state":"active","ping":74},{"user_id":541,"name":"i am weed","steam_id":76561198419896433,"connected_time":3111000000000,"state":"active","ping":87},{"user_id":552,"name":"redzach","steam_id":76561198444094359,"connected_time":2432000000000,"state":"active","ping":55},{"user_id":557,"name":"7thhelden","steam_id":76561198297428761,"connected_time":2298000000000,"state":"active","ping":69},{"user_id":566,"name":"CFGU || RAWRWAFL","steam_id":76561198032118386,"connected_time":1991000000000,"state":"active","ping":100},{"user_id":539,"name":"Eviscerator","steam_id":76561197980073637,"connected_time":3155000000000,"state":"active","ping":73},{"user_id":585,"name":"Golden Mantella","steam_id":76561198147894529,"connected_time":106000000000,"state":"active","ping":68},{"user_id":570,"name":"Kevin Edwards","steam_id":76561197998808319,"connected_time":1778000000000,"state":"active","ping":52},{"user_id":567,"name":"Bozanimal","steam_id":76561198044096897,"connected_time":1987000000000,"state":"active","ping":60},{"user_id":515,"name":"MillerWhite","steam_id":76561198076060357,"connected_time":5739000000000,"state":"active","ping":80},{"user_id":575,"name":"Inillustrious","steam_id":76561198004830133,"connected_time":335000000000,"state":"active","ping":61},{"user_id":589,"name":"charlenesukhram","steam_id":76561199467992324,"connected_time":15000000000,"state":"spawning","ping":106},{"user_id":491,"name":"Ghost","steam_id":76561198110914180,"connected_time":7461000000000,"state":"active","ping":174},{"user_id":512,"name":"agentish","steam_id":76561198055088122,"connected_time":5757000000000,"state":"active","ping":57},{"user_id":513,"name":"chen","steam_id":76561198064872330,"connected_time":5753000000000,"state":"active","ping":75},{"user_id":547,"name":"AdorableMew","steam_id":76561198186706405,"connected_time":2666000000000,"state":"active","ping":70},{"user_id":576,"name":"Professional Zoo Tycoon Player","steam_id":76561198013026044,"connected_time":325000000000,"state":"active","ping":88}]},{"server_id":36,"name":"Uncletopia | Chicago | 5 | All Maps","name_short":"chi-5","host":"chi-2.us.uncletopia.com","port":27015,"enabled":true,"region":"us-central","cc":"us","latitude":41.881832,"longitude":-87.62318,"reserved":0,"last_update":"0001-01-01T00:00:00Z","name_a2s":"Uncletopia | Chicago | 5 | All Maps","protocol":17,"map":"pl_borneo","folder":"tf","game":"Team Fortress","app_id":440,"player_count":24,"max_players":24,"Bots":0,"server_type":"Dedicated","server_os":"Linux","password":true,"vac":true,"version":"7757534","steam_id":85568392924866362,"keywords":["nocrits","nodmgspread","payload","uncletopia"],"game_id":440,"stv_port":27016,"stv_name":"Uncletopia | Chicago | 5 | All Maps | STV","players":[{"user_id":13,"name":"Shaper Loks","steam_id":76561198207958144,"connected_time":7007000000000,"state":"active","ping":91},{"user_id":101,"name":"goombinus","steam_id":76561198136164826,"connected_time":1006000000000,"state":"active","ping":64},{"user_id":102,"name":"Buffalo Soldier","steam_id":76561198089364545,"connected_time":1001000000000,"state":"active","ping":30},{"user_id":111,"name":"merektd","steam_id":76561198123109185,"connected_time":401000000000,"state":"active","ping":56},{"user_id":103,"name":"Slippery","steam_id":76561199469441947,"connected_time":998000000000,"state":"active","ping":49},{"user_id":104,"name":"greg","steam_id":76561199195205705,"connected_time":974000000000,"state":"active","ping":89},{"user_id":108,"name":"toastman","steam_id":76561198207073088,"connected_time":929000000000,"state":"active","ping":70},{"user_id":93,"name":"reni","steam_id":76561199192183787,"connected_time":1575000000000,"state":"active","ping":102},{"user_id":105,"name":"Luis wid a mic","steam_id":76561198349570006,"connected_time":969000000000,"state":"active","ping":59},{"user_id":52,"name":"Chee33e","steam_id":76561198242486440,"connected_time":4496000000000,"state":"active","ping":96},{"user_id":30,"name":"Xeno","steam_id":76561198120574708,"connected_time":5366000000000,"state":"active","ping":68},{"user_id":94,"name":"Xx_PR3TTY_R4VE_G!R1_xX","steam_id":76561199059016425,"connected_time":1528000000000,"state":"active","ping":53},{"user_id":106,"name":"wepry","steam_id":76561198114091417,"connected_time":967000000000,"state":"active","ping":84},{"user_id":114,"name":"Baron The Bard","steam_id":76561198149512315,"connected_time":214000000000,"state":"active","ping":64},{"user_id":115,"name":"Johnny Lawrence #JohnnyMaxxing","steam_id":76561199367141671,"connected_time":201000000000,"state":"active","ping":60},{"user_id":107,"name":"medicine seller","steam_id":76561198044190635,"connected_time":961000000000,"state":"active","ping":53},{"user_id":51,"name":"Lucon","steam_id":76561198067147724,"connected_time":4512000000000,"state":"active","ping":58},{"user_id":89,"name":"Haveltherock27","steam_id":76561199219844391,"connected_time":1728000000000,"state":"active","ping":85},{"user_id":87,"name":"NBA Youngboy","steam_id":76561199118797200,"connected_time":1958000000000,"state":"active","ping":87},{"user_id":109,"name":"Maniac","steam_id":76561197993729460,"connected_time":686000000000,"state":"active","ping":137},{"user_id":76,"name":"PCR","steam_id":76561198048748102,"connected_time":2957000000000,"state":"active","ping":56},{"user_id":97,"name":"Concolor","steam_id":76561198027734150,"connected_time":1309000000000,"state":"active","ping":68},{"user_id":42,"name":"3713biggest:bug:FEAR:IT","steam_id":76561198126386686,"connected_time":5239000000000,"state":"active","ping":58},{"user_id":74,"name":"EmptyB33R","steam_id":76561198993166528,"connected_time":3146000000000,"state":"active","ping":132}]},{"server_id":37,"name":"Uncletopia | Chicago | 6 | All Maps","name_short":"chi-6","host":"chi-2.us.uncletopia.com","port":27025,"enabled":true,"region":"us-central","cc":"us","latitude":41.881832,"longitude":-87.62318,"reserved":0,"last_update":"0001-01-01T00:00:00Z","name_a2s":"Uncletopia | Chicago | 6 | All Maps","protocol":17,"map":"cp_steel","folder":"tf","game":"Team Fortress","app_id":440,"player_count":19,"max_players":24,"Bots":0,"server_type":"Dedicated","server_os":"Linux","password":true,"vac":true,"version":"7757534","steam_id":85568392924866363,"keywords":["cp","nocrits","nodmgspread","uncletopia"],"game_id":440,"stv_port":27026,"stv_name":"Uncletopia | Chicago | 6 | All Maps | STV","players":[{"user_id":187,"name":"Cool Bird Facts","steam_id":76561198105613110,"connected_time":6170000000000,"state":"active","ping":58},{"user_id":179,"name":"[DEEP] Fitts1099","steam_id":76561198044986906,"connected_time":7097000000000,"state":"active","ping":47},{"user_id":270,"name":"Water","steam_id":76561198070297536,"connected_time":22000000000,"state":"spawning","ping":98},{"user_id":269,"name":"vmoney160","steam_id":76561198053516110,"connected_time":54000000000,"state":"active","ping":68},{"user_id":247,"name":"Gavilán","steam_id":76561198285212453,"connected_time":606000000000,"state":"connecting","ping":789},{"user_id":219,"name":"Iron","steam_id":76561198247918478,"connected_time":2853000000000,"state":"active","ping":58},{"user_id":262,"name":"Lemon Demon Enthusiast","steam_id":76561199026721822,"connected_time":219000000000,"state":"active","ping":112},{"user_id":211,"name":"Accidental Fall","steam_id":76561198840019488,"connected_time":3165000000000,"state":"active","ping":89},{"user_id":228,"name":"Chumber","steam_id":76561198098433947,"connected_time":1911000000000,"state":"active","ping":104},{"user_id":142,"name":"fugees and funyuns","steam_id":76561199012771039,"connected_time":9575000000000,"state":"active","ping":86},{"user_id":237,"name":"fish","steam_id":76561198059510391,"connected_time":1638000000000,"state":"active","ping":83},{"user_id":231,"name":"Prippo","steam_id":76561198064721301,"connected_time":1842000000000,"state":"active","ping":119},{"user_id":236,"name":"doo doo","steam_id":76561198049784197,"connected_time":1716000000000,"state":"active","ping":91},{"user_id":243,"name":"Topper","steam_id":76561198033547563,"connected_time":972000000000,"state":"active","ping":61},{"user_id":193,"name":"Bird","steam_id":76561198247484514,"connected_time":6137000000000,"state":"active","ping":74},{"user_id":234,"name":"zeroB","steam_id":76561198072808987,"connected_time":1766000000000,"state":"active","ping":90},{"user_id":109,"name":"moe","steam_id":76561198929586245,"connected_time":11261000000000,"state":"active","ping":79},{"user_id":268,"name":"Vladikr1","steam_id":76561198401495362,"connected_time":68000000000,"state":"active","ping":62},{"user_id":235,"name":"Jakkuzzi","steam_id":76561198097256820,"connected_time":1757000000000,"state":"active","ping":102}]},{"server_id":38,"name":"Uncletopia | Chicago | 7 | Stopwatch Beta","name_short":"chi-7","host":"chi-2.us.uncletopia.com","port":27035,"enabled":true,"region":"us-central","cc":"us","latitude":41.881832,"longitude":-87.62318,"reserved":0,"last_update":"0001-01-01T00:00:00Z","name_a2s":"Uncletopia | Chicago | 7 | Stopwatch Beta","protocol":17,"map":"cp_granary","folder":"tf","game":"Team Fortress","app_id":440,"player_count":24,"max_players":24,"Bots":0,"server_type":"Dedicated","server_os":"Linux","password":true,"vac":true,"version":"7757534","steam_id":85568392924866364,"keywords":["cp","nocrits","nodmgspread","uncletopia"],"game_id":440,"stv_port":27036,"stv_name":"Uncletopia | Chicago | 7 | Stopwatch Beta | STV","players":[{"user_id":54,"name":"evnobev","steam_id":76561198038966462,"connected_time":2128000000000,"state":"active","ping":54},{"user_id":85,"name":"dubba (•̀_•́ )","steam_id":76561199428471192,"connected_time":167000000000,"state":"active","ping":117},{"user_id":75,"name":"MantisTobboggan","steam_id":76561197969447887,"connected_time":927000000000,"state":"active","ping":128},{"user_id":13,"name":"X_Sniper7","steam_id":76561198081097640,"connected_time":4593000000000,"state":"active","ping":74},{"user_id":76,"name":"cellogamer","steam_id":76561198016937098,"connected_time":703000000000,"state":"active","ping":70},{"user_id":88,"name":"Merach","steam_id":76561197994544587,"connected_time":48000000000,"state":"active","ping":74},{"user_id":80,"name":"waste_your_life.exe","steam_id":76561198084658114,"connected_time":325000000000,"state":"active","ping":107},{"user_id":81,"name":"Zamboni","steam_id":76561199084964927,"connected_time":285000000000,"state":"active","ping":80},{"user_id":20,"name":"leonardo doujinshi","steam_id":76561198025810326,"connected_time":3489000000000,"state":"active","ping":57},{"user_id":72,"name":"Canteloupe","steam_id":76561199187764012,"connected_time":1124000000000,"state":"active","ping":67},{"user_id":63,"name":"Post nut clarity","steam_id":76561198060246831,"connected_time":1541000000000,"state":"active","ping":88},{"user_id":28,"name":"Stormz64","steam_id":76561198239036482,"connected_time":3229000000000,"state":"active","ping":60},{"user_id":39,"name":"picnic blanket","steam_id":76561198308186037,"connected_time":2853000000000,"state":"active","ping":64},{"user_id":83,"name":"CyberZayne","steam_id":76561198002351356,"connected_time":206000000000,"state":"active","ping":78},{"user_id":29,"name":"broctherock09","steam_id":76561199402909292,"connected_time":3204000000000,"state":"active","ping":75},{"user_id":30,"name":"hoodiedendendendendendendendend","steam_id":76561198354284591,"connected_time":3152000000000,"state":"active","ping":47},{"user_id":87,"name":"checkswing","steam_id":76561198999816132,"connected_time":59000000000,"state":"active","ping":59},{"user_id":79,"name":"Metals","steam_id":76561198107793165,"connected_time":443000000000,"state":"active","ping":85},{"user_id":41,"name":"neet","steam_id":76561197968115168,"connected_time":2767000000000,"state":"active","ping":50},{"user_id":71,"name":"the Good Guy","steam_id":76561198416759211,"connected_time":1250000000000,"state":"active","ping":107},{"user_id":84,"name":"FDR","steam_id":76561198300349976,"connected_time":181000000000,"state":"active","ping":89},{"user_id":49,"name":"Mega","steam_id":76561198067217593,"connected_time":2418000000000,"state":"active","ping":59},{"user_id":45,"name":"warewarewa","steam_id":76561197965022076,"connected_time":2687000000000,"state":"active","ping":49},{"user_id":86,"name":"Wiccaa","steam_id":76561199209580985,"connected_time":157000000000,"state":"active","ping":73}]},{"server_id":39,"name":"Uncletopia | Chicago | 8 | Community","name_short":"chi-8","host":"chi-2.us.uncletopia.com","port":27045,"enabled":true,"region":"us-central","cc":"us","latitude":41.881832,"longitude":-87.62318,"reserved":0,"last_update":"0001-01-01T00:00:00Z","name_a2s":"Uncletopia | Chicago | 8 | Community","protocol":17,"map":"workshop/cp_alloy_rc3.ugc592805587","folder":"tf","game":"Team Fortress","app_id":440,"player_count":0,"max_players":24,"Bots":0,"server_type":"Dedicated","server_os":"Linux","password":true,"vac":true,"version":"7757534","steam_id":85568392924866365,"keywords":["cp","nocrits","nodmgspread","uncletopia"],"game_id":440,"stv_port":27046,"stv_name":"Uncletopia | Chicago | 8 | Community | STV","players":null},{"server_id":8,"name":"Uncletopia | Dallas | 1 | All Maps","name_short":"dal-1","host":"dal-1.us.uncletopia.com","port":27015,"enabled":true,"region":"us-central","cc":"us","latitude":32.779167,"longitude":-96.80889,"reserved":0,"last_update":"0001-01-01T00:00:00Z","name_a2s":"Uncletopia | Dallas | 1 | All Maps","protocol":17,"map":"pl_upward","folder":"tf","game":"Team Fortress","app_id":440,"player_count":24,"max_players":24,"Bots":0,"server_type":"Dedicated","server_os":"Linux","password":true,"vac":true,"version":"7757534","steam_id":85568392924469986,"keywords":["nocrits","nodmgspread","payload","uncletopia"],"game_id":440,"stv_port":27016,"stv_name":"Uncletopia | Dallas | 1 | All Maps | STV","players":[{"user_id":709,"name":"somestupidnerd","steam_id":76561199127050061,"connected_time":1065000000000,"state":"active","ping":60},{"user_id":689,"name":"Narks","steam_id":76561198418641725,"connected_time":2452000000000,"state":"active","ping":75},{"user_id":707,"name":"SneakyRocks","steam_id":76561198201694213,"connected_time":1275000000000,"state":"active","ping":84},{"user_id":710,"name":"Anyar","steam_id":76561198160174097,"connected_time":1047000000000,"state":"active","ping":35},{"user_id":718,"name":"cheeto dorito","steam_id":76561198107941274,"connected_time":251000000000,"state":"active","ping":75},{"user_id":717,"name":"DeckofDragons","steam_id":76561198057398213,"connected_time":583000000000,"state":"active","ping":70},{"user_id":715,"name":"-W3E- grim10465","steam_id":76561198045698581,"connected_time":830000000000,"state":"active","ping":81},{"user_id":678,"name":"Shitstain","steam_id":76561199388529538,"connected_time":3080000000000,"state":"active","ping":120},{"user_id":705,"name":"chunkysquare","steam_id":76561199076468383,"connected_time":1400000000000,"state":"active","ping":75},{"user_id":716,"name":"purply-ghost","steam_id":76561199204779865,"connected_time":815000000000,"state":"active","ping":45},{"user_id":683,"name":"Local Talent","steam_id":76561199053290637,"connected_time":2830000000000,"state":"active","ping":70},{"user_id":701,"name":"Stomp","steam_id":76561198167765748,"connected_time":1709000000000,"state":"active","ping":72},{"user_id":659,"name":"A Can of Arizona Green Tea","steam_id":76561198062481133,"connected_time":4058000000000,"state":"active","ping":72},{"user_id":697,"name":"That Guy","steam_id":76561197997169817,"connected_time":2042000000000,"state":"active","ping":86},{"user_id":719,"name":"ya boi","steam_id":76561198420218460,"connected_time":180000000000,"state":"active","ping":52},{"user_id":687,"name":"Mellon","steam_id":76561198092509893,"connected_time":2648000000000,"state":"active","ping":56},{"user_id":712,"name":"leumas","steam_id":76561198240408540,"connected_time":1036000000000,"state":"active","ping":87},{"user_id":720,"name":"amnyak","steam_id":76561198165831950,"connected_time":162000000000,"state":"active","ping":80},{"user_id":703,"name":"Prof. Abedul","steam_id":76561198146171581,"connected_time":1483000000000,"state":"active","ping":86},{"user_id":670,"name":"bankruptcy","steam_id":76561198383509659,"connected_time":3574000000000,"state":"active","ping":92},{"user_id":704,"name":"Quibbli","steam_id":76561199214866732,"connected_time":1447000000000,"state":"active","ping":92},{"user_id":713,"name":"Tuna","steam_id":76561198129907971,"connected_time":996000000000,"state":"active","ping":98},{"user_id":688,"name":"TheAntiSocialButterfly","steam_id":76561198045505509,"connected_time":2645000000000,"state":"active","ping":75},{"user_id":714,"name":"deskmedic","steam_id":76561198295640486,"connected_time":963000000000,"state":"active","ping":83}]},{"server_id":108,"name":"Uncletopia | Dallas | 2 | All Maps","name_short":"dal-2","host":"dal-1.us.uncletopia.com","port":27025,"enabled":true,"region":"us-central","cc":"us","latitude":32.779167,"longitude":-96.80889,"reserved":0,"last_update":"0001-01-01T00:00:00Z","name_a2s":"Uncletopia | Dallas | 2 | All Maps","protocol":17,"map":"pl_frontier_final","folder":"tf","game":"Team Fortress","app_id":440,"player_count":23,"max_players":24,"Bots":0,"server_type":"Dedicated","server_os":"Linux","password":true,"vac":true,"version":"7757534","steam_id":85568392924469988,"keywords":["nocrits","nodmgspread","payload","uncletopia"],"game_id":440,"stv_port":27026,"stv_name":"Uncletopia | Dallas | 2 | All Maps | STV","players":[{"user_id":366,"name":"kentuckyfriedsocks","steam_id":76561198311122883,"connected_time":2495000000000,"state":"active","ping":82},{"user_id":349,"name":"The Dead Weight","steam_id":76561198056694098,"connected_time":4159000000000,"state":"active","ping":67},{"user_id":360,"name":"Soda","steam_id":76561198219209367,"connected_time":3139000000000,"state":"active","ping":67},{"user_id":375,"name":"Dragons\u003eEverything","steam_id":76561199140784635,"connected_time":1638000000000,"state":"active","ping":64},{"user_id":367,"name":"TheHunter","steam_id":76561198070828372,"connected_time":2455000000000,"state":"active","ping":46},{"user_id":373,"name":"Bullwinkle J. Moose","steam_id":76561198075977196,"connected_time":1826000000000,"state":"active","ping":61},{"user_id":376,"name":"D(b) Hell","steam_id":76561198067869016,"connected_time":1623000000000,"state":"active","ping":68},{"user_id":365,"name":"conscripted monk","steam_id":76561199029246232,"connected_time":2876000000000,"state":"active","ping":56},{"user_id":383,"name":"FunGi","steam_id":76561198881418662,"connected_time":1054000000000,"state":"active","ping":76},{"user_id":317,"name":"drdoofus123","steam_id":76561198016826181,"connected_time":5987000000000,"state":"active","ping":76},{"user_id":377,"name":"bolainassr0","steam_id":76561199079078845,"connected_time":1595000000000,"state":"active","ping":107},{"user_id":384,"name":"Zinres","steam_id":76561198165846679,"connected_time":1023000000000,"state":"active","ping":89},{"user_id":340,"name":"Ace","steam_id":76561198155489173,"connected_time":5261000000000,"state":"active","ping":47},{"user_id":382,"name":"pete_the_cat_2014","steam_id":76561198199266047,"connected_time":1075000000000,"state":"active","ping":68},{"user_id":344,"name":"Tribute","steam_id":76561198081594043,"connected_time":4487000000000,"state":"active","ping":55},{"user_id":342,"name":"puppy :3","steam_id":76561198011196264,"connected_time":5050000000000,"state":"active","ping":63},{"user_id":385,"name":"frent","steam_id":76561198153438905,"connected_time":1009000000000,"state":"active","ping":86},{"user_id":337,"name":"puke","steam_id":76561197999279693,"connected_time":5288000000000,"state":"active","ping":65},{"user_id":354,"name":"James","steam_id":76561198081313916,"connected_time":3855000000000,"state":"active","ping":74},{"user_id":283,"name":"Onyx","steam_id":76561198275349640,"connected_time":10005000000000,"state":"active","ping":66},{"user_id":324,"name":"Free F 2","steam_id":76561198045309016,"connected_time":5831000000000,"state":"active","ping":51},{"user_id":389,"name":"Mr. Bixby","steam_id":76561198868839264,"connected_time":383000000000,"state":"active","ping":57},{"user_id":363,"name":"SGT Disoriented","steam_id":76561198058177958,"connected_time":3024000000000,"state":"active","ping":63}]},{"server_id":5,"name":"Uncletopia | Frankfurt | 1 | All Maps","name_short":"frk-1","host":"frk-1.de.uncletopia.com","port":27015,"enabled":true,"region":"eu","cc":"de","latitude":50.110924,"longitude":8.682127,"reserved":0,"last_update":"0001-01-01T00:00:00Z","name_a2s":"Uncletopia | Frankfurt | 1 | All Maps","protocol":17,"map":"cp_mountainlab","folder":"tf","game":"Team Fortress","app_id":440,"player_count":0,"max_players":24,"Bots":0,"server_type":"Dedicated","server_os":"Linux","password":true,"vac":true,"version":"7757534","steam_id":85568392924469989,"keywords":["cp","nocrits","nodmgspread","uncletopia"],"game_id":440,"stv_port":27016,"stv_name":"Uncletopia | Frankfurt | 1 | All Maps | STV","players":null},{"server_id":110,"name":"Uncletopia | Frankfurt | 2 | All Maps","name_short":"frk-2","host":"frk-1.de.uncletopia.com","port":27025,"enabled":true,"region":"eu","cc":"de","latitude":50.110924,"longitude":8.682127,"reserved":0,"last_update":"0001-01-01T00:00:00Z","name_a2s":"Uncletopia | Frankfurt | 2 | All Maps","protocol":17,"map":"pl_frontier_final","folder":"tf","game":"Team Fortress","app_id":440,"player_count":24,"max_players":24,"Bots":0,"server_type":"Dedicated","server_os":"Linux","password":true,"vac":true,"version":"7757534","steam_id":85568392924469990,"keywords":["nocrits","nodmgspread","payload","uncletopia"],"game_id":440,"stv_port":27026,"stv_name":"Uncletopia | Frankfurt | 2 | All Maps | STV","players":[{"user_id":476,"name":"etc","steam_id":76561197998394797,"connected_time":1600000000000,"state":"active","ping":55},{"user_id":472,"name":"C1PHER","steam_id":76561198846777657,"connected_time":2052000000000,"state":"active","ping":174},{"user_id":465,"name":"m4 rah rah rasputin","steam_id":76561198025389851,"connected_time":2441000000000,"state":"active","ping":149},{"user_id":416,"name":"rock bottom revisited","steam_id":76561198051852765,"connected_time":5939000000000,"state":"active","ping":66},{"user_id":396,"name":"Samus","steam_id":76561198045943019,"connected_time":6908000000000,"state":"active","ping":46},{"user_id":466,"name":"proph","steam_id":76561197998803950,"connected_time":2382000000000,"state":"active","ping":50},{"user_id":479,"name":"^2GT*Cha^1sodey","steam_id":76561198076668126,"connected_time":932000000000,"state":"active","ping":88},{"user_id":403,"name":"Bat in a thousand","steam_id":76561198320506848,"connected_time":6544000000000,"state":"active","ping":48},{"user_id":462,"name":"LionKing","steam_id":76561198023399545,"connected_time":2818000000000,"state":"active","ping":48},{"user_id":482,"name":"Xtreme™","steam_id":76561198050144913,"connected_time":330000000000,"state":"active","ping":66},{"user_id":391,"name":"shit is gruesome!","steam_id":76561198080034976,"connected_time":7413000000000,"state":"active","ping":81},{"user_id":478,"name":"Whomstr","steam_id":76561198871432675,"connected_time":975000000000,"state":"active","ping":61},{"user_id":451,"name":"Priceybay","steam_id":76561198055389492,"connected_time":3458000000000,"state":"active","ping":59},{"user_id":468,"name":"Slow Mode","steam_id":76561199414716848,"connected_time":2196000000000,"state":"active","ping":74},{"user_id":449,"name":"Scrample","steam_id":76561198040422830,"connected_time":3631000000000,"state":"active","ping":46},{"user_id":475,"name":"Christmas Ham","steam_id":76561198119601623,"connected_time":1803000000000,"state":"active","ping":70},{"user_id":480,"name":"CactusFarms","steam_id":76561199009131802,"connected_time":910000000000,"state":"active","ping":63},{"user_id":355,"name":"Femboy Gaming","steam_id":76561198174108515,"connected_time":10588000000000,"state":"active","ping":50},{"user_id":483,"name":"t.tv/FamilyGuyFunnyMoments277","steam_id":76561198416047580,"connected_time":113000000000,"state":"active","ping":168},{"user_id":484,"name":"SapphireSundew [Lotus]","steam_id":76561198040904890,"connected_time":87000000000,"state":"active","ping":152},{"user_id":394,"name":"Graham Crackers","steam_id":76561198089314125,"connected_time":7382000000000,"state":"active","ping":150},{"user_id":395,"name":"TurboTabs","steam_id":76561198009785131,"connected_time":7343000000000,"state":"active","ping":68},{"user_id":434,"name":"dd","steam_id":76561198257836694,"connected_time":4874000000000,"state":"active","ping":55},{"user_id":385,"name":"Zero","steam_id":76561199383267408,"connected_time":8310000000000,"state":"active","ping":164}]},{"server_id":308,"name":"Uncletopia | Frankfurt | 3 | All Maps","name_short":"frk-3","host":"frk-1.de.uncletopia.com","port":27035,"enabled":true,"region":"eu","cc":"de","latitude":50.110924,"longitude":8.682127,"reserved":0,"last_update":"0001-01-01T00:00:00Z","name_a2s":"Uncletopia | Frankfurt | 3 | All Maps","protocol":17,"map":"cp_mountainlab","folder":"tf","game":"Team Fortress","app_id":440,"player_count":0,"max_players":24,"Bots":0,"server_type":"Dedicated","server_os":"Linux","password":true,"vac":true,"version":"7757534","steam_id":85568392924504274,"keywords":["cp","nocrits","nodmgspread","uncletopia"],"game_id":440,"stv_port":27036,"stv_name":"Uncletopia | Frankfurt | 3 | All Maps | STV","players":null},{"server_id":309,"name":"Uncletopia | Frankfurt | 4 | All Maps","name_short":"frk-4","host":"frk-1.de.uncletopia.com","port":27045,"enabled":true,"region":"eu","cc":"de","latitude":50.110924,"longitude":8.682127,"reserved":0,"last_update":"0001-01-01T00:00:00Z","name_a2s":"Uncletopia | Frankfurt | 4 | All Maps","protocol":17,"map":"koth_highpass","folder":"tf","game":"Team Fortress","app_id":440,"player_count":0,"max_players":24,"Bots":0,"server_type":"Dedicated","server_os":"Linux","password":true,"vac":true,"version":"7757534","steam_id":85568392924504275,"keywords":["cp","nocrits","nodmgspread","uncletopia"],"game_id":440,"stv_port":27046,"stv_name":"Uncletopia | Frankfurt | 4 | All Maps | STV","players":null},{"server_id":310,"name":"Uncletopia | Frankfurt | 5 | All Maps","name_short":"frk-5","host":"frk-1.de.uncletopia.com","port":27055,"enabled":true,"region":"eu","cc":"de","latitude":50.110924,"longitude":8.682127,"reserved":0,"last_update":"0001-01-01T00:00:00Z","name_a2s":"Uncletopia | Frankfurt | 5 | All Maps","protocol":17,"map":"cp_process_final","folder":"tf","game":"Team Fortress","app_id":440,"player_count":0,"max_players":24,"Bots":0,"server_type":"Dedicated","server_os":"Linux","password":true,"vac":true,"version":"7757534","steam_id":85568392924504277,"keywords":["cp","nocrits","nodmgspread","uncletopia"],"game_id":440,"stv_port":27056,"stv_name":"Uncletopia | Frankfurt | 5 | All Maps | STV","players":null},{"server_id":311,"name":"Uncletopia | Frankfurt | 6 | All Maps","name_short":"frk-6","host":"frk-1.de.uncletopia.com","port":27065,"enabled":true,"region":"eu","cc":"de","latitude":50.110924,"longitude":8.682127,"reserved":0,"last_update":"0001-01-01T00:00:00Z","name_a2s":"Uncletopia | Frankfurt | 6 | All Maps","protocol":17,"map":"koth_viaduct","folder":"tf","game":"Team Fortress","app_id":440,"player_count":0,"max_players":24,"Bots":0,"server_type":"Dedicated","server_os":"Linux","password":true,"vac":true,"version":"7757534","steam_id":85568392924504278,"keywords":["cp","nocrits","nodmgspread","uncletopia"],"game_id":440,"stv_port":27066,"stv_name":"Uncletopia | Frankfurt | 6 | All Maps | STV","players":null},{"server_id":23,"name":"Uncletopia | Frankfurt | 7 | Stopwatch Beta","name_short":"frk-7","host":"frk-1.de.uncletopia.com","port":27075,"enabled":true,"region":"eu","cc":"de","latitude":50.110924,"longitude":8.682127,"reserved":0,"last_update":"0001-01-01T00:00:00Z","name_a2s":"Uncletopia | Frankfurt | 7 | Stopwatch Beta","protocol":17,"map":"workshop/koth_ramjam_rc1.ugc459778887","folder":"tf","game":"Team Fortress","app_id":440,"player_count":0,"max_players":24,"Bots":0,"server_type":"Dedicated","server_os":"Linux","password":true,"vac":true,"version":"7757534","steam_id":85568392924742827,"keywords":["cp","nocrits","nodmgspread","uncletopia"],"game_id":440,"stv_port":27076,"stv_name":"Uncletopia | Frankfurt | 7 | Stopwatch Beta | STV","players":null},{"server_id":24,"name":"Uncletopia | Frankfurt | 8 | Community","name_short":"frk-8","host":"frk-1.de.uncletopia.com","port":27085,"enabled":true,"region":"eu","cc":"de","latitude":50.110924,"longitude":8.682127,"reserved":0,"last_update":"0001-01-01T00:00:00Z","name_a2s":"Uncletopia | Frankfurt | 8 | Community","protocol":17,"map":"workshop/pl_shoreleave_rc1.ugc1238849347","folder":"tf","game":"Team Fortress","app_id":440,"player_count":0,"max_players":24,"Bots":0,"server_type":"Dedicated","server_os":"Linux","password":true,"vac":true,"version":"7757534","steam_id":85568392924742828,"keywords":["nocrits","nodmgspread","payload","uncletopia"],"game_id":440,"stv_port":27086,"stv_name":"Uncletopia | Frankfurt | 8 | Community | STV","players":null},{"server_id":202,"name":"Uncletopia | Hong Kong | 1 | All Maps","name_short":"hgk-1","host":"hgk-1.hk.uncletopia.com","port":27015,"enabled":true,"region":"asia","cc":"hk","latitude":22.302711,"longitude":114.177216,"reserved":0,"last_update":"0001-01-01T00:00:00Z","name_a2s":"Uncletopia | Hong Kong | 1 | All Maps","protocol":17,"map":"plr_hightower","folder":"tf","game":"Team Fortress","app_id":440,"player_count":4,"max_players":24,"Bots":0,"server_type":"Dedicated","server_os":"Linux","password":true,"vac":true,"version":"7757534","steam_id":85568392924494504,"keywords":["nocrits","nodmgspread","payload","uncletopia"],"game_id":440,"stv_port":27016,"stv_name":"Uncletopia | Hong Kong | 1 | All Maps | STV","players":[{"user_id":8,"name":"MrNoddles\u003e:/","steam_id":76561198075161995,"connected_time":1854000000000,"state":"active","ping":74},{"user_id":17,"name":"colme0104","steam_id":76561199164653025,"connected_time":838000000000,"state":"active","ping":71},{"user_id":7,"name":"Rufz #SaveTf2","steam_id":76561198414199601,"connected_time":2026000000000,"state":"active","ping":77},{"user_id":18,"name":"yw","steam_id":76561199382726488,"connected_time":655000000000,"state":"active","ping":46}]},{"server_id":1,"name":"Uncletopia | Los Angeles | 1 | All Maps","name_short":"lax-1","host":"lax-1.us.uncletopia.com","port":27015,"enabled":true,"region":"us-west","cc":"us","latitude":33.94279,"longitude":-118.41004,"reserved":0,"last_update":"0001-01-01T00:00:00Z","name_a2s":"Uncletopia | Los Angeles | 1 | All Maps","protocol":17,"map":"pl_swiftwater_final1","folder":"tf","game":"Team Fortress","app_id":440,"player_count":19,"max_players":24,"Bots":0,"server_type":"Dedicated","server_os":"Linux","password":true,"vac":true,"version":"7757534","steam_id":85568392924469991,"keywords":["nocrits","nodmgspread","payload","uncletopia"],"game_id":440,"stv_port":27016,"stv_name":"Uncletopia | Los Angeles | 1 | All Maps | STV","players":[{"user_id":338,"name":"Syrup","steam_id":76561198335677073,"connected_time":2987000000000,"state":"active","ping":66},{"user_id":355,"name":"JiminyJustin","steam_id":76561198103623389,"connected_time":2336000000000,"state":"active","ping":67},{"user_id":358,"name":"will smith","steam_id":76561198335942249,"connected_time":1502000000000,"state":"active","ping":47},{"user_id":326,"name":"Goob","steam_id":76561198256918638,"connected_time":3951000000000,"state":"active","ping":45},{"user_id":356,"name":"dandy","steam_id":76561197967362217,"connected_time":1516000000000,"state":"active","ping":45},{"user_id":250,"name":"Soap Man","steam_id":76561198000490235,"connected_time":7728000000000,"state":"active","ping":99},{"user_id":370,"name":"Tako","steam_id":76561199264073138,"connected_time":56000000000,"state":"active","ping":30},{"user_id":357,"name":"bigman1","steam_id":76561198050225055,"connected_time":1515000000000,"state":"active","ping":41},{"user_id":364,"name":"3 kids in a coat (Jacox98)","steam_id":76561198128799894,"connected_time":741000000000,"state":"connecting","ping":217},{"user_id":366,"name":"JellyRobotArt","steam_id":76561199011399657,"connected_time":135000000000,"state":"active","ping":126},{"user_id":295,"name":"Spirosity","steam_id":76561198013485753,"connected_time":5498000000000,"state":"active","ping":111},{"user_id":367,"name":"nosieman","steam_id":76561198068307876,"connected_time":129000000000,"state":"active","ping":67},{"user_id":371,"name":"Knock on the sky and listen","steam_id":76561198077597130,"connected_time":34000000000,"state":"active","ping":64},{"user_id":334,"name":"spherewithahat","steam_id":76561199122192660,"connected_time":3362000000000,"state":"active","ping":117},{"user_id":336,"name":"HAT-WEARING™ Maggot Gamer Cat","steam_id":76561197973992705,"connected_time":3130000000000,"state":"active","ping":62},{"user_id":363,"name":"Len","steam_id":76561199141913673,"connected_time":754000000000,"state":"active","ping":34},{"user_id":354,"name":"Egretious #transrights","steam_id":76561199115467998,"connected_time":2530000000000,"state":"active","ping":67},{"user_id":365,"name":"Stargazer A.","steam_id":76561198035479925,"connected_time":367000000000,"state":"active","ping":38},{"user_id":361,"name":"Risky","steam_id":76561198231029328,"connected_time":1029000000000,"state":"active","ping":45}]},{"server_id":112,"name":"Uncletopia | Los Angeles | 2 | All Maps","name_short":"lax-2","host":"lax-1.us.uncletopia.com","port":27025,"enabled":true,"region":"us-west","cc":"us","latitude":33.94279,"longitude":-118.41004,"reserved":0,"last_update":"0001-01-01T00:00:00Z","name_a2s":"Uncletopia | Los Angeles | 2 | All Maps","protocol":17,"map":"koth_cascade","folder":"tf","game":"Team Fortress","app_id":440,"player_count":0,"max_players":24,"Bots":0,"server_type":"Dedicated","server_os":"Linux","password":true,"vac":true,"version":"7757534","steam_id":85568392924469992,"keywords":["cp","nocrits","nodmgspread","uncletopia"],"game_id":440,"stv_port":27026,"stv_name":"Uncletopia | Los Angeles | 2 | All Maps | STV","players":null},{"server_id":324,"name":"Uncletopia | Los Angeles | 3 | All Maps","name_short":"lax-3","host":"lax-1.us.uncletopia.com","port":27035,"enabled":true,"region":"us-west","cc":"us","latitude":33.94279,"longitude":-118.41004,"reserved":0,"last_update":"0001-01-01T00:00:00Z","name_a2s":"Uncletopia | Los Angeles | 3 | All Maps","protocol":17,"map":"pl_borneo","folder":"tf","game":"Team Fortress","app_id":440,"player_count":0,"max_players":24,"Bots":0,"server_type":"Dedicated","server_os":"Linux","password":true,"vac":true,"version":"7757534","steam_id":85568392924510198,"keywords":["nocrits","nodmgspread","payload","uncletopia"],"game_id":440,"stv_port":27036,"stv_name":"Uncletopia | Los Angeles | 3 | All Maps | STV","players":null},{"server_id":25,"name":"Uncletopia | Los Angeles | 4 | Stopwatch Beta","name_short":"lax-4","host":"lax-1.us.uncletopia.com","port":27045,"enabled":true,"region":"us-west","cc":"us","latitude":33.94279,"longitude":-118.41004,"reserved":0,"last_update":"0001-01-01T00:00:00Z","name_a2s":"Uncletopia | Los Angeles | 4 | Stopwatch Beta","protocol":17,"map":"pl_frontier_final","folder":"tf","game":"Team Fortress","app_id":440,"player_count":0,"max_players":24,"Bots":0,"server_type":"Dedicated","server_os":"Linux","password":true,"vac":true,"version":"7757534","steam_id":85568392924510199,"keywords":["nocrits","nodmgspread","payload","uncletopia"],"game_id":440,"stv_port":27046,"stv_name":"Uncletopia | Los Angeles | 4 | Stopwatch Beta | STV","players":null},{"server_id":11,"name":"Uncletopia | London | 1 | All Maps","name_short":"lon-1","host":"lon-1.uk.uncletopia.com","port":27015,"enabled":true,"region":"eu","cc":"gb","latitude":51.509865,"longitude":-0.118092,"reserved":0,"last_update":"0001-01-01T00:00:00Z","name_a2s":"Uncletopia | London | 1 | All Maps","protocol":17,"map":"koth_lakeside_final","folder":"tf","game":"Team Fortress","app_id":440,"player_count":0,"max_players":24,"Bots":0,"server_type":"Dedicated","server_os":"Linux","password":true,"vac":true,"version":"7757534","steam_id":85568392924367362,"keywords":["cp","nocrits","nodmgspread","uncletopia"],"game_id":440,"stv_port":27016,"stv_name":"Uncletopia | London | 1 | All Maps | STV","players":null},{"server_id":114,"name":"Uncletopia | London | 2 | All Maps","name_short":"lon-2","host":"lon-1.uk.uncletopia.com","port":27025,"enabled":true,"region":"eu","cc":"gb","latitude":51.509865,"longitude":-0.118092,"reserved":0,"last_update":"0001-01-01T00:00:00Z","name_a2s":"Uncletopia | London | 2 | All Maps","protocol":17,"map":"pl_badwater","folder":"tf","game":"Team Fortress","app_id":440,"player_count":24,"max_players":24,"Bots":0,"server_type":"Dedicated","server_os":"Linux","password":true,"vac":true,"version":"7757534","steam_id":85568392924470941,"keywords":["nocrits","nodmgspread","payload","uncletopia"],"game_id":440,"stv_port":27026,"stv_name":"Uncletopia | London | 2 | All Maps | STV","players":[{"user_id":524,"name":"JujuBalu","steam_id":76561198207253071,"connected_time":948000000000,"state":"active","ping":31},{"user_id":531,"name":"[TR] Gökaçınlar","steam_id":76561198374283928,"connected_time":313000000000,"state":"active","ping":87},{"user_id":515,"name":"Sodsboy","steam_id":76561198030482006,"connected_time":1429000000000,"state":"active","ping":42},{"user_id":532,"name":"MrPiggson","steam_id":76561198322521254,"connected_time":265000000000,"state":"active","ping":81},{"user_id":452,"name":"Penis Contortionist","steam_id":76561198073663784,"connected_time":6431000000000,"state":"active","ping":42},{"user_id":453,"name":"beeper","steam_id":76561198130416479,"connected_time":6419000000000,"state":"active","ping":54},{"user_id":516,"name":"Ghandi (voice sound off)","steam_id":76561197965130067,"connected_time":1423000000000,"state":"active","ping":60},{"user_id":529,"name":"Rook Roze from Warzone","steam_id":76561198135271566,"connected_time":544000000000,"state":"active","ping":106},{"user_id":514,"name":"Princess Peach","steam_id":76561198260272240,"connected_time":1602000000000,"state":"active","ping":49},{"user_id":525,"name":"??????????????????????????????","steam_id":76561198292536874,"connected_time":918000000000,"state":"active","ping":162},{"user_id":506,"name":"♔apple","steam_id":76561198116932635,"connected_time":1913000000000,"state":"active","ping":37},{"user_id":507,"name":"♚jar","steam_id":76561198156384007,"connected_time":1910000000000,"state":"active","ping":46},{"user_id":490,"name":"Meki","steam_id":76561198108279631,"connected_time":3309000000000,"state":"active","ping":77},{"user_id":508,"name":"Qxillum","steam_id":76561198037201297,"connected_time":1855000000000,"state":"active","ping":56},{"user_id":491,"name":"Mr.Rattlebones","steam_id":76561198083023472,"connected_time":3212000000000,"state":"active","ping":53},{"user_id":492,"name":"BooV","steam_id":76561198413662792,"connected_time":3178000000000,"state":"active","ping":78},{"user_id":520,"name":"Clubs","steam_id":76561198059235131,"connected_time":1160000000000,"state":"active","ping":151},{"user_id":509,"name":"Tywhip","steam_id":76561199207545191,"connected_time":1854000000000,"state":"active","ping":55},{"user_id":523,"name":"big hoops","steam_id":76561198004703799,"connected_time":998000000000,"state":"active","ping":45},{"user_id":511,"name":"UWBW","steam_id":76561198007524241,"connected_time":1832000000000,"state":"active","ping":150},{"user_id":493,"name":"rez777ka","steam_id":76561198107605938,"connected_time":3171000000000,"state":"active","ping":92},{"user_id":483,"name":"Freezer Fox YT","steam_id":76561198060542607,"connected_time":3976000000000,"state":"active","ping":171},{"user_id":530,"name":"Biggles","steam_id":76561198126576389,"connected_time":472000000000,"state":"active","ping":121},{"user_id":522,"name":"mumbler","steam_id":76561197970641239,"connected_time":1077000000000,"state":"active","ping":60}]},{"server_id":320,"name":"Uncletopia | London | 3 | All Maps","name_short":"lon-3","host":"lon-1.uk.uncletopia.com","port":27035,"enabled":true,"region":"eu","cc":"gb","latitude":51.509865,"longitude":-0.118092,"reserved":0,"last_update":"0001-01-01T00:00:00Z","name_a2s":"Uncletopia | London | 3 | All Maps","protocol":17,"map":"pl_upward","folder":"tf","game":"Team Fortress","app_id":440,"player_count":0,"max_players":24,"Bots":0,"server_type":"Dedicated","server_os":"Linux","password":true,"vac":true,"version":"7757534","steam_id":85568392924510192,"keywords":["nocrits","nodmgspread","payload","uncletopia"],"game_id":440,"stv_port":27036,"stv_name":"Uncletopia | London | 3 | All Maps | STV","players":null},{"server_id":321,"name":"Uncletopia | London | 4 | All Maps","name_short":"lon-4","host":"lon-1.uk.uncletopia.com","port":27045,"enabled":true,"region":"eu","cc":"gb","latitude":51.509865,"longitude":-0.118092,"reserved":0,"last_update":"0001-01-01T00:00:00Z","name_a2s":"Uncletopia | London | 4 | All Maps","protocol":17,"map":"koth_highpass","folder":"tf","game":"Team Fortress","app_id":440,"player_count":0,"max_players":24,"Bots":0,"server_type":"Dedicated","server_os":"Linux","password":true,"vac":true,"version":"7757534","steam_id":85568392924510193,"keywords":["cp","nocrits","nodmgspread","uncletopia"],"game_id":440,"stv_port":27046,"stv_name":"Uncletopia | London | 4 | All Maps | STV","players":null},{"server_id":21,"name":"Uncletopia | London | 5 | All Maps","name_short":"lon-5","host":"lon-1.uk.uncletopia.com","port":27055,"enabled":true,"region":"eu","cc":"gb","latitude":51.509865,"longitude":-0.118092,"reserved":0,"last_update":"0001-01-01T00:00:00Z","name_a2s":"Uncletopia | London | 5 | All Maps","protocol":17,"map":"koth_lakeside_final","folder":"tf","game":"Team Fortress","app_id":440,"player_count":0,"max_players":24,"Bots":0,"server_type":"Dedicated","server_os":"Linux","password":true,"vac":true,"version":"7757534","steam_id":85568392924742829,"keywords":["cp","nocrits","nodmgspread","uncletopia"],"game_id":440,"stv_port":27056,"stv_name":"Uncletopia | London | 5 | All Maps | STV","players":null},{"server_id":22,"name":"Uncletopia | London | 6 | All Maps","name_short":"lon-6","host":"lon-1.uk.uncletopia.com","port":27065,"enabled":true,"region":"eu","cc":"gb","latitude":51.509865,"longitude":-0.118092,"reserved":0,"last_update":"0001-01-01T00:00:00Z","name_a2s":"Uncletopia | London | 6 | All Maps","protocol":17,"map":"cp_dustbowl","folder":"tf","game":"Team Fortress","app_id":440,"player_count":0,"max_players":24,"Bots":0,"server_type":"Dedicated","server_os":"Linux","password":true,"vac":true,"version":"7757534","steam_id":85568392924742830,"keywords":["cp","nocrits","nodmgspread","uncletopia"],"game_id":440,"stv_port":27066,"stv_name":"Uncletopia | London | 6 | All Maps | STV","players":null},{"server_id":40,"name":"Uncletopia | London | 7 | No Payload","name_short":"lon-7","host":"lon-1.uk.uncletopia.com","port":27075,"enabled":true,"region":"eu","cc":"gb","latitude":51.509865,"longitude":-0.118092,"reserved":0,"last_update":"0001-01-01T00:00:00Z","name_a2s":"Uncletopia | London | 7 | No Payload","protocol":17,"map":"koth_suijin","folder":"tf","game":"Team Fortress","app_id":440,"player_count":0,"max_players":24,"Bots":0,"server_type":"Dedicated","server_os":"Linux","password":true,"vac":true,"version":"7757534","steam_id":85568392924964314,"keywords":["cp","nocrits","nodmgspread","uncletopia"],"game_id":440,"stv_port":27076,"stv_name":"Uncletopia | London | 7 | No Payload | STV","players":null},{"server_id":41,"name":"Uncletopia | London | 8 | Community","name_short":"lon-8","host":"lon-1.uk.uncletopia.com","port":27085,"enabled":true,"region":"eu","cc":"gb","latitude":51.509865,"longitude":-0.118092,"reserved":0,"last_update":"0001-01-01T00:00:00Z","name_a2s":"Uncletopia | London | 8 | Community","protocol":17,"map":"workshop/pl_cactuscanyon_redux_rc4b.ugc2579644293","folder":"tf","game":"Team Fortress","app_id":440,"player_count":0,"max_players":24,"Bots":0,"server_type":"Dedicated","server_os":"Linux","password":true,"vac":true,"version":"7757534","steam_id":85568392924964315,"keywords":["nocrits","nodmgspread","payload","uncletopia"],"game_id":440,"stv_port":27086,"stv_name":"Uncletopia | London | 8 | Community | STV","players":null},{"server_id":300,"name":"Uncletopia | Montréal | 1 | All Maps","name_short":"mtl-1","host":"mtl-1.ca.uncletopia.com","port":27015,"enabled":true,"region":"us-east","cc":"ca","latitude":45.50889,"longitude":-73.56167,"reserved":0,"last_update":"0001-01-01T00:00:00Z","name_a2s":"Uncletopia | Montréal | 1 | All Maps","protocol":17,"map":"pl_barnblitz","folder":"tf","game":"Team Fortress","app_id":440,"player_count":24,"max_players":24,"Bots":0,"server_type":"Dedicated","server_os":"Linux","password":true,"vac":true,"version":"7757534","steam_id":85568392924500087,"keywords":["nocrits","nodmgspread","payload","uncletopia"],"game_id":440,"stv_port":27016,"stv_name":"Uncletopia | Montréal | 1 | All Maps | STV","players":[{"user_id":255,"name":"jjsamachama","steam_id":76561198964488850,"connected_time":3761000000000,"state":"active","ping":79},{"user_id":262,"name":"Paolo","steam_id":76561198048134549,"connected_time":3382000000000,"state":"active","ping":57},{"user_id":252,"name":"Invisorum","steam_id":76561198051902115,"connected_time":4203000000000,"state":"active","ping":146},{"user_id":297,"name":"Rix FPV","steam_id":76561198299320893,"connected_time":1551000000000,"state":"active","ping":82},{"user_id":272,"name":"The Drunk Clown","steam_id":76561197986850426,"connected_time":2948000000000,"state":"active","ping":52},{"user_id":243,"name":"tjgameplay2","steam_id":76561199093794558,"connected_time":4446000000000,"state":"active","ping":119},{"user_id":308,"name":"fear","steam_id":76561198063170079,"connected_time":160000000000,"state":"active","ping":61},{"user_id":307,"name":"Spruce Heffertippin","steam_id":76561198002435069,"connected_time":283000000000,"state":"active","ping":108},{"user_id":304,"name":"Wario","steam_id":76561198120669452,"connected_time":366000000000,"state":"active","ping":159},{"user_id":302,"name":"Dazzleberry","steam_id":76561198030369150,"connected_time":719000000000,"state":"active","ping":58},{"user_id":309,"name":"22' x-max cratex","steam_id":76561198251054454,"connected_time":154000000000,"state":"active","ping":85},{"user_id":298,"name":":3","steam_id":76561198120772700,"connected_time":1547000000000,"state":"active","ping":66},{"user_id":296,"name":"coolfalcon168","steam_id":76561198948665710,"connected_time":1652000000000,"state":"active","ping":73},{"user_id":310,"name":"Fobby #Savetf2","steam_id":76561198047681469,"connected_time":142000000000,"state":"active","ping":76},{"user_id":287,"name":"Winter the Witchie","steam_id":76561198151971178,"connected_time":2402000000000,"state":"active","ping":64},{"user_id":315,"name":"djfigs1","steam_id":76561198138725392,"connected_time":54000000000,"state":"active","ping":55},{"user_id":271,"name":"Discourse","steam_id":76561198984286678,"connected_time":3034000000000,"state":"active","ping":76},{"user_id":294,"name":"Kirbaby","steam_id":76561198134947895,"connected_time":1749000000000,"state":"active","ping":67},{"user_id":311,"name":"Omni","steam_id":76561198035774007,"connected_time":133000000000,"state":"active","ping":100},{"user_id":253,"name":"Nyrator","steam_id":76561198018640479,"connected_time":4138000000000,"state":"active","ping":83},{"user_id":312,"name":"Yada #savetf2","steam_id":76561199103981181,"connected_time":127000000000,"state":"active","ping":59},{"user_id":313,"name":"Chaz","steam_id":76561198041807601,"connected_time":73000000000,"state":"active","ping":71},{"user_id":314,"name":"antwon from ghetto smosh","steam_id":76561198367019006,"connected_time":66000000000,"state":"active","ping":60},{"user_id":239,"name":"tony fantano 2","steam_id":76561197997139225,"connected_time":5005000000000,"state":"active","ping":39}]},{"server_id":301,"name":"Uncletopia | Montréal | 2 | All Maps","name_short":"mtl-2","host":"mtl-1.ca.uncletopia.com","port":27025,"enabled":true,"region":"us-east","cc":"ca","latitude":45.50889,"longitude":-73.56167,"reserved":0,"last_update":"0001-01-01T00:00:00Z","name_a2s":"Uncletopia | Montréal | 2 | All Maps","protocol":17,"map":"pl_frontier_final","folder":"tf","game":"Team Fortress","app_id":440,"player_count":0,"max_players":24,"Bots":0,"server_type":"Dedicated","server_os":"Linux","password":true,"vac":true,"version":"7757534","steam_id":85568392924500088,"keywords":["nocrits","nodmgspread","payload","uncletopia"],"game_id":440,"stv_port":27026,"stv_name":"Uncletopia | Montréal | 2 | All Maps | STV","players":null},{"server_id":302,"name":"Uncletopia | Montréal | 3 | All Maps","name_short":"mtl-3","host":"mtl-1.ca.uncletopia.com","port":27035,"enabled":true,"region":"us-east","cc":"ca","latitude":45.50889,"longitude":-73.56167,"reserved":0,"last_update":"0001-01-01T00:00:00Z","name_a2s":"Uncletopia | Montréal | 3 | All Maps","protocol":17,"map":"cp_dustbowl","folder":"tf","game":"Team Fortress","app_id":440,"player_count":0,"max_players":24,"Bots":0,"server_type":"Dedicated","server_os":"Linux","password":true,"vac":true,"version":"7757534","steam_id":85568392924500089,"keywords":["cp","nocrits","nodmgspread","uncletopia"],"game_id":440,"stv_port":27036,"stv_name":"Uncletopia | Montréal | 3 | All Maps | STV","players":null},{"server_id":303,"name":"Uncletopia | Montréal | 4 | No Payload","name_short":"mtl-4","host":"mtl-1.ca.uncletopia.com","port":27045,"enabled":true,"region":"us-east","cc":"ca","latitude":45.50889,"longitude":-73.56167,"reserved":0,"last_update":"0001-01-01T00:00:00Z","name_a2s":"Uncletopia | Montréal | 4 | No Payload","protocol":17,"map":"pl_borneo","folder":"tf","game":"Team Fortress","app_id":440,"player_count":0,"max_players":24,"Bots":0,"server_type":"Dedicated","server_os":"Linux","password":true,"vac":true,"version":"7757534","steam_id":85568392924500090,"keywords":["nocrits","nodmgspread","payload","uncletopia"],"game_id":440,"stv_port":27046,"stv_name":"Uncletopia | Montréal | 4 | No Payload | STV","players":null},{"server_id":13,"name":"Uncletopia | New York City | 1 | All Maps","name_short":"nyc-1","host":"nyc-1.us.uncletopia.com","port":27015,"enabled":true,"region":"us-east","cc":"us","latitude":40.73061,"longitude":-73.93524,"reserved":0,"last_update":"0001-01-01T00:00:00Z","name_a2s":"Uncletopia | New York City | 1 | All Maps","protocol":17,"map":"pl_goldrush","folder":"tf","game":"Team Fortress","app_id":440,"player_count":24,"max_players":24,"Bots":0,"server_type":"Dedicated","server_os":"Linux","password":true,"vac":true,"version":"7757534","steam_id":85568392924469993,"keywords":["nocrits","nodmgspread","payload","uncletopia"],"game_id":440,"stv_port":27016,"stv_name":"Uncletopia | New York City | 1 | All Maps | STV","players":[{"user_id":480,"name":"fast","steam_id":76561198311704368,"connected_time":3037000000000,"state":"active","ping":63},{"user_id":431,"name":"Baron von Whoopsie","steam_id":76561197996691013,"connected_time":7013000000000,"state":"active","ping":54},{"user_id":466,"name":"Heropon","steam_id":76561198105224481,"connected_time":4044000000000,"state":"active","ping":68},{"user_id":490,"name":"Skrungly","steam_id":76561198072550443,"connected_time":2745000000000,"state":"active","ping":46},{"user_id":421,"name":"PinkLemonade","steam_id":76561198799286228,"connected_time":8256000000000,"state":"active","ping":53},{"user_id":513,"name":"🎃Bunny🎃","steam_id":76561198074872531,"connected_time":714000000000,"state":"active","ping":85},{"user_id":505,"name":"Jojoba 🐹","steam_id":76561198262218456,"connected_time":891000000000,"state":"active","ping":52},{"user_id":426,"name":"sam!!! :)","steam_id":76561198217362968,"connected_time":8041000000000,"state":"active","ping":66},{"user_id":506,"name":"Peepster","steam_id":76561198297854733,"connected_time":854000000000,"state":"active","ping":83},{"user_id":507,"name":"brake pipe","steam_id":76561198056330171,"connected_time":798000000000,"state":"active","ping":89},{"user_id":486,"name":"Xete","steam_id":76561198403414092,"connected_time":2972000000000,"state":"active","ping":76},{"user_id":458,"name":"Ejaculation Zach","steam_id":76561198203765200,"connected_time":5310000000000,"state":"active","ping":72},{"user_id":503,"name":"e0e0","steam_id":76561198293839750,"connected_time":1134000000000,"state":"active","ping":46},{"user_id":508,"name":"Pineapple Pancakes","steam_id":76561198860470713,"connected_time":783000000000,"state":"active","ping":88},{"user_id":504,"name":"cooltool21","steam_id":76561197996817585,"connected_time":951000000000,"state":"active","ping":59},{"user_id":514,"name":"ooBah!","steam_id":76561198133684216,"connected_time":633000000000,"state":"active","ping":42},{"user_id":492,"name":"Plutia","steam_id":76561197996787193,"connected_time":2492000000000,"state":"active","ping":68},{"user_id":522,"name":"ash monte","steam_id":76561198382343820,"connected_time":303000000000,"state":"active","ping":33},{"user_id":382,"name":"Elixir","steam_id":76561198166786809,"connected_time":10883000000000,"state":"active","ping":61},{"user_id":478,"name":"Chewbacca","steam_id":76561198041927925,"connected_time":3523000000000,"state":"active","ping":52},{"user_id":512,"name":"kezia","steam_id":76561198059815894,"connected_time":729000000000,"state":"active","ping":59},{"user_id":521,"name":"Hank the Tank","steam_id":76561198424853684,"connected_time":363000000000,"state":"active","ping":68},{"user_id":489,"name":"grind","steam_id":76561198801214349,"connected_time":2845000000000,"state":"active","ping":65}]},{"server_id":14,"name":"Uncletopia | New York City | 2 | All Maps","name_short":"nyc-2","host":"nyc-1.us.uncletopia.com","port":27025,"enabled":true,"region":"us-east","cc":"us","latitude":40.73061,"longitude":-73.93524,"reserved":0,"last_update":"0001-01-01T00:00:00Z","name_a2s":"Uncletopia | New York City | 2 | All Maps","protocol":17,"map":"ctf_turbine","folder":"tf","game":"Team Fortress","app_id":440,"player_count":24,"max_players":24,"Bots":0,"server_type":"Dedicated","server_os":"Linux","password":true,"vac":true,"version":"7757534","steam_id":85568392924469994,"keywords":["ctf","nocrits","nodmgspread","uncletopia"],"game_id":440,"stv_port":27026,"stv_name":"Uncletopia | New York City | 2 | All Maps | STV","players":[{"user_id":70,"name":"WhoIsFrosty","steam_id":76561198880588117,"connected_time":1076000000000,"state":"active","ping":57},{"user_id":79,"name":"mop","steam_id":76561198083853538,"connected_time":305000000000,"state":"active","ping":64},{"user_id":74,"name":"Mango","steam_id":76561199209533440,"connected_time":547000000000,"state":"active","ping":62},{"user_id":84,"name":"Walmart Employee","steam_id":76561198840373909,"connected_time":236000000000,"state":"active","ping":102},{"user_id":41,"name":"bread","steam_id":76561199207479862,"connected_time":2577000000000,"state":"active","ping":103},{"user_id":42,"name":"M.R.S.","steam_id":76561198394485270,"connected_time":2533000000000,"state":"active","ping":86},{"user_id":81,"name":"Pancreas Enjoyer","steam_id":76561199438598904,"connected_time":286000000000,"state":"active","ping":99},{"user_id":77,"name":"Ground Control to Majortom","steam_id":76561198065589126,"connected_time":480000000000,"state":"active","ping":83},{"user_id":86,"name":"Great Chinaman","steam_id":76561198409907417,"connected_time":139000000000,"state":"active","ping":117},{"user_id":46,"name":"LordOfTheNoobs","steam_id":76561197962697523,"connected_time":2362000000000,"state":"active","ping":83},{"user_id":48,"name":"EmeraldCola","steam_id":76561198066663687,"connected_time":2320000000000,"state":"active","ping":57},{"user_id":92,"name":"Colonel_Corn24","steam_id":76561198144993661,"connected_time":37000000000,"state":"spawning","ping":49},{"user_id":50,"name":"creativeki11","steam_id":76561198087696639,"connected_time":2299000000000,"state":"active","ping":85},{"user_id":68,"name":"Devoid","steam_id":76561198254039012,"connected_time":1157000000000,"state":"active","ping":29},{"user_id":91,"name":"JHLO","steam_id":76561198074359967,"connected_time":51000000000,"state":"active","ping":70},{"user_id":53,"name":"Shuu","steam_id":76561199199180558,"connected_time":2267000000000,"state":"active","ping":57},{"user_id":87,"name":"10 Calories","steam_id":76561198044851917,"connected_time":125000000000,"state":"active","ping":69},{"user_id":76,"name":"Takeover","steam_id":76561197996081461,"connected_time":498000000000,"state":"active","ping":45},{"user_id":57,"name":"Nosferatu","steam_id":76561198048205270,"connected_time":2184000000000,"state":"active","ping":62},{"user_id":88,"name":"Fribas","steam_id":76561198138502813,"connected_time":115000000000,"state":"active","ping":76},{"user_id":89,"name":"CousinCarL","steam_id":76561198028421250,"connected_time":105000000000,"state":"active","ping":47},{"user_id":93,"name":"Normalux","steam_id":76561198293891426,"connected_time":14000000000,"state":"active","ping":74},{"user_id":61,"name":"Bali","steam_id":76561198038693845,"connected_time":2146000000000,"state":"active","ping":70},{"user_id":62,"name":"Brobespierre","steam_id":76561198022225667,"connected_time":2141000000000,"state":"active","ping":72}]},{"server_id":15,"name":"Uncletopia | New York City | 3 | Stopwatch Beta","name_short":"nyc-3","host":"nyc-1.us.uncletopia.com","port":27035,"enabled":true,"region":"us-east","cc":"us","latitude":40.73061,"longitude":-73.93524,"reserved":0,"last_update":"0001-01-01T00:00:00Z","name_a2s":"Uncletopia | New York City | 3 | Stopwatch Beta","protocol":17,"map":"workshop/cp_reckoner_rc6.ugc674719999","folder":"tf","game":"Team Fortress","app_id":440,"player_count":0,"max_players":24,"Bots":0,"server_type":"Dedicated","server_os":"Linux","password":true,"vac":true,"version":"7757534","steam_id":85568392924742820,"keywords":["cp","nocrits","nodmgspread","uncletopia"],"game_id":440,"stv_port":27036,"stv_name":"Uncletopia | New York City | 3 | Stopwatch Beta | STV","players":null},{"server_id":16,"name":"Uncletopia | New York City | 4 | Community","name_short":"nyc-4","host":"nyc-1.us.uncletopia.com","port":27045,"enabled":true,"region":"us-east","cc":"us","latitude":40.73061,"longitude":-73.93524,"reserved":0,"last_update":"0001-01-01T00:00:00Z","name_a2s":"Uncletopia | New York City | 4 | Community","protocol":17,"map":"workshop/cp_fulgur_rc2a.ugc2068252300","folder":"tf","game":"Team Fortress","app_id":440,"player_count":0,"max_players":24,"Bots":0,"server_type":"Dedicated","server_os":"Linux","password":true,"vac":true,"version":"7757534","steam_id":85568392924742821,"keywords":["cp","nocrits","nodmgspread","uncletopia"],"game_id":440,"stv_port":27046,"stv_name":"Uncletopia | New York City | 4 | Community | STV","players":null},{"server_id":142,"name":"Uncletopia | São Paulo | 1 | All Maps","name_short":"sao-1","host":"sao-1.br.uncletopia.com","port":27015,"enabled":true,"region":"sa","cc":"br","latitude":-23.533773,"longitude":-46.62529,"reserved":0,"last_update":"0001-01-01T00:00:00Z","name_a2s":"Uncletopia | São Paulo | 1 | All Maps","protocol":17,"map":"cp_altitude","folder":"tf","game":"Team Fortress","app_id":440,"player_count":0,"max_players":24,"Bots":0,"server_type":"Dedicated","server_os":"Linux","password":true,"vac":true,"version":"7757534","steam_id":85568392924469996,"keywords":["cp","nocrits","nodmgspread","uncletopia"],"game_id":440,"stv_port":27016,"stv_name":"Uncletopia | São Paulo | 1 | All Maps | STV","players":null},{"server_id":143,"name":"Uncletopia | São Paulo | 2 | All Maps","name_short":"sao-2","host":"sao-2.br.uncletopia.com","port":27015,"enabled":true,"region":"sa","cc":"br","latitude":-23.533773,"longitude":-46.62529,"reserved":0,"last_update":"0001-01-01T00:00:00Z","name_a2s":"Uncletopia | São Paulo | 2 | All Maps","protocol":17,"map":"pl_swiftwater_final1","folder":"tf","game":"Team Fortress","app_id":440,"player_count":2,"max_players":24,"Bots":0,"server_type":"Dedicated","server_os":"Linux","password":true,"vac":true,"version":"7757534","steam_id":85568392924485349,"keywords":["nocrits","nodmgspread","payload","uncletopia"],"game_id":440,"stv_port":27016,"stv_name":"Uncletopia | São Paulo | 2 | All Maps | STV","players":[{"user_id":89,"name":"Warrenator","steam_id":76561198132094572,"connected_time":187000000000,"state":"active","ping":188},{"user_id":90,"name":"kate ❀","steam_id":76561198805567120,"connected_time":131000000000,"state":"active","ping":69}]},{"server_id":7,"name":"Uncletopia | Seattle | 1 | All Maps","name_short":"sea-1","host":"sea-1.us.uncletopia.com","port":27015,"enabled":true,"region":"us-west","cc":"us","latitude":47.608013,"longitude":-122.33517,"reserved":0,"last_update":"0001-01-01T00:00:00Z","name_a2s":"Uncletopia | Seattle | 1 | All Maps","protocol":17,"map":"cp_freight_final1","folder":"tf","game":"Team Fortress","app_id":440,"player_count":22,"max_players":24,"Bots":0,"server_type":"Dedicated","server_os":"Linux","password":true,"vac":true,"version":"7757534","steam_id":85568392924469997,"keywords":["cp","nocrits","nodmgspread","uncletopia"],"game_id":440,"stv_port":27016,"stv_name":"Uncletopia | Seattle | 1 | All Maps | STV","players":[{"user_id":184,"name":"Chris","steam_id":76561198202160232,"connected_time":1884000000000,"state":"active","ping":99},{"user_id":205,"name":"HaphazardHazel","steam_id":76561198316812693,"connected_time":864000000000,"state":"active","ping":129},{"user_id":174,"name":"N0IZz","steam_id":76561199152277302,"connected_time":2935000000000,"state":"active","ping":126},{"user_id":196,"name":"ender","steam_id":76561198092159728,"connected_time":1450000000000,"state":"active","ping":94},{"user_id":190,"name":"giant_dork","steam_id":76561199105606956,"connected_time":1611000000000,"state":"active","ping":108},{"user_id":206,"name":"dongledog","steam_id":76561198050924003,"connected_time":618000000000,"state":"active","ping":53},{"user_id":191,"name":"Ten10","steam_id":76561198301680133,"connected_time":1553000000000,"state":"active","ping":56},{"user_id":200,"name":"Crayons","steam_id":76561198860276948,"connected_time":1183000000000,"state":"active","ping":134},{"user_id":180,"name":"[Bandit]","steam_id":76561197986919852,"connected_time":2192000000000,"state":"active","ping":47},{"user_id":164,"name":"Superman123389","steam_id":76561198267472539,"connected_time":3205000000000,"state":"active","ping":101},{"user_id":210,"name":"alagon","steam_id":76561198312491066,"connected_time":418000000000,"state":"active","ping":56},{"user_id":198,"name":"Donkitus","steam_id":76561198101336551,"connected_time":1298000000000,"state":"active","ping":30},{"user_id":207,"name":"HoaroBatty","steam_id":76561198120361221,"connected_time":583000000000,"state":"active","ping":90},{"user_id":183,"name":"Aruʒi","steam_id":76561198088574914,"connected_time":2013000000000,"state":"active","ping":99},{"user_id":173,"name":"Sol","steam_id":76561198091233829,"connected_time":2970000000000,"state":"active","ping":116},{"user_id":202,"name":"ejschild745","steam_id":76561199013388867,"connected_time":1101000000000,"state":"active","ping":73},{"user_id":177,"name":"ecumber","steam_id":76561198169958831,"connected_time":2482000000000,"state":"active","ping":72},{"user_id":195,"name":"DJ Absolute Garbage","steam_id":76561198068000747,"connected_time":1499000000000,"state":"active","ping":115},{"user_id":209,"name":"〣dust〣 -she/her-","steam_id":76561198045218909,"connected_time":500000000000,"state":"active","ping":40},{"user_id":203,"name":"Cartwright","steam_id":76561197975491705,"connected_time":996000000000,"state":"active","ping":66},{"user_id":212,"name":"Known","steam_id":76561198069842586,"connected_time":97000000000,"state":"active","ping":75},{"user_id":166,"name":"doozy","steam_id":76561198033106776,"connected_time":3166000000000,"state":"active","ping":84}]},{"server_id":119,"name":"Uncletopia | Seattle | 2 | All Maps","name_short":"sea-2","host":"sea-1.us.uncletopia.com","port":27025,"enabled":true,"region":"us-west","cc":"us","latitude":47.608013,"longitude":-122.33517,"reserved":0,"last_update":"0001-01-01T00:00:00Z","name_a2s":"Uncletopia | Seattle | 2 | All Maps","protocol":17,"map":"pl_snowycoast","folder":"tf","game":"Team Fortress","app_id":440,"player_count":23,"max_players":24,"Bots":0,"server_type":"Dedicated","server_os":"Linux","password":true,"vac":true,"version":"7757534","steam_id":85568392924469998,"keywords":["nocrits","nodmgspread","payload","uncletopia"],"game_id":440,"stv_port":27026,"stv_name":"Uncletopia | Seattle | 2 | All Maps | STV","players":[{"user_id":455,"name":"HomesliceHobbes","steam_id":76561198042770895,"connected_time":1819000000000,"state":"active","ping":40},{"user_id":479,"name":"plaguecrow","steam_id":76561198312524974,"connected_time":87000000000,"state":"active","ping":128},{"user_id":474,"name":"EEBIGAA","steam_id":76561198056535988,"connected_time":719000000000,"state":"active","ping":75},{"user_id":414,"name":"Blind_Lark","steam_id":76561198094495235,"connected_time":3995000000000,"state":"active","ping":62},{"user_id":451,"name":"dddumb510","steam_id":76561198030793492,"connected_time":2028000000000,"state":"active","ping":98},{"user_id":480,"name":"mango cafe","steam_id":76561198142328193,"connected_time":79000000000,"state":"active","ping":47},{"user_id":477,"name":"Cob","steam_id":76561198042518365,"connected_time":336000000000,"state":"active","ping":62},{"user_id":462,"name":"Gift_Card","steam_id":76561197995405617,"connected_time":1402000000000,"state":"active","ping":109},{"user_id":461,"name":"Thanks Ants","steam_id":76561197966221018,"connected_time":1447000000000,"state":"active","ping":55},{"user_id":465,"name":"John Wick's puppy","steam_id":76561198064662875,"connected_time":1329000000000,"state":"active","ping":79},{"user_id":458,"name":"litcherally in vents","steam_id":76561199169558959,"connected_time":1706000000000,"state":"active","ping":44},{"user_id":449,"name":"Lambchop","steam_id":76561198043900363,"connected_time":2139000000000,"state":"active","ping":75},{"user_id":426,"name":"Kal3b","steam_id":76561198236708484,"connected_time":3603000000000,"state":"active","ping":62},{"user_id":475,"name":"Path To Victory","steam_id":76561198026958898,"connected_time":681000000000,"state":"active","ping":105},{"user_id":472,"name":"Alberto2104","steam_id":76561198094968873,"connected_time":862000000000,"state":"active","ping":100},{"user_id":473,"name":"YahYeeterson","steam_id":76561198120480906,"connected_time":842000000000,"state":"active","ping":70},{"user_id":432,"name":"rbstat","steam_id":76561198050169034,"connected_time":2868000000000,"state":"active","ping":100},{"user_id":470,"name":"Lane","steam_id":76561197965828506,"connected_time":1263000000000,"state":"active","ping":80},{"user_id":452,"name":"Yogurt Male","steam_id":76561199001748822,"connected_time":2027000000000,"state":"active","ping":44},{"user_id":355,"name":"Psych03","steam_id":76561198061753667,"connected_time":8047000000000,"state":"active","ping":77},{"user_id":478,"name":"FireQuiz","steam_id":76561198107357249,"connected_time":132000000000,"state":"active","ping":70},{"user_id":447,"name":"Stapler","steam_id":76561198099295077,"connected_time":2225000000000,"state":"active","ping":71},{"user_id":453,"name":"NOM","steam_id":76561199059006203,"connected_time":2000000000000,"state":"active","ping":119}]},{"server_id":406,"name":"Uncletopia | Seattle | 3 | Stopwatch Beta","name_short":"sea-3","host":"sea-1.us.uncletopia.com","port":27035,"enabled":true,"region":"us-west","cc":"us","latitude":47.608013,"longitude":-122.33517,"reserved":0,"last_update":"0001-01-01T00:00:00Z","name_a2s":"Uncletopia | Seattle | 3 | Stopwatch Beta","protocol":17,"map":"workshop/pl_badwater_pro_v12.ugc2142942074","folder":"tf","game":"Team Fortress","app_id":440,"player_count":21,"max_players":24,"Bots":0,"server_type":"Dedicated","server_os":"Linux","password":true,"vac":true,"version":"7757534","steam_id":85568392924515217,"keywords":["nocrits","nodmgspread","payload","uncletopia"],"game_id":440,"stv_port":27036,"stv_name":"Uncletopia | Seattle | 3 | Stopwatch Beta | STV","players":[{"user_id":168,"name":"xlaylowx","steam_id":76561198830237952,"connected_time":2909000000000,"state":"active","ping":279},{"user_id":192,"name":"Goldmann.","steam_id":76561198271947821,"connected_time":1058000000000,"state":"active","ping":90},{"user_id":196,"name":"arrayzk","steam_id":76561198280409646,"connected_time":44000000000,"state":"active","ping":63},{"user_id":195,"name":"Grammaring","steam_id":76561198867366139,"connected_time":155000000000,"state":"active","ping":78},{"user_id":183,"name":"whimmu","steam_id":76561198370839794,"connected_time":1459000000000,"state":"active","ping":91},{"user_id":197,"name":"Allyyycatt","steam_id":76561198384425691,"connected_time":25000000000,"state":"active","ping":105},{"user_id":163,"name":"TripleDouble","steam_id":76561198149646520,"connected_time":3288000000000,"state":"active","ping":134},{"user_id":194,"name":"goldhed","steam_id":76561198051751133,"connected_time":713000000000,"state":"active","ping":47},{"user_id":149,"name":"Grouch","steam_id":76561198080790944,"connected_time":3798000000000,"state":"active","ping":111},{"user_id":170,"name":"Sneaky G.","steam_id":76561198823795781,"connected_time":2691000000000,"state":"active","ping":142},{"user_id":151,"name":"RentalDental","steam_id":76561198401187326,"connected_time":3771000000000,"state":"active","ping":135},{"user_id":152,"name":"heatxwaves","steam_id":76561198272641298,"connected_time":3763000000000,"state":"active","ping":118},{"user_id":153,"name":"Brynx","steam_id":76561198037246674,"connected_time":3750000000000,"state":"active","ping":138},{"user_id":155,"name":"Bliss","steam_id":76561198048620041,"connected_time":3691000000000,"state":"active","ping":120},{"user_id":186,"name":"Monkeygamer11","steam_id":76561198827538004,"connected_time":1224000000000,"state":"active","ping":61},{"user_id":187,"name":"The Wiffle","steam_id":76561199222392579,"connected_time":1220000000000,"state":"active","ping":78},{"user_id":188,"name":"Quon Grene for Vice Prez","steam_id":76561198127545817,"connected_time":1204000000000,"state":"active","ping":73},{"user_id":158,"name":"Jarryl97","steam_id":76561198055451373,"connected_time":3592000000000,"state":"active","ping":115},{"user_id":189,"name":"Camohno","steam_id":76561198283519918,"connected_time":1197000000000,"state":"active","ping":74},{"user_id":193,"name":"Lazy","steam_id":76561198802747832,"connected_time":993000000000,"state":"active","ping":52},{"user_id":126,"name":"shy guy","steam_id":76561198151246059,"connected_time":5414000000000,"state":"active","ping":64}]},{"server_id":17,"name":"Uncletopia | San Francisco | 1 | All Maps","name_short":"sfo-1","host":"sfo-1.us.uncletopia.com","port":27015,"enabled":true,"region":"us-west","cc":"us","latitude":37.77397,"longitude":-122.4313,"reserved":0,"last_update":"0001-01-01T00:00:00Z","name_a2s":"Uncletopia | San Francisco | 1 | All Maps","protocol":17,"map":"koth_highpass","folder":"tf","game":"Team Fortress","app_id":440,"player_count":0,"max_players":24,"Bots":0,"server_type":"Dedicated","server_os":"Linux","password":true,"vac":true,"version":"7757534","steam_id":85568392924469999,"keywords":["cp","nocrits","nodmgspread","uncletopia"],"game_id":440,"stv_port":27016,"stv_name":"Uncletopia | San Francisco | 1 | All Maps | STV","players":null},{"server_id":18,"name":"Uncletopia | San Francisco | 2 | All Maps","name_short":"sfo-2","host":"sfo-1.us.uncletopia.com","port":27025,"enabled":true,"region":"us-west","cc":"us","latitude":37.77397,"longitude":-122.4313,"reserved":0,"last_update":"0001-01-01T00:00:00Z","name_a2s":"Uncletopia | San Francisco | 2 | All Maps","protocol":17,"map":"pl_upward","folder":"tf","game":"Team Fortress","app_id":440,"player_count":23,"max_players":24,"Bots":0,"server_type":"Dedicated","server_os":"Linux","password":true,"vac":true,"version":"7757534","steam_id":85568392924470000,"keywords":["nocrits","nodmgspread","payload","uncletopia"],"game_id":440,"stv_port":27026,"stv_name":"Uncletopia | San Francisco | 2 | All Maps | STV","players":[{"user_id":45,"name":"Doctor Sex","steam_id":76561198378542321,"connected_time":257000000000,"state":"active","ping":104},{"user_id":7,"name":"Team Fortress 2","steam_id":76561199196604410,"connected_time":4546000000000,"state":"active","ping":74},{"user_id":23,"name":"jheckathorn7455","steam_id":76561198410786628,"connected_time":1063000000000,"state":"active","ping":120},{"user_id":32,"name":"ForAPessimistImPrettyOptimistic","steam_id":76561198170128009,"connected_time":574000000000,"state":"active","ping":54},{"user_id":25,"name":"Booty Warrior","steam_id":76561199197289548,"connected_time":947000000000,"state":"active","ping":74},{"user_id":33,"name":"Griff","steam_id":76561198067311267,"connected_time":534000000000,"state":"active","ping":128},{"user_id":27,"name":"Agent Q","steam_id":76561198830829003,"connected_time":869000000000,"state":"active","ping":79},{"user_id":18,"name":"Verily","steam_id":76561198200558318,"connected_time":1478000000000,"state":"active","ping":112},{"user_id":28,"name":"Milk","steam_id":76561198004362373,"connected_time":863000000000,"state":"active","ping":71},{"user_id":31,"name":"Phloppy Phish","steam_id":76561198103500849,"connected_time":655000000000,"state":"active","ping":58},{"user_id":34,"name":"TheLinuxNerd","steam_id":76561198072697168,"connected_time":497000000000,"state":"active","ping":76},{"user_id":38,"name":"max poop retention","steam_id":76561199050461421,"connected_time":390000000000,"state":"active","ping":87},{"user_id":36,"name":"ShredMaan","steam_id":76561198429982138,"connected_time":452000000000,"state":"active","ping":64},{"user_id":37,"name":"Ashified21","steam_id":76561199357672686,"connected_time":422000000000,"state":"active","ping":83},{"user_id":40,"name":"GඞMER","steam_id":76561198340389876,"connected_time":363000000000,"state":"active","ping":86},{"user_id":41,"name":"u know i keep","steam_id":76561198094615739,"connected_time":359000000000,"state":"active","ping":93},{"user_id":42,"name":"Mr.Z","steam_id":76561199251422541,"connected_time":354000000000,"state":"active","ping":62},{"user_id":43,"name":"Joshzu","steam_id":76561198200521137,"connected_time":340000000000,"state":"active","ping":69},{"user_id":44,"name":"Pineappleguy","steam_id":76561199047411317,"connected_time":328000000000,"state":"active","ping":52},{"user_id":46,"name":"twitch.tv/cccilytf2","steam_id":76561198322125595,"connected_time":238000000000,"state":"active","ping":53},{"user_id":47,"name":"bobbyreinman2009","steam_id":76561198804763186,"connected_time":238000000000,"state":"active","ping":110},{"user_id":48,"name":"garry","steam_id":76561199091007559,"connected_time":208000000000,"state":"active","ping":84},{"user_id":49,"name":"Caboom","steam_id":76561198040221007,"connected_time":202000000000,"state":"active","ping":93}]},{"server_id":19,"name":"Uncletopia | San Francisco | 3 | Stopwatch Beta","name_short":"sfo-3","host":"sfo-1.us.uncletopia.com","port":27035,"enabled":true,"region":"us-west","cc":"us","latitude":37.77397,"longitude":-122.4313,"reserved":0,"last_update":"0001-01-01T00:00:00Z","name_a2s":"Uncletopia | San Francisco | 3 | Stopwatch Beta","protocol":17,"map":"pl_borneo","folder":"tf","game":"Team Fortress","app_id":440,"player_count":0,"max_players":24,"Bots":0,"server_type":"Dedicated","server_os":"Linux","password":true,"vac":true,"version":"7757534","steam_id":85568392924742824,"keywords":["nocrits","nodmgspread","payload","uncletopia"],"game_id":440,"stv_port":27036,"stv_name":"Uncletopia | San Francisco | 3 | Stopwatch Beta | STV","players":null},{"server_id":20,"name":"Uncletopia | San Francisco | 4 | Community","name_short":"sfo-4","host":"sfo-1.us.uncletopia.com","port":27045,"enabled":true,"region":"us-west","cc":"us","latitude":37.77397,"longitude":-122.4313,"reserved":0,"last_update":"0001-01-01T00:00:00Z","name_a2s":"Uncletopia | San Francisco | 4 | Community","protocol":17,"map":"koth_highpass","folder":"tf","game":"Team Fortress","app_id":440,"player_count":0,"max_players":24,"Bots":0,"server_type":"Dedicated","server_os":"Linux","password":true,"vac":true,"version":"7757534","steam_id":85568392924742826,"keywords":["cp","nocrits","nodmgspread","uncletopia"],"game_id":440,"stv_port":27046,"stv_name":"Uncletopia | San Francisco | 4 | Community | STV","players":null},{"server_id":141,"name":"Uncletopia | Sydney | 1 | All Maps","name_short":"syd-1","host":"syd-1.au.uncletopia.com","port":27015,"enabled":true,"region":"au","cc":"au","latitude":-33.865143,"longitude":151.2099,"reserved":0,"last_update":"0001-01-01T00:00:00Z","name_a2s":"Uncletopia | Sydney | 1 | All Maps","protocol":17,"map":"pl_borneo","folder":"tf","game":"Team Fortress","app_id":440,"player_count":0,"max_players":24,"Bots":0,"server_type":"Dedicated","server_os":"Linux","password":true,"vac":true,"version":"7757534","steam_id":85568392924470001,"keywords":["nocrits","nodmgspread","payload","uncletopia"],"game_id":440,"stv_port":27016,"stv_name":"Uncletopia | Sydney | 1 | All Maps | STV","players":null},{"server_id":123,"name":"Uncletopia | Sydney | 2 | All Maps","name_short":"syd-2","host":"syd-1.au.uncletopia.com","port":27025,"enabled":true,"region":"au","cc":"au","latitude":-33.865143,"longitude":151.2099,"reserved":0,"last_update":"0001-01-01T00:00:00Z","name_a2s":"Uncletopia | Sydney | 2 | All Maps","protocol":17,"map":"pl_upward","folder":"tf","game":"Team Fortress","app_id":440,"player_count":20,"max_players":24,"Bots":0,"server_type":"Dedicated","server_os":"Linux","password":true,"vac":true,"version":"7757534","steam_id":85568392924470002,"keywords":["nocrits","nodmgspread","payload","uncletopia"],"game_id":440,"stv_port":27026,"stv_name":"Uncletopia | Sydney | 2 | All Maps | STV","players":[{"user_id":33,"name":"CrowPBS1 PC","steam_id":76561198943274401,"connected_time":510000000000,"state":"active","ping":84},{"user_id":17,"name":"Crumpet","steam_id":76561199096381193,"connected_time":2357000000000,"state":"active","ping":58},{"user_id":38,"name":"Lukey","steam_id":76561197999887960,"connected_time":382000000000,"state":"active","ping":60},{"user_id":19,"name":"Hona","steam_id":76561198221809496,"connected_time":2215000000000,"state":"active","ping":58},{"user_id":39,"name":"Lord Oink","steam_id":76561198125237921,"connected_time":364000000000,"state":"active","ping":46},{"user_id":21,"name":"Wake'n'Bake'n'Make'n'Bacon","steam_id":76561198061960926,"connected_time":1608000000000,"state":"active","ping":94},{"user_id":22,"name":"( ͡° ͜ʖ ͡°)","steam_id":76561199262196710,"connected_time":1576000000000,"state":"active","ping":37},{"user_id":26,"name":"Master Mikob","steam_id":76561198854044243,"connected_time":1082000000000,"state":"active","ping":57},{"user_id":36,"name":"RA RA","steam_id":76561198361139900,"connected_time":454000000000,"state":"active","ping":60},{"user_id":25,"name":"Pop_corny","steam_id":76561198400595110,"connected_time":1232000000000,"state":"active","ping":41},{"user_id":29,"name":"Drongo Dave","steam_id":76561198127367498,"connected_time":983000000000,"state":"active","ping":66},{"user_id":32,"name":"Cofwee","steam_id":76561198072414195,"connected_time":542000000000,"state":"active","ping":81},{"user_id":34,"name":"AquaticPanda","steam_id":76561198130836308,"connected_time":502000000000,"state":"active","ping":59},{"user_id":35,"name":"wombraider","steam_id":76561199375834537,"connected_time":471000000000,"state":"active","ping":120},{"user_id":47,"name":"Really","steam_id":76561198153397177,"connected_time":45000000000,"state":"active","ping":51},{"user_id":41,"name":"cappa","steam_id":76561198182005235,"connected_time":238000000000,"state":"active","ping":74},{"user_id":42,"name":"Dip Bean","steam_id":76561198220685924,"connected_time":230000000000,"state":"active","ping":41},{"user_id":43,"name":"Pat","steam_id":76561198244663182,"connected_time":205000000000,"state":"active","ping":60},{"user_id":44,"name":"monnickev","steam_id":76561198252587162,"connected_time":200000000000,"state":"active","ping":36},{"user_id":46,"name":"gods strongest snoozer","steam_id":76561198136659419,"connected_time":160000000000,"state":"active","ping":59}]},{"server_id":395,"name":"Uncletopia | Sydney | 3 | All Maps","name_short":"syd-3","host":"syd-1.au.uncletopia.com","port":27035,"enabled":true,"region":"au","cc":"au","latitude":-33.865143,"longitude":151.2099,"reserved":0,"last_update":"0001-01-01T00:00:00Z","name_a2s":"Uncletopia | Sydney | 3 | All Maps","protocol":17,"map":"pl_upward","folder":"tf","game":"Team Fortress","app_id":440,"player_count":0,"max_players":24,"Bots":0,"server_type":"Dedicated","server_os":"Linux","password":true,"vac":true,"version":"7757534","steam_id":85568392925194467,"keywords":["nocrits","nodmgspread","payload","uncletopia"],"game_id":440,"stv_port":27036,"stv_name":"Uncletopia | Sydney | 3 | All Maps | STV","players":null},{"server_id":396,"name":"Uncletopia | Sydney | 4 | All Maps","name_short":"syd-4","host":"syd-1.au.uncletopia.com","port":27045,"enabled":true,"region":"au","cc":"au","latitude":-33.865143,"longitude":151.2099,"reserved":0,"last_update":"0001-01-01T00:00:00Z","name_a2s":"Uncletopia | Sydney | 4 | All Maps","protocol":17,"map":"cp_altitude","folder":"tf","game":"Team Fortress","app_id":440,"player_count":0,"max_players":24,"Bots":0,"server_type":"Dedicated","server_os":"Linux","password":true,"vac":true,"version":"7757534","steam_id":85568392925397958,"keywords":["cp","nocrits","nodmgspread","uncletopia"],"game_id":440,"stv_port":27046,"stv_name":"Uncletopia | Sydney | 4 | All Maps | STV","players":null},{"server_id":58,"name":"Uncletopia | Sydney | 5 | Stopwatch Beta","name_short":"syd-5","host":"syd-1.au.uncletopia.com","port":27055,"enabled":true,"region":"au","cc":"au","latitude":-33.865143,"longitude":151.2099,"reserved":0,"last_update":"0001-01-01T00:00:00Z","name_a2s":"Uncletopia | Sydney | 5 | Stopwatch Beta","protocol":17,"map":"koth_highpass","folder":"tf","game":"Team Fortress","app_id":440,"player_count":0,"max_players":24,"Bots":0,"server_type":"Dedicated","server_os":"Linux","password":true,"vac":true,"version":"7757534","steam_id":85568392925397959,"keywords":["cp","nocrits","nodmgspread","uncletopia"],"game_id":440,"stv_port":27056,"stv_name":"Uncletopia | Sydney | 5 | Stopwatch Beta | STV","players":null},{"server_id":59,"name":"Uncletopia | Sydney | 6 | Community","name_short":"syd-6","host":"syd-1.au.uncletopia.com","port":27065,"enabled":true,"region":"au","cc":"au","latitude":-33.865143,"longitude":151.2099,"reserved":0,"last_update":"0001-01-01T00:00:00Z","name_a2s":"Uncletopia | Sydney | 6 | Community","protocol":17,"map":"cp_sunshine","folder":"tf","game":"Team Fortress","app_id":440,"player_count":0,"max_players":24,"Bots":0,"server_type":"Dedicated","server_os":"Linux","password":true,"vac":true,"version":"7757534","steam_id":85568392925397960,"keywords":["cp","nocrits","nodmgspread","uncletopia"],"game_id":440,"stv_port":27066,"stv_name":"Uncletopia | Sydney | 6 | Community | STV","players":null},{"server_id":49,"name":"Uncletopia | Warsaw | 1 | All Maps","name_short":"waw-1","host":"waw-1.pl.uncletopia.com","port":27015,"enabled":true,"region":"eu","cc":"pl","latitude":52.2297,"longitude":21.017532,"reserved":0,"last_update":"0001-01-01T00:00:00Z","name_a2s":"","protocol":0,"map":"","folder":"","game":"","app_id":0,"player_count":0,"max_players":0,"Bots":0,"server_type":"","server_os":"","password":false,"vac":false,"version":"","steam_id":0,"keywords":null,"game_id":0,"stv_port":0,"stv_name":"","players":null},{"server_id":50,"name":"Uncletopia | Warsaw | 2 | All Maps","name_short":"waw-2","host":"waw-1.pl.uncletopia.com","port":27025,"enabled":true,"region":"eu","cc":"pl","latitude":52.2297,"longitude":21.017532,"reserved":0,"last_update":"0001-01-01T00:00:00Z","name_a2s":"Uncletopia | Warsaw | 2 | All Maps","protocol":17,"map":"koth_lakeside_final","folder":"tf","game":"Team Fortress","app_id":440,"player_count":0,"max_players":24,"Bots":0,"server_type":"Dedicated","server_os":"Linux","password":true,"vac":true,"version":"7757534","steam_id":85568392925397851,"keywords":["cp","nocrits","nodmgspread","uncletopia"],"game_id":440,"stv_port":27026,"stv_name":"Uncletopia | Warsaw | 2 | All Maps | STV","players":null},{"server_id":51,"name":"Uncletopia | Warsaw | 3 | All Maps","name_short":"waw-3","host":"waw-1.pl.uncletopia.com","port":27035,"enabled":true,"region":"eu","cc":"pl","latitude":52.2297,"longitude":21.017532,"reserved":0,"last_update":"0001-01-01T00:00:00Z","name_a2s":"Uncletopia | Warsaw | 3 | All Maps","protocol":17,"map":"cp_dustbowl","folder":"tf","game":"Team Fortress","app_id":440,"player_count":0,"max_players":24,"Bots":0,"server_type":"Dedicated","server_os":"Linux","password":true,"vac":true,"version":"7757534","steam_id":85568392925397852,"keywords":["cp","nocrits","nodmgspread","uncletopia"],"game_id":440,"stv_port":27036,"stv_name":"Uncletopia | Warsaw | 3 | All Maps | STV","players":null},{"server_id":52,"name":"Uncletopia | Warsaw | 4 | All Maps","name_short":"waw-4","host":"waw-1.pl.uncletopia.com","port":27045,"enabled":true,"region":"eu","cc":"pl","latitude":52.2297,"longitude":21.017532,"reserved":0,"last_update":"0001-01-01T00:00:00Z","name_a2s":"Uncletopia | Warsaw | 4 | All Maps","protocol":17,"map":"pl_snowycoast","folder":"tf","game":"Team Fortress","app_id":440,"player_count":0,"max_players":24,"Bots":0,"server_type":"Dedicated","server_os":"Linux","password":true,"vac":true,"version":"7757534","steam_id":85568392925397853,"keywords":["nocrits","nodmgspread","payload","uncletopia"],"game_id":440,"stv_port":27046,"stv_name":"Uncletopia | Warsaw | 4 | All Maps | STV","players":null},{"server_id":53,"name":"Uncletopia | Warsaw | 5 | Stopwatch Beta","name_short":"waw-5","host":"waw-1.pl.uncletopia.com","port":27055,"enabled":true,"region":"eu","cc":"pl","latitude":52.2297,"longitude":21.017532,"reserved":0,"last_update":"0001-01-01T00:00:00Z","name_a2s":"Uncletopia | Warsaw | 5 | Stopwatch Beta","protocol":17,"map":"pl_barnblitz","folder":"tf","game":"Team Fortress","app_id":440,"player_count":0,"max_players":24,"Bots":0,"server_type":"Dedicated","server_os":"Linux","password":true,"vac":true,"version":"7757534","steam_id":85568392925397854,"keywords":["nocrits","nodmgspread","payload","uncletopia"],"game_id":440,"stv_port":27056,"stv_name":"Uncletopia | Warsaw | 5 | Stopwatch Beta | STV","players":null},{"server_id":54,"name":"Uncletopia | Warsaw | 6 | Community","name_short":"waw-6","host":"waw-1.pl.uncletopia.com","port":27065,"enabled":true,"region":"eu","cc":"pl","latitude":52.2297,"longitude":21.017532,"reserved":0,"last_update":"0001-01-01T00:00:00Z","name_a2s":"Uncletopia | Warsaw | 6 | Community","protocol":17,"map":"workshop/cp_sulfur_rc2.ugc619869471","folder":"tf","game":"Team Fortress","app_id":440,"player_count":0,"max_players":24,"Bots":0,"server_type":"Dedicated","server_os":"Linux","password":true,"vac":true,"version":"7757534","steam_id":85568392925397856,"keywords":["cp","nocrits","nodmgspread","uncletopia"],"game_id":440,"stv_port":27066,"stv_name":"Uncletopia | Warsaw | 6 | Community | STV","players":null}]}