{"status":true,"message":"","result":[{"server_id":9,"name":"Uncletopia | Atlanta | 1 | All Maps","name_short":"atl-1","host":"atl-1.us.uncletopia.com","port":27015,"enabled":true,"region":"us-east","cc":"us","latitude":33.753746,"longitude":-84.38633,"reserved":0,"last_update":"0001-01-01T00:00:00Z","name_a2s":"Uncletopia | Atlanta | 1 | All Maps","protocol":17,"map":"pl_borneo","folder":"tf","game":"Team Fortress","app_id":440,"player_count":24,"max_players":24,"Bots":0,"server_type":"Dedicated","server_os":"Linux","password":true,"vac":true,"version":"7701286","steam_id":85568392924469982,"keywords":["nocrits","nodmgspread","payload","uncletopia"],"game_id":440,"stv_port":27016,"stv_name":"Uncletopia | Atlanta | 1 | All Maps | STV","players":[{"user_id":74,"name":"TRHD_Pharaxer‚Ñ¢","steam_id":76561198051236069,"connected_time":4299000000000,"state":"active","ping":149},{"user_id":73,"name":"Jin but white","steam_id":76561198119873148,"connected_time":4628000000000,"state":"active","ping":65},{"user_id":90,"name":"Zillers","steam_id":76561198095248744,"connected_time":1637000000000,"state":"active","ping":72},{"user_id":101,"name":"ATL1 | spoonful","steam_id":76561198927517471,"connected_time":480000000000,"state":"active","ping":47},{"user_id":99,"name":"APACHE","steam_id":76561198089910625,"connected_time":832000000000,"state":"active","ping":94},{"user_id":100,"name":"harry gooch","steam_id":76561198024817457,"connected_time":780000000000,"state":"active","ping":60},{"user_id":36,"name":"--_Cook_--","steam_id":76561198080855748,"connected_time":7561000000000,"state":"active","ping":47},{"user_id":96,"name":"christmastreebee","steam_id":76561199217507591,"connected_time":861000000000,"state":"active","ping":65},{"user_id":95,"name":"Dan","steam_id":76561199236719411,"connected_time":869000000000,"state":"active","ping":65},{"user_id":56,"name":"Im High","steam_id":76561198049954886,"connected_time":5385000000000,"state":"active","ping":59},{"user_id":46,"name":"abomination","steam_id":76561198167974713,"connected_time":6275000000000,"state":"active","ping":55},{"user_id":48,"name":"fi_ji","steam_id":76561198126087725,"connected_time":6042000000000,"state":"active","ping":62},{"user_id":92,"name":"Ben Derisgreat","steam_id":76561198799240455,"connected_time":1171000000000,"state":"active","ping":61},{"user_id":81,"name":"HARRY","steam_id":76561198842067238,"connected_time":2909000000000,"state":"active","ping":74},{"user_id":68,"name":"‚ùÖAlyx‚ùÖ","steam_id":76561198024303978,"connected_time":5060000000000,"state":"active","ping":59},{"user_id":97,"name":"[txc] milk and cookies","steam_id":76561198127457787,"connected_time":852000000000,"state":"active","ping":79},{"user_id":65,"name":"Short Tail","steam_id":76561198048459843,"connected_time":5151000000000,"state":"active","ping":78},{"user_id":43,"name":"C papi","steam_id":76561198027779564,"connected_time":6714000000000,"state":"active","ping":56},{"user_id":98,"name":"ATL6 Deez Noel","steam_id":76561198246700372,"connected_time":852000000000,"state":"active","ping":62},{"user_id":86,"name":"ATL1 | Phestive Pango","steam_id":76561198069811545,"connected_time":1668000000000,"state":"active","ping":57},{"user_id":88,"name":"morbidly a beast","steam_id":76561199079614516,"connected_time":1663000000000,"state":"active","ping":87},{"user_id":89,"name":"Soris","steam_id":76561198103635251,"connected_time":1659000000000,"state":"active","ping":62},{"user_id":72,"name":"bogginwater","steam_id":76561198155547142,"connected_time":4881000000000,"state":"active","ping":78},{"user_id":85,"name":"[txc] garf","steam_id":76561198083078030,"connected_time":1780000000000,"state":"active","ping":53}]},{"server_id":400,"name":"Uncletopia | Atlanta | 3 | All Maps","name_short":"atl-3","host":"atl-1.us.uncletopia.com","port":27035,"enabled":true,"region":"us-east","cc":"us","latitude":33.753746,"longitude":-84.38633,"reserved":0,"last_update":"0001-01-01T00:00:00Z","name_a2s":"Uncletopia | Atlanta | 3 | All Maps","protocol":17,"map":"koth_highpass","folder":"tf","game":"Team Fortress","app_id":440,"player_count":0,"max_players":24,"Bots":0,"server_type":"Dedicated","server_os":"Linux","password":true,"vac":true,"version":"7701286","steam_id":85568392924515187,"keywords":["cp","nocrits","nodmgspread","uncletopia"],"game_id":440,"stv_port":0,"stv_name":"","players":null},{"server_id":401,"name":"Uncletopia | Atlanta | 4 | No Payload","name_short":"atl-4","host":"atl-1.us.uncletopia.com","port":27045,"enabled":true,"region":"us-east","cc":"us","latitude":33.753746,"longitude":-84.38633,"reserved":0,"last_update":"0001-01-01T00:00:00Z","name_a2s":"Uncletopia | Atlanta | 4 | No Payload","protocol":17,"map":"koth_sawmill","folder":"tf","game":"Team Fortress","app_id":440,"player_count":0,"max_players":24,"Bots":0,"server_type":"Dedicated","server_os":"Linux","password":true,"vac":true,"version":"7701286","steam_id":85568392924515188,"keywords":["cp","nocrits","nodmgspread","uncletopia"],"game_id":440,"stv_port":27046,"stv_name":"Uncletopia | Atlanta | 4 | No Payload | STV","players":null},{"server_id":2,"name":"Uncletopia | Chicago | 1 | All Maps","name_short":"chi-1","host":"chi-1.us.uncletopia.com","port":27015,"enabled":true,"region":"us-central","cc":"us","latitude":41.881832,"longitude":-87.62318,"reserved":0,"last_update":"0001-01-01T00:00:00Z","name_a2s":"Uncletopia | Chicago | 1 | All Maps","protocol":17,"map":"pl_borneo","folder":"tf","game":"Team Fortress","app_id":440,"player_count":23,"max_players":24,"Bots":0,"server_type":"Dedicated","server_os":"Linux","password":true,"vac":true,"version":"7701286","steam_id":85568392924469984,"keywords":["nocrits","nodmgspread","payload","uncletopia"],"game_id":440,"stv_port":27016,"stv_name":"Uncletopia | Chicago | 1 | All Maps | STV","players":[{"user_id":119,"name":"motorized bar of soap","steam_id":76561198882404753,"connected_time":3880000000000,"state":"active","ping":76},{"user_id":77,"name":"DSM-IVCE","steam_id":76561199438515797,"connected_time":4632000000000,"state":"active","ping":184},{"user_id":4,"name":"stop","steam_id":76561198268686419,"connected_time":7764000000000,"state":"active","ping":53},{"user_id":5,"name":"ohton","steam_id":76561199033233448,"connected_time":7741000000000,"state":"active","ping":98},{"user_id":156,"name":"Devious Wink","steam_id":76561198043571022,"connected_time":52000000000,"state":"active","ping":78},{"user_id":7,"name":"pw","steam_id":76561198087945065,"connected_time":7731000000000,"state":"active","ping":45},{"user_id":153,"name":"debin","steam_id":76561198070711217,"connected_time":786000000000,"state":"active","ping":53},{"user_id":131,"name":"Lv4 Gnoll Magus","steam_id":76561198042068995,"connected_time":3632000000000,"state":"active","ping":67},{"user_id":157,"name":"River Rat","steam_id":76561198116383976,"connected_time":45000000000,"state":"active","ping":103},{"user_id":158,"name":"Ethan","steam_id":76561198170165781,"connected_time":43000000000,"state":"spawning","ping":109},{"user_id":159,"name":"Soju","steam_id":76561198044130442,"connected_time":42000000000,"state":"active","ping":63},{"user_id":151,"name":"MazapanCabon28","steam_id":76561199243339919,"connected_time":1161000000000,"state":"active","ping":106},{"user_id":152,"name":"beta central","steam_id":76561198301876831,"connected_time":1145000000000,"state":"active","ping":59},{"user_id":154,"name":"NOLSEY","steam_id":76561198108959504,"connected_time":581000000000,"state":"active","ping":58},{"user_id":160,"name":"Ignalis","steam_id":76561198025662927,"connected_time":42000000000,"state":"active","ping":70},{"user_id":78,"name":"Ace Chromatica","steam_id":76561198042211131,"connected_time":4619000000000,"state":"active","ping":54},{"user_id":149,"name":"Demonfax04","steam_id":76561198243551652,"connected_time":1845000000000,"state":"active","ping":93},{"user_id":106,"name":"√íw√ì","steam_id":76561197997304387,"connected_time":4156000000000,"state":"active","ping":74},{"user_id":150,"name":"Ye (I Love Hitler) West","steam_id":76561198068830312,"connected_time":1845000000000,"state":"active","ping":44},{"user_id":63,"name":"A Pikachu Ninja","steam_id":76561198378348699,"connected_time":5129000000000,"state":"active","ping":63},{"user_id":137,"name":"KingTinkerer","steam_id":76561198226856548,"connected_time":3576000000000,"state":"active","ping":70},{"user_id":142,"name":"Dert","steam_id":76561198883014990,"connected_time":3053000000000,"state":"active","ping":55},{"user_id":70,"name":"Festive Treason","steam_id":76561198143882626,"connected_time":4759000000000,"state":"active","ping":111}]},{"server_id":106,"name":"Uncletopia | Chicago | 2 | All Maps","name_short":"chi-2","host":"chi-1.us.uncletopia.com","port":27025,"enabled":true,"region":"us-central","cc":"us","latitude":41.881832,"longitude":-87.62318,"reserved":0,"last_update":"0001-01-01T00:00:00Z","name_a2s":"Uncletopia | Chicago | 2 | All Maps","protocol":17,"map":"pl_pier","folder":"tf","game":"Team Fortress","app_id":440,"player_count":24,"max_players":24,"Bots":0,"server_type":"Dedicated","server_os":"Linux","password":true,"vac":true,"version":"7701286","steam_id":85568392924469985,"keywords":["nocrits","nodmgspread","payload","uncletopia"],"game_id":440,"stv_port":27026,"stv_name":"Uncletopia | Chicago | 2 | All Maps | STV","players":[{"user_id":104,"name":"FUSION","steam_id":76561197972659738,"connected_time":587000000000,"state":"active","ping":53},{"user_id":107,"name":"Alt","steam_id":76561197992591984,"connected_time":296000000000,"state":"active","ping":61},{"user_id":82,"name":"Pandakid","steam_id":76561199160843714,"connected_time":2109000000000,"state":"active","ping":82},{"user_id":96,"name":"A Fruit","steam_id":76561198951830050,"connected_time":719000000000,"state":"active","ping":60},{"user_id":97,"name":"SteeredAxe","steam_id":76561198081309492,"connected_time":705000000000,"state":"active","ping":59},{"user_id":105,"name":"Saristan","steam_id":76561198093346048,"connected_time":578000000000,"state":"active","ping":72},{"user_id":85,"name":"wack","steam_id":76561198095697330,"connected_time":2093000000000,"state":"active","ping":74},{"user_id":51,"name":"Titty Mousepad User","steam_id":76561198008455368,"connected_time":4675000000000,"state":"active","ping":60},{"user_id":39,"name":"10footlongschlong","steam_id":76561198291160259,"connected_time":5787000000000,"state":"active","ping":62},{"user_id":98,"name":"Eliza","steam_id":76561198108938752,"connected_time":704000000000,"state":"active","ping":71},{"user_id":93,"name":"SkyJett","steam_id":76561198040719249,"connected_time":1242000000000,"state":"active","ping":51},{"user_id":99,"name":"ethix","steam_id":76561198072592880,"connected_time":699000000000,"state":"active","ping":49},{"user_id":100,"name":"floofy","steam_id":76561198389769098,"connected_time":699000000000,"state":"active","ping":77},{"user_id":101,"name":"Smelowskia","steam_id":76561198084251115,"connected_time":698000000000,"state":"active","ping":67},{"user_id":76,"name":"Blargian Snagglebeast","steam_id":76561198115831507,"connected_time":2967000000000,"state":"active","ping":57},{"user_id":74,"name":"N8","steam_id":76561198077788860,"connected_time":3191000000000,"state":"active","ping":66},{"user_id":53,"name":"Rudy","steam_id":76561198013456828,"connected_time":4568000000000,"state":"active","ping":71},{"user_id":108,"name":"wheat","steam_id":76561197971158435,"connected_time":79000000000,"state":"active","ping":60},{"user_id":91,"name":"Beef Wellington","steam_id":76561197995635241,"connected_time":1890000000000,"state":"active","ping":50},{"user_id":106,"name":"Soap","steam_id":76561198074619142,"connected_time":430000000000,"state":"active","ping":59},{"user_id":67,"name":"MikeLovesRabbit","steam_id":76561197997742625,"connected_time":3698000000000,"state":"active","ping":57},{"user_id":29,"name":"valky","steam_id":76561198046033522,"connected_time":6408000000000,"state":"active","ping":106},{"user_id":71,"name":"Moffein","steam_id":76561198016739296,"connected_time":3591000000000,"state":"active","ping":99},{"user_id":80,"name":"Grease monkey","steam_id":76561199229169396,"connected_time":2231000000000,"state":"active","ping":62}]},{"server_id":402,"name":"Uncletopia | Chicago | 3 | All Maps","name_short":"chi-3","host":"chi-1.us.uncletopia.com","port":27035,"enabled":true,"region":"us-central","cc":"us","latitude":41.881832,"longitude":-87.62318,"reserved":0,"last_update":"0001-01-01T00:00:00Z","name_a2s":"Uncletopia | Chicago | 3 | All Maps","protocol":17,"map":"koth_lakeside_final","folder":"tf","game":"Team Fortress","app_id":440,"player_count":0,"max_players":24,"Bots":0,"server_type":"Dedicated","server_os":"Linux","password":true,"vac":true,"version":"7701286","steam_id":85568392924515191,"keywords":["cp","nocrits","nodmgspread","uncletopia"],"game_id":440,"stv_port":0,"stv_name":"","players":null},{"server_id":403,"name":"Uncletopia | Chicago | 4 | All Maps","name_short":"chi-4","host":"chi-1.us.uncletopia.com","port":27045,"enabled":true,"region":"us-central","cc":"us","latitude":41.881832,"longitude":-87.62318,"reserved":0,"last_update":"0001-01-01T00:00:00Z","name_a2s":"Uncletopia | Chicago | 4 | All Maps","protocol":17,"map":"pl_barnblitz","folder":"tf","game":"Team Fortress","app_id":440,"player_count":0,"max_players":24,"Bots":0,"server_type":"Dedicated","server_os":"Linux","password":true,"vac":true,"version":"7701286","steam_id":85568392924515193,"keywords":["nocrits","nodmgspread","payload","uncletopia"],"game_id":440,"stv_port":27046,"stv_name":"Uncletopia | Chicago | 4 | All Maps | STV","players":null},{"server_id":36,"name":"Uncletopia | Chicago | 5 | All Maps","name_short":"chi-5","host":"chi-2.us.uncletopia.com","port":27015,"enabled":true,"region":"us-central","cc":"us","latitude":41.881832,"longitude":-87.62318,"reserved":0,"last_update":"0001-01-01T00:00:00Z","name_a2s":"Uncletopia | Chicago | 5 | All Maps","protocol":17,"map":"pl_borneo","folder":"tf","game":"Team Fortress","app_id":440,"player_count":0,"max_players":24,"Bots":0,"server_type":"Dedicated","server_os":"Linux","password":true,"vac":true,"version":"7701286","steam_id":85568392924866362,"keywords":["nocrits","nodmgspread","payload","uncletopia"],"game_id":440,"stv_port":27016,"stv_name":"Uncletopia | Chicago | 5 | All Maps | STV","players":null},{"server_id":37,"name":"Uncletopia | Chicago | 6 | All Maps","name_short":"chi-6","host":"chi-2.us.uncletopia.com","port":27025,"enabled":true,"region":"us-central","cc":"us","latitude":41.881832,"longitude":-87.62318,"reserved":0,"last_update":"0001-01-01T00:00:00Z","name_a2s":"Uncletopia | Chicago | 6 | All Maps","protocol":17,"map":"pl_swiftwater_final1","folder":"tf","game":"Team Fortress","app_id":440,"player_count":0,"max_players":24,"Bots":0,"server_type":"Dedicated","server_os":"Linux","password":true,"vac":true,"version":"7701286","steam_id":85568392924866363,"keywords":["nocrits","nodmgspread","payload","uncletopia"],"game_id":440,"stv_port":27026,"stv_name":"Uncletopia | Chicago | 6 | All Maps | STV","players":null},{"server_id":38,"name":"Uncletopia | Chicago | 7 | No Payload","name_short":"chi-7","host":"chi-2.us.uncletopia.com","port":27035,"enabled":true,"region":"us-central","cc":"us","latitude":41.881832,"longitude":-87.62318,"reserved":0,"last_update":"0001-01-01T00:00:00Z","name_a2s":"Uncletopia | Chicago | 7 | No Payload","protocol":17,"map":"cp_snakewater_final1","folder":"tf","game":"Team Fortress","app_id":440,"player_count":0,"max_players":24,"Bots":0,"server_type":"Dedicated","server_os":"Linux","password":true,"vac":true,"version":"7701286","steam_id":85568392924866364,"keywords":["cp","nocrits","nodmgspread","uncletopia"],"game_id":440,"stv_port":0,"stv_name":"","players":null},{"server_id":39,"name":"Uncletopia | Chicago | 8 | Community","name_short":"chi-8","host":"chi-2.us.uncletopia.com","port":27045,"enabled":true,"region":"us-central","cc":"us","latitude":41.881832,"longitude":-87.62318,"reserved":0,"last_update":"0001-01-01T00:00:00Z","name_a2s":"Uncletopia | Chicago | 8 | Community","protocol":17,"map":"workshop/pl_vigil_rc9.ugc1266210012","folder":"tf","game":"Team Fortress","app_id":440,"player_count":24,"max_players":24,"Bots":0,"server_type":"Dedicated","server_os":"Linux","password":true,"vac":true,"version":"7701286","steam_id":85568392924866365,"keywords":["nocrits","nodmgspread","payload","uncletopia"],"game_id":440,"stv_port":27046,"stv_name":"Uncletopia | Chicago | 8 | Community | STV","players":[{"user_id":140,"name":"DistantJragon","steam_id":76561198117563641,"connected_time":860000000000,"state":"active","ping":46},{"user_id":143,"name":"kametro4","steam_id":76561198835430429,"connected_time":583000000000,"state":"active","ping":92},{"user_id":8,"name":"crypt","steam_id":76561198096903352,"connected_time":6160000000000,"state":"active","ping":56},{"user_id":152,"name":"Strangelove","steam_id":76561198353773611,"connected_time":122000000000,"state":"active","ping":70},{"user_id":134,"name":"SliFox115","steam_id":76561198006657143,"connected_time":1227000000000,"state":"active","ping":75},{"user_id":144,"name":"gamer in training","steam_id":76561198035375228,"connected_time":561000000000,"state":"active","ping":90},{"user_id":141,"name":"Elizabeth truss","steam_id":76561198058250979,"connected_time":825000000000,"state":"active","ping":62},{"user_id":119,"name":"DiscoLoveBiscuit","steam_id":76561198215263216,"connected_time":2270000000000,"state":"active","ping":69},{"user_id":142,"name":"Goatking","steam_id":76561198068447650,"connected_time":589000000000,"state":"active","ping":65},{"user_id":145,"name":"Handsoap","steam_id":76561198060129678,"connected_time":481000000000,"state":"active","ping":36},{"user_id":153,"name":"mr.edderkopper","steam_id":76561198152614478,"connected_time":106000000000,"state":"active","ping":68},{"user_id":122,"name":"sithreis","steam_id":76561198000564263,"connected_time":2223000000000,"state":"active","ping":69},{"user_id":123,"name":"AlecTheNefarious","steam_id":76561198035291230,"connected_time":2214000000000,"state":"active","ping":61},{"user_id":146,"name":"Josh","steam_id":76561198155863376,"connected_time":450000000000,"state":"active","ping":67},{"user_id":124,"name":"King","steam_id":76561198010019214,"connected_time":2212000000000,"state":"active","ping":55},{"user_id":156,"name":"ungr8t","steam_id":76561198063521721,"connected_time":47000000000,"state":"active","ping":76},{"user_id":147,"name":"gourmet salad","steam_id":76561198173128765,"connected_time":447000000000,"state":"active","ping":54},{"user_id":127,"name":"java","steam_id":76561198030276792,"connected_time":2176000000000,"state":"active","ping":61},{"user_id":150,"name":"john \"eater of worlds\" smith","steam_id":76561198123878798,"connected_time":428000000000,"state":"active","ping":56},{"user_id":135,"name":"Colin102004","steam_id":76561198202384334,"connected_time":1225000000000,"state":"active","ping":53},{"user_id":155,"name":"valosta","steam_id":76561199372405984,"connected_time":57000000000,"state":"spawning","ping":141},{"user_id":36,"name":"Avem","steam_id":76561198058763710,"connected_time":5532000000000,"state":"active","ping":100},{"user_id":157,"name":"Joker Joestar","steam_id":76561198115696839,"connected_time":39000000000,"state":"active","ping":61},{"user_id":138,"name":"Throckmorton","steam_id":76561198083636412,"connected_time":1172000000000,"state":"active","ping":69}]},{"server_id":8,"name":"Uncletopia | Dallas | 1 | All Maps","name_short":"dal-1","host":"dal-1.us.uncletopia.com","port":27015,"enabled":true,"region":"us-central","cc":"us","latitude":32.779167,"longitude":-96.80889,"reserved":0,"last_update":"0001-01-01T00:00:00Z","name_a2s":"Uncletopia | Dallas | 1 | All Maps","protocol":17,"map":"cp_sunshine","folder":"tf","game":"Team Fortress","app_id":440,"player_count":21,"max_players":24,"Bots":0,"server_type":"Dedicated","server_os":"Linux","password":true,"vac":true,"version":"7701286","steam_id":85568392924469986,"keywords":["cp","nocrits","nodmgspread","uncletopia"],"game_id":440,"stv_port":27016,"stv_name":"Uncletopia | Dallas | 1 | All Maps | STV","players":[{"user_id":114,"name":"space","steam_id":76561198353704776,"connected_time":1647000000000,"state":"active","ping":44},{"user_id":99,"name":"Foam","steam_id":76561198334511480,"connected_time":2777000000000,"state":"active","ping":67},{"user_id":126,"name":"Legless","steam_id":76561198011863929,"connected_time":613000000000,"state":"active","ping":68},{"user_id":122,"name":"rolt bagger","steam_id":76561198026664629,"connected_time":1328000000000,"state":"active","ping":75},{"user_id":86,"name":"iluvtoust","steam_id":76561198869269207,"connected_time":3497000000000,"state":"active","ping":41},{"user_id":101,"name":"IxMic88","steam_id":76561198018552479,"connected_time":2737000000000,"state":"active","ping":54},{"user_id":127,"name":"PotatoKing","steam_id":76561198302517491,"connected_time":536000000000,"state":"active","ping":74},{"user_id":113,"name":"Flubdy_","steam_id":76561198073338521,"connected_time":1714000000000,"state":"active","ping":44},{"user_id":116,"name":"Brent Rambo","steam_id":76561198069974020,"connected_time":1637000000000,"state":"active","ping":44},{"user_id":91,"name":"Gammaplex","steam_id":76561198981228176,"connected_time":3161000000000,"state":"active","ping":74},{"user_id":117,"name":"+","steam_id":76561198262422184,"connected_time":1636000000000,"state":"active","ping":45},{"user_id":124,"name":"Queuetimeevent","steam_id":76561198079438423,"connected_time":704000000000,"state":"active","ping":54},{"user_id":120,"name":"poey","steam_id":76561198865346767,"connected_time":1610000000000,"state":"active","ping":69},{"user_id":112,"name":"OwlOddity","steam_id":76561198389068053,"connected_time":1781000000000,"state":"active","ping":39},{"user_id":82,"name":"MarshallMellows","steam_id":76561198231561020,"connected_time":3865000000000,"state":"active","ping":73},{"user_id":84,"name":"ùñöùñé","steam_id":76561198049238840,"connected_time":3832000000000,"state":"active","ping":74},{"user_id":56,"name":"plink","steam_id":76561198057829889,"connected_time":5695000000000,"state":"active","ping":50},{"user_id":95,"name":"A Can of Arizona Green Tea","steam_id":76561198062481133,"connected_time":3106000000000,"state":"active","ping":65},{"user_id":125,"name":"Snakeye3490","steam_id":76561198197060503,"connected_time":703000000000,"state":"active","ping":51},{"user_id":98,"name":"Goofball","steam_id":76561198061211537,"connected_time":2877000000000,"state":"active","ping":75}]},{"server_id":108,"name":"Uncletopia | Dallas | 2 | All Maps","name_short":"dal-2","host":"dal-1.us.uncletopia.com","port":27025,"enabled":true,"region":"us-central","cc":"us","latitude":32.779167,"longitude":-96.80889,"reserved":0,"last_update":"0001-01-01T00:00:00Z","name_a2s":"Uncletopia | Dallas | 2 | All Maps","protocol":17,"map":"cp_altitude","folder":"tf","game":"Team Fortress","app_id":440,"player_count":3,"max_players":24,"Bots":0,"server_type":"Dedicated","server_os":"Linux","password":true,"vac":true,"version":"7701286","steam_id":85568392924469988,"keywords":["cp","nocrits","nodmgspread","uncletopia"],"game_id":440,"stv_port":27026,"stv_name":"Uncletopia | Dallas | 2 | All Maps | STV","players":[{"user_id":22,"name":"Captin_Ciyro","steam_id":76561198861899909,"connected_time":1019000000000,"state":"active","ping":76},{"user_id":25,"name":"fuckterry","steam_id":76561198271957738,"connected_time":820000000000,"state":"active","ping":60},{"user_id":26,"name":"Matt","steam_id":76561199122703238,"connected_time":802000000000,"state":"active","ping":89}]},{"server_id":5,"name":"Uncletopia | Frankfurt | 1 | All Maps","name_short":"frk-1","host":"frk-1.de.uncletopia.com","port":27015,"enabled":true,"region":"eu","cc":"de","latitude":50.110924,"longitude":8.682127,"reserved":0,"last_update":"0001-01-01T00:00:00Z","name_a2s":"Uncletopia | Frankfurt | 1 | All Maps","protocol":17,"map":"cp_mountainlab","folder":"tf","game":"Team Fortress","app_id":440,"player_count":0,"max_players":24,"Bots":0,"server_type":"Dedicated","server_os":"Linux","password":true,"vac":true,"version":"7701286","steam_id":85568392924469989,"keywords":["cp","nocrits","nodmgspread","uncletopia"],"game_id":440,"stv_port":0,"stv_name":"","players":null},{"server_id":110,"name":"Uncletopia | Frankfurt | 2 | All Maps","name_short":"frk-2","host":"frk-1.de.uncletopia.com","port":27025,"enabled":true,"region":"eu","cc":"de","latitude":50.110924,"longitude":8.682127,"reserved":0,"last_update":"0001-01-01T00:00:00Z","name_a2s":"Uncletopia | Frankfurt | 2 | All Maps","protocol":17,"map":"cp_sunshine","folder":"tf","game":"Team Fortress","app_id":440,"player_count":0,"max_players":24,"Bots":0,"server_type":"Dedicated","server_os":"Linux","password":true,"vac":true,"version":"7701286","steam_id":85568392924469990,"keywords":["cp","nocrits","nodmgspread","uncletopia"],"game_id":440,"stv_port":0,"stv_name":"","players":null},{"server_id":308,"name":"Uncletopia | Frankfurt | 3 | All Maps","name_short":"frk-3","host":"frk-1.de.uncletopia.com","port":27035,"enabled":true,"region":"eu","cc":"de","latitude":50.110924,"longitude":8.682127,"reserved":0,"last_update":"0001-01-01T00:00:00Z","name_a2s":"Uncletopia | Frankfurt | 3 | All Maps","protocol":17,"map":"pl_borneo","folder":"tf","game":"Team Fortress","app_id":440,"player_count":0,"max_players":24,"Bots":0,"server_type":"Dedicated","server_os":"Linux","password":true,"vac":true,"version":"7701286","steam_id":85568392924504274,"keywords":["nocrits","nodmgspread","payload","uncletopia"],"game_id":440,"stv_port":27036,"stv_name":"Uncletopia | Frankfurt | 3 | All Maps | STV","players":null},{"server_id":309,"name":"Uncletopia | Frankfurt | 4 | All Maps","name_short":"frk-4","host":"frk-1.de.uncletopia.com","port":27045,"enabled":true,"region":"eu","cc":"de","latitude":50.110924,"longitude":8.682127,"reserved":0,"last_update":"0001-01-01T00:00:00Z","name_a2s":"Uncletopia | Frankfurt | 4 | All Maps","protocol":17,"map":"cp_sunshine","folder":"tf","game":"Team Fortress","app_id":440,"player_count":0,"max_players":24,"Bots":0,"server_type":"Dedicated","server_os":"Linux","password":true,"vac":true,"version":"7701286","steam_id":85568392924504275,"keywords":["cp","nocrits","nodmgspread","uncletopia"],"game_id":440,"stv_port":0,"stv_name":"","players":null},{"server_id":310,"name":"Uncletopia | Frankfurt | 5 | All Maps","name_short":"frk-5","host":"frk-1.de.uncletopia.com","port":27055,"enabled":true,"region":"eu","cc":"de","latitude":50.110924,"longitude":8.682127,"reserved":0,"last_update":"0001-01-01T00:00:00Z","name_a2s":"Uncletopia | Frankfurt | 5 | All Maps","protocol":17,"map":"koth_viaduct","folder":"tf","game":"Team Fortress","app_id":440,"player_count":0,"max_players":24,"Bots":0,"server_type":"Dedicated","server_os":"Linux","password":true,"vac":true,"version":"7701286","steam_id":85568392924504277,"keywords":["cp","nocrits","nodmgspread","uncletopia"],"game_id":440,"stv_port":0,"stv_name":"","players":null},{"server_id":311,"name":"Uncletopia | Frankfurt | 6 | All Maps","name_short":"frk-6","host":"frk-1.de.uncletopia.com","port":27065,"enabled":true,"region":"eu","cc":"de","latitude":50.110924,"longitude":8.682127,"reserved":0,"last_update":"0001-01-01T00:00:00Z","name_a2s":"Uncletopia | Frankfurt | 6 | All Maps","protocol":17,"map":"koth_highpass","folder":"tf","game":"Team Fortress","app_id":440,"player_count":0,"max_players":24,"Bots":0,"server_type":"Dedicated","server_os":"Linux","password":true,"vac":true,"version":"7701286","steam_id":85568392924504278,"keywords":["cp","nocrits","nodmgspread","uncletopia"],"game_id":440,"stv_port":27066,"stv_name":"Uncletopia | Frankfurt | 6 | All Maps | STV","players":null},{"server_id":23,"name":"Uncletopia | Frankfurt | 7 | No Payload","name_short":"frk-7","host":"frk-1.de.uncletopia.com","port":27075,"enabled":true,"region":"eu","cc":"de","latitude":50.110924,"longitude":8.682127,"reserved":0,"last_update":"0001-01-01T00:00:00Z","name_a2s":"Uncletopia | Frankfurt | 7 | No Payload","protocol":17,"map":"pl_badwater","folder":"tf","game":"Team Fortress","app_id":440,"player_count":0,"max_players":24,"Bots":0,"server_type":"Dedicated","server_os":"Linux","password":true,"vac":true,"version":"7701286","steam_id":85568392924742827,"keywords":["nocrits","nodmgspread","payload","uncletopia"],"game_id":440,"stv_port":0,"stv_name":"","players":null},{"server_id":24,"name":"Uncletopia | Frankfurt | 8 | Community","name_short":"frk-8","host":"frk-1.de.uncletopia.com","port":27085,"enabled":true,"region":"eu","cc":"de","latitude":50.110924,"longitude":8.682127,"reserved":0,"last_update":"0001-01-01T00:00:00Z","name_a2s":"Uncletopia | Frankfurt | 8 | Community","protocol":17,"map":"workshop/cp_villa_b19.ugc2113052569","folder":"tf","game":"Team Fortress","app_id":440,"player_count":0,"max_players":24,"Bots":0,"server_type":"Dedicated","server_os":"Linux","password":true,"vac":true,"version":"7701286","steam_id":85568392924742828,"keywords":["cp","nocrits","nodmgspread","uncletopia"],"game_id":440,"stv_port":27086,"stv_name":"Uncletopia | Frankfurt | 8 | Community | STV","players":null},{"server_id":202,"name":"Uncletopia | Hong Kong | 1 | All Maps","name_short":"hgk-1","host":"hgk-1.hk.uncletopia.com","port":27015,"enabled":true,"region":"asia","cc":"hk","latitude":22.302711,"longitude":114.177216,"reserved":0,"last_update":"0001-01-01T00:00:00Z","name_a2s":"Uncletopia | Hong Kong | 1 | All Maps","protocol":17,"map":"pl_borneo","folder":"tf","game":"Team Fortress","app_id":440,"player_count":6,"max_players":24,"Bots":0,"server_type":"Dedicated","server_os":"Linux","password":true,"vac":true,"version":"7701286","steam_id":85568392924494504,"keywords":["nocrits","nodmgspread","payload","uncletopia"],"game_id":440,"stv_port":27016,"stv_name":"Uncletopia | Hong Kong | 1 | All Maps | STV","players":[{"user_id":8,"name":"Violezine","steam_id":76561199000502615,"connected_time":2521000000000,"state":"active","ping":74},{"user_id":22,"name":"tf2 gaymer","steam_id":76561198080108480,"connected_time":430000000000,"state":"active","ping":55},{"user_id":14,"name":"iced","steam_id":76561198999114004,"connected_time":1928000000000,"state":"active","ping":97},{"user_id":13,"name":"Manly","steam_id":76561199171636601,"connected_time":2062000000000,"state":"active","ping":58},{"user_id":24,"name":"S c u m p","steam_id":76561199172582978,"connected_time":15000000000,"state":"spawning","ping":151},{"user_id":16,"name":"Sandwich Destroyer","steam_id":76561199221871877,"connected_time":1665000000000,"state":"active","ping":55}]},{"server_id":1,"name":"Uncletopia | Los Angeles | 1 | All Maps","name_short":"lax-1","host":"lax-1.us.uncletopia.com","port":27015,"enabled":true,"region":"us-west","cc":"us","latitude":33.94279,"longitude":-118.41004,"reserved":0,"last_update":"0001-01-01T00:00:00Z","name_a2s":"Uncletopia | Los Angeles | 1 | All Maps","protocol":17,"map":"pl_barnblitz","folder":"tf","game":"Team Fortress","app_id":440,"player_count":24,"max_players":24,"Bots":0,"server_type":"Dedicated","server_os":"Linux","password":true,"vac":true,"version":"7701286","steam_id":85568392924469991,"keywords":["nocrits","nodmgspread","payload","uncletopia"],"game_id":440,"stv_port":27016,"stv_name":"Uncletopia | Los Angeles | 1 | All Maps | STV","players":[{"user_id":98,"name":"Jax O'Gaytor","steam_id":76561198288922168,"connected_time":2733000000000,"state":"active","ping":59},{"user_id":101,"name":"gamerkhang","steam_id":76561197994201184,"connected_time":2474000000000,"state":"active","ping":34},{"user_id":111,"name":"June","steam_id":76561198141803658,"connected_time":1401000000000,"state":"active","ping":46},{"user_id":119,"name":"Woshingo","steam_id":76561199164819248,"connected_time":181000000000,"state":"active","ping":47},{"user_id":69,"name":"cielael","steam_id":76561198043971956,"connected_time":4111000000000,"state":"active","ping":47},{"user_id":14,"name":"DeratedDesign","steam_id":76561199078779967,"connected_time":7218000000000,"state":"active","ping":81},{"user_id":114,"name":"Killerofzombie23","steam_id":76561198799173778,"connected_time":1171000000000,"state":"active","ping":73},{"user_id":92,"name":"Larry Gooseman","steam_id":76561198018696922,"connected_time":3094000000000,"state":"active","ping":50},{"user_id":105,"name":"Star","steam_id":76561198422395239,"connected_time":1983000000000,"state":"active","ping":50},{"user_id":116,"name":"ldr","steam_id":76561198151135298,"connected_time":799000000000,"state":"active","ping":44},{"user_id":121,"name":"PRINGLES¬Æ SOUR CREAM \u0026 ONION","steam_id":76561198094836871,"connected_time":52000000000,"state":"active","ping":57},{"user_id":115,"name":"Moist Towels","steam_id":76561198137635837,"connected_time":1162000000000,"state":"active","ping":56},{"user_id":120,"name":"Amplifier","steam_id":76561198121704049,"connected_time":122000000000,"state":"active","ping":85},{"user_id":110,"name":"BrightOrangeMango","steam_id":76561198023144607,"connected_time":1408000000000,"state":"active","ping":58},{"user_id":117,"name":"moe","steam_id":76561198929586245,"connected_time":429000000000,"state":"active","ping":74},{"user_id":59,"name":"squinzi","steam_id":76561198086520846,"connected_time":4264000000000,"state":"active","ping":64},{"user_id":97,"name":"Sun Sugar","steam_id":76561198385085005,"connected_time":2779000000000,"state":"active","ping":59},{"user_id":118,"name":"DaBeatGoOff?","steam_id":76561198106507400,"connected_time":342000000000,"state":"active","ping":54},{"user_id":72,"name":"Black Jesus","steam_id":76561198076148442,"connected_time":4102000000000,"state":"active","ping":64},{"user_id":93,"name":"Cheese","steam_id":76561199435683727,"connected_time":3086000000000,"state":"active","ping":108},{"user_id":113,"name":"El Doktor","steam_id":76561198413013439,"connected_time":1354000000000,"state":"active","ping":45},{"user_id":104,"name":"Timewaves","steam_id":76561198000186054,"connected_time":2013000000000,"state":"active","ping":54},{"user_id":57,"name":"geirangerfjord","steam_id":76561198318126190,"connected_time":4720000000000,"state":"active","ping":151},{"user_id":75,"name":"BIGGS","steam_id":76561198057399996,"connected_time":3971000000000,"state":"active","ping":56}]},{"server_id":112,"name":"Uncletopia | Los Angeles | 2 | All Maps","name_short":"lax-2","host":"lax-1.us.uncletopia.com","port":27025,"enabled":true,"region":"us-west","cc":"us","latitude":33.94279,"longitude":-118.41004,"reserved":0,"last_update":"0001-01-01T00:00:00Z","name_a2s":"Uncletopia | Los Angeles | 2 | All Maps","protocol":17,"map":"koth_highpass","folder":"tf","game":"Team Fortress","app_id":440,"player_count":0,"max_players":24,"Bots":0,"server_type":"Dedicated","server_os":"Linux","password":true,"vac":true,"version":"7701286","steam_id":85568392924469992,"keywords":["cp","nocrits","nodmgspread","uncletopia"],"game_id":440,"stv_port":27026,"stv_name":"Uncletopia | Los Angeles | 2 | All Maps | STV","players":null},{"server_id":324,"name":"Uncletopia | Los Angeles | 3 | All Maps","name_short":"lax-3","host":"lax-1.us.uncletopia.com","port":27035,"enabled":true,"region":"us-west","cc":"us","latitude":33.94279,"longitude":-118.41004,"reserved":0,"last_update":"0001-01-01T00:00:00Z","name_a2s":"Uncletopia | Los Angeles | 3 | All Maps","protocol":17,"map":"cp_process_final","folder":"tf","game":"Team Fortress","app_id":440,"player_count":0,"max_players":24,"Bots":0,"server_type":"Dedicated","server_os":"Linux","password":true,"vac":true,"version":"7701286","steam_id":85568392924510198,"keywords":["cp","nocrits","nodmgspread","uncletopia"],"game_id":440,"stv_port":27036,"stv_name":"Uncletopia | Los Angeles | 3 | All Maps | STV","players":null},{"server_id":25,"name":"Uncletopia | Los Angeles | 4 | No Payload","name_short":"lax-4","host":"lax-1.us.uncletopia.com","port":27045,"enabled":true,"region":"us-west","cc":"us","latitude":33.94279,"longitude":-118.41004,"reserved":0,"last_update":"0001-01-01T00:00:00Z","name_a2s":"Uncletopia | Los Angeles | 4 | No Payload","protocol":17,"map":"cp_vanguard","folder":"tf","game":"Team Fortress","app_id":440,"player_count":0,"max_players":24,"Bots":0,"server_type":"Dedicated","server_os":"Linux","password":true,"vac":true,"version":"7701286","steam_id":85568392924510199,"keywords":["cp","nocrits","nodmgspread","uncletopia"],"game_id":440,"stv_port":27046,"stv_name":"Uncletopia | Los Angeles | 4 | No Payload | STV","players":null},{"server_id":11,"name":"Uncletopia | London | 1 | All Maps","name_short":"lon-1","host":"lon-1.uk.uncletopia.com","port":27015,"enabled":true,"region":"eu","cc":"gb","latitude":51.509865,"longitude":-0.118092,"reserved":0,"last_update":"0001-01-01T00:00:00Z","name_a2s":"Uncletopia | London | 1 | All Maps","protocol":17,"map":"pl_coal_event","folder":"tf","game":"Team Fortress","app_id":440,"player_count":20,"max_players":24,"Bots":0,"server_type":"Dedicated","server_os":"Linux","password":true,"vac":true,"version":"7701286","steam_id":85568392924367362,"keywords":["nocrits","nodmgspread","payload","uncletopia"],"game_id":440,"stv_port":27016,"stv_name":"Uncletopia | London | 1 | All Maps | STV","players":[{"user_id":72,"name":"üúè Drepp","steam_id":76561197998867164,"connected_time":4480000000000,"state":"active","ping":70},{"user_id":133,"name":"krevetchat1y","steam_id":76561199019941445,"connected_time":926000000000,"state":"active","ping":142},{"user_id":57,"name":"Naajakk","steam_id":76561198823368685,"connected_time":5360000000000,"state":"active","ping":78},{"user_id":95,"name":"Per√§miehen√§","steam_id":76561197968945306,"connected_time":1665000000000,"state":"active","ping":71},{"user_id":137,"name":"FRENCH","steam_id":76561198025214952,"connected_time":895000000000,"state":"active","ping":159},{"user_id":144,"name":"schizo gamer moment","steam_id":76561199414716848,"connected_time":618000000000,"state":"active","ping":68},{"user_id":75,"name":"Kjell Kriminell","steam_id":76561198062075870,"connected_time":3694000000000,"state":"active","ping":61},{"user_id":14,"name":"Logic Not Found","steam_id":76561198273025576,"connected_time":7523000000000,"state":"active","ping":57},{"user_id":123,"name":"Blob","steam_id":76561197971418993,"connected_time":991000000000,"state":"active","ping":86},{"user_id":145,"name":"HimpoX","steam_id":76561198043946778,"connected_time":583000000000,"state":"active","ping":92},{"user_id":154,"name":"—ç–º–æ –±–æ–π 2007","steam_id":76561198243917964,"connected_time":8000000000,"state":"spawning","ping":119},{"user_id":143,"name":"doktorspiele","steam_id":76561199057953617,"connected_time":657000000000,"state":"active","ping":66},{"user_id":148,"name":"Yuka","steam_id":76561198152009749,"connected_time":384000000000,"state":"active","ping":45},{"user_id":149,"name":"yona :3","steam_id":76561199088989216,"connected_time":346000000000,"state":"active","ping":104},{"user_id":150,"name":"Lydian_Witch","steam_id":76561198201381471,"connected_time":310000000000,"state":"active","ping":67},{"user_id":153,"name":"Mike","steam_id":76561199128446823,"connected_time":99000000000,"state":"active","ping":72},{"user_id":59,"name":"Nazuna","steam_id":76561198413225595,"connected_time":5253000000000,"state":"active","ping":124},{"user_id":80,"name":"hushhx","steam_id":76561198216200092,"connected_time":3335000000000,"state":"active","ping":45},{"user_id":76,"name":"Mei","steam_id":76561198363464483,"connected_time":3391000000000,"state":"active","ping":75},{"user_id":69,"name":"THE MVP","steam_id":76561198060619306,"connected_time":4559000000000,"state":"active","ping":46}]},{"server_id":114,"name":"Uncletopia | London | 2 | All Maps","name_short":"lon-2","host":"lon-1.uk.uncletopia.com","port":27025,"enabled":true,"region":"eu","cc":"gb","latitude":51.509865,"longitude":-0.118092,"reserved":0,"last_update":"0001-01-01T00:00:00Z","name_a2s":"Uncletopia | London | 2 | All Maps","protocol":17,"map":"cp_dustbowl","folder":"tf","game":"Team Fortress","app_id":440,"player_count":0,"max_players":24,"Bots":0,"server_type":"Dedicated","server_os":"Linux","password":true,"vac":true,"version":"7701286","steam_id":85568392924470941,"keywords":["cp","nocrits","nodmgspread","uncletopia"],"game_id":440,"stv_port":0,"stv_name":"","players":null},{"server_id":320,"name":"Uncletopia | London | 3 | All Maps","name_short":"lon-3","host":"lon-1.uk.uncletopia.com","port":27035,"enabled":true,"region":"eu","cc":"gb","latitude":51.509865,"longitude":-0.118092,"reserved":0,"last_update":"0001-01-01T00:00:00Z","name_a2s":"Uncletopia | London | 3 | All Maps","protocol":17,"map":"pl_swiftwater_final1","folder":"tf","game":"Team Fortress","app_id":440,"player_count":0,"max_players":24,"Bots":0,"server_type":"Dedicated","server_os":"Linux","password":true,"vac":true,"version":"7701286","steam_id":85568392924510192,"keywords":["nocrits","nodmgspread","payload","uncletopia"],"game_id":440,"stv_port":27036,"stv_name":"Uncletopia | London | 3 | All Maps | STV","players":null},{"server_id":321,"name":"Uncletopia | London | 4 | All Maps","name_short":"lon-4","host":"lon-1.uk.uncletopia.com","port":27045,"enabled":true,"region":"eu","cc":"gb","latitude":51.509865,"longitude":-0.118092,"reserved":0,"last_update":"0001-01-01T00:00:00Z","name_a2s":"Uncletopia | London | 4 | All Maps","protocol":17,"map":"koth_viaduct","folder":"tf","game":"Team Fortress","app_id":440,"player_count":0,"max_players":24,"Bots":0,"server_type":"Dedicated","server_os":"Linux","password":true,"vac":true,"version":"7701286","steam_id":85568392924510193,"keywords":["cp","nocrits","nodmgspread","uncletopia"],"game_id":440,"stv_port":0,"stv_name":"","players":null},{"server_id":21,"name":"Uncletopia | London | 5 | All Maps","name_short":"lon-5","host":"lon-1.uk.uncletopia.com","port":27055,"enabled":true,"region":"eu","cc":"gb","latitude":51.509865,"longitude":-0.118092,"reserved":0,"last_update":"0001-01-01T00:00:00Z","name_a2s":"Uncletopia | London | 5 | All Maps","protocol":17,"map":"pl_badwater","folder":"tf","game":"Team Fortress","app_id":440,"player_count":0,"max_players":24,"Bots":0,"server_type":"Dedicated","server_os":"Linux","password":true,"vac":true,"version":"7701286","steam_id":85568392924742829,"keywords":["nocrits","nodmgspread","payload","uncletopia"],"game_id":440,"stv_port":0,"stv_name":"","players":null},{"server_id":22,"name":"Uncletopia | London | 6 | All Maps","name_short":"lon-6","host":"lon-1.uk.uncletopia.com","port":27065,"enabled":true,"region":"eu","cc":"gb","latitude":51.509865,"longitude":-0.118092,"reserved":0,"last_update":"0001-01-01T00:00:00Z","name_a2s":"Uncletopia | London | 6 | All Maps","protocol":17,"map":"koth_lakeside_final","folder":"tf","game":"Team Fortress","app_id":440,"player_count":2,"max_players":24,"Bots":0,"server_type":"Dedicated","server_os":"Linux","password":true,"vac":true,"version":"7701286","steam_id":85568392924742830,"keywords":["cp","nocrits","nodmgspread","uncletopia"],"game_id":440,"stv_port":27066,"stv_name":"Uncletopia | London | 6 | All Maps | STV","players":[{"user_id":4,"name":"Space bar ¬©","steam_id":76561199405318831,"connected_time":2805000000000,"state":"active","ping":167},{"user_id":5,"name":"ùìòùì°ùìÆùì™ùìπùì©ùîÉ","steam_id":76561198857867296,"connected_time":2437000000000,"state":"active","ping":61}]},{"server_id":40,"name":"Uncletopia | London | 7 | No Payload","name_short":"lon-7","host":"lon-1.uk.uncletopia.com","port":27075,"enabled":true,"region":"eu","cc":"gb","latitude":51.509865,"longitude":-0.118092,"reserved":0,"last_update":"0001-01-01T00:00:00Z","name_a2s":"Uncletopia | London | 7 | No Payload","protocol":17,"map":"pl_frontier_final","folder":"tf","game":"Team Fortress","app_id":440,"player_count":0,"max_players":24,"Bots":0,"server_type":"Dedicated","server_os":"Linux","password":true,"vac":true,"version":"7701286","steam_id":85568392924964314,"keywords":["nocrits","nodmgspread","payload","uncletopia"],"game_id":440,"stv_port":0,"stv_name":"","players":null},{"server_id":41,"name":"Uncletopia | London | 8 | Community","name_short":"lon-8","host":"lon-1.uk.uncletopia.com","port":27085,"enabled":true,"region":"eu","cc":"gb","latitude":51.509865,"longitude":-0.118092,"reserved":0,"last_update":"0001-01-01T00:00:00Z","name_a2s":"Uncletopia | London | 8 | Community","protocol":17,"map":"pl_pier","folder":"tf","game":"Team Fortress","app_id":440,"player_count":0,"max_players":24,"Bots":0,"server_type":"Dedicated","server_os":"Linux","password":true,"vac":true,"version":"7701286","steam_id":85568392924964315,"keywords":["nocrits","nodmgspread","payload","uncletopia"],"game_id":440,"stv_port":0,"stv_name":"","players":null},{"server_id":300,"name":"Uncletopia | Montr√©al | 1 | All Maps","name_short":"mtl-1","host":"mtl-1.ca.uncletopia.com","port":27015,"enabled":true,"region":"us-east","cc":"ca","latitude":45.50889,"longitude":-73.56167,"reserved":0,"last_update":"0001-01-01T00:00:00Z","name_a2s":"Uncletopia | Montr√©al | 1 | All Maps","protocol":17,"map":"koth_lakeside_final","folder":"tf","game":"Team Fortress","app_id":440,"player_count":0,"max_players":24,"Bots":0,"server_type":"Dedicated","server_os":"Linux","password":true,"vac":true,"version":"7701286","steam_id":85568392924500087,"keywords":["cp","nocrits","nodmgspread","uncletopia"],"game_id":440,"stv_port":0,"stv_name":"","players":null},{"server_id":301,"name":"Uncletopia | Montr√©al | 2 | All Maps","name_short":"mtl-2","host":"mtl-1.ca.uncletopia.com","port":27025,"enabled":true,"region":"us-east","cc":"ca","latitude":45.50889,"longitude":-73.56167,"reserved":0,"last_update":"0001-01-01T00:00:00Z","name_a2s":"Uncletopia | Montr√©al | 2 | All Maps","protocol":17,"map":"pl_swiftwater_final1","folder":"tf","game":"Team Fortress","app_id":440,"player_count":0,"max_players":24,"Bots":0,"server_type":"Dedicated","server_os":"Linux","password":true,"vac":true,"version":"7701286","steam_id":85568392924500088,"keywords":["nocrits","nodmgspread","payload","uncletopia"],"game_id":440,"stv_port":27026,"stv_name":"Uncletopia | Montr√©al | 2 | All Maps | STV","players":null},{"server_id":302,"name":"Uncletopia | Montr√©al | 3 | All Maps","name_short":"mtl-3","host":"mtl-1.ca.uncletopia.com","port":27035,"enabled":true,"region":"us-east","cc":"ca","latitude":45.50889,"longitude":-73.56167,"reserved":0,"last_update":"0001-01-01T00:00:00Z","name_a2s":"Uncletopia | Montr√©al | 3 | All Maps","protocol":17,"map":"cp_dustbowl","folder":"tf","game":"Team Fortress","app_id":440,"player_count":21,"max_players":24,"Bots":0,"server_type":"Dedicated","server_os":"Linux","password":true,"vac":true,"version":"7701286","steam_id":85568392924500089,"keywords":["cp","nocrits","nodmgspread","uncletopia"],"game_id":440,"stv_port":27036,"stv_name":"Uncletopia | Montr√©al | 3 | All Maps | STV","players":[{"user_id":96,"name":"Kiwi","steam_id":76561198082824979,"connected_time":1313000000000,"state":"active","ping":98},{"user_id":108,"name":"txjd","steam_id":76561198115258323,"connected_time":715000000000,"state":"active","ping":108},{"user_id":105,"name":"MOLEMAN","steam_id":76561198311403760,"connected_time":927000000000,"state":"active","ping":54},{"user_id":99,"name":":]","steam_id":76561198018947778,"connected_time":1175000000000,"state":"active","ping":140},{"user_id":111,"name":"Mamson","steam_id":76561198308073902,"connected_time":376000000000,"state":"active","ping":56},{"user_id":106,"name":"GuyGoom","steam_id":76561198254522178,"connected_time":874000000000,"state":"active","ping":67},{"user_id":101,"name":"onionman0106","steam_id":76561199067766868,"connected_time":1121000000000,"state":"active","ping":118},{"user_id":102,"name":"Open Mailbox","steam_id":76561198051933580,"connected_time":1107000000000,"state":"active","ping":101},{"user_id":86,"name":"urine trouble","steam_id":76561199013266640,"connected_time":2818000000000,"state":"active","ping":38},{"user_id":104,"name":"chicken on quack","steam_id":76561199235538552,"connected_time":980000000000,"state":"active","ping":115},{"user_id":107,"name":"Ciryl Lyn","steam_id":76561198160091331,"connected_time":873000000000,"state":"active","ping":73},{"user_id":81,"name":"Mariopan","steam_id":76561198166980348,"connected_time":2908000000000,"state":"active","ping":127},{"user_id":118,"name":"harmless","steam_id":76561197990799645,"connected_time":97000000000,"state":"active","ping":90},{"user_id":110,"name":"Sicko Mode (Chris Pratt Cover)","steam_id":76561198315786174,"connected_time":619000000000,"state":"active","ping":55},{"user_id":112,"name":"BleeboBleebo","steam_id":76561198151549658,"connected_time":371000000000,"state":"active","ping":74},{"user_id":113,"name":"Gilgamesh","steam_id":76561198317113179,"connected_time":367000000000,"state":"active","ping":75},{"user_id":46,"name":"emctwo","steam_id":76561198095082517,"connected_time":6598000000000,"state":"active","ping":58},{"user_id":114,"name":"Mudd","steam_id":76561199220612917,"connected_time":345000000000,"state":"active","ping":121},{"user_id":117,"name":"NepNep","steam_id":76561198116712585,"connected_time":151000000000,"state":"active","ping":60},{"user_id":66,"name":"dosimeter","steam_id":76561198039608940,"connected_time":5117000000000,"state":"active","ping":118},{"user_id":94,"name":"hashmap","steam_id":76561198043794014,"connected_time":1525000000000,"state":"active","ping":49}]},{"server_id":303,"name":"Uncletopia | Montr√©al | 4 | No Payload","name_short":"mtl-4","host":"mtl-1.ca.uncletopia.com","port":27045,"enabled":true,"region":"us-east","cc":"ca","latitude":45.50889,"longitude":-73.56167,"reserved":0,"last_update":"0001-01-01T00:00:00Z","name_a2s":"Uncletopia | Montr√©al | 4 | No Payload","protocol":17,"map":"pl_upward","folder":"tf","game":"Team Fortress","app_id":440,"player_count":0,"max_players":24,"Bots":0,"server_type":"Dedicated","server_os":"Linux","password":true,"vac":true,"version":"7701286","steam_id":85568392924500090,"keywords":["nocrits","nodmgspread","payload","uncletopia"],"game_id":440,"stv_port":0,"stv_name":"","players":null},{"server_id":13,"name":"Uncletopia | New York City | 1 | All Maps","name_short":"nyc-1","host":"nyc-1.us.uncletopia.com","port":27015,"enabled":true,"region":"us-east","cc":"us","latitude":40.73061,"longitude":-73.93524,"reserved":0,"last_update":"0001-01-01T00:00:00Z","name_a2s":"Uncletopia | New York City | 1 | All Maps","protocol":17,"map":"pl_borneo","folder":"tf","game":"Team Fortress","app_id":440,"player_count":24,"max_players":24,"Bots":0,"server_type":"Dedicated","server_os":"Linux","password":true,"vac":true,"version":"7701286","steam_id":85568392924469993,"keywords":["nocrits","nodmgspread","payload","uncletopia"],"game_id":440,"stv_port":27016,"stv_name":"Uncletopia | New York City | 1 | All Maps | STV","players":[{"user_id":77,"name":"IMPACT CPU","steam_id":76561198001344879,"connected_time":4165000000000,"state":"active","ping":61},{"user_id":95,"name":"Deobot","steam_id":76561198243697604,"connected_time":2040000000000,"state":"active","ping":121},{"user_id":79,"name":"HAVE YOU DONE YOUR SQUATS TODAY","steam_id":76561198010201227,"connected_time":3090000000000,"state":"active","ping":77},{"user_id":122,"name":"Drakkona","steam_id":76561198095449994,"connected_time":996000000000,"state":"active","ping":90},{"user_id":102,"name":"Ion{M}","steam_id":76561197993457435,"connected_time":1735000000000,"state":"active","ping":73},{"user_id":97,"name":"Joyous Jenny","steam_id":76561198127998866,"connected_time":1957000000000,"state":"active","ping":56},{"user_id":107,"name":"Tyr","steam_id":76561198156006917,"connected_time":1559000000000,"state":"active","ping":87},{"user_id":62,"name":"Amaretto Sour","steam_id":76561198063112844,"connected_time":5223000000000,"state":"active","ping":65},{"user_id":131,"name":"boot","steam_id":76561198806968845,"connected_time":283000000000,"state":"active","ping":44},{"user_id":125,"name":"Lumen","steam_id":76561197985372319,"connected_time":776000000000,"state":"active","ping":49},{"user_id":126,"name":"tame","steam_id":76561198925005855,"connected_time":576000000000,"state":"active","ping":173},{"user_id":108,"name":"Fantastic","steam_id":76561198079088978,"connected_time":1517000000000,"state":"active","ping":62},{"user_id":111,"name":"Vulpes","steam_id":76561198038929334,"connected_time":1391000000000,"state":"active","ping":47},{"user_id":127,"name":"Monkey","steam_id":76561198031015186,"connected_time":568000000000,"state":"active","ping":88},{"user_id":119,"name":"Infinitytacos","steam_id":76561198884260211,"connected_time":1156000000000,"state":"active","ping":72},{"user_id":75,"name":"VerociousVee","steam_id":76561198289106015,"connected_time":4559000000000,"state":"active","ping":117},{"user_id":120,"name":"KnightShock","steam_id":76561199086307667,"connected_time":1060000000000,"state":"active","ping":115},{"user_id":124,"name":"VX Ghost","steam_id":76561198072541436,"connected_time":869000000000,"state":"active","ping":57},{"user_id":112,"name":"Ras","steam_id":76561198123546775,"connected_time":1364000000000,"state":"active","ping":73},{"user_id":113,"name":"nibbaiffyuh","steam_id":76561198109499986,"connected_time":1357000000000,"state":"active","ping":124},{"user_id":116,"name":"Glucouse Guardian","steam_id":76561198066933921,"connected_time":1291000000000,"state":"active","ping":45},{"user_id":117,"name":"Parth Makeo","steam_id":76561198002516581,"connected_time":1290000000000,"state":"active","ping":46},{"user_id":130,"name":"captainbros","steam_id":76561198370989893,"connected_time":478000000000,"state":"active","ping":72},{"user_id":65,"name":"World Famous Skater Sean Pablo","steam_id":76561197999261387,"connected_time":4994000000000,"state":"active","ping":107}]},{"server_id":14,"name":"Uncletopia | New York City | 2 | All Maps","name_short":"nyc-2","host":"nyc-1.us.uncletopia.com","port":27025,"enabled":true,"region":"us-east","cc":"us","latitude":40.73061,"longitude":-73.93524,"reserved":0,"last_update":"0001-01-01T00:00:00Z","name_a2s":"Uncletopia | New York City | 2 | All Maps","protocol":17,"map":"pl_borneo","folder":"tf","game":"Team Fortress","app_id":440,"player_count":25,"max_players":24,"Bots":0,"server_type":"Dedicated","server_os":"Linux","password":true,"vac":true,"version":"7701286","steam_id":85568392924469994,"keywords":["nocrits","nodmgspread","payload","uncletopia"],"game_id":440,"stv_port":27026,"stv_name":"Uncletopia | New York City | 2 | All Maps | STV","players":[{"user_id":69,"name":"Myte","steam_id":76561198892604337,"connected_time":3623000000000,"state":"active","ping":87},{"user_id":107,"name":"HonoredOgre","steam_id":76561198353496638,"connected_time":385000000000,"state":"active","ping":60},{"user_id":74,"name":"matkaster","steam_id":76561197998546486,"connected_time":3175000000000,"state":"active","ping":82},{"user_id":84,"name":"Dannnnnn","steam_id":76561198442700385,"connected_time":2438000000000,"state":"active","ping":171},{"user_id":94,"name":"Iron_Dave_Qc","steam_id":76561198159325213,"connected_time":2198000000000,"state":"active","ping":51},{"user_id":88,"name":"Loafus","steam_id":76561198154561111,"connected_time":2395000000000,"state":"active","ping":64},{"user_id":105,"name":"batheman63","steam_id":76561198881818552,"connected_time":549000000000,"state":"active","ping":55},{"user_id":61,"name":"PBnJames","steam_id":76561198834000962,"connected_time":4153000000000,"state":"active","ping":46},{"user_id":108,"name":"Christoph Waltz eating a burger","steam_id":76561199215811448,"connected_time":384000000000,"state":"active","ping":56},{"user_id":110,"name":"Saijax","steam_id":76561198056439274,"connected_time":277000000000,"state":"active","ping":82},{"user_id":111,"name":"Peep the Horror","steam_id":76561198126219247,"connected_time":203000000000,"state":"active","ping":114},{"user_id":89,"name":"Zippy","steam_id":76561198279229422,"connected_time":2388000000000,"state":"active","ping":59},{"user_id":72,"name":"LORD JIMJACK YE-YE","steam_id":76561199151780779,"connected_time":3229000000000,"state":"active","ping":53},{"user_id":103,"name":"G_Bob","steam_id":76561198098133233,"connected_time":1378000000000,"state":"active","ping":86},{"user_id":106,"name":"Not Slavoj ≈Ωi≈æek","steam_id":76561198004619616,"connected_time":415000000000,"state":"active","ping":126},{"user_id":102,"name":"kob","steam_id":76561198065109021,"connected_time":1418000000000,"state":"active","ping":62},{"user_id":64,"name":"Terranfear","steam_id":76561197975409022,"connected_time":4069000000000,"state":"active","ping":42},{"user_id":98,"name":"stewfat","steam_id":76561198084066964,"connected_time":1952000000000,"state":"active","ping":45},{"user_id":92,"name":"Fever Dreams","steam_id":76561198116614620,"connected_time":2378000000000,"state":"active","ping":74},{"user_id":60,"name":"CoolerK","steam_id":76561197993787252,"connected_time":4174000000000,"state":"active","ping":62},{"user_id":78,"name":"ExtraSoap","steam_id":76561198008712409,"connected_time":3051000000000,"state":"active","ping":59},{"user_id":82,"name":"Government Plates","steam_id":76561198140866252,"connected_time":2560000000000,"state":"active","ping":51},{"user_id":99,"name":"Pika","steam_id":76561198068063436,"connected_time":1949000000000,"state":"active","ping":68},{"user_id":112,"name":"The World","steam_id":76561198158615774,"connected_time":185000000000,"state":"connecting","ping":0},{"user_id":67,"name":"NeroStrimings / hAMMERgANG","steam_id":76561198250362028,"connected_time":3994000000000,"state":"active","ping":106}]},{"server_id":15,"name":"Uncletopia | New York City | 3 | All Maps","name_short":"nyc-3","host":"nyc-1.us.uncletopia.com","port":27035,"enabled":true,"region":"us-east","cc":"us","latitude":40.73061,"longitude":-73.93524,"reserved":0,"last_update":"0001-01-01T00:00:00Z","name_a2s":"Uncletopia | New York City | 3 | All Maps","protocol":17,"map":"cp_dustbowl","folder":"tf","game":"Team Fortress","app_id":440,"player_count":18,"max_players":24,"Bots":0,"server_type":"Dedicated","server_os":"Linux","password":true,"vac":true,"version":"7701286","steam_id":85568392924742820,"keywords":["cp","nocrits","nodmgspread","uncletopia"],"game_id":440,"stv_port":27036,"stv_name":"Uncletopia | New York City | 3 | All Maps | STV","players":[{"user_id":117,"name":"ethanweegee","steam_id":76561198272400016,"connected_time":602000000000,"state":"active","ping":66},{"user_id":116,"name":"Vivid Hut 64","steam_id":76561198170050059,"connected_time":670000000000,"state":"active","ping":53},{"user_id":119,"name":"Dylanxp300","steam_id":76561198271974937,"connected_time":440000000000,"state":"active","ping":56},{"user_id":120,"name":"Heavy Ye (Hitla Suit)","steam_id":76561198176618461,"connected_time":431000000000,"state":"active","ping":70},{"user_id":121,"name":"toq","steam_id":76561198400316620,"connected_time":372000000000,"state":"active","ping":75},{"user_id":93,"name":"novacheri1","steam_id":76561198345120143,"connected_time":2507000000000,"state":"active","ping":61},{"user_id":122,"name":"üê±Lukewarmcatüê±","steam_id":76561197987285974,"connected_time":326000000000,"state":"active","ping":83},{"user_id":123,"name":"M00NM4DN355 || Buff The Speed","steam_id":76561198082775439,"connected_time":163000000000,"state":"active","ping":64},{"user_id":124,"name":"LalitoTV","steam_id":76561198334302951,"connected_time":158000000000,"state":"active","ping":138},{"user_id":73,"name":"schmopp","steam_id":76561198076490954,"connected_time":3369000000000,"state":"active","ping":70},{"user_id":74,"name":"fish","steam_id":76561198229957260,"connected_time":3365000000000,"state":"active","ping":51},{"user_id":125,"name":"Stressmelo","steam_id":76561199204445185,"connected_time":60000000000,"state":"active","ping":83},{"user_id":126,"name":"autumn","steam_id":76561198036901822,"connected_time":39000000000,"state":"active","ping":86},{"user_id":104,"name":"ZachStarAttack","steam_id":76561198301353499,"connected_time":1718000000000,"state":"active","ping":108},{"user_id":88,"name":"Spicy Duck","steam_id":76561198065905730,"connected_time":2757000000000,"state":"active","ping":64},{"user_id":62,"name":"Kamin","steam_id":76561198255299559,"connected_time":3984000000000,"state":"active","ping":100},{"user_id":95,"name":"02vg3","steam_id":76561198404320154,"connected_time":2501000000000,"state":"active","ping":123},{"user_id":115,"name":"Chechens Spotted","steam_id":76561199028910893,"connected_time":890000000000,"state":"active","ping":66}]},{"server_id":16,"name":"Uncletopia | New York City | 4 | Community","name_short":"nyc-4","host":"nyc-1.us.uncletopia.com","port":27045,"enabled":true,"region":"us-east","cc":"us","latitude":40.73061,"longitude":-73.93524,"reserved":0,"last_update":"0001-01-01T00:00:00Z","name_a2s":"Uncletopia | New York City | 4 | Community","protocol":17,"map":"workshop/rd_asteroid_redux_rc9.ugc2154902912","folder":"tf","game":"Team Fortress","app_id":440,"player_count":0,"max_players":24,"Bots":0,"server_type":"Dedicated","server_os":"Linux","password":true,"vac":true,"version":"7701286","steam_id":85568392924742821,"keywords":["beta","nocrits","nodmgspread","rd","uncletopia"],"game_id":440,"stv_port":27046,"stv_name":"Uncletopia | New York City | 4 | Community | STV","players":null},{"server_id":142,"name":"Uncletopia | S√£o Paulo | 1 | All Maps","name_short":"sao-1","host":"sao-1.br.uncletopia.com","port":27015,"enabled":true,"region":"sa","cc":"br","latitude":-23.533773,"longitude":-46.62529,"reserved":0,"last_update":"0001-01-01T00:00:00Z","name_a2s":"Uncletopia | S√£o Paulo | 1 | All Maps","protocol":17,"map":"pl_pier","folder":"tf","game":"Team Fortress","app_id":440,"player_count":0,"max_players":24,"Bots":0,"server_type":"Dedicated","server_os":"Linux","password":true,"vac":true,"version":"7701286","steam_id":85568392924469996,"keywords":["nocrits","nodmgspread","payload","uncletopia"],"game_id":440,"stv_port":0,"stv_name":"","players":null},{"server_id":143,"name":"Uncletopia | S√£o Paulo | 2 | All Maps","name_short":"sao-2","host":"sao-2.br.uncletopia.com","port":27015,"enabled":true,"region":"sa","cc":"br","latitude":-23.533773,"longitude":-46.62529,"reserved":0,"last_update":"0001-01-01T00:00:00Z","name_a2s":"Uncletopia | S√£o Paulo | 2 | All Maps","protocol":17,"map":"koth_cascade","folder":"tf","game":"Team Fortress","app_id":440,"player_count":0,"max_players":24,"Bots":0,"server_type":"Dedicated","server_os":"Linux","password":true,"vac":true,"version":"7701286","steam_id":85568392924485349,"keywords":["cp","nocrits","nodmgspread","uncletopia"],"game_id":440,"stv_port":0,"stv_name":"","players":null},{"server_id":7,"name":"Uncletopia | Seattle | 1 | All Maps","name_short":"sea-1","host":"sea-1.us.uncletopia.com","port":27015,"enabled":true,"region":"us-west","cc":"us","latitude":47.608013,"longitude":-122.33517,"reserved":0,"last_update":"0001-01-01T00:00:00Z","name_a2s":"Uncletopia | Seattle | 1 | All Maps","protocol":17,"map":"pl_wutville_event","folder":"tf","game":"Team Fortress","app_id":440,"player_count":23,"max_players":24,"Bots":0,"server_type":"Dedicated","server_os":"Linux","password":true,"vac":true,"version":"7701286","steam_id":85568392924469997,"keywords":["nocrits","nodmgspread","payload","uncletopia"],"game_id":440,"stv_port":27016,"stv_name":"Uncletopia | Seattle | 1 | All Maps | STV","players":[{"user_id":115,"name":"The odd duck","steam_id":76561199017353323,"connected_time":205000000000,"state":"active","ping":47},{"user_id":86,"name":"McNamJam","steam_id":76561198028128686,"connected_time":2973000000000,"state":"active","ping":66},{"user_id":91,"name":"incineratedbread","steam_id":76561198133619079,"connected_time":2762000000000,"state":"active","ping":48},{"user_id":114,"name":"RemiSc","steam_id":76561198180669301,"connected_time":454000000000,"state":"active","ping":51},{"user_id":6,"name":"Mr.Thirteen","steam_id":76561198047468836,"connected_time":7662000000000,"state":"active","ping":63},{"user_id":100,"name":"ubiquitous man","steam_id":76561198073782350,"connected_time":2134000000000,"state":"active","ping":77},{"user_id":98,"name":"Weirdo","steam_id":76561199150514223,"connected_time":2189000000000,"state":"active","ping":170},{"user_id":105,"name":"Ahzain","steam_id":76561198035894333,"connected_time":1167000000000,"state":"active","ping":78},{"user_id":79,"name":"SodaAnt","steam_id":76561197987160631,"connected_time":3560000000000,"state":"active","ping":47},{"user_id":101,"name":"Stone Toad Steve Austin","steam_id":76561198030622861,"connected_time":1593000000000,"state":"active","ping":126},{"user_id":116,"name":"hedahman","steam_id":76561198052398134,"connected_time":151000000000,"state":"active","ping":44},{"user_id":107,"name":"‚òÜAtomic Waffle‚òÜ","steam_id":76561198100385184,"connected_time":1042000000000,"state":"active","ping":83},{"user_id":102,"name":"Round King","steam_id":76561198273185290,"connected_time":1446000000000,"state":"active","ping":135},{"user_id":99,"name":"Liquid Gold","steam_id":76561198347510093,"connected_time":2176000000000,"state":"active","ping":51},{"user_id":117,"name":"hop","steam_id":76561198039914843,"connected_time":8000000000,"state":"spawning","ping":155},{"user_id":81,"name":"Spleen","steam_id":76561198024379401,"connected_time":3454000000000,"state":"active","ping":62},{"user_id":63,"name":"Amogous Supreme","steam_id":76561198025476774,"connected_time":5399000000000,"state":"active","ping":69},{"user_id":78,"name":"CheeseCake488","steam_id":76561199407617942,"connected_time":3574000000000,"state":"active","ping":121},{"user_id":74,"name":"Krazzle","steam_id":76561198029782412,"connected_time":4542000000000,"state":"active","ping":66},{"user_id":111,"name":"Patrick Bateman","steam_id":76561198368354307,"connected_time":819000000000,"state":"active","ping":97},{"user_id":108,"name":"Zykio","steam_id":76561198122490182,"connected_time":1029000000000,"state":"active","ping":103},{"user_id":109,"name":"Large Package","steam_id":76561198045403508,"connected_time":1025000000000,"state":"active","ping":81},{"user_id":112,"name":"cmoffs „Ç∑","steam_id":76561198050505566,"connected_time":757000000000,"state":"active","ping":36}]},{"server_id":119,"name":"Uncletopia | Seattle | 2 | All Maps","name_short":"sea-2","host":"sea-1.us.uncletopia.com","port":27025,"enabled":true,"region":"us-west","cc":"us","latitude":47.608013,"longitude":-122.33517,"reserved":0,"last_update":"0001-01-01T00:00:00Z","name_a2s":"Uncletopia | Seattle | 2 | All Maps","protocol":17,"map":"pl_pier","folder":"tf","game":"Team Fortress","app_id":440,"player_count":24,"max_players":24,"Bots":0,"server_type":"Dedicated","server_os":"Linux","password":true,"vac":true,"version":"7701286","steam_id":85568392924469998,"keywords":["nocrits","nodmgspread","payload","uncletopia"],"game_id":440,"stv_port":27026,"stv_name":"Uncletopia | Seattle | 2 | All Maps | STV","players":[{"user_id":75,"name":"dodgerino3","steam_id":76561198964300624,"connected_time":3044000000000,"state":"active","ping":69},{"user_id":73,"name":"[DATS‚û°] Sugar Meowth","steam_id":76561197995251793,"connected_time":3076000000000,"state":"active","ping":37},{"user_id":91,"name":"Gentlegen","steam_id":76561198257368619,"connected_time":1409000000000,"state":"active","ping":156},{"user_id":103,"name":"ItsDonut","steam_id":76561198862163064,"connected_time":182000000000,"state":"active","ping":81},{"user_id":85,"name":"2 Point Tom","steam_id":76561198087617008,"connected_time":2048000000000,"state":"active","ping":53},{"user_id":71,"name":"General Fisticuffs","steam_id":76561198255721392,"connected_time":3170000000000,"state":"active","ping":105},{"user_id":97,"name":"S Q U I S H E  T H A T  C A T","steam_id":76561198293865429,"connected_time":477000000000,"state":"active","ping":45},{"user_id":104,"name":"R.Y.","steam_id":76561199384459715,"connected_time":133000000000,"state":"active","ping":124},{"user_id":99,"name":"OmniXVII","steam_id":76561198027183394,"connected_time":437000000000,"state":"active","ping":92},{"user_id":101,"name":"Chris P. Wiener","steam_id":76561198168808551,"connected_time":312000000000,"state":"active","ping":56},{"user_id":77,"name":"McSpazatron","steam_id":76561198955942148,"connected_time":2791000000000,"state":"active","ping":84},{"user_id":17,"name":"CommanderParatus","steam_id":76561198035147681,"connected_time":6725000000000,"state":"active","ping":93},{"user_id":18,"name":"AceLess","steam_id":76561198193181466,"connected_time":6723000000000,"state":"active","ping":64},{"user_id":90,"name":"Beano Bellbonius","steam_id":76561198099091038,"connected_time":1526000000000,"state":"active","ping":55},{"user_id":94,"name":"THAT CAT","steam_id":76561198010828625,"connected_time":529000000000,"state":"active","ping":38},{"user_id":95,"name":"Many Bees' Chilling","steam_id":76561198079641282,"connected_time":529000000000,"state":"active","ping":67},{"user_id":88,"name":"CB1 Cousin Junebug","steam_id":76561198090573639,"connected_time":1981000000000,"state":"active","ping":67},{"user_id":89,"name":"DJHyper777","steam_id":76561198304548526,"connected_time":1978000000000,"state":"active","ping":74},{"user_id":81,"name":"GameGuru the Green Gryphon","steam_id":76561198118495354,"connected_time":2516000000000,"state":"active","ping":56},{"user_id":60,"name":"Court Wizard, Sir Dr. Clydesdal","steam_id":76561198149267697,"connected_time":4046000000000,"state":"active","ping":61},{"user_id":74,"name":"Mom","steam_id":76561198207936000,"connected_time":3069000000000,"state":"active","ping":63},{"user_id":64,"name":"tayzik","steam_id":76561199391478575,"connected_time":3489000000000,"state":"active","ping":67},{"user_id":93,"name":"ok","steam_id":76561199043151390,"connected_time":551000000000,"state":"active","ping":73},{"user_id":105,"name":"Slavic Pancake","steam_id":76561199319750064,"connected_time":121000000000,"state":"active","ping":260}]},{"server_id":17,"name":"Uncletopia | San Francisco | 1 | All Maps","name_short":"sfo-1","host":"sfo-1.us.uncletopia.com","port":27015,"enabled":true,"region":"us-west","cc":"us","latitude":37.77397,"longitude":-122.4313,"reserved":0,"last_update":"0001-01-01T00:00:00Z","name_a2s":"Uncletopia | San Francisco | 1 | All Maps","protocol":17,"map":"cp_snakewater_final1","folder":"tf","game":"Team Fortress","app_id":440,"player_count":0,"max_players":24,"Bots":0,"server_type":"Dedicated","server_os":"Linux","password":true,"vac":true,"version":"7701286","steam_id":85568392924469999,"keywords":["cp","nocrits","nodmgspread","uncletopia"],"game_id":440,"stv_port":27016,"stv_name":"Uncletopia | San Francisco | 1 | All Maps | STV","players":null},{"server_id":18,"name":"Uncletopia | San Francisco | 2 | All Maps","name_short":"sfo-2","host":"sfo-1.us.uncletopia.com","port":27025,"enabled":true,"region":"us-west","cc":"us","latitude":37.77397,"longitude":-122.4313,"reserved":0,"last_update":"0001-01-01T00:00:00Z","name_a2s":"Uncletopia | San Francisco | 2 | All Maps","protocol":17,"map":"koth_lakeside_final","folder":"tf","game":"Team Fortress","app_id":440,"player_count":6,"max_players":24,"Bots":0,"server_type":"Dedicated","server_os":"Linux","password":true,"vac":true,"version":"7701286","steam_id":85568392924470000,"keywords":["cp","nocrits","nodmgspread","uncletopia"],"game_id":440,"stv_port":27026,"stv_name":"Uncletopia | San Francisco | 2 | All Maps | STV","players":[{"user_id":18,"name":"GrandpappyCripes","steam_id":76561198086994768,"connected_time":952000000000,"state":"active","ping":49},{"user_id":19,"name":"Feddy","steam_id":76561198364645366,"connected_time":606000000000,"state":"active","ping":99},{"user_id":11,"name":"Charcoal","steam_id":76561198268638706,"connected_time":2365000000000,"state":"active","ping":51},{"user_id":20,"name":"wubber","steam_id":76561198286627157,"connected_time":441000000000,"state":"active","ping":90},{"user_id":21,"name":"Luffy (real)","steam_id":76561198056301018,"connected_time":62000000000,"state":"active","ping":134},{"user_id":22,"name":"101","steam_id":76561199366968526,"connected_time":40000000000,"state":"active","ping":37}]},{"server_id":19,"name":"Uncletopia | San Francisco | 3 | No Payload","name_short":"sfo-3","host":"sfo-1.us.uncletopia.com","port":27035,"enabled":true,"region":"us-west","cc":"us","latitude":37.77397,"longitude":-122.4313,"reserved":0,"last_update":"0001-01-01T00:00:00Z","name_a2s":"Uncletopia | San Francisco | 3 | No Payload","protocol":17,"map":"koth_lakeside_final","folder":"tf","game":"Team Fortress","app_id":440,"player_count":24,"max_players":24,"Bots":0,"server_type":"Dedicated","server_os":"Linux","password":true,"vac":true,"version":"7701286","steam_id":85568392924742824,"keywords":["cp","nocrits","nodmgspread","uncletopia"],"game_id":440,"stv_port":27036,"stv_name":"Uncletopia | San Francisco | 3 | No Payload | STV","players":[{"user_id":97,"name":"McMurry","steam_id":76561198301577824,"connected_time":1657000000000,"state":"active","ping":74},{"user_id":136,"name":"eryn üó∫","steam_id":76561198004433070,"connected_time":99000000000,"state":"active","ping":93},{"user_id":30,"name":"Armpit!","steam_id":76561197978095727,"connected_time":4002000000000,"state":"active","ping":79},{"user_id":130,"name":"frick","steam_id":76561198092666182,"connected_time":395000000000,"state":"active","ping":36},{"user_id":31,"name":"Munky","steam_id":76561197993491054,"connected_time":3999000000000,"state":"active","ping":68},{"user_id":131,"name":"Murk Wahlberg","steam_id":76561198131467867,"connected_time":373000000000,"state":"active","ping":30},{"user_id":8,"name":"jdejefsoph () official ))","steam_id":76561198118239352,"connected_time":4395000000000,"state":"active","ping":74},{"user_id":9,"name":"Hugh Mungus","steam_id":76561198149749310,"connected_time":4384000000000,"state":"active","ping":75},{"user_id":10,"name":"SeaEagle","steam_id":76561198427422857,"connected_time":4376000000000,"state":"active","ping":60},{"user_id":99,"name":"Kiernan2","steam_id":76561197996490798,"connected_time":1517000000000,"state":"active","ping":66},{"user_id":133,"name":"G","steam_id":76561197962148245,"connected_time":248000000000,"state":"active","ping":66},{"user_id":16,"name":"M.A.D.","steam_id":76561198881338506,"connected_time":4177000000000,"state":"active","ping":74},{"user_id":134,"name":"Tirlby","steam_id":76561198045231233,"connected_time":225000000000,"state":"active","ping":107},{"user_id":19,"name":"SalpinxAri","steam_id":76561199056480707,"connected_time":4133000000000,"state":"active","ping":71},{"user_id":109,"name":"The Mincer","steam_id":76561198209881263,"connected_time":1145000000000,"state":"active","ping":57},{"user_id":32,"name":"\u003e:3 Muiramme Œµ—ó–∑","steam_id":76561197994458543,"connected_time":3995000000000,"state":"active","ping":64},{"user_id":107,"name":"nelly modelo","steam_id":76561198044875206,"connected_time":1208000000000,"state":"active","ping":68},{"user_id":119,"name":"NooDBussY","steam_id":76561198817882138,"connected_time":869000000000,"state":"active","ping":78},{"user_id":83,"name":"Riske","steam_id":76561198115840568,"connected_time":2118000000000,"state":"active","ping":121},{"user_id":135,"name":"i ate atomic bomb","steam_id":76561198150406851,"connected_time":220000000000,"state":"active","ping":46},{"user_id":129,"name":"Eros","steam_id":76561198000530934,"connected_time":488000000000,"state":"active","ping":52},{"user_id":35,"name":"AngelDirk","steam_id":76561197997642776,"connected_time":3953000000000,"state":"active","ping":90},{"user_id":81,"name":"Guest 666","steam_id":76561198127674708,"connected_time":2198000000000,"state":"active","ping":50},{"user_id":138,"name":"Vinny Stromboli","steam_id":76561198068241952,"connected_time":72000000000,"state":"spawning","ping":4066}]},{"server_id":20,"name":"Uncletopia | San Francisco | 4 | Community","name_short":"sfo-4","host":"sfo-1.us.uncletopia.com","port":27045,"enabled":true,"region":"us-west","cc":"us","latitude":37.77397,"longitude":-122.4313,"reserved":0,"last_update":"0001-01-01T00:00:00Z","name_a2s":"Uncletopia | San Francisco | 4 | Community","protocol":17,"map":"workshop/cp_sulfur_rc2.ugc619869471","folder":"tf","game":"Team Fortress","app_id":440,"player_count":23,"max_players":24,"Bots":0,"server_type":"Dedicated","server_os":"Linux","password":true,"vac":true,"version":"7701286","steam_id":85568392924742826,"keywords":["cp","nocrits","nodmgspread","uncletopia"],"game_id":440,"stv_port":27046,"stv_name":"Uncletopia | San Francisco | 4 | Community | STV","players":[{"user_id":77,"name":"AntiMakes","steam_id":76561198982657657,"connected_time":593000000000,"state":"active","ping":124},{"user_id":73,"name":"ARealWizard","steam_id":76561198080009151,"connected_time":810000000000,"state":"active","ping":76},{"user_id":66,"name":"Coolio-aid","steam_id":76561198218361691,"connected_time":1303000000000,"state":"active","ping":56},{"user_id":74,"name":"Antwan","steam_id":76561198246200638,"connected_time":793000000000,"state":"active","ping":76},{"user_id":7,"name":"Kick Down Door 6:00AM TUCK‚òÉRO","steam_id":76561197976146738,"connected_time":4943000000000,"state":"active","ping":119},{"user_id":49,"name":"Zogovro","steam_id":76561199163618880,"connected_time":2366000000000,"state":"active","ping":55},{"user_id":54,"name":"Feel the bern","steam_id":76561198078824519,"connected_time":2178000000000,"state":"active","ping":70},{"user_id":11,"name":"Nathan Loves You","steam_id":76561198047371790,"connected_time":4920000000000,"state":"active","ping":86},{"user_id":12,"name":"Sliced_Kiwi","steam_id":76561198245104568,"connected_time":4837000000000,"state":"active","ping":80},{"user_id":60,"name":"Yarrun","steam_id":76561198046616908,"connected_time":2029000000000,"state":"active","ping":74},{"user_id":75,"name":"Frank Accardi","steam_id":76561198017275707,"connected_time":772000000000,"state":"active","ping":74},{"user_id":79,"name":"marknakhla11","steam_id":76561198122038289,"connected_time":466000000000,"state":"active","ping":67},{"user_id":80,"name":"SodaMazing","steam_id":76561198087297121,"connected_time":407000000000,"state":"active","ping":158},{"user_id":71,"name":"MayoMateo","steam_id":76561198360809933,"connected_time":909000000000,"state":"active","ping":60},{"user_id":44,"name":"aisu","steam_id":76561198043768507,"connected_time":2448000000000,"state":"active","ping":104},{"user_id":64,"name":"brae","steam_id":76561198047126327,"connected_time":1532000000000,"state":"active","ping":76},{"user_id":70,"name":"SolarusD","steam_id":76561198029279861,"connected_time":1062000000000,"state":"active","ping":47},{"user_id":83,"name":"blatgotyahat","steam_id":76561198186630357,"connected_time":58000000000,"state":"active","ping":61},{"user_id":37,"name":"RedBread | Scotian Punish","steam_id":76561197999362370,"connected_time":3847000000000,"state":"active","ping":118},{"user_id":61,"name":"Super Mighty G","steam_id":76561198020932806,"connected_time":1990000000000,"state":"active","ping":60},{"user_id":72,"name":"AFKaylee","steam_id":76561198218215220,"connected_time":878000000000,"state":"active","ping":79},{"user_id":69,"name":"la loveiathenne","steam_id":76561198046394237,"connected_time":1158000000000,"state":"active","ping":64},{"user_id":67,"name":"Habber The Quesomancer","steam_id":76561198049642751,"connected_time":1294000000000,"state":"active","ping":80}]},{"server_id":141,"name":"Uncletopia | Sydney | 1 | All Maps","name_short":"syd-1","host":"syd-1.au.uncletopia.com","port":27015,"enabled":true,"region":"au","cc":"au","latitude":-33.865143,"longitude":151.2099,"reserved":0,"last_update":"0001-01-01T00:00:00Z","name_a2s":"Uncletopia | Sydney | 1 | All Maps","protocol":17,"map":"pl_badwater","folder":"tf","game":"Team Fortress","app_id":440,"player_count":24,"max_players":24,"Bots":0,"server_type":"Dedicated","server_os":"Linux","password":true,"vac":true,"version":"7701286","steam_id":85568392924470001,"keywords":["nocrits","nodmgspread","payload","uncletopia"],"game_id":440,"stv_port":27016,"stv_name":"Uncletopia | Sydney | 1 | All Maps | STV","players":[{"user_id":135,"name":"Michaelsoft Binbows","steam_id":76561198422847304,"connected_time":2372000000000,"state":"active","ping":65},{"user_id":144,"name":"Mr. Stank","steam_id":76561199145084308,"connected_time":1669000000000,"state":"active","ping":61},{"user_id":137,"name":"Reedy","steam_id":76561198155994395,"connected_time":2009000000000,"state":"active","ping":57},{"user_id":150,"name":"Kumbya Kumbya","steam_id":76561198117979249,"connected_time":1191000000000,"state":"active","ping":73},{"user_id":95,"name":"Pakoh","steam_id":76561198174754903,"connected_time":3994000000000,"state":"active","ping":62},{"user_id":145,"name":"sweeney","steam_id":76561198164574293,"connected_time":1666000000000,"state":"active","ping":34},{"user_id":136,"name":"sosu","steam_id":76561198072382387,"connected_time":2348000000000,"state":"active","ping":62},{"user_id":124,"name":"Ahealthykneecap","steam_id":76561198155704496,"connected_time":3021000000000,"state":"active","ping":75},{"user_id":164,"name":"blicky","steam_id":76561198029829077,"connected_time":604000000000,"state":"active","ping":90},{"user_id":166,"name":"Idiotic Arrow","steam_id":76561198064667059,"connected_time":538000000000,"state":"active","ping":65},{"user_id":155,"name":"neku","steam_id":76561198207054704,"connected_time":897000000000,"state":"active","ping":50},{"user_id":172,"name":"Squishy","steam_id":76561198985769205,"connected_time":321000000000,"state":"active","ping":46},{"user_id":153,"name":"The dark knight Rizzes","steam_id":76561198054804209,"connected_time":977000000000,"state":"active","ping":83},{"user_id":167,"name":"FRAWG","steam_id":76561197963763869,"connected_time":480000000000,"state":"active","ping":72},{"user_id":152,"name":"IL Atlas","steam_id":76561199105463004,"connected_time":1070000000000,"state":"active","ping":60},{"user_id":134,"name":"Glockenspe (She/Her)","steam_id":76561199184115241,"connected_time":2578000000000,"state":"active","ping":46},{"user_id":139,"name":"groggy gary","steam_id":76561198311152272,"connected_time":1991000000000,"state":"active","ping":74},{"user_id":156,"name":"LALO","steam_id":76561198238036058,"connected_time":896000000000,"state":"active","ping":70},{"user_id":160,"name":"huh","steam_id":76561198146659854,"connected_time":767000000000,"state":"active","ping":54},{"user_id":170,"name":"lexx","steam_id":76561198108267710,"connected_time":365000000000,"state":"active","ping":62},{"user_id":149,"name":"ItsSnakey","steam_id":76561199187623513,"connected_time":1462000000000,"state":"active","ping":67},{"user_id":171,"name":"Sherpa","steam_id":76561198018913829,"connected_time":356000000000,"state":"active","ping":56},{"user_id":114,"name":"Count Shade","steam_id":76561199201039393,"connected_time":3461000000000,"state":"active","ping":41},{"user_id":133,"name":"trozechad","steam_id":76561198163570075,"connected_time":2667000000000,"state":"active","ping":60}]},{"server_id":123,"name":"Uncletopia | Sydney | 2 | All Maps","name_short":"syd-2","host":"syd-1.au.uncletopia.com","port":27025,"enabled":true,"region":"au","cc":"au","latitude":-33.865143,"longitude":151.2099,"reserved":0,"last_update":"0001-01-01T00:00:00Z","name_a2s":"Uncletopia | Sydney | 2 | All Maps","protocol":17,"map":"ctf_turbine","folder":"tf","game":"Team Fortress","app_id":440,"player_count":6,"max_players":24,"Bots":0,"server_type":"Dedicated","server_os":"Linux","password":true,"vac":true,"version":"7701286","steam_id":85568392924470002,"keywords":["ctf","nocrits","nodmgspread","uncletopia"],"game_id":440,"stv_port":27026,"stv_name":"Uncletopia | Sydney | 2 | All Maps | STV","players":[{"user_id":101,"name":"1000 Ping King","steam_id":76561198797058125,"connected_time":563000000000,"state":"active","ping":76},{"user_id":103,"name":"NeonOn","steam_id":76561198321595238,"connected_time":242000000000,"state":"active","ping":61},{"user_id":89,"name":"hellmage20","steam_id":76561198060121268,"connected_time":1011000000000,"state":"active","ping":66},{"user_id":97,"name":"Murderous euphemism","steam_id":76561198034276658,"connected_time":784000000000,"state":"active","ping":38},{"user_id":82,"name":"Phlog enthusiast","steam_id":76561198344085093,"connected_time":1308000000000,"state":"active","ping":89},{"user_id":42,"name":"Jetfire","steam_id":76561198047370036,"connected_time":4460000000000,"state":"active","ping":75}]},{"server_id":395,"name":"Uncletopia | Sydney | 3 | All Maps","name_short":"syd-3","host":"syd-1.au.uncletopia.com","port":27035,"enabled":true,"region":"au","cc":"au","latitude":-33.865143,"longitude":151.2099,"reserved":0,"last_update":"0001-01-01T00:00:00Z","name_a2s":"Uncletopia | Sydney | 3 | All Maps","protocol":17,"map":"cp_process_final","folder":"tf","game":"Team Fortress","app_id":440,"player_count":0,"max_players":24,"Bots":0,"server_type":"Dedicated","server_os":"Linux","password":true,"vac":true,"version":"7701286","steam_id":85568392925194467,"keywords":["cp","nocrits","nodmgspread","uncletopia"],"game_id":440,"stv_port":0,"stv_name":"","players":null},{"server_id":396,"name":"Uncletopia | Sydney | 4 | All Maps","name_short":"syd-4","host":"syd-1.au.uncletopia.com","port":27045,"enabled":true,"region":"au","cc":"au","latitude":-33.865143,"longitude":151.2099,"reserved":0,"last_update":"0001-01-01T00:00:00Z","name_a2s":"Uncletopia | Sydney | 4 | All Maps","protocol":17,"map":"koth_highpass","folder":"tf","game":"Team Fortress","app_id":440,"player_count":0,"max_players":24,"Bots":0,"server_type":"Dedicated","server_os":"Linux","password":true,"vac":true,"version":"7701286","steam_id":85568392925397958,"keywords":["cp","nocrits","nodmgspread","uncletopia"],"game_id":440,"stv_port":0,"stv_name":"","players":null},{"server_id":58,"name":"Uncletopia | Sydney | 5 | No Payload","name_short":"syd-5","host":"syd-1.au.uncletopia.com","port":27055,"enabled":true,"region":"au","cc":"au","latitude":-33.865143,"longitude":151.2099,"reserved":0,"last_update":"0001-01-01T00:00:00Z","name_a2s":"Uncletopia | Sydney | 5 | No Payload","protocol":17,"map":"cp_egypt_final","folder":"tf","game":"Team Fortress","app_id":440,"player_count":0,"max_players":24,"Bots":0,"server_type":"Dedicated","server_os":"Linux","password":true,"vac":true,"version":"7701286","steam_id":85568392925397959,"keywords":["cp","nocrits","nodmgspread","uncletopia"],"game_id":440,"stv_port":27056,"stv_name":"Uncletopia | Sydney | 5 | No Payload | STV","players":null},{"server_id":59,"name":"Uncletopia | Sydney | 6 | Community","name_short":"syd-6","host":"syd-1.au.uncletopia.com","port":27065,"enabled":true,"region":"au","cc":"au","latitude":-33.865143,"longitude":151.2099,"reserved":0,"last_update":"0001-01-01T00:00:00Z","name_a2s":"Uncletopia | Sydney | 6 | Community","protocol":17,"map":"workshop/cp_reckoner_rc6.ugc674719999","folder":"tf","game":"Team Fortress","app_id":440,"player_count":0,"max_players":24,"Bots":0,"server_type":"Dedicated","server_os":"Linux","password":true,"vac":true,"version":"7701286","steam_id":85568392925397960,"keywords":["cp","nocrits","nodmgspread","uncletopia"],"game_id":440,"stv_port":27066,"stv_name":"Uncletopia | Sydney | 6 | Community | STV","players":null},{"server_id":49,"name":"Uncletopia | Warsaw | 1 | All Maps","name_short":"waw-1","host":"waw-1.pl.uncletopia.com","port":27015,"enabled":true,"region":"eu","cc":"pl","latitude":52.2297,"longitude":21.017532,"reserved":0,"last_update":"0001-01-01T00:00:00Z","name_a2s":"Uncletopia | Warsaw | 1 | All Maps","protocol":17,"map":"cp_altitude","folder":"tf","game":"Team Fortress","app_id":440,"player_count":0,"max_players":24,"Bots":0,"server_type":"Dedicated","server_os":"Linux","password":true,"vac":true,"version":"7701286","steam_id":85568392925397850,"keywords":["cp","nocrits","nodmgspread","uncletopia"],"game_id":440,"stv_port":27016,"stv_name":"Uncletopia | Warsaw | 1 | All Maps | STV","players":null},{"server_id":50,"name":"Uncletopia | Warsaw | 2 | All Maps","name_short":"waw-2","host":"waw-1.pl.uncletopia.com","port":27025,"enabled":true,"region":"eu","cc":"pl","latitude":52.2297,"longitude":21.017532,"reserved":0,"last_update":"0001-01-01T00:00:00Z","name_a2s":"Uncletopia | Warsaw | 2 | All Maps","protocol":17,"map":"koth_highpass","folder":"tf","game":"Team Fortress","app_id":440,"player_count":0,"max_players":24,"Bots":0,"server_type":"Dedicated","server_os":"Linux","password":true,"vac":true,"version":"7701286","steam_id":85568392925397851,"keywords":["cp","nocrits","nodmgspread","uncletopia"],"game_id":440,"stv_port":0,"stv_name":"","players":null},{"server_id":51,"name":"Uncletopia | Warsaw | 3 | All Maps","name_short":"waw-3","host":"waw-1.pl.uncletopia.com","port":27035,"enabled":true,"region":"eu","cc":"pl","latitude":52.2297,"longitude":21.017532,"reserved":0,"last_update":"0001-01-01T00:00:00Z","name_a2s":"Uncletopia | Warsaw | 3 | All Maps","protocol":17,"map":"cp_mountainlab","folder":"tf","game":"Team Fortress","app_id":440,"player_count":0,"max_players":24,"Bots":0,"server_type":"Dedicated","server_os":"Linux","password":true,"vac":true,"version":"7701286","steam_id":85568392925397852,"keywords":["cp","nocrits","nodmgspread","uncletopia"],"game_id":440,"stv_port":0,"stv_name":"","players":null},{"server_id":52,"name":"Uncletopia | Warsaw | 4 | All Maps","name_short":"waw-4","host":"waw-1.pl.uncletopia.com","port":27045,"enabled":true,"region":"eu","cc":"pl","latitude":52.2297,"longitude":21.017532,"reserved":0,"last_update":"0001-01-01T00:00:00Z","name_a2s":"Uncletopia | Warsaw | 4 | All Maps","protocol":17,"map":"pl_borneo","folder":"tf","game":"Team Fortress","app_id":440,"player_count":0,"max_players":24,"Bots":0,"server_type":"Dedicated","server_os":"Linux","password":true,"vac":true,"version":"7701286","steam_id":85568392925397853,"keywords":["nocrits","nodmgspread","payload","uncletopia"],"game_id":440,"stv_port":0,"stv_name":"","players":null},{"server_id":53,"name":"Uncletopia | Warsaw | 5 | No Payload","name_short":"waw-5","host":"waw-1.pl.uncletopia.com","port":27055,"enabled":true,"region":"eu","cc":"pl","latitude":52.2297,"longitude":21.017532,"reserved":0,"last_update":"0001-01-01T00:00:00Z","name_a2s":"Uncletopia | Warsaw | 5 | No Payload","protocol":17,"map":"pl_frontier_final","folder":"tf","game":"Team Fortress","app_id":440,"player_count":0,"max_players":24,"Bots":0,"server_type":"Dedicated","server_os":"Linux","password":true,"vac":true,"version":"7701286","steam_id":85568392925397854,"keywords":["nocrits","nodmgspread","payload","uncletopia"],"game_id":440,"stv_port":0,"stv_name":"","players":null},{"server_id":54,"name":"Uncletopia | Warsaw | 6 | Community","name_short":"waw-6","host":"waw-1.pl.uncletopia.com","port":27065,"enabled":true,"region":"eu","cc":"pl","latitude":52.2297,"longitude":21.017532,"reserved":0,"last_update":"0001-01-01T00:00:00Z","name_a2s":"Uncletopia | Warsaw | 6 | Community","protocol":17,"map":"pl_pier","folder":"tf","game":"Team Fortress","app_id":440,"player_count":0,"max_players":24,"Bots":0,"server_type":"Dedicated","server_os":"Linux","password":true,"vac":true,"version":"7701286","steam_id":85568392925397856,"keywords":["nocrits","nodmgspread","payload","uncletopia"],"game_id":440,"stv_port":0,"stv_name":"","players":null}]}