{"status":true,"message":"","result":[{"server_id":9,"name":"Uncletopia | Atlanta | 1 | All Maps","name_short":"atl-1","host":"atl-1.us.uncletopia.com","port":27015,"enabled":true,"region":"us-east","cc":"us","latitude":33.753746,"longitude":-84.38633,"reserved":0,"last_update":"0001-01-01T00:00:00Z","name_a2s":"Uncletopia | Atlanta | 1 | All Maps","protocol":17,"map":"pl_swiftwater_final1","folder":"tf","game":"Team Fortress","app_id":440,"player_count":18,"max_players":24,"Bots":0,"server_type":"Dedicated","server_os":"Linux","password":true,"vac":true,"version":"7961495","steam_id":85568392924469982,"keywords":["nocrits","nodmgspread","payload","uncletopia"],"game_id":440,"stv_port":27016,"stv_name":"Uncletopia | Atlanta | 1 | All Maps | STV","players":[{"user_id":339,"name":"Team Fortress","steam_id":76561198058722801,"connected_time":1084000000000,"state":"spawning","ping":136},{"user_id":347,"name":"Sunny","steam_id":76561198125892600,"connected_time":939000000000,"state":"spawning","ping":51},{"user_id":364,"name":"neet","steam_id":76561197968115168,"connected_time":18000000000,"state":"spawning","ping":50},{"user_id":342,"name":"harmless moron","steam_id":76561198103496593,"connected_time":1041000000000,"state":"spawning","ping":41},{"user_id":358,"name":"Rex","steam_id":76561198138365053,"connected_time":619000000000,"state":"spawning","ping":112},{"user_id":335,"name":"z","steam_id":76561198377478982,"connected_time":1293000000000,"state":"spawning","ping":66},{"user_id":348,"name":"jimmyfnaf172198yay","steam_id":76561198311446636,"connected_time":924000000000,"state":"spawning","ping":71},{"user_id":360,"name":"You Want Me","steam_id":76561198135492119,"connected_time":526000000000,"state":"spawning","ping":56},{"user_id":363,"name":"confield","steam_id":76561198004322265,"connected_time":21000000000,"state":"connecting","ping":48},{"user_id":344,"name":"Erchius","steam_id":76561198256892300,"connected_time":1013000000000,"state":"spawning","ping":37},{"user_id":337,"name":"eish","steam_id":76561198089463603,"connected_time":1143000000000,"state":"spawning","ping":114},{"user_id":301,"name":"Onyx","steam_id":76561198275349640,"connected_time":4639000000000,"state":"spawning","ping":89},{"user_id":349,"name":"Fumohuxi Viriphyto","steam_id":76561198369395636,"connected_time":918000000000,"state":"spawning","ping":77},{"user_id":350,"name":"The Looker","steam_id":76561198272961376,"connected_time":890000000000,"state":"spawning","ping":75},{"user_id":330,"name":"Jin Gulilo","steam_id":76561198065151242,"connected_time":2207000000000,"state":"spawning","ping":62},{"user_id":359,"name":"sez","steam_id":76561199465922101,"connected_time":575000000000,"state":"spawning","ping":111},{"user_id":361,"name":"Ramin Jamin","steam_id":76561198086516541,"connected_time":456000000000,"state":"spawning","ping":63},{"user_id":356,"name":"GOLDIE","steam_id":76561199375258674,"connected_time":796000000000,"state":"spawning","ping":88}]},{"server_id":104,"name":"Uncletopia | Atlanta | 2 | All Maps","name_short":"atl-2","host":"atl-1.us.uncletopia.com","port":27025,"enabled":true,"region":"us-east","cc":"us","latitude":33.753746,"longitude":-84.38633,"reserved":0,"last_update":"0001-01-01T00:00:00Z","name_a2s":"Uncletopia | Atlanta | 2 | All Maps","protocol":17,"map":"ctf_2fort","folder":"tf","game":"Team Fortress","app_id":440,"player_count":24,"max_players":24,"Bots":0,"server_type":"Dedicated","server_os":"Linux","password":true,"vac":true,"version":"7961495","steam_id":85568392924469983,"keywords":["ctf","nocrits","nodmgspread","uncletopia"],"game_id":440,"stv_port":27026,"stv_name":"Uncletopia | Atlanta | 2 | All Maps | STV","players":[{"user_id":379,"name":"Monte","steam_id":76561198097499917,"connected_time":5589000000000,"state":"active","ping":84},{"user_id":487,"name":"Typh","steam_id":76561198315344079,"connected_time":2835000000000,"state":"active","ping":61},{"user_id":513,"name":"Juno","steam_id":76561198042417277,"connected_time":1226000000000,"state":"active","ping":78},{"user_id":491,"name":"Kay ‚ò≠","steam_id":76561198353432576,"connected_time":2632000000000,"state":"active","ping":49},{"user_id":533,"name":"your moms car","steam_id":76561199389283507,"connected_time":333000000000,"state":"active","ping":101},{"user_id":527,"name":"Piss Man","steam_id":76561199446367874,"connected_time":783000000000,"state":"active","ping":59},{"user_id":248,"name":"Lemonty","steam_id":76561198163812778,"connected_time":10342000000000,"state":"active","ping":75},{"user_id":490,"name":"carbuzz","steam_id":76561198129361580,"connected_time":2645000000000,"state":"active","ping":133},{"user_id":520,"name":"Vonx Crane","steam_id":76561198205069715,"connected_time":1141000000000,"state":"active","ping":80},{"user_id":535,"name":"iisventi","steam_id":76561199224991645,"connected_time":103000000000,"state":"active","ping":101},{"user_id":512,"name":"JoJoJo","steam_id":76561198067153390,"connected_time":1239000000000,"state":"active","ping":74},{"user_id":515,"name":"Roberto Del Fuego","steam_id":76561198043458554,"connected_time":1203000000000,"state":"active","ping":55},{"user_id":518,"name":"Propaniac Gaming ‚òë","steam_id":76561198133963270,"connected_time":1186000000000,"state":"active","ping":45},{"user_id":521,"name":"R10queen","steam_id":76561198262363935,"connected_time":1128000000000,"state":"active","ping":98},{"user_id":519,"name":"Ginger Jesus","steam_id":76561198052386458,"connected_time":1162000000000,"state":"active","ping":65},{"user_id":525,"name":"Joe Biden","steam_id":76561198056170906,"connected_time":816000000000,"state":"active","ping":97},{"user_id":534,"name":"luxl1","steam_id":76561198975034056,"connected_time":272000000000,"state":"active","ping":136},{"user_id":532,"name":"Donnie","steam_id":76561199437640368,"connected_time":469000000000,"state":"active","ping":89},{"user_id":329,"name":"Agent Escoteiro","steam_id":76561198050994994,"connected_time":6757000000000,"state":"active","ping":127},{"user_id":522,"name":"Radio_Troll","steam_id":76561199223701309,"connected_time":1087000000000,"state":"active","ping":61},{"user_id":529,"name":"gmele1","steam_id":76561199219013004,"connected_time":713000000000,"state":"active","ping":93},{"user_id":526,"name":"Rattman","steam_id":76561198059893447,"connected_time":801000000000,"state":"active","ping":111},{"user_id":524,"name":"Dangerous Drek","steam_id":76561197982295218,"connected_time":1049000000000,"state":"active","ping":56},{"user_id":286,"name":"Hey","steam_id":76561198447517893,"connected_time":7786000000000,"state":"active","ping":58}]},{"server_id":400,"name":"Uncletopia | Atlanta | 3 | Stopwatch","name_short":"atl-3","host":"atl-1.us.uncletopia.com","port":27035,"enabled":true,"region":"us-east","cc":"us","latitude":33.753746,"longitude":-84.38633,"reserved":0,"last_update":"0001-01-01T00:00:00Z","name_a2s":"Uncletopia | Atlanta | 3 | Stopwatch","protocol":17,"map":"cp_snakewater_final1","folder":"tf","game":"Team Fortress","app_id":440,"player_count":0,"max_players":24,"Bots":0,"server_type":"Dedicated","server_os":"Linux","password":true,"vac":true,"version":"7961495","steam_id":85568392924515187,"keywords":["cp","nocrits","nodmgspread","uncletopia"],"game_id":440,"stv_port":27036,"stv_name":"Uncletopia | Atlanta | 3 | Stopwatch | STV","players":null},{"server_id":401,"name":"Uncletopia | Atlanta | 4 | Community","name_short":"atl-4","host":"atl-1.us.uncletopia.com","port":27045,"enabled":true,"region":"us-east","cc":"us","latitude":33.753746,"longitude":-84.38633,"reserved":0,"last_update":"0001-01-01T00:00:00Z","name_a2s":"Uncletopia | Atlanta | 4 | Community","protocol":17,"map":"workshop/pl_barnblitz_pro7.ugc582280235","folder":"tf","game":"Team Fortress","app_id":440,"player_count":24,"max_players":24,"Bots":0,"server_type":"Dedicated","server_os":"Linux","password":true,"vac":true,"version":"7961495","steam_id":85568392924515188,"keywords":["nocrits","nodmgspread","payload","uncletopia"],"game_id":440,"stv_port":27046,"stv_name":"Uncletopia | Atlanta | 4 | Community | STV","players":[{"user_id":71,"name":"lucin","steam_id":76561198258062078,"connected_time":2006000000000,"state":"active","ping":60},{"user_id":65,"name":"CombustibleToast","steam_id":76561198051358882,"connected_time":2165000000000,"state":"active","ping":56},{"user_id":87,"name":"heck","steam_id":76561198308547958,"connected_time":526000000000,"state":"active","ping":75},{"user_id":83,"name":"Jnlaw","steam_id":76561198009307069,"connected_time":1048000000000,"state":"active","ping":101},{"user_id":66,"name":"Sleepy Brady","steam_id":76561198867378129,"connected_time":2137000000000,"state":"active","ping":92},{"user_id":82,"name":"FIRESTARTER","steam_id":76561198088529360,"connected_time":1136000000000,"state":"active","ping":74},{"user_id":86,"name":"arse fire","steam_id":76561198436192094,"connected_time":726000000000,"state":"active","ping":144},{"user_id":88,"name":"gunna sayit","steam_id":76561198034339940,"connected_time":494000000000,"state":"active","ping":60},{"user_id":84,"name":"right click disabled","steam_id":76561198056186750,"connected_time":1017000000000,"state":"active","ping":75},{"user_id":36,"name":"De_Bones","steam_id":76561198064459088,"connected_time":3208000000000,"state":"active","ping":71},{"user_id":74,"name":"Killua","steam_id":76561198405299137,"connected_time":1949000000000,"state":"active","ping":60},{"user_id":75,"name":"prism!","steam_id":76561199070576107,"connected_time":1927000000000,"state":"active","ping":45},{"user_id":54,"name":"‚ú® Rarity ‚ú®","steam_id":76561199172206856,"connected_time":2786000000000,"state":"active","ping":75},{"user_id":46,"name":"Tanker6115","steam_id":76561198354085983,"connected_time":3029000000000,"state":"active","ping":80},{"user_id":45,"name":"Possum","steam_id":76561198093433576,"connected_time":3041000000000,"state":"active","ping":70},{"user_id":80,"name":"LOFILE","steam_id":76561198083798918,"connected_time":1464000000000,"state":"active","ping":72},{"user_id":89,"name":"Bim","steam_id":76561198155979811,"connected_time":452000000000,"state":"active","ping":73},{"user_id":79,"name":"Artificial Taco Intelligence","steam_id":76561199431280503,"connected_time":1690000000000,"state":"active","ping":88},{"user_id":85,"name":"iamtheSpicer","steam_id":76561198263557044,"connected_time":784000000000,"state":"active","ping":87},{"user_id":48,"name":"Sharp","steam_id":76561198335250560,"connected_time":2969000000000,"state":"active","ping":100},{"user_id":49,"name":"AMistake","steam_id":76561199379196708,"connected_time":2933000000000,"state":"active","ping":54},{"user_id":56,"name":"who is gavin?","steam_id":76561198069415057,"connected_time":2574000000000,"state":"active","ping":62},{"user_id":51,"name":"Mango","steam_id":76561198182082274,"connected_time":2909000000000,"state":"active","ping":56},{"user_id":64,"name":"dog","steam_id":76561198263873491,"connected_time":2362000000000,"state":"active","ping":57}]},{"server_id":2,"name":"Uncletopia | Chicago | 1 | All Maps","name_short":"chi-1","host":"chi-1.us.uncletopia.com","port":27015,"enabled":true,"region":"us-central","cc":"us","latitude":41.881832,"longitude":-87.62318,"reserved":0,"last_update":"0001-01-01T00:00:00Z","name_a2s":"Uncletopia | Chicago | 1 | All Maps","protocol":17,"map":"pl_thundermountain","folder":"tf","game":"Team Fortress","app_id":440,"player_count":24,"max_players":24,"Bots":0,"server_type":"Dedicated","server_os":"Linux","password":true,"vac":true,"version":"7961495","steam_id":85568392924469984,"keywords":["nocrits","nodmgspread","payload","uncletopia"],"game_id":440,"stv_port":27016,"stv_name":"Uncletopia | Chicago | 1 | All Maps | STV","players":[{"user_id":368,"name":"Helmet Hands","steam_id":76561197961141994,"connected_time":773000000000,"state":"active","ping":104},{"user_id":367,"name":"Hylic","steam_id":76561199051314589,"connected_time":795000000000,"state":"active","ping":71},{"user_id":355,"name":"Milkmur","steam_id":76561198210043821,"connected_time":1930000000000,"state":"active","ping":69},{"user_id":352,"name":"Yummy Kabobz","steam_id":76561198067661705,"connected_time":2495000000000,"state":"active","ping":62},{"user_id":371,"name":"Tom Dude","steam_id":76561198093913484,"connected_time":645000000000,"state":"active","ping":60},{"user_id":369,"name":"Slip","steam_id":76561199057232579,"connected_time":707000000000,"state":"active","ping":57},{"user_id":370,"name":"lampin","steam_id":76561197964367078,"connected_time":653000000000,"state":"active","ping":47},{"user_id":361,"name":"Oh, it's Zach","steam_id":76561198103309672,"connected_time":1596000000000,"state":"active","ping":55},{"user_id":328,"name":"TheGhostThatWas","steam_id":76561198055836483,"connected_time":4235000000000,"state":"active","ping":61},{"user_id":347,"name":"se√±ora","steam_id":76561199353185652,"connected_time":2952000000000,"state":"active","ping":120},{"user_id":372,"name":"Waff00","steam_id":76561198848377100,"connected_time":572000000000,"state":"active","ping":101},{"user_id":339,"name":"Tommy Pickles (Very Cool)","steam_id":76561198391261463,"connected_time":3184000000000,"state":"active","ping":74},{"user_id":379,"name":"Comrade","steam_id":76561199056721863,"connected_time":132000000000,"state":"active","ping":86},{"user_id":373,"name":"Cakepeep","steam_id":76561199168555813,"connected_time":534000000000,"state":"active","ping":67},{"user_id":374,"name":"hej","steam_id":76561197996366940,"connected_time":523000000000,"state":"active","ping":81},{"user_id":378,"name":"ali oop","steam_id":76561198057516213,"connected_time":205000000000,"state":"active","ping":86},{"user_id":362,"name":"Dan!","steam_id":76561199126958455,"connected_time":1469000000000,"state":"active","ping":101},{"user_id":358,"name":"Kazul","steam_id":76561198014925555,"connected_time":1646000000000,"state":"active","ping":59},{"user_id":375,"name":"Mavrick","steam_id":76561198039678150,"connected_time":516000000000,"state":"active","ping":68},{"user_id":376,"name":"Koala Bear","steam_id":76561198118025990,"connected_time":481000000000,"state":"active","ping":87},{"user_id":377,"name":"della","steam_id":76561198118877005,"connected_time":469000000000,"state":"active","ping":45},{"user_id":331,"name":"Baka!‚ë®‚ë®‚ë®‚ë®","steam_id":76561198152948254,"connected_time":3850000000000,"state":"active","ping":71},{"user_id":267,"name":"Lapis","steam_id":76561198042677899,"connected_time":9168000000000,"state":"active","ping":55},{"user_id":229,"name":"Lia_Rein","steam_id":76561198151569597,"connected_time":10865000000000,"state":"active","ping":142}]},{"server_id":106,"name":"Uncletopia | Chicago | 2 | All Maps","name_short":"chi-2","host":"chi-1.us.uncletopia.com","port":27025,"enabled":true,"region":"us-central","cc":"us","latitude":41.881832,"longitude":-87.62318,"reserved":0,"last_update":"0001-01-01T00:00:00Z","name_a2s":"Uncletopia | Chicago | 2 | All Maps","protocol":17,"map":"koth_viaduct","folder":"tf","game":"Team Fortress","app_id":440,"player_count":0,"max_players":24,"Bots":0,"server_type":"Dedicated","server_os":"Linux","password":true,"vac":true,"version":"7961495","steam_id":85568392924469985,"keywords":["cp","nocrits","nodmgspread","uncletopia"],"game_id":440,"stv_port":27026,"stv_name":"Uncletopia | Chicago | 2 | All Maps | STV","players":null},{"server_id":402,"name":"Uncletopia | Chicago | 3 | All Maps","name_short":"chi-3","host":"chi-1.us.uncletopia.com","port":27035,"enabled":true,"region":"us-central","cc":"us","latitude":41.881832,"longitude":-87.62318,"reserved":0,"last_update":"0001-01-01T00:00:00Z","name_a2s":"Uncletopia | Chicago | 3 | All Maps","protocol":17,"map":"ctf_well","folder":"tf","game":"Team Fortress","app_id":440,"player_count":24,"max_players":24,"Bots":0,"server_type":"Dedicated","server_os":"Linux","password":true,"vac":true,"version":"7961495","steam_id":85568392924515191,"keywords":["ctf","nocrits","nodmgspread","uncletopia"],"game_id":440,"stv_port":27036,"stv_name":"Uncletopia | Chicago | 3 | All Maps | STV","players":[{"user_id":153,"name":"Dude","steam_id":76561199058616824,"connected_time":534000000000,"state":"active","ping":70},{"user_id":173,"name":"fathumz","steam_id":76561198051005049,"connected_time":100000000000,"state":"active","ping":79},{"user_id":167,"name":"ZenkoZSprite","steam_id":76561198190132250,"connected_time":272000000000,"state":"active","ping":67},{"user_id":155,"name":"Toast","steam_id":76561198401995265,"connected_time":468000000000,"state":"active","ping":53},{"user_id":110,"name":"THORNFIELDGAMER","steam_id":76561199087167473,"connected_time":3663000000000,"state":"active","ping":88},{"user_id":157,"name":"Mer","steam_id":76561198192171041,"connected_time":422000000000,"state":"active","ping":112},{"user_id":87,"name":"SpongedSocks","steam_id":76561198374009086,"connected_time":4689000000000,"state":"active","ping":69},{"user_id":159,"name":"INFINITE","steam_id":76561197971285557,"connected_time":403000000000,"state":"active","ping":63},{"user_id":160,"name":"RogueofTrees","steam_id":76561198154565448,"connected_time":390000000000,"state":"active","ping":79},{"user_id":169,"name":"Lordofthekevins","steam_id":76561198169066956,"connected_time":241000000000,"state":"active","ping":67},{"user_id":162,"name":"Poo","steam_id":76561198265144507,"connected_time":367000000000,"state":"active","ping":88},{"user_id":170,"name":"Cupidmeh","steam_id":76561198138669654,"connected_time":217000000000,"state":"active","ping":61},{"user_id":165,"name":"Prince Flip","steam_id":76561198023462157,"connected_time":295000000000,"state":"active","ping":140},{"user_id":166,"name":"VicLoL","steam_id":76561198045580784,"connected_time":287000000000,"state":"active","ping":110},{"user_id":131,"name":"Beef Wellington","steam_id":76561198049837377,"connected_time":1872000000000,"state":"active","ping":49},{"user_id":171,"name":"gulch","steam_id":76561199227946025,"connected_time":174000000000,"state":"active","ping":68},{"user_id":53,"name":"og biden pack cart","steam_id":76561198253731826,"connected_time":6865000000000,"state":"active","ping":59},{"user_id":172,"name":"Sergeant Joker","steam_id":76561198854616604,"connected_time":159000000000,"state":"active","ping":70},{"user_id":146,"name":"ctf_well","steam_id":76561198016826181,"connected_time":1053000000000,"state":"active","ping":76},{"user_id":123,"name":"dansci","steam_id":76561198269530717,"connected_time":2695000000000,"state":"active","ping":81},{"user_id":174,"name":"Big Sauce","steam_id":76561198046654750,"connected_time":88000000000,"state":"active","ping":69},{"user_id":175,"name":"Nexusuxen","steam_id":76561198117547131,"connected_time":67000000000,"state":"active","ping":68},{"user_id":176,"name":"V@nn1e","steam_id":76561199099194994,"connected_time":62000000000,"state":"active","ping":99},{"user_id":177,"name":"BigPapaBrogan","steam_id":76561199012814165,"connected_time":43000000000,"state":"spawning","ping":353}]},{"server_id":403,"name":"Uncletopia | Chicago | 4 | All Maps","name_short":"chi-4","host":"chi-1.us.uncletopia.com","port":27045,"enabled":true,"region":"us-central","cc":"us","latitude":41.881832,"longitude":-87.62318,"reserved":0,"last_update":"0001-01-01T00:00:00Z","name_a2s":"Uncletopia | Chicago | 4 | All Maps","protocol":17,"map":"pl_pier","folder":"tf","game":"Team Fortress","app_id":440,"player_count":24,"max_players":24,"Bots":0,"server_type":"Dedicated","server_os":"Linux","password":true,"vac":true,"version":"7961495","steam_id":85568392924515193,"keywords":["nocrits","nodmgspread","payload","uncletopia"],"game_id":440,"stv_port":27046,"stv_name":"Uncletopia | Chicago | 4 | All Maps | STV","players":[{"user_id":308,"name":"MALWARE9000","steam_id":76561198065238093,"connected_time":828000000000,"state":"active","ping":86},{"user_id":325,"name":"mae","steam_id":76561198425739511,"connected_time":302000000000,"state":"active","ping":76},{"user_id":273,"name":"fish (2:3)","steam_id":76561198134331073,"connected_time":3492000000000,"state":"active","ping":108},{"user_id":324,"name":"Q47","steam_id":76561198087128341,"connected_time":351000000000,"state":"active","ping":155},{"user_id":311,"name":"crispylego_","steam_id":76561199453679719,"connected_time":687000000000,"state":"active","ping":110},{"user_id":326,"name":"Stupid? Probably :(","steam_id":76561198298310744,"connected_time":267000000000,"state":"active","ping":74},{"user_id":317,"name":"Ojen","steam_id":76561197998414482,"connected_time":552000000000,"state":"active","ping":62},{"user_id":313,"name":"Universe Man","steam_id":76561197997710655,"connected_time":606000000000,"state":"active","ping":88},{"user_id":262,"name":"shitass | troutsupply.net","steam_id":76561198210572481,"connected_time":4961000000000,"state":"active","ping":87},{"user_id":304,"name":"Gordon Ramsay *****ed Hams","steam_id":76561198363617387,"connected_time":1231000000000,"state":"active","ping":73},{"user_id":283,"name":"Fostrel","steam_id":76561198152160601,"connected_time":2888000000000,"state":"active","ping":76},{"user_id":320,"name":"4444444444444444444444444444444","steam_id":76561198397142496,"connected_time":492000000000,"state":"active","ping":175},{"user_id":297,"name":"TacoLeShanty","steam_id":76561198821490321,"connected_time":1841000000000,"state":"active","ping":75},{"user_id":288,"name":"Hot Cheese Sundae","steam_id":76561198061189527,"connected_time":2590000000000,"state":"active","ping":79},{"user_id":301,"name":"RC","steam_id":76561198048127881,"connected_time":1461000000000,"state":"active","ping":83},{"user_id":256,"name":"Brandino!","steam_id":76561198000446932,"connected_time":5564000000000,"state":"active","ping":83},{"user_id":315,"name":"yomo","steam_id":76561198063175935,"connected_time":560000000000,"state":"active","ping":72},{"user_id":316,"name":"so unbelievably depressed","steam_id":76561198044443985,"connected_time":557000000000,"state":"active","ping":86},{"user_id":234,"name":"ViserOfOrder","steam_id":76561198137222506,"connected_time":7139000000000,"state":"active","ping":86},{"user_id":321,"name":"Cranjis McBasketball","steam_id":76561198811130843,"connected_time":468000000000,"state":"active","ping":81},{"user_id":322,"name":"Valentime!","steam_id":76561198093806229,"connected_time":467000000000,"state":"active","ping":46},{"user_id":323,"name":"xFactr","steam_id":76561198129007422,"connected_time":452000000000,"state":"active","ping":57},{"user_id":300,"name":"BIG LION","steam_id":76561198091880358,"connected_time":1530000000000,"state":"active","ping":48},{"user_id":293,"name":"thecal","steam_id":76561198307893384,"connected_time":2226000000000,"state":"active","ping":59}]},{"server_id":36,"name":"Uncletopia | Chicago | 5 | All Maps","name_short":"chi-5","host":"chi-2.us.uncletopia.com","port":27015,"enabled":true,"region":"us-central","cc":"us","latitude":41.881832,"longitude":-87.62318,"reserved":0,"last_update":"0001-01-01T00:00:00Z","name_a2s":"Uncletopia | Chicago | 5 | All Maps","protocol":17,"map":"pl_borneo","folder":"tf","game":"Team Fortress","app_id":440,"player_count":23,"max_players":24,"Bots":0,"server_type":"Dedicated","server_os":"Linux","password":true,"vac":true,"version":"7961495","steam_id":85568392924866362,"keywords":["nocrits","nodmgspread","payload","uncletopia"],"game_id":440,"stv_port":27016,"stv_name":"Uncletopia | Chicago | 5 | All Maps | STV","players":[{"user_id":38,"name":"poopybutt420","steam_id":76561199000805315,"connected_time":5051000000000,"state":"active","ping":104},{"user_id":94,"name":"Kage Templar","steam_id":76561198099057046,"connected_time":1386000000000,"state":"active","ping":78},{"user_id":107,"name":"yes","steam_id":76561199094011002,"connected_time":558000000000,"state":"active","ping":56},{"user_id":90,"name":"GH578","steam_id":76561199493262585,"connected_time":1423000000000,"state":"active","ping":94},{"user_id":86,"name":"Lumberjack Wharfie","steam_id":76561198023400820,"connected_time":1560000000000,"state":"active","ping":57},{"user_id":110,"name":"Likeia #Savetf2","steam_id":76561198005214207,"connected_time":193000000000,"state":"active","ping":63},{"user_id":76,"name":"brains","steam_id":76561198197388678,"connected_time":3030000000000,"state":"active","ping":55},{"user_id":88,"name":"Screwball","steam_id":76561198142102141,"connected_time":1496000000000,"state":"active","ping":45},{"user_id":102,"name":"Torensz64(But weezer)","steam_id":76561198239036482,"connected_time":694000000000,"state":"active","ping":43},{"user_id":80,"name":"Jim the Fish","steam_id":76561199135784419,"connected_time":2711000000000,"state":"active","ping":90},{"user_id":69,"name":"anonion","steam_id":76561198056477584,"connected_time":3334000000000,"state":"active","ping":88},{"user_id":78,"name":"MTGbigdog","steam_id":76561198838760637,"connected_time":2808000000000,"state":"active","ping":86},{"user_id":97,"name":"HeavyMettleDick","steam_id":76561198001925087,"connected_time":1248000000000,"state":"active","ping":73},{"user_id":111,"name":"Yam Jazzy Jim","steam_id":76561198000788950,"connected_time":100000000000,"state":"active","ping":73},{"user_id":26,"name":"get scrongled, idiot","steam_id":76561198115874625,"connected_time":5497000000000,"state":"active","ping":85},{"user_id":92,"name":"wheresgeorge","steam_id":76561198986281248,"connected_time":1409000000000,"state":"active","ping":89},{"user_id":72,"name":"reis","steam_id":76561199232952016,"connected_time":3193000000000,"state":"active","ping":186},{"user_id":75,"name":"obi-wan kenobi","steam_id":76561199064050951,"connected_time":3061000000000,"state":"active","ping":96},{"user_id":93,"name":"Eiss","steam_id":76561198343183806,"connected_time":1393000000000,"state":"active","ping":71},{"user_id":108,"name":"Beau","steam_id":76561198162587622,"connected_time":444000000000,"state":"active","ping":76},{"user_id":85,"name":"what a fukkin","steam_id":76561198298442983,"connected_time":1810000000000,"state":"active","ping":102},{"user_id":101,"name":"graham crackr","steam_id":76561199072720886,"connected_time":1076000000000,"state":"active","ping":56},{"user_id":106,"name":"Fredrick","steam_id":76561197981419964,"connected_time":617000000000,"state":"active","ping":71}]},{"server_id":37,"name":"Uncletopia | Chicago | 6 | All Maps","name_short":"chi-6","host":"chi-2.us.uncletopia.com","port":27025,"enabled":true,"region":"us-central","cc":"us","latitude":41.881832,"longitude":-87.62318,"reserved":0,"last_update":"0001-01-01T00:00:00Z","name_a2s":"Uncletopia | Chicago | 6 | All Maps","protocol":17,"map":"koth_highpass","folder":"tf","game":"Team Fortress","app_id":440,"player_count":0,"max_players":24,"Bots":0,"server_type":"Dedicated","server_os":"Linux","password":true,"vac":true,"version":"7961495","steam_id":85568392924866363,"keywords":["cp","nocrits","nodmgspread","uncletopia"],"game_id":440,"stv_port":27026,"stv_name":"Uncletopia | Chicago | 6 | All Maps | STV","players":null},{"server_id":38,"name":"Uncletopia | Chicago | 7 | Stopwatch","name_short":"chi-7","host":"chi-2.us.uncletopia.com","port":27035,"enabled":true,"region":"us-central","cc":"us","latitude":41.881832,"longitude":-87.62318,"reserved":0,"last_update":"0001-01-01T00:00:00Z","name_a2s":"Uncletopia | Chicago | 7 | Stopwatch","protocol":17,"map":"pl_badwater","folder":"tf","game":"Team Fortress","app_id":440,"player_count":0,"max_players":24,"Bots":0,"server_type":"Dedicated","server_os":"Linux","password":true,"vac":true,"version":"7961495","steam_id":85568392924866364,"keywords":["nocrits","nodmgspread","payload","uncletopia"],"game_id":440,"stv_port":27036,"stv_name":"Uncletopia | Chicago | 7 | Stopwatch | STV","players":null},{"server_id":39,"name":"Uncletopia | Chicago | 8 | Community","name_short":"chi-8","host":"chi-2.us.uncletopia.com","port":27045,"enabled":true,"region":"us-central","cc":"us","latitude":41.881832,"longitude":-87.62318,"reserved":0,"last_update":"0001-01-01T00:00:00Z","name_a2s":"Uncletopia | Chicago | 8 | Community","protocol":17,"map":"workshop/pl_barnblitz_pro7.ugc582280235","folder":"tf","game":"Team Fortress","app_id":440,"player_count":1,"max_players":24,"Bots":0,"server_type":"Dedicated","server_os":"Linux","password":true,"vac":true,"version":"7961495","steam_id":85568392924866365,"keywords":["nocrits","nodmgspread","payload","uncletopia"],"game_id":440,"stv_port":27046,"stv_name":"Uncletopia | Chicago | 8 | Community | STV","players":[{"user_id":12,"name":"J","steam_id":76561199425691570,"connected_time":37000000000,"state":"spawning","ping":315}]},{"server_id":8,"name":"Uncletopia | Dallas | 1 | All Maps","name_short":"dal-1","host":"dal-1.us.uncletopia.com","port":27015,"enabled":true,"region":"us-central","cc":"us","latitude":32.779167,"longitude":-96.80889,"reserved":0,"last_update":"0001-01-01T00:00:00Z","name_a2s":"Uncletopia | Dallas | 1 | All Maps","protocol":17,"map":"ctf_2fort","folder":"tf","game":"Team Fortress","app_id":440,"player_count":22,"max_players":24,"Bots":0,"server_type":"Dedicated","server_os":"Linux","password":true,"vac":true,"version":"7961495","steam_id":85568392924469986,"keywords":["ctf","nocrits","nodmgspread","uncletopia"],"game_id":440,"stv_port":27016,"stv_name":"Uncletopia | Dallas | 1 | All Maps | STV","players":[{"user_id":240,"name":"the pizza","steam_id":76561198221331476,"connected_time":1924000000000,"state":"active","ping":65},{"user_id":265,"name":"Mihaly","steam_id":76561198076645019,"connected_time":283000000000,"state":"active","ping":45},{"user_id":207,"name":"Zetta","steam_id":76561198045710113,"connected_time":4483000000000,"state":"active","ping":85},{"user_id":255,"name":"amor","steam_id":76561199064278937,"connected_time":988000000000,"state":"active","ping":85},{"user_id":232,"name":"femboy =Ôºæ‚óè ‚ãè ‚óèÔºæ=","steam_id":76561199052450127,"connected_time":2869000000000,"state":"active","ping":79},{"user_id":241,"name":"Emmagination","steam_id":76561198107217884,"connected_time":1918000000000,"state":"active","ping":88},{"user_id":257,"name":"cumgoblin","steam_id":76561198113270138,"connected_time":893000000000,"state":"active","ping":62},{"user_id":263,"name":"AckWhack","steam_id":76561199060503258,"connected_time":301000000000,"state":"active","ping":91},{"user_id":212,"name":"greenpeace","steam_id":76561197983221708,"connected_time":4142000000000,"state":"active","ping":94},{"user_id":264,"name":"dunk lft","steam_id":76561198066114874,"connected_time":287000000000,"state":"active","ping":104},{"user_id":256,"name":"XIV Gunden","steam_id":76561198124380112,"connected_time":954000000000,"state":"active","ping":76},{"user_id":266,"name":"GX Compress Dong","steam_id":76561198018950826,"connected_time":281000000000,"state":"active","ping":90},{"user_id":267,"name":"jeremy_wreckage 1337","steam_id":76561198206943507,"connected_time":264000000000,"state":"active","ping":75},{"user_id":245,"name":"Dad is gone for milk","steam_id":76561198799648962,"connected_time":1893000000000,"state":"active","ping":58},{"user_id":253,"name":"LeRoy42","steam_id":76561198035591428,"connected_time":1333000000000,"state":"active","ping":98},{"user_id":268,"name":"mp4 ?","steam_id":76561198826820952,"connected_time":249000000000,"state":"active","ping":76},{"user_id":246,"name":"FanaticSalt","steam_id":76561199380123059,"connected_time":1883000000000,"state":"active","ping":52},{"user_id":247,"name":"nefarious criminal","steam_id":76561198077506415,"connected_time":1882000000000,"state":"active","ping":73},{"user_id":262,"name":"Erodplayer","steam_id":76561198183840185,"connected_time":304000000000,"state":"active","ping":44},{"user_id":269,"name":"king Crusty","steam_id":76561198843376034,"connected_time":222000000000,"state":"active","ping":65},{"user_id":252,"name":"ChocoMcFudgeCake","steam_id":76561197994591295,"connected_time":1602000000000,"state":"active","ping":70},{"user_id":272,"name":"Queuetimeevent","steam_id":76561198079438423,"connected_time":67000000000,"state":"active","ping":60}]},{"server_id":108,"name":"Uncletopia | Dallas | 2 | All Maps","name_short":"dal-2","host":"dal-1.us.uncletopia.com","port":27025,"enabled":true,"region":"us-central","cc":"us","latitude":32.779167,"longitude":-96.80889,"reserved":0,"last_update":"0001-01-01T00:00:00Z","name_a2s":"Uncletopia | Dallas | 2 | All Maps","protocol":17,"map":"pl_swiftwater_final1","folder":"tf","game":"Team Fortress","app_id":440,"player_count":23,"max_players":24,"Bots":0,"server_type":"Dedicated","server_os":"Linux","password":true,"vac":true,"version":"7961495","steam_id":85568392924469988,"keywords":["nocrits","nodmgspread","payload","uncletopia"],"game_id":440,"stv_port":27026,"stv_name":"Uncletopia | Dallas | 2 | All Maps | STV","players":[{"user_id":368,"name":"lurid","steam_id":76561199134999203,"connected_time":767000000000,"state":"active","ping":79},{"user_id":314,"name":"Drakon","steam_id":76561198078210822,"connected_time":4198000000000,"state":"active","ping":104},{"user_id":338,"name":"Zaid","steam_id":76561199142840666,"connected_time":2237000000000,"state":"active","ping":158},{"user_id":361,"name":"Tan_Rat","steam_id":76561198313629344,"connected_time":1208000000000,"state":"active","ping":73},{"user_id":360,"name":"Chhaam","steam_id":76561198058508132,"connected_time":1246000000000,"state":"active","ping":74},{"user_id":370,"name":"Sparking Blade","steam_id":76561198342347989,"connected_time":641000000000,"state":"active","ping":108},{"user_id":369,"name":"PickeTickler","steam_id":76561199493016158,"connected_time":647000000000,"state":"active","ping":99},{"user_id":371,"name":"–ö–æ—Ä–∑–∞–ø","steam_id":76561198086030373,"connected_time":563000000000,"state":"active","ping":117},{"user_id":349,"name":"Rhutebeer","steam_id":76561198018302761,"connected_time":1657000000000,"state":"active","ping":78},{"user_id":372,"name":"HeroOfTime","steam_id":76561199096218001,"connected_time":526000000000,"state":"active","ping":85},{"user_id":373,"name":"imng","steam_id":76561198014988031,"connected_time":515000000000,"state":"active","ping":72},{"user_id":365,"name":"An Engineer","steam_id":76561198110381643,"connected_time":1065000000000,"state":"active","ping":45},{"user_id":327,"name":"errant","steam_id":76561197961758410,"connected_time":3412000000000,"state":"active","ping":39},{"user_id":337,"name":"Meet The Taunt","steam_id":76561198253927199,"connected_time":2248000000000,"state":"active","ping":162},{"user_id":385,"name":"frallan","steam_id":76561198039506482,"connected_time":178000000000,"state":"active","ping":82},{"user_id":328,"name":"CanadianEgg","steam_id":76561198041680099,"connected_time":3411000000000,"state":"active","ping":118},{"user_id":364,"name":"Rexosaur","steam_id":76561198172900177,"connected_time":1122000000000,"state":"active","ping":93},{"user_id":343,"name":"Kanye Asada","steam_id":76561198186678831,"connected_time":1995000000000,"state":"active","ping":87},{"user_id":375,"name":"Derp","steam_id":76561198016996572,"connected_time":474000000000,"state":"active","ping":87},{"user_id":388,"name":"walrus","steam_id":76561198057853319,"connected_time":13000000000,"state":"spawning","ping":359},{"user_id":384,"name":"what","steam_id":76561198082336619,"connected_time":208000000000,"state":"active","ping":101},{"user_id":387,"name":"Pizza Party","steam_id":76561198165730754,"connected_time":121000000000,"state":"active","ping":96},{"user_id":383,"name":"mkl","steam_id":76561197986401685,"connected_time":257000000000,"state":"active","ping":57}]},{"server_id":404,"name":"Uncletopia | Dallas | 3 | All Maps","name_short":"dal-3","host":"dal-1.us.uncletopia.com","port":27035,"enabled":true,"region":"us-central","cc":"us","latitude":32.779167,"longitude":-96.80889,"reserved":0,"last_update":"0001-01-01T00:00:00Z","name_a2s":"Uncletopia | Dallas | 3 | All Maps","protocol":17,"map":"koth_lakeside_final","folder":"tf","game":"Team Fortress","app_id":440,"player_count":0,"max_players":24,"Bots":0,"server_type":"Dedicated","server_os":"Linux","password":true,"vac":true,"version":"7961495","steam_id":85568392924515219,"keywords":["cp","nocrits","nodmgspread","uncletopia"],"game_id":440,"stv_port":27036,"stv_name":"Uncletopia | Dallas | 3 | All Maps | STV","players":null},{"server_id":405,"name":"Uncletopia | Dallas | 4 | Community","name_short":"dal-4","host":"dal-1.us.uncletopia.com","port":27045,"enabled":true,"region":"us-central","cc":"us","latitude":32.779167,"longitude":-96.80889,"reserved":0,"last_update":"0001-01-01T00:00:00Z","name_a2s":"Uncletopia | Dallas | 4 | Community","protocol":17,"map":"workshop/koth_product_final.ugc454272353","folder":"tf","game":"Team Fortress","app_id":440,"player_count":0,"max_players":24,"Bots":0,"server_type":"Dedicated","server_os":"Linux","password":true,"vac":true,"version":"7961495","steam_id":85568392924515220,"keywords":["cp","nocrits","nodmgspread","uncletopia"],"game_id":440,"stv_port":27046,"stv_name":"Uncletopia | Dallas | 4 | Community | STV","players":null},{"server_id":5,"name":"Uncletopia | Frankfurt | 1 | All Maps","name_short":"frk-1","host":"frk-1.de.uncletopia.com","port":27015,"enabled":true,"region":"eu","cc":"de","latitude":50.110924,"longitude":8.682127,"reserved":0,"last_update":"0001-01-01T00:00:00Z","name_a2s":"Uncletopia | Frankfurt | 1 | All Maps","protocol":17,"map":"pl_snowycoast","folder":"tf","game":"Team Fortress","app_id":440,"player_count":24,"max_players":24,"Bots":0,"server_type":"Dedicated","server_os":"Linux","password":true,"vac":true,"version":"7961495","steam_id":85568392924469989,"keywords":["nocrits","nodmgspread","payload","uncletopia"],"game_id":440,"stv_port":27016,"stv_name":"Uncletopia | Frankfurt | 1 | All Maps | STV","players":[{"user_id":846,"name":"Gillusion","steam_id":76561198138818087,"connected_time":884000000000,"state":"active","ping":52},{"user_id":777,"name":"frank","steam_id":76561198137710815,"connected_time":5334000000000,"state":"active","ping":49},{"user_id":843,"name":"Joejee","steam_id":76561199122423976,"connected_time":1407000000000,"state":"active","ping":77},{"user_id":852,"name":"DragonflyXL","steam_id":76561198146649957,"connected_time":415000000000,"state":"active","ping":62},{"user_id":848,"name":"rummy","steam_id":76561197997573379,"connected_time":849000000000,"state":"active","ping":60},{"user_id":831,"name":"leeloo","steam_id":76561199256962353,"connected_time":1781000000000,"state":"active","ping":56},{"user_id":833,"name":"chachiply","steam_id":76561198316355509,"connected_time":1743000000000,"state":"active","ping":63},{"user_id":814,"name":"Mortis","steam_id":76561198160658223,"connected_time":3345000000000,"state":"active","ping":56},{"user_id":835,"name":"cherrypowder","steam_id":76561199006915718,"connected_time":1740000000000,"state":"active","ping":64},{"user_id":853,"name":"Irdi","steam_id":76561198357322167,"connected_time":386000000000,"state":"active","ping":56},{"user_id":788,"name":"BoPoe","steam_id":76561198093333882,"connected_time":4532000000000,"state":"active","ping":96},{"user_id":849,"name":"thussu","steam_id":76561198890409949,"connected_time":836000000000,"state":"active","ping":90},{"user_id":837,"name":"üò°üòÇ","steam_id":76561198126595103,"connected_time":1727000000000,"state":"active","ping":59},{"user_id":838,"name":"tm`","steam_id":76561197993580412,"connected_time":1726000000000,"state":"active","ping":56},{"user_id":827,"name":"Snowy","steam_id":76561198169992461,"connected_time":2359000000000,"state":"active","ping":58},{"user_id":828,"name":"pepper","steam_id":76561198059782462,"connected_time":2120000000000,"state":"active","ping":52},{"user_id":854,"name":"Ash","steam_id":76561198148738525,"connected_time":373000000000,"state":"active","ping":117},{"user_id":847,"name":"Toca","steam_id":76561198039582547,"connected_time":878000000000,"state":"active","ping":60},{"user_id":819,"name":"tone","steam_id":76561197975301462,"connected_time":2796000000000,"state":"active","ping":69},{"user_id":820,"name":"Skelet","steam_id":76561198051685232,"connected_time":2741000000000,"state":"active","ping":55},{"user_id":855,"name":"Killbasa","steam_id":76561198064868400,"connected_time":367000000000,"state":"active","ping":139},{"user_id":840,"name":"Valen","steam_id":76561198049614521,"connected_time":1700000000000,"state":"active","ping":62},{"user_id":826,"name":"Suetolog","steam_id":76561199053090212,"connected_time":2425000000000,"state":"active","ping":53},{"user_id":857,"name":"Aku+","steam_id":76561198813782795,"connected_time":309000000000,"state":"active","ping":74}]},{"server_id":110,"name":"Uncletopia | Frankfurt | 2 | All Maps","name_short":"frk-2","host":"frk-1.de.uncletopia.com","port":27025,"enabled":true,"region":"eu","cc":"de","latitude":50.110924,"longitude":8.682127,"reserved":0,"last_update":"0001-01-01T00:00:00Z","name_a2s":"Uncletopia | Frankfurt | 2 | All Maps","protocol":17,"map":"koth_lakeside_final","folder":"tf","game":"Team Fortress","app_id":440,"player_count":0,"max_players":24,"Bots":0,"server_type":"Dedicated","server_os":"Linux","password":true,"vac":true,"version":"7961495","steam_id":85568392924469990,"keywords":["cp","nocrits","nodmgspread","uncletopia"],"game_id":440,"stv_port":27026,"stv_name":"Uncletopia | Frankfurt | 2 | All Maps | STV","players":null},{"server_id":308,"name":"Uncletopia | Frankfurt | 3 | All Maps","name_short":"frk-3","host":"frk-1.de.uncletopia.com","port":27035,"enabled":true,"region":"eu","cc":"de","latitude":50.110924,"longitude":8.682127,"reserved":0,"last_update":"0001-01-01T00:00:00Z","name_a2s":"Uncletopia | Frankfurt | 3 | All Maps","protocol":17,"map":"koth_cascade","folder":"tf","game":"Team Fortress","app_id":440,"player_count":0,"max_players":24,"Bots":0,"server_type":"Dedicated","server_os":"Linux","password":true,"vac":true,"version":"7961495","steam_id":85568392924504274,"keywords":["cp","nocrits","nodmgspread","uncletopia"],"game_id":440,"stv_port":27036,"stv_name":"Uncletopia | Frankfurt | 3 | All Maps | STV","players":null},{"server_id":309,"name":"Uncletopia | Frankfurt | 4 | All Maps","name_short":"frk-4","host":"frk-1.de.uncletopia.com","port":27045,"enabled":true,"region":"eu","cc":"de","latitude":50.110924,"longitude":8.682127,"reserved":0,"last_update":"0001-01-01T00:00:00Z","name_a2s":"Uncletopia | Frankfurt | 4 | All Maps","protocol":17,"map":"pl_badwater","folder":"tf","game":"Team Fortress","app_id":440,"player_count":22,"max_players":24,"Bots":0,"server_type":"Dedicated","server_os":"Linux","password":true,"vac":true,"version":"7961495","steam_id":85568392924504275,"keywords":["nocrits","nodmgspread","payload","uncletopia"],"game_id":440,"stv_port":27046,"stv_name":"Uncletopia | Frankfurt | 4 | All Maps | STV","players":[{"user_id":376,"name":"No Further Appeasement","steam_id":76561198050737972,"connected_time":5466000000000,"state":"active","ping":70},{"user_id":436,"name":"cansado","steam_id":76561198003898089,"connected_time":702000000000,"state":"active","ping":76},{"user_id":414,"name":"it was goku","steam_id":76561198147668373,"connected_time":2091000000000,"state":"active","ping":64},{"user_id":398,"name":"Galzra87","steam_id":76561198063414443,"connected_time":3964000000000,"state":"active","ping":68},{"user_id":426,"name":"Siegmeyer","steam_id":76561198328543549,"connected_time":1809000000000,"state":"active","ping":78},{"user_id":417,"name":"PrinzAnalFaust","steam_id":76561198136407626,"connected_time":2063000000000,"state":"active","ping":75},{"user_id":438,"name":"Super medyk","steam_id":76561198170125887,"connected_time":646000000000,"state":"active","ping":60},{"user_id":431,"name":"Maik","steam_id":76561198795607661,"connected_time":886000000000,"state":"active","ping":59},{"user_id":439,"name":"frosty","steam_id":76561198094560834,"connected_time":623000000000,"state":"active","ping":59},{"user_id":422,"name":"Darth Griefious","steam_id":76561198970347460,"connected_time":2042000000000,"state":"active","ping":63},{"user_id":440,"name":"Oaky Leaf","steam_id":76561198162821920,"connected_time":547000000000,"state":"active","ping":86},{"user_id":435,"name":"bro.Scrub[MicBroke]","steam_id":76561197971095217,"connected_time":745000000000,"state":"active","ping":84},{"user_id":427,"name":"Doctor Rudy G. Numpad","steam_id":76561198440881106,"connected_time":1510000000000,"state":"active","ping":74},{"user_id":441,"name":"shr1mple","steam_id":76561198173537027,"connected_time":505000000000,"state":"active","ping":42},{"user_id":443,"name":"Fexo","steam_id":76561197991649243,"connected_time":492000000000,"state":"active","ping":50},{"user_id":429,"name":"Kenny","steam_id":76561198994898206,"connected_time":963000000000,"state":"active","ping":72},{"user_id":446,"name":"Zedifo","steam_id":76561198044032070,"connected_time":185000000000,"state":"active","ping":53},{"user_id":432,"name":"Vander","steam_id":76561198213669807,"connected_time":821000000000,"state":"active","ping":62},{"user_id":445,"name":"Daven","steam_id":76561198036522928,"connected_time":461000000000,"state":"active","ping":70},{"user_id":433,"name":"Jojojo","steam_id":76561199214266029,"connected_time":810000000000,"state":"active","ping":177},{"user_id":412,"name":"Summer ‚ô•","steam_id":76561198047723907,"connected_time":2166000000000,"state":"active","ping":47},{"user_id":447,"name":"mash","steam_id":76561198367669395,"connected_time":91000000000,"state":"active","ping":62}]},{"server_id":310,"name":"Uncletopia | Frankfurt | 5 | All Maps","name_short":"frk-5","host":"frk-1.de.uncletopia.com","port":27055,"enabled":true,"region":"eu","cc":"de","latitude":50.110924,"longitude":8.682127,"reserved":0,"last_update":"0001-01-01T00:00:00Z","name_a2s":"Uncletopia | Frankfurt | 5 | All Maps","protocol":17,"map":"cp_sunshine","folder":"tf","game":"Team Fortress","app_id":440,"player_count":0,"max_players":24,"Bots":0,"server_type":"Dedicated","server_os":"Linux","password":true,"vac":true,"version":"7961495","steam_id":85568392924504277,"keywords":["cp","nocrits","nodmgspread","uncletopia"],"game_id":440,"stv_port":27056,"stv_name":"Uncletopia | Frankfurt | 5 | All Maps | STV","players":null},{"server_id":311,"name":"Uncletopia | Frankfurt | 6 | All Maps","name_short":"frk-6","host":"frk-1.de.uncletopia.com","port":27065,"enabled":true,"region":"eu","cc":"de","latitude":50.110924,"longitude":8.682127,"reserved":0,"last_update":"0001-01-01T00:00:00Z","name_a2s":"Uncletopia | Frankfurt | 6 | All Maps","protocol":17,"map":"cp_snakewater_final1","folder":"tf","game":"Team Fortress","app_id":440,"player_count":0,"max_players":24,"Bots":0,"server_type":"Dedicated","server_os":"Linux","password":true,"vac":true,"version":"7961495","steam_id":85568392924504278,"keywords":["cp","nocrits","nodmgspread","uncletopia"],"game_id":440,"stv_port":27066,"stv_name":"Uncletopia | Frankfurt | 6 | All Maps | STV","players":null},{"server_id":23,"name":"Uncletopia | Frankfurt | 7 | Stopwatch","name_short":"frk-7","host":"frk-1.de.uncletopia.com","port":27075,"enabled":true,"region":"eu","cc":"de","latitude":50.110924,"longitude":8.682127,"reserved":0,"last_update":"0001-01-01T00:00:00Z","name_a2s":"Uncletopia | Frankfurt | 7 | Stopwatch","protocol":17,"map":"workshop/koth_ramjam_rc1.ugc459778887","folder":"tf","game":"Team Fortress","app_id":440,"player_count":0,"max_players":24,"Bots":0,"server_type":"Dedicated","server_os":"Linux","password":true,"vac":true,"version":"7961495","steam_id":85568392924742827,"keywords":["cp","nocrits","nodmgspread","uncletopia"],"game_id":440,"stv_port":27076,"stv_name":"Uncletopia | Frankfurt | 7 | Stopwatch | STV","players":null},{"server_id":24,"name":"Uncletopia | Frankfurt | 8 | Community","name_short":"frk-8","host":"frk-1.de.uncletopia.com","port":27085,"enabled":true,"region":"eu","cc":"de","latitude":50.110924,"longitude":8.682127,"reserved":0,"last_update":"0001-01-01T00:00:00Z","name_a2s":"Uncletopia | Frankfurt | 8 | Community","protocol":17,"map":"workshop/koth_ramjam_rc1.ugc459778887","folder":"tf","game":"Team Fortress","app_id":440,"player_count":0,"max_players":24,"Bots":0,"server_type":"Dedicated","server_os":"Linux","password":true,"vac":true,"version":"7961495","steam_id":85568392924742828,"keywords":["cp","nocrits","nodmgspread","uncletopia"],"game_id":440,"stv_port":27086,"stv_name":"Uncletopia | Frankfurt | 8 | Community | STV","players":null},{"server_id":202,"name":"Uncletopia | Hong Kong | 1 | All Maps","name_short":"hgk-1","host":"hgk-1.hk.uncletopia.com","port":27015,"enabled":true,"region":"asia","cc":"hk","latitude":22.302711,"longitude":114.177216,"reserved":0,"last_update":"0001-01-01T00:00:00Z","name_a2s":"Uncletopia | Hong Kong | 1 | All Maps","protocol":17,"map":"pl_frontier_final","folder":"tf","game":"Team Fortress","app_id":440,"player_count":0,"max_players":24,"Bots":0,"server_type":"Dedicated","server_os":"Linux","password":true,"vac":true,"version":"7961495","steam_id":85568392924494504,"keywords":["nocrits","nodmgspread","payload","uncletopia"],"game_id":440,"stv_port":27016,"stv_name":"Uncletopia | Hong Kong | 1 | All Maps | STV","players":null},{"server_id":1,"name":"Uncletopia | Los Angeles | 1 | All Maps","name_short":"lax-1","host":"lax-1.us.uncletopia.com","port":27015,"enabled":true,"region":"us-west","cc":"us","latitude":33.94279,"longitude":-118.41004,"reserved":0,"last_update":"0001-01-01T00:00:00Z","name_a2s":"Uncletopia | Los Angeles | 1 | All Maps","protocol":17,"map":"koth_viaduct","folder":"tf","game":"Team Fortress","app_id":440,"player_count":0,"max_players":24,"Bots":0,"server_type":"Dedicated","server_os":"Linux","password":true,"vac":true,"version":"7961495","steam_id":85568392924469991,"keywords":["cp","nocrits","nodmgspread","uncletopia"],"game_id":440,"stv_port":27016,"stv_name":"Uncletopia | Los Angeles | 1 | All Maps | STV","players":null},{"server_id":112,"name":"Uncletopia | Los Angeles | 2 | All Maps","name_short":"lax-2","host":"lax-1.us.uncletopia.com","port":27025,"enabled":true,"region":"us-west","cc":"us","latitude":33.94279,"longitude":-118.41004,"reserved":0,"last_update":"0001-01-01T00:00:00Z","name_a2s":"Uncletopia | Los Angeles | 2 | All Maps","protocol":17,"map":"koth_viaduct","folder":"tf","game":"Team Fortress","app_id":440,"player_count":0,"max_players":24,"Bots":0,"server_type":"Dedicated","server_os":"Linux","password":true,"vac":true,"version":"7961495","steam_id":85568392924469992,"keywords":["cp","nocrits","nodmgspread","uncletopia"],"game_id":440,"stv_port":27026,"stv_name":"Uncletopia | Los Angeles | 2 | All Maps | STV","players":null},{"server_id":324,"name":"Uncletopia | Los Angeles | 3 | All Maps","name_short":"lax-3","host":"lax-1.us.uncletopia.com","port":27035,"enabled":true,"region":"us-west","cc":"us","latitude":33.94279,"longitude":-118.41004,"reserved":0,"last_update":"0001-01-01T00:00:00Z","name_a2s":"Uncletopia | Los Angeles | 3 | All Maps","protocol":17,"map":"pl_barnblitz","folder":"tf","game":"Team Fortress","app_id":440,"player_count":0,"max_players":24,"Bots":0,"server_type":"Dedicated","server_os":"Linux","password":true,"vac":true,"version":"7961495","steam_id":85568392924510198,"keywords":["nocrits","nodmgspread","payload","uncletopia"],"game_id":440,"stv_port":27036,"stv_name":"Uncletopia | Los Angeles | 3 | All Maps | STV","players":null},{"server_id":25,"name":"Uncletopia | Los Angeles | 4 | Stopwatch","name_short":"lax-4","host":"lax-1.us.uncletopia.com","port":27045,"enabled":true,"region":"us-west","cc":"us","latitude":33.94279,"longitude":-118.41004,"reserved":0,"last_update":"0001-01-01T00:00:00Z","name_a2s":"Uncletopia | Los Angeles | 4 | Stopwatch","protocol":17,"map":"pl_barnblitz","folder":"tf","game":"Team Fortress","app_id":440,"player_count":0,"max_players":24,"Bots":0,"server_type":"Dedicated","server_os":"Linux","password":true,"vac":true,"version":"7961495","steam_id":85568392924510199,"keywords":["nocrits","nodmgspread","payload","uncletopia"],"game_id":440,"stv_port":27046,"stv_name":"Uncletopia | Los Angeles | 4 | Stopwatch | STV","players":null},{"server_id":11,"name":"Uncletopia | London | 1 | All Maps","name_short":"lon-1","host":"lon-1.uk.uncletopia.com","port":27015,"enabled":true,"region":"eu","cc":"gb","latitude":51.509865,"longitude":-0.118092,"reserved":0,"last_update":"0001-01-01T00:00:00Z","name_a2s":"Uncletopia | London | 1 | All Maps","protocol":17,"map":"cp_process_final","folder":"tf","game":"Team Fortress","app_id":440,"player_count":24,"max_players":24,"Bots":0,"server_type":"Dedicated","server_os":"Linux","password":true,"vac":true,"version":"7961495","steam_id":85568392924367362,"keywords":["cp","nocrits","nodmgspread","uncletopia"],"game_id":440,"stv_port":27016,"stv_name":"Uncletopia | London | 1 | All Maps | STV","players":[{"user_id":901,"name":"kelpie (undead arc)","steam_id":76561198128327529,"connected_time":2890000000000,"state":"active","ping":35},{"user_id":925,"name":"Marquis de Hoto","steam_id":76561198080687708,"connected_time":736000000000,"state":"active","ping":69},{"user_id":880,"name":"Citrus","steam_id":76561198090650837,"connected_time":5133000000000,"state":"active","ping":50},{"user_id":920,"name":"owo","steam_id":76561198158209651,"connected_time":1668000000000,"state":"active","ping":50},{"user_id":913,"name":"xva","steam_id":76561198969286813,"connected_time":1892000000000,"state":"active","ping":70},{"user_id":848,"name":"sora (live :3)","steam_id":76561198096547662,"connected_time":8342000000000,"state":"active","ping":47},{"user_id":873,"name":"b-ang (ÔΩ°‚úß‚Äø‚Äø‚úßÔΩ°)","steam_id":76561198143972906,"connected_time":6272000000000,"state":"active","ping":97},{"user_id":891,"name":"BOT Jeremus","steam_id":76561198072981684,"connected_time":4352000000000,"state":"active","ping":40},{"user_id":902,"name":"Jeryx","steam_id":76561197995602803,"connected_time":2885000000000,"state":"active","ping":91},{"user_id":917,"name":"Wils","steam_id":76561198325853689,"connected_time":1845000000000,"state":"active","ping":215},{"user_id":876,"name":"Barry Burtons no. 1 fan","steam_id":76561198101451654,"connected_time":5883000000000,"state":"active","ping":45},{"user_id":923,"name":"‚ößaura‚öß","steam_id":76561198066258544,"connected_time":1144000000000,"state":"active","ping":58},{"user_id":879,"name":"shooer!","steam_id":76561198110531281,"connected_time":5344000000000,"state":"active","ping":70},{"user_id":874,"name":"BreadBubbles","steam_id":76561198174332826,"connected_time":6257000000000,"state":"active","ping":59},{"user_id":905,"name":"SOPHIIAA","steam_id":76561198443798981,"connected_time":2868000000000,"state":"active","ping":80},{"user_id":926,"name":"Solima","steam_id":76561198045349099,"connected_time":262000000000,"state":"active","ping":49},{"user_id":912,"name":"goff","steam_id":76561198118989010,"connected_time":1915000000000,"state":"active","ping":51},{"user_id":830,"name":"silversteellady (#1 abi fan)","steam_id":76561198166953966,"connected_time":10359000000000,"state":"active","ping":67},{"user_id":924,"name":"albert","steam_id":76561198353496134,"connected_time":1142000000000,"state":"active","ping":51},{"user_id":878,"name":"LILY-CHAN","steam_id":76561198035085893,"connected_time":5863000000000,"state":"active","ping":103},{"user_id":919,"name":"Clown :o)","steam_id":76561198074657015,"connected_time":1760000000000,"state":"active","ping":57},{"user_id":872,"name":"charlotte","steam_id":76561198075129898,"connected_time":6392000000000,"state":"active","ping":30},{"user_id":899,"name":"beebo","steam_id":76561199120277007,"connected_time":3676000000000,"state":"active","ping":50}]},{"server_id":114,"name":"Uncletopia | London | 2 | All Maps","name_short":"lon-2","host":"lon-1.uk.uncletopia.com","port":27025,"enabled":true,"region":"eu","cc":"gb","latitude":51.509865,"longitude":-0.118092,"reserved":0,"last_update":"0001-01-01T00:00:00Z","name_a2s":"Uncletopia | London | 2 | All Maps","protocol":17,"map":"koth_highpass","folder":"tf","game":"Team Fortress","app_id":440,"player_count":0,"max_players":24,"Bots":0,"server_type":"Dedicated","server_os":"Linux","password":true,"vac":true,"version":"7961495","steam_id":85568392924470941,"keywords":["cp","nocrits","nodmgspread","uncletopia"],"game_id":440,"stv_port":27026,"stv_name":"Uncletopia | London | 2 | All Maps | STV","players":null},{"server_id":320,"name":"Uncletopia | London | 3 | All Maps","name_short":"lon-3","host":"lon-1.uk.uncletopia.com","port":27035,"enabled":true,"region":"eu","cc":"gb","latitude":51.509865,"longitude":-0.118092,"reserved":0,"last_update":"0001-01-01T00:00:00Z","name_a2s":"Uncletopia | London | 3 | All Maps","protocol":17,"map":"koth_highpass","folder":"tf","game":"Team Fortress","app_id":440,"player_count":0,"max_players":24,"Bots":0,"server_type":"Dedicated","server_os":"Linux","password":true,"vac":true,"version":"7961495","steam_id":85568392924510192,"keywords":["cp","nocrits","nodmgspread","uncletopia"],"game_id":440,"stv_port":27036,"stv_name":"Uncletopia | London | 3 | All Maps | STV","players":null},{"server_id":321,"name":"Uncletopia | London | 4 | All Maps","name_short":"lon-4","host":"lon-1.uk.uncletopia.com","port":27045,"enabled":true,"region":"eu","cc":"gb","latitude":51.509865,"longitude":-0.118092,"reserved":0,"last_update":"0001-01-01T00:00:00Z","name_a2s":"Uncletopia | London | 4 | All Maps","protocol":17,"map":"pl_upward","folder":"tf","game":"Team Fortress","app_id":440,"player_count":24,"max_players":24,"Bots":0,"server_type":"Dedicated","server_os":"Linux","password":true,"vac":true,"version":"7961495","steam_id":85568392924510193,"keywords":["nocrits","nodmgspread","payload","uncletopia"],"game_id":440,"stv_port":27046,"stv_name":"Uncletopia | London | 4 | All Maps | STV","players":[{"user_id":232,"name":"etc","steam_id":76561197998394797,"connected_time":1739000000000,"state":"active","ping":54},{"user_id":246,"name":"hananamanna","steam_id":76561198006570285,"connected_time":985000000000,"state":"active","ping":115},{"user_id":236,"name":"joachym","steam_id":76561198428579761,"connected_time":1459000000000,"state":"active","ping":70},{"user_id":237,"name":"three rats in a trenchcoat","steam_id":76561197983889333,"connected_time":1450000000000,"state":"active","ping":73},{"user_id":249,"name":"nedraagoeh","steam_id":76561198346638308,"connected_time":653000000000,"state":"active","ping":53},{"user_id":255,"name":"bongles","steam_id":76561198073669428,"connected_time":61000000000,"state":"active","ping":49},{"user_id":202,"name":"Hazo","steam_id":76561198137686270,"connected_time":3175000000000,"state":"active","ping":66},{"user_id":210,"name":"Blockster 9","steam_id":76561198337495949,"connected_time":3018000000000,"state":"active","ping":57},{"user_id":203,"name":"meatballsander","steam_id":76561199067337555,"connected_time":3149000000000,"state":"active","ping":72},{"user_id":219,"name":"JayJay","steam_id":76561198296557044,"connected_time":2650000000000,"state":"active","ping":56},{"user_id":228,"name":"Ekk0","steam_id":76561198063968951,"connected_time":1964000000000,"state":"active","ping":68},{"user_id":238,"name":"Pestilence","steam_id":76561198140938904,"connected_time":1449000000000,"state":"active","ping":80},{"user_id":241,"name":"Snowmotion","steam_id":76561198075022454,"connected_time":1290000000000,"state":"active","ping":70},{"user_id":155,"name":"A Succulent Chinese Meal","steam_id":76561198069472440,"connected_time":6062000000000,"state":"active","ping":65},{"user_id":240,"name":"Splarvis","steam_id":76561198007792525,"connected_time":1342000000000,"state":"active","ping":43},{"user_id":244,"name":"M2rtRa","steam_id":76561198111036466,"connected_time":1143000000000,"state":"active","ping":75},{"user_id":141,"name":"Farao Ramses II","steam_id":76561198078722712,"connected_time":7064000000000,"state":"active","ping":48},{"user_id":231,"name":"goblin","steam_id":76561198170334258,"connected_time":1851000000000,"state":"active","ping":65},{"user_id":220,"name":"meistjr","steam_id":76561198077240093,"connected_time":2612000000000,"state":"active","ping":44},{"user_id":247,"name":"FilipeLuk","steam_id":76561198150675438,"connected_time":957000000000,"state":"active","ping":65},{"user_id":248,"name":"Jussukka","steam_id":76561198122894683,"connected_time":732000000000,"state":"active","ping":84},{"user_id":230,"name":"install gentoo","steam_id":76561198185257982,"connected_time":1928000000000,"state":"active","ping":79},{"user_id":235,"name":"AsianPersuasion","steam_id":76561198202112536,"connected_time":1593000000000,"state":"active","ping":58},{"user_id":253,"name":"SOFUNNYBRO","steam_id":76561197995001070,"connected_time":104000000000,"state":"active","ping":86}]},{"server_id":21,"name":"Uncletopia | London | 5 | All Maps","name_short":"lon-5","host":"lon-1.uk.uncletopia.com","port":27055,"enabled":true,"region":"eu","cc":"gb","latitude":51.509865,"longitude":-0.118092,"reserved":0,"last_update":"0001-01-01T00:00:00Z","name_a2s":"Uncletopia | London | 5 | All Maps","protocol":17,"map":"plr_bananabay","folder":"tf","game":"Team Fortress","app_id":440,"player_count":0,"max_players":24,"Bots":0,"server_type":"Dedicated","server_os":"Linux","password":true,"vac":true,"version":"7961495","steam_id":85568392924742829,"keywords":["nocrits","nodmgspread","payload","uncletopia"],"game_id":440,"stv_port":27056,"stv_name":"Uncletopia | London | 5 | All Maps | STV","players":null},{"server_id":22,"name":"Uncletopia | London | 6 | All Maps","name_short":"lon-6","host":"lon-1.uk.uncletopia.com","port":27065,"enabled":true,"region":"eu","cc":"gb","latitude":51.509865,"longitude":-0.118092,"reserved":0,"last_update":"0001-01-01T00:00:00Z","name_a2s":"Uncletopia | London | 6 | All Maps","protocol":17,"map":"pl_frontier_final","folder":"tf","game":"Team Fortress","app_id":440,"player_count":22,"max_players":24,"Bots":0,"server_type":"Dedicated","server_os":"Linux","password":true,"vac":true,"version":"7961495","steam_id":85568392924742830,"keywords":["nocrits","nodmgspread","payload","uncletopia"],"game_id":440,"stv_port":27066,"stv_name":"Uncletopia | London | 6 | All Maps | STV","players":[{"user_id":240,"name":"Pain in a Box","steam_id":76561197990777173,"connected_time":1840000000000,"state":"active","ping":108},{"user_id":206,"name":"Vershal Smershal","steam_id":76561198116223995,"connected_time":4922000000000,"state":"active","ping":55},{"user_id":215,"name":"Ryan Gosling (Literally me)","steam_id":76561198438150893,"connected_time":3682000000000,"state":"active","ping":99},{"user_id":255,"name":"Pilcik","steam_id":76561198266876942,"connected_time":547000000000,"state":"active","ping":75},{"user_id":258,"name":"Scout","steam_id":76561198992898803,"connected_time":123000000000,"state":"active","ping":59},{"user_id":259,"name":"SnusRunkarn","steam_id":76561199124072329,"connected_time":103000000000,"state":"active","ping":103},{"user_id":229,"name":"zayd","steam_id":76561198895235231,"connected_time":2648000000000,"state":"active","ping":57},{"user_id":232,"name":"Yinsoo","steam_id":76561198127697875,"connected_time":2586000000000,"state":"active","ping":75},{"user_id":256,"name":"goop","steam_id":76561198190073005,"connected_time":487000000000,"state":"active","ping":44},{"user_id":248,"name":"LucyLime","steam_id":76561198262258698,"connected_time":1284000000000,"state":"active","ping":58},{"user_id":208,"name":"agent youppii","steam_id":76561198055264447,"connected_time":4900000000000,"state":"active","ping":51},{"user_id":236,"name":"Jombus Quan","steam_id":76561198240560666,"connected_time":2350000000000,"state":"active","ping":46},{"user_id":251,"name":"Huskai","steam_id":76561198141512362,"connected_time":1092000000000,"state":"active","ping":43},{"user_id":252,"name":"Peekatew","steam_id":76561198024712439,"connected_time":1055000000000,"state":"active","ping":50},{"user_id":249,"name":"Piss Man","steam_id":76561198089957950,"connected_time":1274000000000,"state":"active","ping":61},{"user_id":224,"name":"vegetable_lover_45","steam_id":76561198361621766,"connected_time":3319000000000,"state":"active","ping":45},{"user_id":204,"name":"Valfezant","steam_id":76561199063983797,"connected_time":5312000000000,"state":"active","ping":73},{"user_id":237,"name":"Omyskull","steam_id":76561198131711758,"connected_time":2302000000000,"state":"active","ping":69},{"user_id":222,"name":"MrToX","steam_id":76561198219219313,"connected_time":3506000000000,"state":"active","ping":53},{"user_id":261,"name":"Jack","steam_id":76561198397105421,"connected_time":81000000000,"state":"active","ping":68},{"user_id":257,"name":"Turtle","steam_id":76561198053254139,"connected_time":418000000000,"state":"active","ping":47},{"user_id":253,"name":"process for the nth time","steam_id":76561198051852765,"connected_time":1046000000000,"state":"active","ping":75}]},{"server_id":40,"name":"Uncletopia | London | 7 | Stopwatch","name_short":"lon-7","host":"lon-1.uk.uncletopia.com","port":27075,"enabled":true,"region":"eu","cc":"gb","latitude":51.509865,"longitude":-0.118092,"reserved":0,"last_update":"0001-01-01T00:00:00Z","name_a2s":"Uncletopia | London | 7 | Stopwatch","protocol":17,"map":"workshop/pl_vigil_rc10.ugc1266210012","folder":"tf","game":"Team Fortress","app_id":440,"player_count":0,"max_players":24,"Bots":0,"server_type":"Dedicated","server_os":"Linux","password":true,"vac":true,"version":"7961495","steam_id":85568392924964314,"keywords":["nocrits","nodmgspread","payload","uncletopia"],"game_id":440,"stv_port":27076,"stv_name":"Uncletopia | London | 7 | Stopwatch | STV","players":null},{"server_id":41,"name":"Uncletopia | London | 8 | Community","name_short":"lon-8","host":"lon-1.uk.uncletopia.com","port":27085,"enabled":true,"region":"eu","cc":"gb","latitude":51.509865,"longitude":-0.118092,"reserved":0,"last_update":"0001-01-01T00:00:00Z","name_a2s":"Uncletopia | London | 8 | Community","protocol":17,"map":"workshop/pl_cactuscanyon_redux_final2.ugc2579644293","folder":"tf","game":"Team Fortress","app_id":440,"player_count":0,"max_players":24,"Bots":0,"server_type":"Dedicated","server_os":"Linux","password":true,"vac":true,"version":"7961495","steam_id":85568392924964315,"keywords":["nocrits","nodmgspread","payload","uncletopia"],"game_id":440,"stv_port":27086,"stv_name":"Uncletopia | London | 8 | Community | STV","players":null},{"server_id":300,"name":"Uncletopia | Montr√©al | 1 | One Thousand Uncles","name_short":"mtl-1","host":"mtl-1.ca.uncletopia.com","port":27015,"enabled":true,"region":"us-east","cc":"ca","latitude":45.50889,"longitude":-73.56167,"reserved":0,"last_update":"0001-01-01T00:00:00Z","name_a2s":"","protocol":0,"map":"","folder":"","game":"","app_id":0,"player_count":1,"max_players":0,"Bots":0,"server_type":"","server_os":"","password":false,"vac":false,"version":"","steam_id":0,"keywords":null,"game_id":0,"stv_port":0,"stv_name":"","players":[{"user_id":238,"name":"Don Empanadas","steam_id":76561198403146542,"connected_time":0,"state":"spawning","ping":35}]},{"server_id":301,"name":"Uncletopia | Montr√©al | 2 | One Thousand Uncles","name_short":"mtl-2","host":"mtl-1.ca.uncletopia.com","port":27025,"enabled":true,"region":"us-east","cc":"ca","latitude":45.50889,"longitude":-73.56167,"reserved":0,"last_update":"0001-01-01T00:00:00Z","name_a2s":"","protocol":0,"map":"","folder":"","game":"","app_id":0,"player_count":0,"max_players":0,"Bots":0,"server_type":"","server_os":"","password":false,"vac":false,"version":"","steam_id":0,"keywords":null,"game_id":0,"stv_port":0,"stv_name":"","players":null},{"server_id":302,"name":"Uncletopia | Montr√©al | 3 | One Thousand Uncles","name_short":"mtl-3","host":"mtl-1.ca.uncletopia.com","port":27035,"enabled":true,"region":"us-east","cc":"ca","latitude":45.50889,"longitude":-73.56167,"reserved":0,"last_update":"0001-01-01T00:00:00Z","name_a2s":"","protocol":0,"map":"","folder":"","game":"","app_id":0,"player_count":0,"max_players":0,"Bots":0,"server_type":"","server_os":"","password":false,"vac":false,"version":"","steam_id":0,"keywords":null,"game_id":0,"stv_port":0,"stv_name":"","players":null},{"server_id":13,"name":"Uncletopia | New York City | 1 | All Maps","name_short":"nyc-1","host":"nyc-1.us.uncletopia.com","port":27015,"enabled":true,"region":"us-east","cc":"us","latitude":40.73061,"longitude":-73.93524,"reserved":0,"last_update":"0001-01-01T00:00:00Z","name_a2s":"Uncletopia | New York City | 1 | All Maps","protocol":17,"map":"pl_upward","folder":"tf","game":"Team Fortress","app_id":440,"player_count":22,"max_players":24,"Bots":0,"server_type":"Dedicated","server_os":"Linux","password":true,"vac":true,"version":"7961495","steam_id":85568392924469993,"keywords":["nocrits","nodmgspread","payload","uncletopia"],"game_id":440,"stv_port":27016,"stv_name":"Uncletopia | New York City | 1 | All Maps | STV","players":[{"user_id":189,"name":"Andrew's Taint","steam_id":76561198131400543,"connected_time":2152000000000,"state":"active","ping":88},{"user_id":219,"name":"Sone","steam_id":76561198069601032,"connected_time":18000000000,"state":"active","ping":59},{"user_id":180,"name":"DoUFart","steam_id":76561198093422623,"connected_time":2962000000000,"state":"active","ping":66},{"user_id":181,"name":"Jango","steam_id":76561198084589742,"connected_time":2888000000000,"state":"active","ping":76},{"user_id":206,"name":"ButtFrick","steam_id":76561198238864304,"connected_time":802000000000,"state":"active","ping":49},{"user_id":197,"name":"diip","steam_id":76561198345828288,"connected_time":1719000000000,"state":"active","ping":76},{"user_id":164,"name":"JxyGREED","steam_id":76561198345026653,"connected_time":4331000000000,"state":"active","ping":44},{"user_id":190,"name":"Bagel","steam_id":76561198167747447,"connected_time":2144000000000,"state":"active","ping":66},{"user_id":213,"name":"bookreader","steam_id":76561198978568007,"connected_time":560000000000,"state":"active","ping":34},{"user_id":169,"name":"fried rice","steam_id":76561198928939100,"connected_time":3707000000000,"state":"active","ping":92},{"user_id":173,"name":"BumpofNight","steam_id":76561198011581312,"connected_time":3509000000000,"state":"active","ping":83},{"user_id":171,"name":"jose.gonzales.2003","steam_id":76561199217620385,"connected_time":3569000000000,"state":"active","ping":57},{"user_id":207,"name":"nav","steam_id":76561198872608266,"connected_time":790000000000,"state":"active","ping":63},{"user_id":218,"name":"Strange Diplomat","steam_id":76561198428191920,"connected_time":121000000000,"state":"active","ping":46},{"user_id":179,"name":"breathingtrees","steam_id":76561198118931690,"connected_time":3168000000000,"state":"active","ping":59},{"user_id":220,"name":"‚òëJuanaco is dead","steam_id":76561198029895630,"connected_time":15000000000,"state":"active","ping":156},{"user_id":192,"name":"HalfDead","steam_id":76561198049700226,"connected_time":2109000000000,"state":"active","ping":77},{"user_id":208,"name":"Bunglue","steam_id":76561198200675321,"connected_time":783000000000,"state":"active","ping":46},{"user_id":215,"name":"club going up","steam_id":76561198141700569,"connected_time":486000000000,"state":"active","ping":60},{"user_id":221,"name":"Nerrrd_","steam_id":76561198870129960,"connected_time":7000000000,"state":"spawning","ping":37},{"user_id":193,"name":"Remix.SMG","steam_id":76561198052895933,"connected_time":1921000000000,"state":"active","ping":62},{"user_id":217,"name":"Kzgamer","steam_id":76561198809770239,"connected_time":335000000000,"state":"active","ping":56}]},{"server_id":14,"name":"Uncletopia | New York City | 2 | All Maps","name_short":"nyc-2","host":"nyc-1.us.uncletopia.com","port":27025,"enabled":true,"region":"us-east","cc":"us","latitude":40.73061,"longitude":-73.93524,"reserved":0,"last_update":"0001-01-01T00:00:00Z","name_a2s":"Uncletopia | New York City | 2 | All Maps","protocol":17,"map":"koth_viaduct","folder":"tf","game":"Team Fortress","app_id":440,"player_count":23,"max_players":24,"Bots":0,"server_type":"Dedicated","server_os":"Linux","password":true,"vac":true,"version":"7961495","steam_id":85568392924469994,"keywords":["cp","nocrits","nodmgspread","uncletopia"],"game_id":440,"stv_port":27026,"stv_name":"Uncletopia | New York City | 2 | All Maps | STV","players":[{"user_id":187,"name":"Haveltherock27","steam_id":76561199219844391,"connected_time":6007000000000,"state":"active","ping":69},{"user_id":247,"name":"P.C. Baby","steam_id":76561198067011379,"connected_time":994000000000,"state":"active","ping":107},{"user_id":253,"name":"Seanathan","steam_id":76561198196276831,"connected_time":949000000000,"state":"active","ping":50},{"user_id":232,"name":"krill issue","steam_id":76561198088201976,"connected_time":2754000000000,"state":"active","ping":105},{"user_id":262,"name":"yer_nerd","steam_id":76561199435454093,"connected_time":676000000000,"state":"active","ping":62},{"user_id":252,"name":"[MOM] Preening Champion","steam_id":76561198055855534,"connected_time":953000000000,"state":"active","ping":57},{"user_id":246,"name":"Nice21","steam_id":76561199427548141,"connected_time":1006000000000,"state":"active","ping":80},{"user_id":250,"name":"GigaPenguin","steam_id":76561198805906456,"connected_time":971000000000,"state":"active","ping":44},{"user_id":265,"name":"meinsword","steam_id":76561198272653535,"connected_time":488000000000,"state":"active","ping":69},{"user_id":180,"name":"BradB.","steam_id":76561199163905036,"connected_time":6683000000000,"state":"active","ping":84},{"user_id":207,"name":"LeGamingProPlays","steam_id":76561198121304032,"connected_time":4880000000000,"state":"active","ping":94},{"user_id":217,"name":"Tokyo_Timeshift_","steam_id":76561198048677523,"connected_time":3961000000000,"state":"active","ping":71},{"user_id":268,"name":"CUTTHROAT","steam_id":76561198100942212,"connected_time":292000000000,"state":"active","ping":75},{"user_id":263,"name":"ThreatLvl 9 (she/her)","steam_id":76561198079410533,"connected_time":662000000000,"state":"active","ping":58},{"user_id":269,"name":"HemoTox","steam_id":76561197999713466,"connected_time":280000000000,"state":"active","ping":71},{"user_id":273,"name":"Moofins","steam_id":76561198050291949,"connected_time":6000000000,"state":"spawning","ping":54},{"user_id":258,"name":"Dullahan","steam_id":76561198119668908,"connected_time":872000000000,"state":"active","ping":111},{"user_id":271,"name":"DaveAtDublin","steam_id":76561198162386715,"connected_time":156000000000,"state":"active","ping":59},{"user_id":226,"name":"Sagoogoo","steam_id":76561198176061614,"connected_time":3330000000000,"state":"active","ping":130},{"user_id":259,"name":"GreenApples","steam_id":76561198120559543,"connected_time":868000000000,"state":"active","ping":120},{"user_id":178,"name":"Grazzunk","steam_id":76561198290227691,"connected_time":6912000000000,"state":"active","ping":63},{"user_id":270,"name":"beats (16:38)","steam_id":76561199245717718,"connected_time":256000000000,"state":"active","ping":59},{"user_id":241,"name":"Random Shonen Smear","steam_id":76561198397873029,"connected_time":1250000000000,"state":"active","ping":68}]},{"server_id":15,"name":"Uncletopia | New York City | 3 | Stopwatch","name_short":"nyc-3","host":"nyc-1.us.uncletopia.com","port":27035,"enabled":true,"region":"us-east","cc":"us","latitude":40.73061,"longitude":-73.93524,"reserved":0,"last_update":"0001-01-01T00:00:00Z","name_a2s":"Uncletopia | New York City | 3 | Stopwatch","protocol":17,"map":"cp_process_final","folder":"tf","game":"Team Fortress","app_id":440,"player_count":1,"max_players":24,"Bots":0,"server_type":"Dedicated","server_os":"Linux","password":true,"vac":true,"version":"7961495","steam_id":85568392924742820,"keywords":["cp","nocrits","nodmgspread","uncletopia"],"game_id":440,"stv_port":27036,"stv_name":"Uncletopia | New York City | 3 | Stopwatch | STV","players":[{"user_id":20,"name":"amaricantanker#574","steam_id":76561198343584037,"connected_time":1948000000000,"state":"active","ping":117}]},{"server_id":16,"name":"Uncletopia | New York City | 4 | Community","name_short":"nyc-4","host":"nyc-1.us.uncletopia.com","port":27045,"enabled":true,"region":"us-east","cc":"us","latitude":40.73061,"longitude":-73.93524,"reserved":0,"last_update":"0001-01-01T00:00:00Z","name_a2s":"Uncletopia | New York City | 4 | Community","protocol":17,"map":"workshop/koth_product_final.ugc454272353","folder":"tf","game":"Team Fortress","app_id":440,"player_count":0,"max_players":24,"Bots":0,"server_type":"Dedicated","server_os":"Linux","password":true,"vac":true,"version":"7961495","steam_id":85568392924742821,"keywords":["cp","nocrits","nodmgspread","uncletopia"],"game_id":440,"stv_port":27046,"stv_name":"Uncletopia | New York City | 4 | Community | STV","players":null},{"server_id":142,"name":"Uncletopia | S√£o Paulo | 1 | All Maps","name_short":"sao-1","host":"sao-1.br.uncletopia.com","port":27015,"enabled":true,"region":"sa","cc":"br","latitude":-23.533773,"longitude":-46.62529,"reserved":0,"last_update":"0001-01-01T00:00:00Z","name_a2s":"Uncletopia | S√£o Paulo | 1 | All Maps","protocol":17,"map":"koth_lakeside_final","folder":"tf","game":"Team Fortress","app_id":440,"player_count":0,"max_players":24,"Bots":0,"server_type":"Dedicated","server_os":"Linux","password":true,"vac":true,"version":"7961495","steam_id":85568392924469996,"keywords":["cp","nocrits","nodmgspread","uncletopia"],"game_id":440,"stv_port":27016,"stv_name":"Uncletopia | S√£o Paulo | 1 | All Maps | STV","players":null},{"server_id":143,"name":"Uncletopia | S√£o Paulo | 2 | Community","name_short":"sao-2","host":"sao-2.br.uncletopia.com","port":27015,"enabled":true,"region":"sa","cc":"br","latitude":-23.533773,"longitude":-46.62529,"reserved":0,"last_update":"0001-01-01T00:00:00Z","name_a2s":"Uncletopia | S√£o Paulo | 2 | Community","protocol":17,"map":"workshop/koth_product_final.ugc454272353","folder":"tf","game":"Team Fortress","app_id":440,"player_count":2,"max_players":24,"Bots":0,"server_type":"Dedicated","server_os":"Linux","password":true,"vac":true,"version":"7961495","steam_id":85568392924485349,"keywords":["cp","nocrits","nodmgspread","uncletopia"],"game_id":440,"stv_port":27016,"stv_name":"Uncletopia | S√£o Paulo | 2 | Community | STV","players":[{"user_id":11,"name":"guarda-chuva","steam_id":76561198078694330,"connected_time":58000000000,"state":"active","ping":59},{"user_id":12,"name":"Tert_14","steam_id":76561198185952289,"connected_time":56000000000,"state":"active","ping":74}]},{"server_id":7,"name":"Uncletopia | Seattle | 1 | All Maps","name_short":"sea-1","host":"sea-1.us.uncletopia.com","port":27015,"enabled":true,"region":"us-west","cc":"us","latitude":47.608013,"longitude":-122.33517,"reserved":0,"last_update":"0001-01-01T00:00:00Z","name_a2s":"Uncletopia | Seattle | 1 | All Maps","protocol":17,"map":"cp_process_final","folder":"tf","game":"Team Fortress","app_id":440,"player_count":24,"max_players":24,"Bots":0,"server_type":"Dedicated","server_os":"Linux","password":true,"vac":true,"version":"7961495","steam_id":85568392924469997,"keywords":["cp","nocrits","nodmgspread","uncletopia"],"game_id":440,"stv_port":27016,"stv_name":"Uncletopia | Seattle | 1 | All Maps | STV","players":[{"user_id":220,"name":"dave strider","steam_id":76561198065112186,"connected_time":1108000000000,"state":"active","ping":63},{"user_id":236,"name":"Starpillow ‚ô°","steam_id":76561198095034817,"connected_time":176000000000,"state":"active","ping":59},{"user_id":231,"name":"Lucianx","steam_id":76561199090167961,"connected_time":727000000000,"state":"active","ping":55},{"user_id":126,"name":"you just got dyked on","steam_id":76561198018977723,"connected_time":7869000000000,"state":"active","ping":50},{"user_id":198,"name":"LAB8","steam_id":76561198047743526,"connected_time":1938000000000,"state":"active","ping":39},{"user_id":216,"name":"Yoshimelon","steam_id":76561198253054325,"connected_time":1169000000000,"state":"active","ping":90},{"user_id":241,"name":"Shrimps","steam_id":76561198983016709,"connected_time":64000000000,"state":"active","ping":74},{"user_id":169,"name":"¬´D·µÉ ≥·µè.,,.T·µâ·µê·µñ¬ª","steam_id":76561198018185884,"connected_time":4527000000000,"state":"active","ping":42},{"user_id":182,"name":"The Population of Sweden","steam_id":76561198202201644,"connected_time":3125000000000,"state":"active","ping":36},{"user_id":217,"name":"vfa","steam_id":76561198055729118,"connected_time":1164000000000,"state":"active","ping":55},{"user_id":238,"name":"pepsi","steam_id":76561198114655857,"connected_time":108000000000,"state":"active","ping":28},{"user_id":237,"name":"DaddyGalaxy","steam_id":76561198139697796,"connected_time":121000000000,"state":"active","ping":59},{"user_id":240,"name":"Sly Marbo","steam_id":76561198135271741,"connected_time":97000000000,"state":"active","ping":63},{"user_id":219,"name":"Hakuyer","steam_id":76561198098618247,"connected_time":1133000000000,"state":"active","ping":31},{"user_id":224,"name":"Mister Conagher White","steam_id":76561199496470378,"connected_time":1062000000000,"state":"active","ping":145},{"user_id":225,"name":"mafia is mafia","steam_id":76561198042574722,"connected_time":1038000000000,"state":"active","ping":46},{"user_id":187,"name":"squart guy","steam_id":76561199411560141,"connected_time":2662000000000,"state":"active","ping":47},{"user_id":226,"name":"Julio Quantez","steam_id":76561198216600608,"connected_time":1008000000000,"state":"active","ping":68},{"user_id":227,"name":"OxOoxen841","steam_id":76561198297981993,"connected_time":997000000000,"state":"active","ping":80},{"user_id":228,"name":"dummy sh#t","steam_id":76561198114603745,"connected_time":949000000000,"state":"active","ping":75},{"user_id":230,"name":"hart","steam_id":76561198046073848,"connected_time":845000000000,"state":"active","ping":47},{"user_id":165,"name":"aBigPoo","steam_id":76561198425027856,"connected_time":4695000000000,"state":"active","ping":56},{"user_id":235,"name":"Vincent Van Bro","steam_id":76561197966919802,"connected_time":257000000000,"state":"active","ping":45},{"user_id":179,"name":"SkobeBeef","steam_id":76561198078638948,"connected_time":3345000000000,"state":"active","ping":59}]},{"server_id":119,"name":"Uncletopia | Seattle | 2 | All Maps","name_short":"sea-2","host":"sea-1.us.uncletopia.com","port":27025,"enabled":true,"region":"us-west","cc":"us","latitude":47.608013,"longitude":-122.33517,"reserved":0,"last_update":"0001-01-01T00:00:00Z","name_a2s":"Uncletopia | Seattle | 2 | All Maps","protocol":17,"map":"cp_mountainlab","folder":"tf","game":"Team Fortress","app_id":440,"player_count":0,"max_players":24,"Bots":0,"server_type":"Dedicated","server_os":"Linux","password":true,"vac":true,"version":"7961495","steam_id":85568392924469998,"keywords":["cp","nocrits","nodmgspread","uncletopia"],"game_id":440,"stv_port":27026,"stv_name":"Uncletopia | Seattle | 2 | All Maps | STV","players":null},{"server_id":406,"name":"Uncletopia | Seattle | 3 | Stopwatch","name_short":"sea-3","host":"sea-1.us.uncletopia.com","port":27035,"enabled":true,"region":"us-west","cc":"us","latitude":47.608013,"longitude":-122.33517,"reserved":0,"last_update":"0001-01-01T00:00:00Z","name_a2s":"Uncletopia | Seattle | 3 | Stopwatch","protocol":17,"map":"cp_sunshine","folder":"tf","game":"Team Fortress","app_id":440,"player_count":6,"max_players":24,"Bots":0,"server_type":"Dedicated","server_os":"Linux","password":true,"vac":true,"version":"7961495","steam_id":85568392924515217,"keywords":["cp","nocrits","nodmgspread","uncletopia"],"game_id":440,"stv_port":27036,"stv_name":"Uncletopia | Seattle | 3 | Stopwatch | STV","players":[{"user_id":4,"name":"Smg065","steam_id":76561198073042003,"connected_time":5802000000000,"state":"active","ping":94},{"user_id":5,"name":"NekoNoka","steam_id":76561199010902537,"connected_time":5785000000000,"state":"active","ping":73},{"user_id":24,"name":"AAAAAAAAAAAAAAAAAAAAAA","steam_id":76561199376029299,"connected_time":301000000000,"state":"active","ping":127},{"user_id":21,"name":"Justify","steam_id":76561199000549740,"connected_time":643000000000,"state":"active","ping":48},{"user_id":25,"name":"Pi-er","steam_id":76561198450073779,"connected_time":156000000000,"state":"active","ping":43},{"user_id":26,"name":"JustCallMeFoxy","steam_id":76561199149675936,"connected_time":80000000000,"state":"active","ping":60}]},{"server_id":17,"name":"Uncletopia | San Francisco | 1 | All Maps","name_short":"sfo-1","host":"sfo-1.us.uncletopia.com","port":27015,"enabled":true,"region":"us-west","cc":"us","latitude":37.77397,"longitude":-122.4313,"reserved":0,"last_update":"0001-01-01T00:00:00Z","name_a2s":"Uncletopia | San Francisco | 1 | All Maps","protocol":17,"map":"koth_cascade","folder":"tf","game":"Team Fortress","app_id":440,"player_count":0,"max_players":24,"Bots":0,"server_type":"Dedicated","server_os":"Linux","password":true,"vac":true,"version":"7961495","steam_id":85568392924469999,"keywords":["cp","nocrits","nodmgspread","uncletopia"],"game_id":440,"stv_port":27016,"stv_name":"Uncletopia | San Francisco | 1 | All Maps | STV","players":null},{"server_id":18,"name":"Uncletopia | San Francisco | 2 | All Maps","name_short":"sfo-2","host":"sfo-1.us.uncletopia.com","port":27025,"enabled":true,"region":"us-west","cc":"us","latitude":37.77397,"longitude":-122.4313,"reserved":0,"last_update":"0001-01-01T00:00:00Z","name_a2s":"Uncletopia | San Francisco | 2 | All Maps","protocol":17,"map":"cp_mercenarypark","folder":"tf","game":"Team Fortress","app_id":440,"player_count":24,"max_players":24,"Bots":0,"server_type":"Dedicated","server_os":"Linux","password":true,"vac":true,"version":"7961495","steam_id":85568392924470000,"keywords":["cp","nocrits","nodmgspread","uncletopia"],"game_id":440,"stv_port":27026,"stv_name":"Uncletopia | San Francisco | 2 | All Maps | STV","players":[{"user_id":286,"name":"Greskrendtregk","steam_id":76561197969553142,"connected_time":1737000000000,"state":"active","ping":64},{"user_id":288,"name":"SeaDeez","steam_id":76561198171637283,"connected_time":1649000000000,"state":"active","ping":127},{"user_id":300,"name":"plantman v3 wood+30","steam_id":76561197993524097,"connected_time":894000000000,"state":"active","ping":99},{"user_id":303,"name":"Wendall555","steam_id":76561198985637603,"connected_time":573000000000,"state":"active","ping":58},{"user_id":301,"name":"lol","steam_id":76561198026491738,"connected_time":793000000000,"state":"active","ping":67},{"user_id":304,"name":"SoCal Kaizer","steam_id":76561198334361081,"connected_time":556000000000,"state":"active","ping":93},{"user_id":289,"name":"Keamy","steam_id":76561199471434875,"connected_time":1545000000000,"state":"active","ping":59},{"user_id":297,"name":"Reed the Flame Shadow","steam_id":76561198348354629,"connected_time":1261000000000,"state":"active","ping":59},{"user_id":290,"name":"jujual65","steam_id":76561199456281542,"connected_time":1540000000000,"state":"active","ping":85},{"user_id":268,"name":"shmeushmeu ttv","steam_id":76561198168064595,"connected_time":2828000000000,"state":"active","ping":79},{"user_id":276,"name":"roach :3","steam_id":76561198354811369,"connected_time":2213000000000,"state":"active","ping":52},{"user_id":256,"name":"Lunarthrope","steam_id":76561198292132147,"connected_time":3851000000000,"state":"active","ping":67},{"user_id":264,"name":"spoc13","steam_id":76561198091808119,"connected_time":3441000000000,"state":"active","ping":49},{"user_id":298,"name":"JOHN WICK","steam_id":76561198091877422,"connected_time":1223000000000,"state":"active","ping":88},{"user_id":153,"name":"Bandit","steam_id":76561199087543553,"connected_time":9508000000000,"state":"active","ping":68},{"user_id":285,"name":"dewey","steam_id":76561198132791511,"connected_time":1784000000000,"state":"active","ping":62},{"user_id":275,"name":"mycoolcucumber","steam_id":76561198177586211,"connected_time":2437000000000,"state":"active","ping":117},{"user_id":302,"name":"Yaoi Boy Princess","steam_id":76561197997343746,"connected_time":635000000000,"state":"active","ping":35},{"user_id":306,"name":"d4ngerd4n","steam_id":76561198043758735,"connected_time":521000000000,"state":"active","ping":52},{"user_id":216,"name":"Chimp Peen's Revunge","steam_id":76561198165778514,"connected_time":5750000000000,"state":"active","ping":86},{"user_id":307,"name":"standing here,","steam_id":76561198066315453,"connected_time":462000000000,"state":"active","ping":60},{"user_id":293,"name":"SolarusD","steam_id":76561198029279861,"connected_time":1493000000000,"state":"active","ping":54},{"user_id":309,"name":"CrunkCoreCommie","steam_id":76561198063864447,"connected_time":91000000000,"state":"active","ping":102},{"user_id":267,"name":"scringo","steam_id":76561198169969030,"connected_time":2841000000000,"state":"active","ping":63}]},{"server_id":19,"name":"Uncletopia | San Francisco | 3 | Stopwatch","name_short":"sfo-3","host":"sfo-1.us.uncletopia.com","port":27035,"enabled":true,"region":"us-west","cc":"us","latitude":37.77397,"longitude":-122.4313,"reserved":0,"last_update":"0001-01-01T00:00:00Z","name_a2s":"Uncletopia | San Francisco | 3 | Stopwatch","protocol":17,"map":"pl_pier","folder":"tf","game":"Team Fortress","app_id":440,"player_count":0,"max_players":24,"Bots":0,"server_type":"Dedicated","server_os":"Linux","password":true,"vac":true,"version":"7961495","steam_id":85568392924742824,"keywords":["nocrits","nodmgspread","payload","uncletopia"],"game_id":440,"stv_port":27036,"stv_name":"Uncletopia | San Francisco | 3 | Stopwatch | STV","players":null},{"server_id":20,"name":"Uncletopia | San Francisco | 4 | Community","name_short":"sfo-4","host":"sfo-1.us.uncletopia.com","port":27045,"enabled":true,"region":"us-west","cc":"us","latitude":37.77397,"longitude":-122.4313,"reserved":0,"last_update":"0001-01-01T00:00:00Z","name_a2s":"Uncletopia | San Francisco | 4 | Community","protocol":17,"map":"pl_pier","folder":"tf","game":"Team Fortress","app_id":440,"player_count":0,"max_players":24,"Bots":0,"server_type":"Dedicated","server_os":"Linux","password":true,"vac":true,"version":"7961495","steam_id":85568392924742826,"keywords":["nocrits","nodmgspread","payload","uncletopia"],"game_id":440,"stv_port":27046,"stv_name":"Uncletopia | San Francisco | 4 | Community | STV","players":null},{"server_id":141,"name":"Uncletopia | Sydney | 1 | All Maps","name_short":"syd-1","host":"syd-1.au.uncletopia.com","port":27015,"enabled":true,"region":"au","cc":"au","latitude":-33.865143,"longitude":151.2099,"reserved":0,"last_update":"0001-01-01T00:00:00Z","name_a2s":"Uncletopia | Sydney | 1 | All Maps","protocol":17,"map":"koth_viaduct","folder":"tf","game":"Team Fortress","app_id":440,"player_count":0,"max_players":24,"Bots":0,"server_type":"Dedicated","server_os":"Linux","password":true,"vac":true,"version":"7961495","steam_id":85568392924470001,"keywords":["cp","nocrits","nodmgspread","uncletopia"],"game_id":440,"stv_port":27016,"stv_name":"Uncletopia | Sydney | 1 | All Maps | STV","players":null},{"server_id":123,"name":"Uncletopia | Sydney | 2 | All Maps","name_short":"syd-2","host":"syd-1.au.uncletopia.com","port":27025,"enabled":true,"region":"au","cc":"au","latitude":-33.865143,"longitude":151.2099,"reserved":0,"last_update":"0001-01-01T00:00:00Z","name_a2s":"Uncletopia | Sydney | 2 | All Maps","protocol":17,"map":"koth_lakeside_final","folder":"tf","game":"Team Fortress","app_id":440,"player_count":0,"max_players":24,"Bots":0,"server_type":"Dedicated","server_os":"Linux","password":true,"vac":true,"version":"7961495","steam_id":85568392924470002,"keywords":["cp","nocrits","nodmgspread","uncletopia"],"game_id":440,"stv_port":27026,"stv_name":"Uncletopia | Sydney | 2 | All Maps | STV","players":null},{"server_id":395,"name":"Uncletopia | Sydney | 3 | All Maps","name_short":"syd-3","host":"syd-1.au.uncletopia.com","port":27035,"enabled":true,"region":"au","cc":"au","latitude":-33.865143,"longitude":151.2099,"reserved":0,"last_update":"0001-01-01T00:00:00Z","name_a2s":"Uncletopia | Sydney | 3 | All Maps","protocol":17,"map":"pl_frontier_final","folder":"tf","game":"Team Fortress","app_id":440,"player_count":0,"max_players":24,"Bots":0,"server_type":"Dedicated","server_os":"Linux","password":true,"vac":true,"version":"7961495","steam_id":85568392925194467,"keywords":["nocrits","nodmgspread","payload","uncletopia"],"game_id":440,"stv_port":27036,"stv_name":"Uncletopia | Sydney | 3 | All Maps | STV","players":null},{"server_id":396,"name":"Uncletopia | Sydney | 4 | All Maps","name_short":"syd-4","host":"syd-1.au.uncletopia.com","port":27045,"enabled":true,"region":"au","cc":"au","latitude":-33.865143,"longitude":151.2099,"reserved":0,"last_update":"0001-01-01T00:00:00Z","name_a2s":"Uncletopia | Sydney | 4 | All Maps","protocol":17,"map":"cp_process_final","folder":"tf","game":"Team Fortress","app_id":440,"player_count":0,"max_players":24,"Bots":0,"server_type":"Dedicated","server_os":"Linux","password":true,"vac":true,"version":"7961495","steam_id":85568392925397958,"keywords":["cp","nocrits","nodmgspread","uncletopia"],"game_id":440,"stv_port":27046,"stv_name":"Uncletopia | Sydney | 4 | All Maps | STV","players":null},{"server_id":58,"name":"Uncletopia | Sydney | 5 | Stopwatch","name_short":"syd-5","host":"syd-1.au.uncletopia.com","port":27055,"enabled":true,"region":"au","cc":"au","latitude":-33.865143,"longitude":151.2099,"reserved":0,"last_update":"0001-01-01T00:00:00Z","name_a2s":"Uncletopia | Sydney | 5 | Stopwatch","protocol":17,"map":"pl_frontier_final","folder":"tf","game":"Team Fortress","app_id":440,"player_count":0,"max_players":24,"Bots":0,"server_type":"Dedicated","server_os":"Linux","password":true,"vac":true,"version":"7961495","steam_id":85568392925397959,"keywords":["nocrits","nodmgspread","payload","uncletopia"],"game_id":440,"stv_port":27056,"stv_name":"Uncletopia | Sydney | 5 | Stopwatch | STV","players":null},{"server_id":59,"name":"Uncletopia | Sydney | 6 | Community","name_short":"syd-6","host":"syd-1.au.uncletopia.com","port":27065,"enabled":true,"region":"au","cc":"au","latitude":-33.865143,"longitude":151.2099,"reserved":0,"last_update":"0001-01-01T00:00:00Z","name_a2s":"Uncletopia | Sydney | 6 | Community","protocol":17,"map":"cp_sunshine","folder":"tf","game":"Team Fortress","app_id":440,"player_count":0,"max_players":24,"Bots":0,"server_type":"Dedicated","server_os":"Linux","password":true,"vac":true,"version":"7961495","steam_id":85568392925397960,"keywords":["cp","nocrits","nodmgspread","uncletopia"],"game_id":440,"stv_port":27066,"stv_name":"Uncletopia | Sydney | 6 | Community | STV","players":null},{"server_id":49,"name":"Uncletopia | Warsaw | 1 | One Thousand Uncles","name_short":"waw-1","host":"waw-1.pl.uncletopia.com","port":27015,"enabled":true,"region":"eu","cc":"pl","latitude":52.2297,"longitude":21.017532,"reserved":0,"last_update":"0001-01-01T00:00:00Z","name_a2s":"Uncletopia | Warsaw | 1 | One Thousand Uncles","protocol":17,"map":"cp_mercenarypark","folder":"tf","game":"Team Fortress","app_id":440,"player_count":22,"max_players":32,"Bots":16,"server_type":"Dedicated","server_os":"Linux","password":true,"vac":true,"version":"7961495","steam_id":85568392925397850,"keywords":["alltalk","bots","cp","danepve","increased_maxplayers","nocrits","norespawntime","uncletopia"],"game_id":440,"stv_port":0,"stv_name":"","players":[{"user_id":674,"name":"Random_guy","steam_id":76561199093486348,"connected_time":4125000000000,"state":"active","ping":210},{"user_id":700,"name":"Shadyinfinity","steam_id":76561199484902070,"connected_time":74000000000,"state":"active","ping":166},{"user_id":692,"name":"radbroi","steam_id":76561199215472309,"connected_time":4062000000000,"state":"active","ping":218},{"user_id":694,"name":"JSX","steam_id":76561198039097662,"connected_time":1996000000000,"state":"active","ping":86},{"user_id":696,"name":"smol","steam_id":76561199199407775,"connected_time":1863000000000,"state":"active","ping":161},{"user_id":699,"name":"Bob's your Uncle","steam_id":76561197995230744,"connected_time":863000000000,"state":"active","ping":144}]},{"server_id":50,"name":"Uncletopia | Warsaw | 2 | One Thousand Uncles","name_short":"waw-2","host":"waw-1.pl.uncletopia.com","port":27025,"enabled":true,"region":"eu","cc":"pl","latitude":52.2297,"longitude":21.017532,"reserved":0,"last_update":"0001-01-01T00:00:00Z","name_a2s":"Uncletopia | Warsaw | 2 | One Thousand Uncles","protocol":17,"map":"cp_egypt_final","folder":"tf","game":"Team Fortress","app_id":440,"player_count":0,"max_players":32,"Bots":0,"server_type":"Dedicated","server_os":"Linux","password":true,"vac":true,"version":"7961495","steam_id":85568392925397851,"keywords":["alltalk","cp","danepve","increased_maxplayers","nocrits","norespawntime","uncletopia"],"game_id":440,"stv_port":0,"stv_name":"","players":null},{"server_id":51,"name":"Uncletopia | Warsaw | 3 | All Maps","name_short":"waw-3","host":"waw-1.pl.uncletopia.com","port":27035,"enabled":true,"region":"eu","cc":"pl","latitude":52.2297,"longitude":21.017532,"reserved":0,"last_update":"0001-01-01T00:00:00Z","name_a2s":"Uncletopia | Warsaw | 3 | All Maps","protocol":17,"map":"pl_swiftwater_final1","folder":"tf","game":"Team Fortress","app_id":440,"player_count":0,"max_players":24,"Bots":0,"server_type":"Dedicated","server_os":"Linux","password":true,"vac":true,"version":"7961495","steam_id":85568392925397852,"keywords":["nocrits","nodmgspread","payload","uncletopia"],"game_id":440,"stv_port":27036,"stv_name":"Uncletopia | Warsaw | 3 | All Maps | STV","players":null},{"server_id":52,"name":"Uncletopia | Warsaw | 4 | All Maps","name_short":"waw-4","host":"waw-1.pl.uncletopia.com","port":27045,"enabled":true,"region":"eu","cc":"pl","latitude":52.2297,"longitude":21.017532,"reserved":0,"last_update":"0001-01-01T00:00:00Z","name_a2s":"Uncletopia | Warsaw | 4 | All Maps","protocol":17,"map":"koth_cascade","folder":"tf","game":"Team Fortress","app_id":440,"player_count":0,"max_players":24,"Bots":0,"server_type":"Dedicated","server_os":"Linux","password":true,"vac":true,"version":"7961495","steam_id":85568392925397853,"keywords":["cp","nocrits","nodmgspread","uncletopia"],"game_id":440,"stv_port":27046,"stv_name":"Uncletopia | Warsaw | 4 | All Maps | STV","players":null},{"server_id":53,"name":"Uncletopia | Warsaw | 5 | Stopwatch","name_short":"waw-5","host":"waw-1.pl.uncletopia.com","port":27055,"enabled":true,"region":"eu","cc":"pl","latitude":52.2297,"longitude":21.017532,"reserved":0,"last_update":"0001-01-01T00:00:00Z","name_a2s":"Uncletopia | Warsaw | 5 | Stopwatch","protocol":17,"map":"cp_sunshine","folder":"tf","game":"Team Fortress","app_id":440,"player_count":0,"max_players":24,"Bots":0,"server_type":"Dedicated","server_os":"Linux","password":true,"vac":true,"version":"7961495","steam_id":85568392925397854,"keywords":["cp","nocrits","nodmgspread","uncletopia"],"game_id":440,"stv_port":27056,"stv_name":"Uncletopia | Warsaw | 5 | Stopwatch | STV","players":null},{"server_id":54,"name":"Uncletopia | Warsaw | 6 | Community","name_short":"waw-6","host":"waw-1.pl.uncletopia.com","port":27065,"enabled":true,"region":"eu","cc":"pl","latitude":52.2297,"longitude":21.017532,"reserved":0,"last_update":"0001-01-01T00:00:00Z","name_a2s":"Uncletopia | Warsaw | 6 | Community","protocol":17,"map":"workshop/cp_indulge.ugc528106646","folder":"tf","game":"Team Fortress","app_id":440,"player_count":0,"max_players":24,"Bots":0,"server_type":"Dedicated","server_os":"Linux","password":true,"vac":true,"version":"7961495","steam_id":85568392925397856,"keywords":["cp","nocrits","nodmgspread","uncletopia"],"game_id":440,"stv_port":27066,"stv_name":"Uncletopia | Warsaw | 6 | Community | STV","players":null}]}