{"status":true,"message":"","result":[{"server_id":9,"name":"Uncletopia | Atlanta | 1 | All Maps","name_short":"atl-1","host":"atl-1.us.uncletopia.com","port":27015,"enabled":true,"region":"us-east","cc":"us","latitude":33.753746,"longitude":-84.38633,"reserved":0,"last_update":"0001-01-01T00:00:00Z","name_a2s":"Uncletopia | Atlanta | 1 | All Maps","protocol":17,"map":"pl_upward","folder":"tf","game":"Team Fortress","app_id":440,"player_count":24,"max_players":24,"Bots":0,"server_type":"Dedicated","server_os":"Linux","password":true,"vac":true,"version":"7961495","steam_id":85568392924469982,"keywords":["nocrits","nodmgspread","payload","uncletopia"],"game_id":440,"stv_port":27016,"stv_name":"Uncletopia | Atlanta | 1 | All Maps | STV","players":[{"user_id":285,"name":"Master Of Whales","steam_id":76561198349104889,"connected_time":52000000000,"state":"active","ping":97},{"user_id":282,"name":"kite","steam_id":76561198346516392,"connected_time":257000000000,"state":"active","ping":84},{"user_id":243,"name":"Avo","steam_id":76561197993340494,"connected_time":5432000000000,"state":"active","ping":52},{"user_id":258,"name":"ash","steam_id":76561198127890645,"connected_time":2820000000000,"state":"active","ping":71},{"user_id":259,"name":"lil hog","steam_id":76561199230929836,"connected_time":2818000000000,"state":"active","ping":90},{"user_id":276,"name":"tf2 femboy","steam_id":76561199105702683,"connected_time":851000000000,"state":"active","ping":65},{"user_id":192,"name":"Huloon","steam_id":76561198070837568,"connected_time":11141000000000,"state":"active","ping":54},{"user_id":269,"name":"tgirl swag","steam_id":76561198128164970,"connected_time":1792000000000,"state":"active","ping":105},{"user_id":279,"name":"loot","steam_id":76561198069954956,"connected_time":753000000000,"state":"active","ping":47},{"user_id":283,"name":"gorschingus","steam_id":76561198927517471,"connected_time":253000000000,"state":"active","ping":57},{"user_id":214,"name":"Vee (very cool)","steam_id":76561198330432889,"connected_time":8761000000000,"state":"active","ping":64},{"user_id":257,"name":"Albino Jellyfish","steam_id":76561198208561097,"connected_time":3918000000000,"state":"active","ping":56},{"user_id":267,"name":"Chernov","steam_id":76561198014463424,"connected_time":1830000000000,"state":"active","ping":60},{"user_id":263,"name":"Frosti","steam_id":76561198332850064,"connected_time":2724000000000,"state":"active","ping":92},{"user_id":265,"name":"ATL1 | on my hunting trip","steam_id":76561198315341646,"connected_time":2149000000000,"state":"active","ping":75},{"user_id":245,"name":"Andrew Weber","steam_id":76561199359977174,"connected_time":4819000000000,"state":"active","ping":82},{"user_id":280,"name":"why","steam_id":76561199059732212,"connected_time":646000000000,"state":"active","ping":56},{"user_id":246,"name":"on that zaza?","steam_id":76561198038713198,"connected_time":4813000000000,"state":"active","ping":77},{"user_id":272,"name":"SleepyTea","steam_id":76561199119285215,"connected_time":1753000000000,"state":"active","ping":89},{"user_id":274,"name":"lu","steam_id":76561198080731872,"connected_time":1564000000000,"state":"active","ping":77},{"user_id":253,"name":"freddy fazbear","steam_id":76561198258062078,"connected_time":4278000000000,"state":"active","ping":62},{"user_id":273,"name":"A_Malebolgia","steam_id":76561198097722818,"connected_time":1645000000000,"state":"active","ping":103},{"user_id":264,"name":"ATL1 | cola","steam_id":76561198374390458,"connected_time":2540000000000,"state":"active","ping":62},{"user_id":260,"name":"shaderoses","steam_id":76561198070800500,"connected_time":2817000000000,"state":"active","ping":65}]},{"server_id":104,"name":"Uncletopia | Atlanta | 2 | All Maps","name_short":"atl-2","host":"atl-1.us.uncletopia.com","port":27025,"enabled":true,"region":"us-east","cc":"us","latitude":33.753746,"longitude":-84.38633,"reserved":0,"last_update":"0001-01-01T00:00:00Z","name_a2s":"Uncletopia | Atlanta | 2 | All Maps","protocol":17,"map":"pl_barnblitz","folder":"tf","game":"Team Fortress","app_id":440,"player_count":23,"max_players":24,"Bots":0,"server_type":"Dedicated","server_os":"Linux","password":true,"vac":true,"version":"7961495","steam_id":85568392924469983,"keywords":["nocrits","nodmgspread","payload","uncletopia"],"game_id":440,"stv_port":27026,"stv_name":"Uncletopia | Atlanta | 2 | All Maps | STV","players":[{"user_id":359,"name":"JFK GAMING","steam_id":76561198025593142,"connected_time":3698000000000,"state":"active","ping":79},{"user_id":385,"name":"Crusty","steam_id":76561198843376034,"connected_time":1444000000000,"state":"active","ping":43},{"user_id":379,"name":"M4xW3LL","steam_id":76561198828562719,"connected_time":2388000000000,"state":"active","ping":59},{"user_id":281,"name":"You Don't Nomi.","steam_id":76561197969137836,"connected_time":9362000000000,"state":"active","ping":66},{"user_id":369,"name":"Notsocreative","steam_id":76561198236372202,"connected_time":2967000000000,"state":"active","ping":73},{"user_id":399,"name":"SD","steam_id":76561198217410988,"connected_time":318000000000,"state":"active","ping":102},{"user_id":396,"name":"Octomal800","steam_id":76561199453595616,"connected_time":469000000000,"state":"active","ping":74},{"user_id":389,"name":"el wiwi","steam_id":76561198857304367,"connected_time":1094000000000,"state":"active","ping":89},{"user_id":314,"name":"dyson","steam_id":76561199081837220,"connected_time":7151000000000,"state":"active","ping":57},{"user_id":380,"name":"29palms","steam_id":76561198095104925,"connected_time":2377000000000,"state":"active","ping":94},{"user_id":398,"name":"Oni","steam_id":76561198112066584,"connected_time":344000000000,"state":"active","ping":52},{"user_id":376,"name":"White_Wizard_Named_Corona","steam_id":76561198055652735,"connected_time":2651000000000,"state":"active","ping":94},{"user_id":383,"name":"hobojoemama","steam_id":76561198108345568,"connected_time":1707000000000,"state":"active","ping":56},{"user_id":311,"name":"trianamarco780","steam_id":76561199084319677,"connected_time":7739000000000,"state":"active","ping":118},{"user_id":356,"name":"filthy white trash","steam_id":76561198154176367,"connected_time":4074000000000,"state":"active","ping":100},{"user_id":400,"name":"DoomedMakwa","steam_id":76561198167053158,"connected_time":130000000000,"state":"active","ping":75},{"user_id":393,"name":"Havok","steam_id":76561198063455003,"connected_time":726000000000,"state":"active","ping":76},{"user_id":397,"name":"Buck","steam_id":76561198064244796,"connected_time":384000000000,"state":"active","ping":61},{"user_id":403,"name":"lament","steam_id":76561198408747483,"connected_time":43000000000,"state":"active","ping":71},{"user_id":365,"name":"‚ô• Mox Amber ‚ô•","steam_id":76561198036966467,"connected_time":3162000000000,"state":"active","ping":67},{"user_id":377,"name":"alleeop43","steam_id":76561199029390266,"connected_time":2612000000000,"state":"active","ping":134},{"user_id":384,"name":"Dick Fisthammer","steam_id":76561198110586348,"connected_time":1678000000000,"state":"active","ping":118},{"user_id":395,"name":"Zetawaves","steam_id":76561198113207896,"connected_time":510000000000,"state":"active","ping":84}]},{"server_id":400,"name":"Uncletopia | Atlanta | 3 | Stopwatch","name_short":"atl-3","host":"atl-1.us.uncletopia.com","port":27035,"enabled":true,"region":"us-east","cc":"us","latitude":33.753746,"longitude":-84.38633,"reserved":0,"last_update":"0001-01-01T00:00:00Z","name_a2s":"Uncletopia | Atlanta | 3 | Stopwatch","protocol":17,"map":"workshop/pl_badwater_pro_v12.ugc2142942074","folder":"tf","game":"Team Fortress","app_id":440,"player_count":0,"max_players":24,"Bots":0,"server_type":"Dedicated","server_os":"Linux","password":true,"vac":true,"version":"7961495","steam_id":85568392924515187,"keywords":["nocrits","nodmgspread","payload","uncletopia"],"game_id":440,"stv_port":27036,"stv_name":"Uncletopia | Atlanta | 3 | Stopwatch | STV","players":null},{"server_id":401,"name":"Uncletopia | Atlanta | 4 | Community","name_short":"atl-4","host":"atl-1.us.uncletopia.com","port":27045,"enabled":true,"region":"us-east","cc":"us","latitude":33.753746,"longitude":-84.38633,"reserved":0,"last_update":"0001-01-01T00:00:00Z","name_a2s":"Uncletopia | Atlanta | 4 | Community","protocol":17,"map":"workshop/koth_bagel_rc6.ugc2514036946","folder":"tf","game":"Team Fortress","app_id":440,"player_count":0,"max_players":24,"Bots":0,"server_type":"Dedicated","server_os":"Linux","password":true,"vac":true,"version":"7961495","steam_id":85568392924515188,"keywords":["cp","nocrits","nodmgspread","uncletopia"],"game_id":440,"stv_port":27046,"stv_name":"Uncletopia | Atlanta | 4 | Community | STV","players":null},{"server_id":2,"name":"Uncletopia | Chicago | 1 | All Maps","name_short":"chi-1","host":"chi-1.us.uncletopia.com","port":27015,"enabled":true,"region":"us-central","cc":"us","latitude":41.881832,"longitude":-87.62318,"reserved":0,"last_update":"0001-01-01T00:00:00Z","name_a2s":"Uncletopia | Chicago | 1 | All Maps","protocol":17,"map":"pl_upward","folder":"tf","game":"Team Fortress","app_id":440,"player_count":23,"max_players":24,"Bots":0,"server_type":"Dedicated","server_os":"Linux","password":true,"vac":true,"version":"7961495","steam_id":85568392924469984,"keywords":["nocrits","nodmgspread","payload","uncletopia"],"game_id":440,"stv_port":27016,"stv_name":"Uncletopia | Chicago | 1 | All Maps | STV","players":[{"user_id":457,"name":"Lain","steam_id":76561198029303534,"connected_time":787000000000,"state":"active","ping":66},{"user_id":456,"name":"Gliglamesh","steam_id":76561198058221449,"connected_time":795000000000,"state":"active","ping":59},{"user_id":444,"name":"Exetior","steam_id":76561198978688451,"connected_time":1285000000000,"state":"active","ping":69},{"user_id":443,"name":"Dieu-Sama","steam_id":76561198002075862,"connected_time":1407000000000,"state":"active","ping":82},{"user_id":447,"name":"super-oofio64","steam_id":76561198954052123,"connected_time":1241000000000,"state":"active","ping":107},{"user_id":445,"name":"SaltyManok","steam_id":76561198160082948,"connected_time":1283000000000,"state":"active","ping":52},{"user_id":313,"name":"custodian","steam_id":76561198058793778,"connected_time":8581000000000,"state":"active","ping":74},{"user_id":326,"name":"Quartzalcoatl","steam_id":76561198044944584,"connected_time":7946000000000,"state":"active","ping":81},{"user_id":411,"name":".JIFF","steam_id":76561198045181760,"connected_time":2911000000000,"state":"active","ping":61},{"user_id":449,"name":"bakkhertz","steam_id":76561198046745579,"connected_time":1230000000000,"state":"active","ping":89},{"user_id":438,"name":"Space‚≠êTaffy","steam_id":76561198002271720,"connected_time":1542000000000,"state":"active","ping":66},{"user_id":459,"name":"White","steam_id":76561198305863331,"connected_time":753000000000,"state":"active","ping":69},{"user_id":435,"name":"RURU","steam_id":76561198039758987,"connected_time":1685000000000,"state":"active","ping":91},{"user_id":442,"name":"Ana Ng","steam_id":76561198026626775,"connected_time":1446000000000,"state":"active","ping":45},{"user_id":466,"name":"daffodil","steam_id":76561198049480053,"connected_time":134000000000,"state":"active","ping":60},{"user_id":463,"name":"riven","steam_id":76561198057158050,"connected_time":554000000000,"state":"active","ping":44},{"user_id":440,"name":"i should go","steam_id":76561198194614289,"connected_time":1529000000000,"state":"active","ping":56},{"user_id":452,"name":"Migute","steam_id":76561198332012726,"connected_time":1124000000000,"state":"active","ping":91},{"user_id":413,"name":"Jerk Tryhard (roleplay)","steam_id":76561199470538309,"connected_time":2856000000000,"state":"active","ping":58},{"user_id":427,"name":"6 million bees","steam_id":76561198400438007,"connected_time":2042000000000,"state":"active","ping":44},{"user_id":409,"name":"Mad Rex512","steam_id":76561198193533117,"connected_time":3070000000000,"state":"active","ping":51},{"user_id":461,"name":"Drooop","steam_id":76561198856700517,"connected_time":752000000000,"state":"active","ping":70},{"user_id":465,"name":"Ribbon","steam_id":76561198149101805,"connected_time":445000000000,"state":"active","ping":64}]},{"server_id":106,"name":"Uncletopia | Chicago | 2 | All Maps","name_short":"chi-2","host":"chi-1.us.uncletopia.com","port":27025,"enabled":true,"region":"us-central","cc":"us","latitude":41.881832,"longitude":-87.62318,"reserved":0,"last_update":"0001-01-01T00:00:00Z","name_a2s":"Uncletopia | Chicago | 2 | All Maps","protocol":17,"map":"koth_harvest_final","folder":"tf","game":"Team Fortress","app_id":440,"player_count":24,"max_players":24,"Bots":0,"server_type":"Dedicated","server_os":"Linux","password":true,"vac":true,"version":"7961495","steam_id":85568392924469985,"keywords":["cp","nocrits","nodmgspread","uncletopia"],"game_id":440,"stv_port":27026,"stv_name":"Uncletopia | Chicago | 2 | All Maps | STV","players":[{"user_id":429,"name":"jayyteeAT","steam_id":76561198059575962,"connected_time":2839000000000,"state":"active","ping":45},{"user_id":458,"name":"Ibrahim","steam_id":76561198028320625,"connected_time":71000000000,"state":"active","ping":68},{"user_id":454,"name":"Delta","steam_id":76561198158985472,"connected_time":360000000000,"state":"active","ping":131},{"user_id":449,"name":"Ice dispenser(real)","steam_id":76561198298310744,"connected_time":1641000000000,"state":"active","ping":63},{"user_id":457,"name":"mkl","steam_id":76561197986401685,"connected_time":107000000000,"state":"active","ping":83},{"user_id":309,"name":"yELLow","steam_id":76561198178488195,"connected_time":14413000000000,"state":"active","ping":65},{"user_id":431,"name":"CherriKat","steam_id":76561198821297512,"connected_time":2617000000000,"state":"active","ping":101},{"user_id":392,"name":"Ikalpo","steam_id":76561198044686915,"connected_time":6336000000000,"state":"active","ping":110},{"user_id":427,"name":"Esquire","steam_id":76561198044350326,"connected_time":3058000000000,"state":"active","ping":108},{"user_id":442,"name":"Railnation2005","steam_id":76561198189330642,"connected_time":1788000000000,"state":"active","ping":106},{"user_id":443,"name":"otw way to mars off the bars","steam_id":76561199085974120,"connected_time":1781000000000,"state":"active","ping":69},{"user_id":378,"name":"chen","steam_id":76561198064872330,"connected_time":7479000000000,"state":"active","ping":70},{"user_id":444,"name":"V. G. Sunderland","steam_id":76561198161839980,"connected_time":1763000000000,"state":"active","ping":62},{"user_id":459,"name":"Ayylmao","steam_id":76561198104780147,"connected_time":71000000000,"state":"active","ping":45},{"user_id":423,"name":"Kritzburgh","steam_id":76561198149466938,"connected_time":3422000000000,"state":"active","ping":71},{"user_id":436,"name":"Haha you didn't watch your back","steam_id":76561197987073279,"connected_time":2098000000000,"state":"active","ping":78},{"user_id":452,"name":"Burbuja","steam_id":76561198377842585,"connected_time":1345000000000,"state":"active","ping":122},{"user_id":437,"name":"Eviscerator","steam_id":76561197980073637,"connected_time":1907000000000,"state":"active","ping":74},{"user_id":453,"name":"¬°No te entiendo ingl√©s!","steam_id":76561198298364415,"connected_time":442000000000,"state":"active","ping":112},{"user_id":411,"name":"El Bondin","steam_id":76561198820792434,"connected_time":4811000000000,"state":"active","ping":98},{"user_id":455,"name":"OH BOY","steam_id":76561199052273428,"connected_time":252000000000,"state":"active","ping":51},{"user_id":446,"name":"ToddlerStomper","steam_id":76561199023602747,"connected_time":1744000000000,"state":"active","ping":83},{"user_id":418,"name":"Narz","steam_id":76561198076240365,"connected_time":3766000000000,"state":"active","ping":62},{"user_id":460,"name":"booze cruiser","steam_id":76561198203395648,"connected_time":69000000000,"state":"active","ping":71}]},{"server_id":402,"name":"Uncletopia | Chicago | 3 | All Maps","name_short":"chi-3","host":"chi-1.us.uncletopia.com","port":27035,"enabled":true,"region":"us-central","cc":"us","latitude":41.881832,"longitude":-87.62318,"reserved":0,"last_update":"0001-01-01T00:00:00Z","name_a2s":"Uncletopia | Chicago | 3 | All Maps","protocol":17,"map":"pl_frontier_final","folder":"tf","game":"Team Fortress","app_id":440,"player_count":24,"max_players":24,"Bots":0,"server_type":"Dedicated","server_os":"Linux","password":true,"vac":true,"version":"7961495","steam_id":85568392924515191,"keywords":["nocrits","nodmgspread","payload","uncletopia"],"game_id":440,"stv_port":27036,"stv_name":"Uncletopia | Chicago | 3 | All Maps | STV","players":[{"user_id":458,"name":"Blade Racer","steam_id":76561198155896703,"connected_time":1948000000000,"state":"active","ping":71},{"user_id":480,"name":"Fungus","steam_id":76561198085926415,"connected_time":939000000000,"state":"active","ping":88},{"user_id":467,"name":"Pbomberrr","steam_id":76561198291198185,"connected_time":1466000000000,"state":"active","ping":86},{"user_id":494,"name":"CatMagic","steam_id":76561199454230243,"connected_time":446000000000,"state":"active","ping":63},{"user_id":457,"name":"Toasty_Breads","steam_id":76561198439771866,"connected_time":2135000000000,"state":"active","ping":92},{"user_id":487,"name":"TheWoolyBear","steam_id":76561199211254417,"connected_time":516000000000,"state":"active","ping":84},{"user_id":479,"name":"Stealthguy724","steam_id":76561198195961430,"connected_time":1014000000000,"state":"active","ping":70},{"user_id":482,"name":"Lucon","steam_id":76561198067147724,"connected_time":685000000000,"state":"active","ping":62},{"user_id":488,"name":"Sudo","steam_id":76561198123714026,"connected_time":504000000000,"state":"active","ping":111},{"user_id":489,"name":"Person","steam_id":76561198093244204,"connected_time":502000000000,"state":"active","ping":74},{"user_id":496,"name":"rickyrickyricky","steam_id":76561198041765918,"connected_time":129000000000,"state":"active","ping":81},{"user_id":468,"name":"tsun.","steam_id":76561198079488962,"connected_time":1428000000000,"state":"active","ping":100},{"user_id":495,"name":"Macro","steam_id":76561199442846226,"connected_time":357000000000,"state":"active","ping":75},{"user_id":470,"name":"-Avh-","steam_id":76561198087593160,"connected_time":1378000000000,"state":"active","ping":69},{"user_id":452,"name":"RanchEater","steam_id":76561198836436110,"connected_time":2761000000000,"state":"active","ping":64},{"user_id":433,"name":"Hexadecatrack","steam_id":76561198044480181,"connected_time":4575000000000,"state":"active","ping":51},{"user_id":456,"name":"alv√∂ru","steam_id":76561198273488925,"connected_time":2383000000000,"state":"active","ping":82},{"user_id":352,"name":"judesro","steam_id":76561198352244888,"connected_time":11372000000000,"state":"active","ping":71},{"user_id":492,"name":"currentlyafreeman#savetf2","steam_id":76561199209345220,"connected_time":476000000000,"state":"active","ping":86},{"user_id":473,"name":"Chestnnut","steam_id":76561198077782729,"connected_time":1244000000000,"state":"active","ping":78},{"user_id":474,"name":"L to the OG","steam_id":76561199215811448,"connected_time":1225000000000,"state":"active","ping":74},{"user_id":439,"name":"kimchy101","steam_id":76561198202721584,"connected_time":4179000000000,"state":"active","ping":56},{"user_id":465,"name":"pHsHy","steam_id":76561198013195018,"connected_time":1639000000000,"state":"active","ping":75},{"user_id":475,"name":"seruh","steam_id":76561199041143606,"connected_time":1217000000000,"state":"active","ping":59}]},{"server_id":403,"name":"Uncletopia | Chicago | 4 | All Maps","name_short":"chi-4","host":"chi-1.us.uncletopia.com","port":27045,"enabled":true,"region":"us-central","cc":"us","latitude":41.881832,"longitude":-87.62318,"reserved":0,"last_update":"0001-01-01T00:00:00Z","name_a2s":"Uncletopia | Chicago | 4 | All Maps","protocol":17,"map":"pl_upward","folder":"tf","game":"Team Fortress","app_id":440,"player_count":24,"max_players":24,"Bots":0,"server_type":"Dedicated","server_os":"Linux","password":true,"vac":true,"version":"7961495","steam_id":85568392924515193,"keywords":["nocrits","nodmgspread","payload","uncletopia"],"game_id":440,"stv_port":27046,"stv_name":"Uncletopia | Chicago | 4 | All Maps | STV","players":[{"user_id":389,"name":"Shrake","steam_id":76561198114379995,"connected_time":737000000000,"state":"active","ping":44},{"user_id":363,"name":"Swimps","steam_id":76561199095494639,"connected_time":2254000000000,"state":"active","ping":97},{"user_id":356,"name":"superx","steam_id":76561198044976613,"connected_time":3054000000000,"state":"active","ping":70},{"user_id":379,"name":"rmx^-^","steam_id":76561197961779026,"connected_time":1204000000000,"state":"active","ping":92},{"user_id":346,"name":"maleficent ‚ùÄ","steam_id":76561198177893343,"connected_time":3536000000000,"state":"active","ping":69},{"user_id":339,"name":"atlas","steam_id":76561198398383076,"connected_time":4349000000000,"state":"active","ping":92},{"user_id":401,"name":"Garfield Expert","steam_id":76561198092452824,"connected_time":111000000000,"state":"active","ping":69},{"user_id":398,"name":"surrender to the void","steam_id":76561198055494039,"connected_time":138000000000,"state":"active","ping":72},{"user_id":394,"name":"Soy King","steam_id":76561198263025614,"connected_time":335000000000,"state":"active","ping":99},{"user_id":375,"name":"MaineGameBoy","steam_id":76561198278698726,"connected_time":1383000000000,"state":"active","ping":98},{"user_id":371,"name":"Oopsie Daisy ‚ùã","steam_id":76561198042144492,"connected_time":1549000000000,"state":"active","ping":78},{"user_id":362,"name":"nines","steam_id":76561198078992548,"connected_time":2302000000000,"state":"active","ping":75},{"user_id":399,"name":"https://popnmusic.fandom.com","steam_id":76561198061497429,"connected_time":131000000000,"state":"active","ping":59},{"user_id":400,"name":"vandeer","steam_id":76561198120124007,"connected_time":123000000000,"state":"active","ping":114},{"user_id":387,"name":"austinsmith","steam_id":76561198167838540,"connected_time":771000000000,"state":"active","ping":96},{"user_id":358,"name":"anonpain","steam_id":76561198081317092,"connected_time":3008000000000,"state":"active","ping":50},{"user_id":361,"name":"igotmail","steam_id":76561198070631899,"connected_time":2325000000000,"state":"active","ping":71},{"user_id":402,"name":"TruthHut","steam_id":76561198093452436,"connected_time":92000000000,"state":"active","ping":85},{"user_id":381,"name":"MI6zombieguy92","steam_id":76561198008532694,"connected_time":1163000000000,"state":"active","ping":45},{"user_id":367,"name":"GOBLIN MINGUS","steam_id":76561198889579299,"connected_time":2103000000000,"state":"active","ping":69},{"user_id":385,"name":"Oogie (OddMonster)","steam_id":76561198026802918,"connected_time":851000000000,"state":"active","ping":86},{"user_id":364,"name":"Retro Phoenix","steam_id":76561198077176271,"connected_time":2174000000000,"state":"active","ping":61},{"user_id":388,"name":"XFLR5 Direct Foil Analysis","steam_id":76561198072885599,"connected_time":753000000000,"state":"active","ping":39},{"user_id":396,"name":"SEGNO","steam_id":76561198102780113,"connected_time":297000000000,"state":"active","ping":63}]},{"server_id":36,"name":"Uncletopia | Chicago | 5 | All Maps","name_short":"chi-5","host":"chi-2.us.uncletopia.com","port":27015,"enabled":true,"region":"us-central","cc":"us","latitude":41.881832,"longitude":-87.62318,"reserved":0,"last_update":"0001-01-01T00:00:00Z","name_a2s":"Uncletopia | Chicago | 5 | All Maps","protocol":17,"map":"pl_badwater","folder":"tf","game":"Team Fortress","app_id":440,"player_count":24,"max_players":24,"Bots":0,"server_type":"Dedicated","server_os":"Linux","password":true,"vac":true,"version":"7961495","steam_id":85568392924866362,"keywords":["nocrits","nodmgspread","payload","uncletopia"],"game_id":440,"stv_port":27016,"stv_name":"Uncletopia | Chicago | 5 | All Maps | STV","players":[{"user_id":182,"name":"Doctor Poopenstine","steam_id":76561198093700412,"connected_time":990000000000,"state":"active","ping":87},{"user_id":199,"name":"Lori T-Fem","steam_id":76561198964321336,"connected_time":206000000000,"state":"active","ping":75},{"user_id":183,"name":"ApleBottom7","steam_id":76561199189620400,"connected_time":862000000000,"state":"active","ping":72},{"user_id":191,"name":"Peter","steam_id":76561198065796300,"connected_time":232000000000,"state":"active","ping":68},{"user_id":179,"name":"Duck","steam_id":76561198045287701,"connected_time":1328000000000,"state":"active","ping":82},{"user_id":169,"name":"Soapbar","steam_id":76561198081714169,"connected_time":2407000000000,"state":"active","ping":82},{"user_id":200,"name":"Nobody121","steam_id":76561199227292137,"connected_time":197000000000,"state":"active","ping":117},{"user_id":193,"name":"Seskova","steam_id":76561198090207032,"connected_time":225000000000,"state":"active","ping":113},{"user_id":184,"name":"vanta","steam_id":76561198084317504,"connected_time":840000000000,"state":"active","ping":46},{"user_id":181,"name":"socializedCryptid","steam_id":76561198991665007,"connected_time":1004000000000,"state":"active","ping":56},{"user_id":117,"name":"The Guy","steam_id":76561198799183693,"connected_time":7305000000000,"state":"active","ping":86},{"user_id":187,"name":"Anubis","steam_id":76561198290954535,"connected_time":710000000000,"state":"active","ping":83},{"user_id":188,"name":"I am bread","steam_id":76561199134819215,"connected_time":365000000000,"state":"active","ping":97},{"user_id":149,"name":"Strange Festive Femboy","steam_id":76561198050385093,"connected_time":4380000000000,"state":"active","ping":91},{"user_id":168,"name":"Majestic-A","steam_id":76561198988062101,"connected_time":2880000000000,"state":"active","ping":85},{"user_id":201,"name":"playguy carter","steam_id":76561198080679337,"connected_time":194000000000,"state":"active","ping":65},{"user_id":202,"name":"beastbitesbag;becomebereft","steam_id":76561197972601902,"connected_time":186000000000,"state":"active","ping":77},{"user_id":185,"name":"Dr. Pl0x","steam_id":76561198040785401,"connected_time":837000000000,"state":"active","ping":105},{"user_id":189,"name":"LilBruh","steam_id":76561198444876052,"connected_time":297000000000,"state":"active","ping":88},{"user_id":111,"name":"Deluxe_Taco34","steam_id":76561199037653437,"connected_time":8421000000000,"state":"active","ping":105},{"user_id":203,"name":"AshMouse","steam_id":76561198151145819,"connected_time":174000000000,"state":"active","ping":75},{"user_id":186,"name":"zen","steam_id":76561198066485047,"connected_time":830000000000,"state":"active","ping":60},{"user_id":174,"name":"$8 Amazon Self-Defense Taser","steam_id":76561199054925883,"connected_time":2311000000000,"state":"active","ping":74},{"user_id":180,"name":"Kn√∏ckd√∏lian","steam_id":76561198094063122,"connected_time":1149000000000,"state":"active","ping":71}]},{"server_id":37,"name":"Uncletopia | Chicago | 6 | All Maps","name_short":"chi-6","host":"chi-2.us.uncletopia.com","port":27025,"enabled":true,"region":"us-central","cc":"us","latitude":41.881832,"longitude":-87.62318,"reserved":0,"last_update":"0001-01-01T00:00:00Z","name_a2s":"Uncletopia | Chicago | 6 | All Maps","protocol":17,"map":"pl_upward","folder":"tf","game":"Team Fortress","app_id":440,"player_count":23,"max_players":24,"Bots":0,"server_type":"Dedicated","server_os":"Linux","password":true,"vac":true,"version":"7961495","steam_id":85568392924866363,"keywords":["nocrits","nodmgspread","payload","uncletopia"],"game_id":440,"stv_port":27026,"stv_name":"Uncletopia | Chicago | 6 | All Maps | STV","players":[{"user_id":450,"name":"sleepingsquirrel64","steam_id":76561199015046661,"connected_time":1974000000000,"state":"active","ping":101},{"user_id":475,"name":"Phillip Jeffries","steam_id":76561198064052174,"connected_time":119000000000,"state":"active","ping":60},{"user_id":462,"name":"Casder","steam_id":76561198157959340,"connected_time":556000000000,"state":"active","ping":47},{"user_id":463,"name":"303","steam_id":76561199052840531,"connected_time":431000000000,"state":"active","ping":58},{"user_id":469,"name":"brotalium","steam_id":76561198055439054,"connected_time":238000000000,"state":"active","ping":83},{"user_id":367,"name":"Saxon","steam_id":76561198886764052,"connected_time":6626000000000,"state":"active","ping":86},{"user_id":451,"name":"Mr.Meeseeks","steam_id":76561198335193881,"connected_time":1715000000000,"state":"active","ping":116},{"user_id":458,"name":"bdkaine1","steam_id":76561198133545467,"connected_time":1141000000000,"state":"active","ping":63},{"user_id":419,"name":"bumrusherz","steam_id":76561198440658195,"connected_time":4181000000000,"state":"active","ping":78},{"user_id":459,"name":"Vegerot","steam_id":76561197997843710,"connected_time":1049000000000,"state":"active","ping":61},{"user_id":470,"name":"Crunchy","steam_id":76561198060342804,"connected_time":237000000000,"state":"active","ping":70},{"user_id":455,"name":"Lullaby","steam_id":76561198061103166,"connected_time":1614000000000,"state":"active","ping":59},{"user_id":474,"name":"Squeeky Clean","steam_id":76561198231132788,"connected_time":181000000000,"state":"active","ping":123},{"user_id":460,"name":"Strangelove","steam_id":76561198353773611,"connected_time":734000000000,"state":"active","ping":86},{"user_id":414,"name":"menace","steam_id":76561198319142233,"connected_time":4530000000000,"state":"active","ping":45},{"user_id":382,"name":"Blanke","steam_id":76561198068912412,"connected_time":6069000000000,"state":"active","ping":75},{"user_id":471,"name":"Dargen","steam_id":76561198143069671,"connected_time":228000000000,"state":"active","ping":86},{"user_id":465,"name":"bob","steam_id":76561198274522348,"connected_time":407000000000,"state":"active","ping":57},{"user_id":472,"name":"wafflehamster2000","steam_id":76561198849161820,"connected_time":213000000000,"state":"active","ping":70},{"user_id":473,"name":"-SFC- Spiritual Opium Peddler","steam_id":76561198024886023,"connected_time":213000000000,"state":"active","ping":65},{"user_id":435,"name":"Santa Carrying a Minigun","steam_id":76561198047845399,"connected_time":2920000000000,"state":"active","ping":76},{"user_id":461,"name":"Ìï®Íªò Î¨¥ÎÑàÏßÄÍ∏∞","steam_id":76561199489391928,"connected_time":641000000000,"state":"active","ping":56},{"user_id":437,"name":"Syynth","steam_id":76561198161328298,"connected_time":2903000000000,"state":"active","ping":76}]},{"server_id":38,"name":"Uncletopia | Chicago | 7 | Stopwatch","name_short":"chi-7","host":"chi-2.us.uncletopia.com","port":27035,"enabled":true,"region":"us-central","cc":"us","latitude":41.881832,"longitude":-87.62318,"reserved":0,"last_update":"0001-01-01T00:00:00Z","name_a2s":"Uncletopia | Chicago | 7 | Stopwatch","protocol":17,"map":"workshop/koth_product_final.ugc454272353","folder":"tf","game":"Team Fortress","app_id":440,"player_count":0,"max_players":24,"Bots":0,"server_type":"Dedicated","server_os":"Linux","password":true,"vac":true,"version":"7961495","steam_id":85568392924866364,"keywords":["cp","nocrits","nodmgspread","uncletopia"],"game_id":440,"stv_port":27036,"stv_name":"Uncletopia | Chicago | 7 | Stopwatch | STV","players":null},{"server_id":39,"name":"Uncletopia | Chicago | 8 | Community","name_short":"chi-8","host":"chi-2.us.uncletopia.com","port":27045,"enabled":true,"region":"us-central","cc":"us","latitude":41.881832,"longitude":-87.62318,"reserved":0,"last_update":"0001-01-01T00:00:00Z","name_a2s":"Uncletopia | Chicago | 8 | Community","protocol":17,"map":"workshop/koth_product_final.ugc454272353","folder":"tf","game":"Team Fortress","app_id":440,"player_count":0,"max_players":24,"Bots":0,"server_type":"Dedicated","server_os":"Linux","password":true,"vac":true,"version":"7961495","steam_id":85568392924866365,"keywords":["cp","nocrits","nodmgspread","uncletopia"],"game_id":440,"stv_port":27046,"stv_name":"Uncletopia | Chicago | 8 | Community | STV","players":null},{"server_id":8,"name":"Uncletopia | Dallas | 1 | All Maps","name_short":"dal-1","host":"dal-1.us.uncletopia.com","port":27015,"enabled":true,"region":"us-central","cc":"us","latitude":32.779167,"longitude":-96.80889,"reserved":0,"last_update":"0001-01-01T00:00:00Z","name_a2s":"Uncletopia | Dallas | 1 | All Maps","protocol":17,"map":"pl_swiftwater_final1","folder":"tf","game":"Team Fortress","app_id":440,"player_count":24,"max_players":24,"Bots":0,"server_type":"Dedicated","server_os":"Linux","password":true,"vac":true,"version":"7961495","steam_id":85568392924469986,"keywords":["nocrits","nodmgspread","payload","uncletopia"],"game_id":440,"stv_port":27016,"stv_name":"Uncletopia | Dallas | 1 | All Maps | STV","players":[{"user_id":369,"name":"BigButternater","steam_id":76561199046684880,"connected_time":367000000000,"state":"active","ping":110},{"user_id":367,"name":"heisenburst","steam_id":76561198293153786,"connected_time":412000000000,"state":"active","ping":46},{"user_id":339,"name":"Hermanver","steam_id":76561198799269067,"connected_time":2860000000000,"state":"active","ping":54},{"user_id":370,"name":"at-risk teen","steam_id":76561198309876224,"connected_time":359000000000,"state":"active","ping":45},{"user_id":270,"name":"–¢—É–º–∞–Ω–Ω—ã–µ –Ω–µ–±–µ—Å–∞","steam_id":76561198061642978,"connected_time":8874000000000,"state":"active","ping":63},{"user_id":379,"name":"LampMan","steam_id":76561198079857527,"connected_time":22000000000,"state":"active","ping":50},{"user_id":271,"name":"lilac brooch...","steam_id":76561198333718916,"connected_time":8688000000000,"state":"active","ping":61},{"user_id":371,"name":"lancer","steam_id":76561199124468228,"connected_time":350000000000,"state":"active","ping":60},{"user_id":372,"name":"blacklite","steam_id":76561198103231666,"connected_time":323000000000,"state":"active","ping":72},{"user_id":355,"name":"biggamehntr887","steam_id":76561198999431215,"connected_time":1509000000000,"state":"active","ping":71},{"user_id":336,"name":"TheGrassMan (He/Him)","steam_id":76561198118984048,"connected_time":2866000000000,"state":"active","ping":84},{"user_id":342,"name":"plink","steam_id":76561198057829889,"connected_time":2815000000000,"state":"active","ping":57},{"user_id":368,"name":"TechnoBear2099","steam_id":76561198238863596,"connected_time":411000000000,"state":"active","ping":49},{"user_id":360,"name":"abolish the federal reserve","steam_id":76561198047796437,"connected_time":1256000000000,"state":"active","ping":89},{"user_id":373,"name":"ReDiculous22","steam_id":76561198038391383,"connected_time":309000000000,"state":"active","ping":46},{"user_id":359,"name":"Normalux","steam_id":76561198293891426,"connected_time":1306000000000,"state":"active","ping":117},{"user_id":334,"name":"Ahkmid the Emoji Turban Guy","steam_id":76561198142599650,"connected_time":3231000000000,"state":"active","ping":72},{"user_id":378,"name":"npc energy","steam_id":76561198035342207,"connected_time":30000000000,"state":"active","ping":60},{"user_id":375,"name":"JayTheNoob247_","steam_id":76561199348803437,"connected_time":290000000000,"state":"active","ping":90},{"user_id":366,"name":"THRONGLER","steam_id":76561198198563466,"connected_time":601000000000,"state":"active","ping":41},{"user_id":357,"name":"üéÑAndreaJinglingüéÑ","steam_id":76561198198658783,"connected_time":1386000000000,"state":"active","ping":121},{"user_id":376,"name":"lover","steam_id":76561198089852954,"connected_time":284000000000,"state":"active","ping":77},{"user_id":377,"name":"gayest MF DOOM fan","steam_id":76561198065801979,"connected_time":275000000000,"state":"active","ping":93},{"user_id":362,"name":"MadGaming","steam_id":76561199047549619,"connected_time":1231000000000,"state":"active","ping":62}]},{"server_id":108,"name":"Uncletopia | Dallas | 2 | All Maps","name_short":"dal-2","host":"dal-1.us.uncletopia.com","port":27025,"enabled":true,"region":"us-central","cc":"us","latitude":32.779167,"longitude":-96.80889,"reserved":0,"last_update":"0001-01-01T00:00:00Z","name_a2s":"Uncletopia | Dallas | 2 | All Maps","protocol":17,"map":"koth_viaduct","folder":"tf","game":"Team Fortress","app_id":440,"player_count":24,"max_players":24,"Bots":0,"server_type":"Dedicated","server_os":"Linux","password":true,"vac":true,"version":"7961495","steam_id":85568392924469988,"keywords":["cp","nocrits","nodmgspread","uncletopia"],"game_id":440,"stv_port":27026,"stv_name":"Uncletopia | Dallas | 2 | All Maps | STV","players":[{"user_id":438,"name":"American freedom bird","steam_id":76561198366142388,"connected_time":120000000000,"state":"active","ping":92},{"user_id":434,"name":"SarcasticAristocat","steam_id":76561198168488694,"connected_time":526000000000,"state":"active","ping":72},{"user_id":437,"name":"mighty midori","steam_id":76561198061637229,"connected_time":148000000000,"state":"active","ping":34},{"user_id":413,"name":"brown shrke","steam_id":76561198034955422,"connected_time":2313000000000,"state":"active","ping":166},{"user_id":439,"name":"Tag","steam_id":76561199138738952,"connected_time":105000000000,"state":"active","ping":71},{"user_id":415,"name":"Joey Lemons","steam_id":76561198068104187,"connected_time":2282000000000,"state":"active","ping":57},{"user_id":431,"name":"Koala Bear","steam_id":76561198118025990,"connected_time":787000000000,"state":"active","ping":86},{"user_id":440,"name":"Florist","steam_id":76561198009121060,"connected_time":95000000000,"state":"active","ping":91},{"user_id":418,"name":"Jesse Bear","steam_id":76561198217075305,"connected_time":1966000000000,"state":"active","ping":99},{"user_id":441,"name":"bookreader","steam_id":76561198978568007,"connected_time":76000000000,"state":"active","ping":71},{"user_id":405,"name":"nbwingdinger","steam_id":76561198412627015,"connected_time":3006000000000,"state":"active","ping":108},{"user_id":442,"name":"Chetvizam","steam_id":76561197994312540,"connected_time":61000000000,"state":"active","ping":71},{"user_id":435,"name":"JOOOOOOOOOOOOO!!!!!!","steam_id":76561199101638460,"connected_time":177000000000,"state":"active","ping":46},{"user_id":443,"name":"yitz","steam_id":76561198375575841,"connected_time":58000000000,"state":"active","ping":74},{"user_id":403,"name":"Venus! Trans Rights!","steam_id":76561198208700051,"connected_time":3033000000000,"state":"active","ping":65},{"user_id":433,"name":"QwantumQweer","steam_id":76561198323071283,"connected_time":573000000000,"state":"active","ping":115},{"user_id":432,"name":"Ermina West","steam_id":76561198085004790,"connected_time":742000000000,"state":"active","ping":104},{"user_id":408,"name":"RockMan","steam_id":76561199228684720,"connected_time":2684000000000,"state":"active","ping":54},{"user_id":444,"name":"The KR Clear Red Rose","steam_id":76561198046773420,"connected_time":53000000000,"state":"active","ping":60},{"user_id":445,"name":"neet","steam_id":76561197968115168,"connected_time":52000000000,"state":"active","ping":76},{"user_id":410,"name":"Cleetus","steam_id":76561198192510401,"connected_time":2364000000000,"state":"active","ping":56},{"user_id":446,"name":"The Roto Grip Exotic Gem","steam_id":76561197961141994,"connected_time":50000000000,"state":"active","ping":106},{"user_id":411,"name":"Wyatt","steam_id":76561199068781227,"connected_time":2359000000000,"state":"active","ping":94},{"user_id":394,"name":"Bucket Hat Trick","steam_id":76561198381785132,"connected_time":3506000000000,"state":"active","ping":69}]},{"server_id":404,"name":"Uncletopia | Dallas | 3 | All Maps","name_short":"dal-3","host":"dal-1.us.uncletopia.com","port":27035,"enabled":true,"region":"us-central","cc":"us","latitude":32.779167,"longitude":-96.80889,"reserved":0,"last_update":"0001-01-01T00:00:00Z","name_a2s":"Uncletopia | Dallas | 3 | All Maps","protocol":17,"map":"pl_borneo","folder":"tf","game":"Team Fortress","app_id":440,"player_count":24,"max_players":24,"Bots":0,"server_type":"Dedicated","server_os":"Linux","password":true,"vac":true,"version":"7961495","steam_id":85568392924515219,"keywords":["nocrits","nodmgspread","payload","uncletopia"],"game_id":440,"stv_port":27036,"stv_name":"Uncletopia | Dallas | 3 | All Maps | STV","players":[{"user_id":242,"name":"Seesamu Caek","steam_id":76561198075339602,"connected_time":581000000000,"state":"active","ping":89},{"user_id":246,"name":"Train Conductor","steam_id":76561198058605649,"connected_time":311000000000,"state":"active","ping":43},{"user_id":232,"name":"Antonin Scalia","steam_id":76561198080687598,"connected_time":1802000000000,"state":"active","ping":78},{"user_id":174,"name":"DeeeLish","steam_id":76561198447356180,"connected_time":5452000000000,"state":"active","ping":79},{"user_id":210,"name":"Hallowedspoon","steam_id":76561199141350399,"connected_time":3482000000000,"state":"active","ping":63},{"user_id":241,"name":"Large Man","steam_id":76561198880396651,"connected_time":735000000000,"state":"active","ping":95},{"user_id":228,"name":"Sticky Tack","steam_id":76561199083336511,"connected_time":2022000000000,"state":"active","ping":74},{"user_id":223,"name":"Speakeasy","steam_id":76561198134692556,"connected_time":2194000000000,"state":"active","ping":85},{"user_id":213,"name":"Craver214","steam_id":76561198278444603,"connected_time":3449000000000,"state":"active","ping":62},{"user_id":237,"name":"Anstorner","steam_id":76561198274026015,"connected_time":1283000000000,"state":"active","ping":72},{"user_id":243,"name":"(TPT) Ghost","steam_id":76561198123262873,"connected_time":532000000000,"state":"active","ping":92},{"user_id":224,"name":"Darkk","steam_id":76561198020460220,"connected_time":2184000000000,"state":"active","ping":94},{"user_id":225,"name":"Nelos angero","steam_id":76561198852492322,"connected_time":2182000000000,"state":"active","ping":107},{"user_id":238,"name":"An Engineer","steam_id":76561198110381643,"connected_time":1280000000000,"state":"active","ping":47},{"user_id":248,"name":"Skip Hop Doo Bop","steam_id":76561199161571849,"connected_time":175000000000,"state":"active","ping":80},{"user_id":239,"name":"Novu","steam_id":76561198886997024,"connected_time":1029000000000,"state":"active","ping":106},{"user_id":249,"name":"shadow6","steam_id":76561197979807910,"connected_time":174000000000,"state":"active","ping":104},{"user_id":227,"name":"myacine","steam_id":76561198131576005,"connected_time":2053000000000,"state":"active","ping":68},{"user_id":235,"name":"Ockulus","steam_id":76561199069638460,"connected_time":1451000000000,"state":"active","ping":83},{"user_id":196,"name":"DatGamerJimmeh","steam_id":76561198114676295,"connected_time":3955000000000,"state":"active","ping":52},{"user_id":240,"name":"Rob","steam_id":76561199187786660,"connected_time":785000000000,"state":"active","ping":58},{"user_id":236,"name":"Rudy","steam_id":76561198013456828,"connected_time":1312000000000,"state":"active","ping":89},{"user_id":202,"name":"Drained","steam_id":76561198081974528,"connected_time":3879000000000,"state":"active","ping":73},{"user_id":245,"name":"king dedede","steam_id":76561198965562679,"connected_time":514000000000,"state":"active","ping":93}]},{"server_id":405,"name":"Uncletopia | Dallas | 4 | Community","name_short":"dal-4","host":"dal-1.us.uncletopia.com","port":27045,"enabled":true,"region":"us-central","cc":"us","latitude":32.779167,"longitude":-96.80889,"reserved":0,"last_update":"0001-01-01T00:00:00Z","name_a2s":"Uncletopia | Dallas | 4 | Community","protocol":17,"map":"workshop/koth_product_final.ugc454272353","folder":"tf","game":"Team Fortress","app_id":440,"player_count":0,"max_players":24,"Bots":0,"server_type":"Dedicated","server_os":"Linux","password":true,"vac":true,"version":"7961495","steam_id":85568392924515220,"keywords":["cp","nocrits","nodmgspread","uncletopia"],"game_id":440,"stv_port":27046,"stv_name":"Uncletopia | Dallas | 4 | Community | STV","players":null},{"server_id":5,"name":"Uncletopia | Frankfurt | 1 | All Maps","name_short":"frk-1","host":"frk-1.de.uncletopia.com","port":27015,"enabled":true,"region":"eu","cc":"de","latitude":50.110924,"longitude":8.682127,"reserved":0,"last_update":"0001-01-01T00:00:00Z","name_a2s":"Uncletopia | Frankfurt | 1 | All Maps","protocol":17,"map":"cp_steel","folder":"tf","game":"Team Fortress","app_id":440,"player_count":24,"max_players":24,"Bots":0,"server_type":"Dedicated","server_os":"Linux","password":true,"vac":true,"version":"7961495","steam_id":85568392924469989,"keywords":["cp","nocrits","nodmgspread","uncletopia"],"game_id":440,"stv_port":27016,"stv_name":"Uncletopia | Frankfurt | 1 | All Maps | STV","players":[{"user_id":547,"name":"Alice","steam_id":76561198040365065,"connected_time":4457000000000,"state":"active","ping":50},{"user_id":548,"name":"Shorakyn","steam_id":76561198090574640,"connected_time":4418000000000,"state":"active","ping":68},{"user_id":592,"name":"Sophia","steam_id":76561198080402340,"connected_time":1285000000000,"state":"active","ping":64},{"user_id":552,"name":"lemone","steam_id":76561198061182835,"connected_time":3836000000000,"state":"active","ping":47},{"user_id":553,"name":"Mixer","steam_id":76561199020200249,"connected_time":3480000000000,"state":"active","ping":166},{"user_id":610,"name":"Prox","steam_id":76561198351490981,"connected_time":128000000000,"state":"active","ping":55},{"user_id":557,"name":"Whisk","steam_id":76561198137228550,"connected_time":2773000000000,"state":"active","ping":165},{"user_id":590,"name":"Mati [EST]","steam_id":76561197994743813,"connected_time":1444000000000,"state":"active","ping":97},{"user_id":611,"name":"R@DIO","steam_id":76561197995533046,"connected_time":123000000000,"state":"active","ping":74},{"user_id":598,"name":"Lackryx","steam_id":76561198313256505,"connected_time":1023000000000,"state":"active","ping":65},{"user_id":604,"name":"woop","steam_id":76561198985105074,"connected_time":717000000000,"state":"active","ping":76},{"user_id":591,"name":"booba","steam_id":76561198158018284,"connected_time":1369000000000,"state":"active","ping":58},{"user_id":570,"name":"Milosz52","steam_id":76561199060940204,"connected_time":1730000000000,"state":"active","ping":73},{"user_id":609,"name":"Conan the Librarian","steam_id":76561198007224654,"connected_time":254000000000,"state":"active","ping":52},{"user_id":594,"name":"Arsonist","steam_id":76561199087953833,"connected_time":1230000000000,"state":"active","ping":111},{"user_id":612,"name":"Milk","steam_id":76561198125876588,"connected_time":84000000000,"state":"active","ping":59},{"user_id":574,"name":"Daan77","steam_id":76561198129940468,"connected_time":1661000000000,"state":"active","ping":70},{"user_id":613,"name":"the fog is coming","steam_id":76561199019412162,"connected_time":52000000000,"state":"active","ping":62},{"user_id":606,"name":"Japive","steam_id":76561198046099739,"connected_time":556000000000,"state":"active","ping":62},{"user_id":614,"name":"Galgose","steam_id":76561198075510090,"connected_time":5000000000,"state":"spawning","ping":48},{"user_id":602,"name":"HekatonDoge","steam_id":76561198095951265,"connected_time":801000000000,"state":"active","ping":52},{"user_id":605,"name":"Skyrider of Spaceways","steam_id":76561197991678236,"connected_time":631000000000,"state":"active","ping":135},{"user_id":581,"name":"Kittisci","steam_id":76561198086690940,"connected_time":1525000000000,"state":"active","ping":64},{"user_id":582,"name":"splarvis","steam_id":76561198007792525,"connected_time":1519000000000,"state":"active","ping":59}]},{"server_id":110,"name":"Uncletopia | Frankfurt | 2 | All Maps","name_short":"frk-2","host":"frk-1.de.uncletopia.com","port":27025,"enabled":true,"region":"eu","cc":"de","latitude":50.110924,"longitude":8.682127,"reserved":0,"last_update":"0001-01-01T00:00:00Z","name_a2s":"Uncletopia | Frankfurt | 2 | All Maps","protocol":17,"map":"pl_badwater","folder":"tf","game":"Team Fortress","app_id":440,"player_count":24,"max_players":24,"Bots":0,"server_type":"Dedicated","server_os":"Linux","password":true,"vac":true,"version":"7961495","steam_id":85568392924469990,"keywords":["nocrits","nodmgspread","payload","uncletopia"],"game_id":440,"stv_port":27026,"stv_name":"Uncletopia | Frankfurt | 2 | All Maps | STV","players":[{"user_id":583,"name":"Name","steam_id":76561197990757157,"connected_time":764000000000,"state":"active","ping":90},{"user_id":600,"name":"sticks","steam_id":76561198127099299,"connected_time":412000000000,"state":"active","ping":54},{"user_id":565,"name":"Champi","steam_id":76561198830002766,"connected_time":2946000000000,"state":"active","ping":57},{"user_id":585,"name":"123","steam_id":76561198084517952,"connected_time":675000000000,"state":"active","ping":67},{"user_id":586,"name":"FiblE","steam_id":76561198212397172,"connected_time":658000000000,"state":"active","ping":52},{"user_id":595,"name":"Strix","steam_id":76561198015322735,"connected_time":527000000000,"state":"active","ping":74},{"user_id":597,"name":"Joo ‚ô¶","steam_id":76561197987609203,"connected_time":469000000000,"state":"active","ping":74},{"user_id":587,"name":"Vexu","steam_id":76561198113145846,"connected_time":652000000000,"state":"active","ping":94},{"user_id":588,"name":"WasserGurke","steam_id":76561198372482746,"connected_time":634000000000,"state":"active","ping":62},{"user_id":571,"name":"prodaltay","steam_id":76561198239810740,"connected_time":2474000000000,"state":"active","ping":94},{"user_id":570,"name":"Hooks","steam_id":76561198255557997,"connected_time":2523000000000,"state":"active","ping":83},{"user_id":549,"name":"Necator","steam_id":76561198094006970,"connected_time":4316000000000,"state":"active","ping":60},{"user_id":579,"name":"Naty","steam_id":76561198083488307,"connected_time":1792000000000,"state":"active","ping":62},{"user_id":598,"name":"TidB","steam_id":76561198055342304,"connected_time":450000000000,"state":"active","ping":47},{"user_id":572,"name":"Shine","steam_id":76561198136297981,"connected_time":2468000000000,"state":"active","ping":72},{"user_id":599,"name":"War Bastard","steam_id":76561197982191064,"connected_time":436000000000,"state":"active","ping":59},{"user_id":591,"name":"noot","steam_id":76561198148074472,"connected_time":577000000000,"state":"active","ping":36},{"user_id":592,"name":"scott steiners strongest warrio","steam_id":76561198148888622,"connected_time":559000000000,"state":"active","ping":70},{"user_id":593,"name":"Accident","steam_id":76561198037232641,"connected_time":537000000000,"state":"active","ping":78},{"user_id":573,"name":"Biggest Homie","steam_id":76561198373107677,"connected_time":2452000000000,"state":"active","ping":73},{"user_id":563,"name":"Jureron","steam_id":76561198097535175,"connected_time":3257000000000,"state":"active","ping":60},{"user_id":594,"name":"you like buff tf2 men don't you","steam_id":76561198837586838,"connected_time":533000000000,"state":"active","ping":73},{"user_id":601,"name":"The Holy Mackerel","steam_id":76561199094706288,"connected_time":396000000000,"state":"active","ping":62},{"user_id":603,"name":"peter stevens","steam_id":76561198075068529,"connected_time":330000000000,"state":"active","ping":51}]},{"server_id":308,"name":"Uncletopia | Frankfurt | 3 | All Maps","name_short":"frk-3","host":"frk-1.de.uncletopia.com","port":27035,"enabled":true,"region":"eu","cc":"de","latitude":50.110924,"longitude":8.682127,"reserved":0,"last_update":"0001-01-01T00:00:00Z","name_a2s":"Uncletopia | Frankfurt | 3 | All Maps","protocol":17,"map":"pl_badwater","folder":"tf","game":"Team Fortress","app_id":440,"player_count":24,"max_players":24,"Bots":0,"server_type":"Dedicated","server_os":"Linux","password":true,"vac":true,"version":"7961495","steam_id":85568392924504274,"keywords":["nocrits","nodmgspread","payload","uncletopia"],"game_id":440,"stv_port":27036,"stv_name":"Uncletopia | Frankfurt | 3 | All Maps | STV","players":[{"user_id":587,"name":"sloppy transgirl toppy","steam_id":76561198057092208,"connected_time":1275000000000,"state":"active","ping":64},{"user_id":575,"name":"slippin jimmy","steam_id":76561198090788590,"connected_time":2162000000000,"state":"active","ping":59},{"user_id":588,"name":"Jesus (real)","steam_id":76561199106262610,"connected_time":1269000000000,"state":"active","ping":53},{"user_id":570,"name":"Saucisse [no sound]","steam_id":76561198119955969,"connected_time":2364000000000,"state":"active","ping":61},{"user_id":528,"name":"=OKB= P4NTH3R","steam_id":76561197999204603,"connected_time":5256000000000,"state":"active","ping":61},{"user_id":550,"name":"The Storm That Is Approaching","steam_id":76561198982155864,"connected_time":3658000000000,"state":"active","ping":70},{"user_id":589,"name":"Tre3","steam_id":76561198054795379,"connected_time":1261000000000,"state":"active","ping":47},{"user_id":572,"name":"bAdmon","steam_id":76561197961785793,"connected_time":2236000000000,"state":"active","ping":52},{"user_id":578,"name":"harbl's herbal tea","steam_id":76561198024929695,"connected_time":2080000000000,"state":"active","ping":71},{"user_id":593,"name":"vug","steam_id":76561198042227249,"connected_time":40000000000,"state":"active","ping":46},{"user_id":564,"name":"_Alonso","steam_id":76561198041893314,"connected_time":3343000000000,"state":"active","ping":52},{"user_id":577,"name":"Suetolog","steam_id":76561199053090212,"connected_time":2090000000000,"state":"active","ping":52},{"user_id":590,"name":"Maximilian1359","steam_id":76561198152439608,"connected_time":788000000000,"state":"active","ping":57},{"user_id":581,"name":"Xiqui","steam_id":76561198818386611,"connected_time":1503000000000,"state":"active","ping":80},{"user_id":582,"name":"Tri-","steam_id":76561198133524794,"connected_time":1493000000000,"state":"active","ping":64},{"user_id":494,"name":"_Starlight_","steam_id":76561197993885738,"connected_time":8879000000000,"state":"active","ping":89},{"user_id":555,"name":"ScampSixteen","steam_id":76561198021771000,"connected_time":3509000000000,"state":"active","ping":63},{"user_id":592,"name":"Bumblebee","steam_id":76561198033551105,"connected_time":148000000000,"state":"active","ping":61},{"user_id":580,"name":"na stile disco","steam_id":76561198181134706,"connected_time":1801000000000,"state":"active","ping":52},{"user_id":562,"name":"Shadowmann","steam_id":76561198158608309,"connected_time":3374000000000,"state":"active","ping":65},{"user_id":563,"name":"madhead200","steam_id":76561198119498666,"connected_time":3367000000000,"state":"active","ping":80},{"user_id":586,"name":"Hyppy ja liipasin pohjaan :D","steam_id":76561198080669698,"connected_time":1377000000000,"state":"active","ping":111},{"user_id":591,"name":"Gioni","steam_id":76561198395912581,"connected_time":525000000000,"state":"active","ping":109},{"user_id":527,"name":"anders McFlanders","steam_id":76561198022811995,"connected_time":5285000000000,"state":"active","ping":63}]},{"server_id":309,"name":"Uncletopia | Frankfurt | 4 | All Maps","name_short":"frk-4","host":"frk-1.de.uncletopia.com","port":27045,"enabled":true,"region":"eu","cc":"de","latitude":50.110924,"longitude":8.682127,"reserved":0,"last_update":"0001-01-01T00:00:00Z","name_a2s":"Uncletopia | Frankfurt | 4 | All Maps","protocol":17,"map":"pl_upward","folder":"tf","game":"Team Fortress","app_id":440,"player_count":8,"max_players":24,"Bots":0,"server_type":"Dedicated","server_os":"Linux","password":true,"vac":true,"version":"7961495","steam_id":85568392924504275,"keywords":["nocrits","nodmgspread","payload","uncletopia"],"game_id":440,"stv_port":27046,"stv_name":"Uncletopia | Frankfurt | 4 | All Maps | STV","players":[{"user_id":741,"name":"–ë–µ—Ä–≥–º–∞–Ω","steam_id":76561198282010599,"connected_time":126000000000,"state":"active","ping":61},{"user_id":713,"name":"[DMZ]","steam_id":76561198034975580,"connected_time":2948000000000,"state":"active","ping":85},{"user_id":735,"name":"keleos82","steam_id":76561198123916013,"connected_time":928000000000,"state":"active","ping":55},{"user_id":738,"name":"BastionB56","steam_id":76561198199942153,"connected_time":540000000000,"state":"active","ping":61},{"user_id":656,"name":"Arturias","steam_id":76561198188720263,"connected_time":6674000000000,"state":"active","ping":59},{"user_id":719,"name":"a traditional gamer","steam_id":76561198213609447,"connected_time":2500000000000,"state":"active","ping":78},{"user_id":722,"name":"avanaR","steam_id":76561198132062124,"connected_time":2307000000000,"state":"active","ping":59},{"user_id":654,"name":"Nickbro101","steam_id":76561198044271692,"connected_time":6754000000000,"state":"active","ping":53}]},{"server_id":310,"name":"Uncletopia | Frankfurt | 5 | All Maps","name_short":"frk-5","host":"frk-1.de.uncletopia.com","port":27055,"enabled":true,"region":"eu","cc":"de","latitude":50.110924,"longitude":8.682127,"reserved":0,"last_update":"0001-01-01T00:00:00Z","name_a2s":"Uncletopia | Frankfurt | 5 | All Maps","protocol":17,"map":"cp_badlands","folder":"tf","game":"Team Fortress","app_id":440,"player_count":24,"max_players":24,"Bots":0,"server_type":"Dedicated","server_os":"Linux","password":true,"vac":true,"version":"7961495","steam_id":85568392924504277,"keywords":["cp","nocrits","nodmgspread","uncletopia"],"game_id":440,"stv_port":27056,"stv_name":"Uncletopia | Frankfurt | 5 | All Maps | STV","players":[{"user_id":588,"name":"76561198871723933","steam_id":76561198871723933,"connected_time":805000000000,"state":"active","ping":53},{"user_id":578,"name":"Escobar","steam_id":76561198089785078,"connected_time":2173000000000,"state":"active","ping":93},{"user_id":571,"name":"DHD - Obismal","steam_id":76561198000356530,"connected_time":2973000000000,"state":"active","ping":71},{"user_id":583,"name":"Bobo","steam_id":76561198052308399,"connected_time":1304000000000,"state":"active","ping":66},{"user_id":387,"name":"XPullaHiiri","steam_id":76561198031652375,"connected_time":17500000000000,"state":"active","ping":85},{"user_id":570,"name":"agent youppii","steam_id":76561198055264447,"connected_time":3349000000000,"state":"active","ping":74},{"user_id":586,"name":"Gen","steam_id":76561198021775885,"connected_time":974000000000,"state":"active","ping":45},{"user_id":556,"name":"Intruder","steam_id":76561198156128173,"connected_time":3931000000000,"state":"active","ping":86},{"user_id":407,"name":"eva","steam_id":76561198054474684,"connected_time":16141000000000,"state":"active","ping":90},{"user_id":574,"name":"goop - Obismal","steam_id":76561198190073005,"connected_time":2202000000000,"state":"active","ping":55},{"user_id":559,"name":"Woman (Real)","steam_id":76561199151823932,"connected_time":3792000000000,"state":"active","ping":73},{"user_id":560,"name":"xavier","steam_id":76561198076494034,"connected_time":3744000000000,"state":"active","ping":57},{"user_id":587,"name":"Cosmonaut","steam_id":76561198239514504,"connected_time":966000000000,"state":"active","ping":52},{"user_id":562,"name":"Ozzie","steam_id":76561197992915315,"connected_time":3721000000000,"state":"active","ping":65},{"user_id":590,"name":"etc","steam_id":76561197998394797,"connected_time":33000000000,"state":"active","ping":55},{"user_id":584,"name":"JamesPepega","steam_id":76561198019156154,"connected_time":1205000000000,"state":"active","ping":471},{"user_id":522,"name":"dumbai","steam_id":76561199098418729,"connected_time":6247000000000,"state":"active","ping":106},{"user_id":563,"name":"Macci - Obismal","steam_id":76561198050485404,"connected_time":3711000000000,"state":"active","ping":74},{"user_id":564,"name":"R8N - Obismal","steam_id":76561198007482714,"connected_time":3709000000000,"state":"active","ping":69},{"user_id":572,"name":"Just Navlis","steam_id":76561198090479609,"connected_time":2893000000000,"state":"active","ping":46},{"user_id":581,"name":"Bajas","steam_id":76561198179339326,"connected_time":1634000000000,"state":"active","ping":77},{"user_id":576,"name":"Rarky - Obismal","steam_id":76561198054398642,"connected_time":2198000000000,"state":"active","ping":55},{"user_id":589,"name":"CMRDGI","steam_id":76561198141356233,"connected_time":429000000000,"state":"active","ping":50},{"user_id":567,"name":"Caruzon - Obismal","steam_id":76561198036211170,"connected_time":3602000000000,"state":"active","ping":72}]},{"server_id":311,"name":"Uncletopia | Frankfurt | 6 | All Maps","name_short":"frk-6","host":"frk-1.de.uncletopia.com","port":27065,"enabled":true,"region":"eu","cc":"de","latitude":50.110924,"longitude":8.682127,"reserved":0,"last_update":"0001-01-01T00:00:00Z","name_a2s":"Uncletopia | Frankfurt | 6 | All Maps","protocol":17,"map":"pl_snowycoast","folder":"tf","game":"Team Fortress","app_id":440,"player_count":6,"max_players":24,"Bots":0,"server_type":"Dedicated","server_os":"Linux","password":true,"vac":true,"version":"7961495","steam_id":85568392924504278,"keywords":["nocrits","nodmgspread","payload","uncletopia"],"game_id":440,"stv_port":27066,"stv_name":"Uncletopia | Frankfurt | 6 | All Maps | STV","players":[{"user_id":844,"name":"sad monkey","steam_id":76561198116530769,"connected_time":2944000000000,"state":"active","ping":82},{"user_id":868,"name":"tirr3kt","steam_id":76561198251565624,"connected_time":314000000000,"state":"active","ping":91},{"user_id":866,"name":"Mr.Y","steam_id":76561198402796424,"connected_time":545000000000,"state":"active","ping":94},{"user_id":839,"name":"Cap","steam_id":76561198258586329,"connected_time":3862000000000,"state":"active","ping":58},{"user_id":856,"name":"Raymus","steam_id":76561198021330407,"connected_time":1849000000000,"state":"active","ping":35},{"user_id":842,"name":"Control","steam_id":76561198148875227,"connected_time":3514000000000,"state":"active","ping":70}]},{"server_id":23,"name":"Uncletopia | Frankfurt | 7 | Stopwatch","name_short":"frk-7","host":"frk-1.de.uncletopia.com","port":27075,"enabled":true,"region":"eu","cc":"de","latitude":50.110924,"longitude":8.682127,"reserved":0,"last_update":"0001-01-01T00:00:00Z","name_a2s":"Uncletopia | Frankfurt | 7 | Stopwatch","protocol":17,"map":"workshop/koth_bagel_rc6.ugc2514036946","folder":"tf","game":"Team Fortress","app_id":440,"player_count":0,"max_players":24,"Bots":0,"server_type":"Dedicated","server_os":"Linux","password":true,"vac":true,"version":"7961495","steam_id":85568392924742827,"keywords":["cp","nocrits","nodmgspread","uncletopia"],"game_id":440,"stv_port":27076,"stv_name":"Uncletopia | Frankfurt | 7 | Stopwatch | STV","players":null},{"server_id":24,"name":"Uncletopia | Frankfurt | 8 | Community","name_short":"frk-8","host":"frk-1.de.uncletopia.com","port":27085,"enabled":true,"region":"eu","cc":"de","latitude":50.110924,"longitude":8.682127,"reserved":0,"last_update":"0001-01-01T00:00:00Z","name_a2s":"Uncletopia | Frankfurt | 8 | Community","protocol":17,"map":"workshop/koth_ramjam_rc1.ugc459778887","folder":"tf","game":"Team Fortress","app_id":440,"player_count":0,"max_players":24,"Bots":0,"server_type":"Dedicated","server_os":"Linux","password":true,"vac":true,"version":"7961495","steam_id":85568392924742828,"keywords":["cp","nocrits","nodmgspread","uncletopia"],"game_id":440,"stv_port":27086,"stv_name":"Uncletopia | Frankfurt | 8 | Community | STV","players":null},{"server_id":202,"name":"Uncletopia | Hong Kong | 1 | All Maps","name_short":"hgk-1","host":"hgk-1.hk.uncletopia.com","port":27015,"enabled":true,"region":"asia","cc":"hk","latitude":22.302711,"longitude":114.177216,"reserved":0,"last_update":"0001-01-01T00:00:00Z","name_a2s":"Uncletopia | Hong Kong | 1 | All Maps","protocol":17,"map":"pl_frontier_final","folder":"tf","game":"Team Fortress","app_id":440,"player_count":0,"max_players":24,"Bots":0,"server_type":"Dedicated","server_os":"Linux","password":true,"vac":true,"version":"7961495","steam_id":85568392924494504,"keywords":["nocrits","nodmgspread","payload","uncletopia"],"game_id":440,"stv_port":27016,"stv_name":"Uncletopia | Hong Kong | 1 | All Maps | STV","players":null},{"server_id":1,"name":"Uncletopia | Los Angeles | 1 | All Maps","name_short":"lax-1","host":"lax-1.us.uncletopia.com","port":27015,"enabled":true,"region":"us-west","cc":"us","latitude":33.94279,"longitude":-118.41004,"reserved":0,"last_update":"0001-01-01T00:00:00Z","name_a2s":"Uncletopia | Los Angeles | 1 | All Maps","protocol":17,"map":"pl_barnblitz","folder":"tf","game":"Team Fortress","app_id":440,"player_count":23,"max_players":24,"Bots":0,"server_type":"Dedicated","server_os":"Linux","password":true,"vac":true,"version":"7961495","steam_id":85568392924469991,"keywords":["nocrits","nodmgspread","payload","uncletopia"],"game_id":440,"stv_port":27016,"stv_name":"Uncletopia | Los Angeles | 1 | All Maps | STV","players":[{"user_id":290,"name":"Ralph Kramden (Slim Charles)","steam_id":76561197981687895,"connected_time":1365000000000,"state":"active","ping":63},{"user_id":283,"name":"drank baby","steam_id":76561199483723843,"connected_time":1925000000000,"state":"active","ping":54},{"user_id":312,"name":"John Pork","steam_id":76561198187097545,"connected_time":560000000000,"state":"active","ping":144},{"user_id":309,"name":"Risky","steam_id":76561198231029328,"connected_time":748000000000,"state":"active","ping":45},{"user_id":319,"name":"kheiroallah","steam_id":76561199499432413,"connected_time":16000000000,"state":"spawning","ping":267},{"user_id":305,"name":"MagMattock","steam_id":76561198170411518,"connected_time":831000000000,"state":"active","ping":131},{"user_id":316,"name":"yummines","steam_id":76561197981540661,"connected_time":46000000000,"state":"active","ping":76},{"user_id":317,"name":"Overmeme","steam_id":76561199455124144,"connected_time":43000000000,"state":"active","ping":158},{"user_id":268,"name":"Velgrauder","steam_id":76561198848526938,"connected_time":2823000000000,"state":"active","ping":100},{"user_id":306,"name":"breathing meat donut","steam_id":76561198123566649,"connected_time":804000000000,"state":"active","ping":93},{"user_id":289,"name":"duncaidan","steam_id":76561199013510313,"connected_time":1478000000000,"state":"active","ping":60},{"user_id":293,"name":"merc","steam_id":76561198162688146,"connected_time":1238000000000,"state":"active","ping":47},{"user_id":279,"name":"Kdash","steam_id":76561198043829155,"connected_time":2119000000000,"state":"active","ping":82},{"user_id":311,"name":"Fungal","steam_id":76561198078973439,"connected_time":610000000000,"state":"active","ping":48},{"user_id":234,"name":"Meepster","steam_id":76561198146305159,"connected_time":5423000000000,"state":"active","ping":64},{"user_id":313,"name":"vanillain","steam_id":76561198058617608,"connected_time":313000000000,"state":"active","ping":52},{"user_id":219,"name":"john.","steam_id":76561198982939658,"connected_time":6886000000000,"state":"active","ping":60},{"user_id":315,"name":"the meat man","steam_id":76561198037921140,"connected_time":112000000000,"state":"active","ping":37},{"user_id":245,"name":"CadenLCheese","steam_id":76561199105517435,"connected_time":3624000000000,"state":"active","ping":75},{"user_id":310,"name":"has not touched grass in 6 year","steam_id":76561198007867721,"connected_time":704000000000,"state":"active","ping":54},{"user_id":314,"name":"BL√òRG","steam_id":76561198036126673,"connected_time":144000000000,"state":"active","ping":93},{"user_id":160,"name":"darren","steam_id":76561199050155136,"connected_time":11564000000000,"state":"active","ping":45},{"user_id":217,"name":"wib","steam_id":76561197993341557,"connected_time":7408000000000,"state":"active","ping":45}]},{"server_id":112,"name":"Uncletopia | Los Angeles | 2 | All Maps","name_short":"lax-2","host":"lax-1.us.uncletopia.com","port":27025,"enabled":true,"region":"us-west","cc":"us","latitude":33.94279,"longitude":-118.41004,"reserved":0,"last_update":"0001-01-01T00:00:00Z","name_a2s":"Uncletopia | Los Angeles | 2 | All Maps","protocol":17,"map":"cp_dustbowl","folder":"tf","game":"Team Fortress","app_id":440,"player_count":6,"max_players":24,"Bots":0,"server_type":"Dedicated","server_os":"Linux","password":true,"vac":true,"version":"7961495","steam_id":85568392924469992,"keywords":["cp","nocrits","nodmgspread","uncletopia"],"game_id":440,"stv_port":27026,"stv_name":"Uncletopia | Los Angeles | 2 | All Maps | STV","players":[{"user_id":16,"name":"pepoeke","steam_id":76561199161695772,"connected_time":648000000000,"state":"active","ping":63},{"user_id":21,"name":"sneed","steam_id":76561198118010424,"connected_time":254000000000,"state":"active","ping":84},{"user_id":14,"name":"Ironcupp","steam_id":76561198271977478,"connected_time":1212000000000,"state":"active","ping":105},{"user_id":24,"name":"Mr. Enforce","steam_id":76561198362168020,"connected_time":195000000000,"state":"active","ping":97},{"user_id":19,"name":"Max Headass","steam_id":76561198964210411,"connected_time":560000000000,"state":"active","ping":51},{"user_id":26,"name":"KingSteve42","steam_id":76561198409455888,"connected_time":141000000000,"state":"active","ping":103}]},{"server_id":324,"name":"Uncletopia | Los Angeles | 3 | All Maps","name_short":"lax-3","host":"lax-1.us.uncletopia.com","port":27035,"enabled":true,"region":"us-west","cc":"us","latitude":33.94279,"longitude":-118.41004,"reserved":0,"last_update":"0001-01-01T00:00:00Z","name_a2s":"Uncletopia | Los Angeles | 3 | All Maps","protocol":17,"map":"pl_borneo","folder":"tf","game":"Team Fortress","app_id":440,"player_count":24,"max_players":24,"Bots":0,"server_type":"Dedicated","server_os":"Linux","password":true,"vac":true,"version":"7961495","steam_id":85568392924510198,"keywords":["nocrits","nodmgspread","payload","uncletopia"],"game_id":440,"stv_port":27036,"stv_name":"Uncletopia | Los Angeles | 3 | All Maps | STV","players":[{"user_id":39,"name":"Firedust19","steam_id":76561198153238631,"connected_time":5165000000000,"state":"active","ping":67},{"user_id":84,"name":"GLXy","steam_id":76561198207551544,"connected_time":2051000000000,"state":"active","ping":69},{"user_id":91,"name":"BIGMACDINNER","steam_id":76561198035678747,"connected_time":1535000000000,"state":"active","ping":75},{"user_id":87,"name":"guappodiablo2","steam_id":76561198132087785,"connected_time":1928000000000,"state":"active","ping":70},{"user_id":57,"name":"TheTalentlessChicken","steam_id":76561198148390834,"connected_time":4438000000000,"state":"active","ping":74},{"user_id":101,"name":"California Police Department","steam_id":76561199071151136,"connected_time":747000000000,"state":"active","ping":45},{"user_id":92,"name":"Hasterberg","steam_id":76561198968097614,"connected_time":1196000000000,"state":"active","ping":59},{"user_id":89,"name":"Tam Honks","steam_id":76561198044347961,"connected_time":1712000000000,"state":"active","ping":71},{"user_id":82,"name":"RC","steam_id":76561198048127881,"connected_time":2605000000000,"state":"active","ping":46},{"user_id":94,"name":"Bones0010","steam_id":76561198096186958,"connected_time":1157000000000,"state":"active","ping":99},{"user_id":59,"name":"Larry Gooseman","steam_id":76561198018696922,"connected_time":4430000000000,"state":"active","ping":63},{"user_id":88,"name":"Dingelsmurf the Orange","steam_id":76561198212489267,"connected_time":1879000000000,"state":"active","ping":101},{"user_id":108,"name":"Freiza","steam_id":76561198169455956,"connected_time":19000000000,"state":"active","ping":51},{"user_id":100,"name":"Eden","steam_id":76561198081284664,"connected_time":791000000000,"state":"active","ping":55},{"user_id":107,"name":"Snoopy","steam_id":76561198273735974,"connected_time":417000000000,"state":"active","ping":92},{"user_id":96,"name":"L. Ron Hoyabembe","steam_id":76561198306393090,"connected_time":1069000000000,"state":"active","ping":87},{"user_id":75,"name":"Big Boi E","steam_id":76561198988336575,"connected_time":3099000000000,"state":"active","ping":74},{"user_id":105,"name":"Mury","steam_id":76561198069743049,"connected_time":461000000000,"state":"active","ping":126},{"user_id":78,"name":"Tom","steam_id":76561198139202942,"connected_time":2844000000000,"state":"active","ping":115},{"user_id":103,"name":"Saint Skeleton","steam_id":76561198054547464,"connected_time":649000000000,"state":"active","ping":46},{"user_id":90,"name":"Ember The Flareon","steam_id":76561198076611087,"connected_time":1579000000000,"state":"active","ping":64},{"user_id":99,"name":"Sky Tree","steam_id":76561198027103242,"connected_time":834000000000,"state":"active","ping":99},{"user_id":98,"name":"Maxini_","steam_id":76561198041077011,"connected_time":990000000000,"state":"active","ping":107},{"user_id":104,"name":"toerpe","steam_id":76561198055678550,"connected_time":561000000000,"state":"active","ping":43}]},{"server_id":25,"name":"Uncletopia | Los Angeles | 4 | Stopwatch","name_short":"lax-4","host":"lax-1.us.uncletopia.com","port":27045,"enabled":true,"region":"us-west","cc":"us","latitude":33.94279,"longitude":-118.41004,"reserved":0,"last_update":"0001-01-01T00:00:00Z","name_a2s":"Uncletopia | Los Angeles | 4 | Stopwatch","protocol":17,"map":"pl_upward","folder":"tf","game":"Team Fortress","app_id":440,"player_count":0,"max_players":24,"Bots":0,"server_type":"Dedicated","server_os":"Linux","password":true,"vac":true,"version":"7961495","steam_id":85568392924510199,"keywords":["nocrits","nodmgspread","payload","uncletopia"],"game_id":440,"stv_port":27046,"stv_name":"Uncletopia | Los Angeles | 4 | Stopwatch | STV","players":null},{"server_id":11,"name":"Uncletopia | London | 1 | All Maps","name_short":"lon-1","host":"lon-1.uk.uncletopia.com","port":27015,"enabled":true,"region":"eu","cc":"gb","latitude":51.509865,"longitude":-0.118092,"reserved":0,"last_update":"0001-01-01T00:00:00Z","name_a2s":"Uncletopia | London | 1 | All Maps","protocol":17,"map":"pl_swiftwater_final1","folder":"tf","game":"Team Fortress","app_id":440,"player_count":24,"max_players":24,"Bots":0,"server_type":"Dedicated","server_os":"Linux","password":true,"vac":true,"version":"7961495","steam_id":85568392924367362,"keywords":["nocrits","nodmgspread","payload","uncletopia"],"game_id":440,"stv_port":27016,"stv_name":"Uncletopia | London | 1 | All Maps | STV","players":[{"user_id":769,"name":"One Shiny Boi‚Ñ¢","steam_id":76561198199193627,"connected_time":2084000000000,"state":"active","ping":66},{"user_id":739,"name":"Lyncurion","steam_id":76561199260022725,"connected_time":3602000000000,"state":"active","ping":74},{"user_id":763,"name":"TEACUPS AND KETTLES","steam_id":76561198083017384,"connected_time":2133000000000,"state":"active","ping":50},{"user_id":783,"name":"Arthur","steam_id":76561198066109166,"connected_time":698000000000,"state":"active","ping":80},{"user_id":771,"name":"Marquis de Hoto","steam_id":76561198080687708,"connected_time":1927000000000,"state":"active","ping":71},{"user_id":753,"name":"fluffy gurl :3","steam_id":76561198139632682,"connected_time":3196000000000,"state":"active","ping":88},{"user_id":788,"name":"Duarte‚Ñ¢","steam_id":76561198131456324,"connected_time":60000000000,"state":"spawning","ping":194},{"user_id":766,"name":"‚∏∏aura‚∏∏","steam_id":76561198066258544,"connected_time":2107000000000,"state":"active","ping":57},{"user_id":774,"name":"Cabbch","steam_id":76561198045955679,"connected_time":1858000000000,"state":"active","ping":45},{"user_id":762,"name":"RomAnjentululiantiarion","steam_id":76561198161417211,"connected_time":2400000000000,"state":"active","ping":97},{"user_id":791,"name":"Smuggs","steam_id":76561197999456003,"connected_time":19000000000,"state":"active","ping":31},{"user_id":778,"name":"honk shoo","steam_id":76561198339986466,"connected_time":963000000000,"state":"active","ping":33},{"user_id":767,"name":"hmscole09","steam_id":76561198811362788,"connected_time":2100000000000,"state":"active","ping":56},{"user_id":770,"name":"ein","steam_id":76561198152162834,"connected_time":2083000000000,"state":"active","ping":92},{"user_id":777,"name":"bowchika wowa #SlavaUkraine","steam_id":76561198159564550,"connected_time":1072000000000,"state":"active","ping":70},{"user_id":782,"name":"Purps","steam_id":76561198053886680,"connected_time":765000000000,"state":"active","ping":39},{"user_id":786,"name":"BreadBubbles","steam_id":76561198174332826,"connected_time":539000000000,"state":"active","ping":60},{"user_id":764,"name":"Tomboy Mold","steam_id":76561198106455841,"connected_time":2133000000000,"state":"active","ping":76},{"user_id":790,"name":"Black Tom","steam_id":76561198335730273,"connected_time":41000000000,"state":"spawning","ping":81},{"user_id":760,"name":"SOPHIIAA","steam_id":76561198443798981,"connected_time":2754000000000,"state":"active","ping":74},{"user_id":721,"name":"BEDA","steam_id":76561198277943630,"connected_time":5491000000000,"state":"active","ping":78},{"user_id":765,"name":"Minimi","steam_id":76561198873850443,"connected_time":2133000000000,"state":"active","ping":51},{"user_id":768,"name":"KnugenIV","steam_id":76561198127091993,"connected_time":2099000000000,"state":"active","ping":56},{"user_id":718,"name":"beebo","steam_id":76561199120277007,"connected_time":5501000000000,"state":"active","ping":46}]},{"server_id":114,"name":"Uncletopia | London | 2 | All Maps","name_short":"lon-2","host":"lon-1.uk.uncletopia.com","port":27025,"enabled":true,"region":"eu","cc":"gb","latitude":51.509865,"longitude":-0.118092,"reserved":0,"last_update":"0001-01-01T00:00:00Z","name_a2s":"Uncletopia | London | 2 | All Maps","protocol":17,"map":"pl_swiftwater_final1","folder":"tf","game":"Team Fortress","app_id":440,"player_count":24,"max_players":24,"Bots":0,"server_type":"Dedicated","server_os":"Linux","password":true,"vac":true,"version":"7961495","steam_id":85568392924470941,"keywords":["nocrits","nodmgspread","payload","uncletopia"],"game_id":440,"stv_port":27026,"stv_name":"Uncletopia | London | 2 | All Maps | STV","players":[{"user_id":859,"name":"Cahl","steam_id":76561198980863125,"connected_time":912000000000,"state":"active","ping":44},{"user_id":843,"name":"Yes but actually no","steam_id":76561198442000519,"connected_time":2700000000000,"state":"active","ping":43},{"user_id":826,"name":"MiniMoys","steam_id":76561198320166458,"connected_time":3273000000000,"state":"active","ping":63},{"user_id":861,"name":"horrors within my comprehension","steam_id":76561198363841749,"connected_time":884000000000,"state":"active","ping":85},{"user_id":830,"name":"zak","steam_id":76561197998895428,"connected_time":3066000000000,"state":"active","ping":61},{"user_id":864,"name":"Skilled Pyro (real)","steam_id":76561199231966873,"connected_time":777000000000,"state":"active","ping":135},{"user_id":852,"name":"DevilJack","steam_id":76561198209278979,"connected_time":1840000000000,"state":"active","ping":67},{"user_id":849,"name":"M2rtRa","steam_id":76561198111036466,"connected_time":2112000000000,"state":"active","ping":77},{"user_id":863,"name":"the brave little toaster","steam_id":76561199403298146,"connected_time":794000000000,"state":"active","ping":59},{"user_id":824,"name":"Finem Belli","steam_id":76561198227177976,"connected_time":3286000000000,"state":"active","ping":47},{"user_id":865,"name":"Grumbo","steam_id":76561199002106124,"connected_time":772000000000,"state":"active","ping":172},{"user_id":856,"name":"blank scrabble tile","steam_id":76561198844612042,"connected_time":1139000000000,"state":"active","ping":75},{"user_id":854,"name":"Dickless David","steam_id":76561198123741865,"connected_time":1396000000000,"state":"active","ping":75},{"user_id":871,"name":"Arigato Gozaimasu!","steam_id":76561198052342856,"connected_time":244000000000,"state":"active","ping":70},{"user_id":847,"name":"AlexGLM","steam_id":76561198118953459,"connected_time":2136000000000,"state":"active","ping":44},{"user_id":866,"name":"armadillo","steam_id":76561198324656652,"connected_time":721000000000,"state":"active","ping":55},{"user_id":828,"name":"DrHappiness","steam_id":76561198132854516,"connected_time":3255000000000,"state":"active","ping":41},{"user_id":801,"name":"steevothesilly","steam_id":76561198132646014,"connected_time":4707000000000,"state":"active","ping":60},{"user_id":872,"name":"happyman442","steam_id":76561198007494744,"connected_time":203000000000,"state":"active","ping":45},{"user_id":812,"name":"moocow916","steam_id":76561198040954339,"connected_time":4433000000000,"state":"active","ping":45},{"user_id":818,"name":"Joetron","steam_id":76561198267907985,"connected_time":3960000000000,"state":"active","ping":51},{"user_id":850,"name":"Aspartus","steam_id":76561198101385763,"connected_time":2108000000000,"state":"active","ping":42},{"user_id":860,"name":"knyazF","steam_id":76561198163278585,"connected_time":910000000000,"state":"active","ping":85},{"user_id":853,"name":"sparkyzZ \u003c3","steam_id":76561198120107112,"connected_time":1570000000000,"state":"active","ping":56}]},{"server_id":320,"name":"Uncletopia | London | 3 | All Maps","name_short":"lon-3","host":"lon-1.uk.uncletopia.com","port":27035,"enabled":true,"region":"eu","cc":"gb","latitude":51.509865,"longitude":-0.118092,"reserved":0,"last_update":"0001-01-01T00:00:00Z","name_a2s":"Uncletopia | London | 3 | All Maps","protocol":17,"map":"pl_pier","folder":"tf","game":"Team Fortress","app_id":440,"player_count":7,"max_players":24,"Bots":0,"server_type":"Dedicated","server_os":"Linux","password":true,"vac":true,"version":"7961495","steam_id":85568392924510192,"keywords":["nocrits","nodmgspread","payload","uncletopia"],"game_id":440,"stv_port":27036,"stv_name":"Uncletopia | London | 3 | All Maps | STV","players":[{"user_id":618,"name":"Dr. Enforcicle (real)","steam_id":76561198964471859,"connected_time":2000000000,"state":"spawning","ping":134},{"user_id":617,"name":"Sippie","steam_id":76561198130393388,"connected_time":89000000000,"state":"active","ping":63},{"user_id":596,"name":"mex","steam_id":76561198877745492,"connected_time":1447000000000,"state":"active","ping":42},{"user_id":582,"name":"T√° pr√°ta√≠ go maith","steam_id":76561198372536459,"connected_time":2053000000000,"state":"active","ping":49},{"user_id":603,"name":"Step back","steam_id":76561198063855616,"connected_time":1292000000000,"state":"active","ping":75},{"user_id":598,"name":"omnibombulator","steam_id":76561198025858897,"connected_time":1408000000000,"state":"active","ping":46},{"user_id":600,"name":"pvtemback","steam_id":76561198887302382,"connected_time":1404000000000,"state":"active","ping":88}]},{"server_id":321,"name":"Uncletopia | London | 4 | All Maps","name_short":"lon-4","host":"lon-1.uk.uncletopia.com","port":27045,"enabled":true,"region":"eu","cc":"gb","latitude":51.509865,"longitude":-0.118092,"reserved":0,"last_update":"0001-01-01T00:00:00Z","name_a2s":"Uncletopia | London | 4 | All Maps","protocol":17,"map":"pl_pier","folder":"tf","game":"Team Fortress","app_id":440,"player_count":8,"max_players":24,"Bots":0,"server_type":"Dedicated","server_os":"Linux","password":true,"vac":true,"version":"7961495","steam_id":85568392924510193,"keywords":["nocrits","nodmgspread","payload","uncletopia"],"game_id":440,"stv_port":27046,"stv_name":"Uncletopia | London | 4 | All Maps | STV","players":[{"user_id":743,"name":"Kali","steam_id":76561198070745106,"connected_time":928000000000,"state":"active","ping":42},{"user_id":691,"name":"shadow39344","steam_id":76561198090639618,"connected_time":4024000000000,"state":"active","ping":57},{"user_id":734,"name":"torn","steam_id":76561198223003236,"connected_time":1873000000000,"state":"active","ping":31},{"user_id":735,"name":"waffle toaster","steam_id":76561198799089628,"connected_time":1849000000000,"state":"active","ping":49},{"user_id":746,"name":"Uncle Ben","steam_id":76561198032568298,"connected_time":110000000000,"state":"active","ping":42},{"user_id":747,"name":"Blake","steam_id":76561198034050682,"connected_time":40000000000,"state":"active","ping":53},{"user_id":741,"name":"cajun thotsauce","steam_id":76561198101636066,"connected_time":1090000000000,"state":"active","ping":187},{"user_id":686,"name":"Smilo","steam_id":76561198841481172,"connected_time":4094000000000,"state":"active","ping":102}]},{"server_id":21,"name":"Uncletopia | London | 5 | All Maps","name_short":"lon-5","host":"lon-1.uk.uncletopia.com","port":27055,"enabled":true,"region":"eu","cc":"gb","latitude":51.509865,"longitude":-0.118092,"reserved":0,"last_update":"0001-01-01T00:00:00Z","name_a2s":"Uncletopia | London | 5 | All Maps","protocol":17,"map":"pl_upward","folder":"tf","game":"Team Fortress","app_id":440,"player_count":24,"max_players":24,"Bots":0,"server_type":"Dedicated","server_os":"Linux","password":true,"vac":true,"version":"7961495","steam_id":85568392924742829,"keywords":["nocrits","nodmgspread","payload","uncletopia"],"game_id":440,"stv_port":27056,"stv_name":"Uncletopia | London | 5 | All Maps | STV","players":[{"user_id":556,"name":"idenburg","steam_id":76561198063574956,"connected_time":45000000000,"state":"active","ping":59},{"user_id":517,"name":"Callum","steam_id":76561199477878281,"connected_time":1615000000000,"state":"active","ping":68},{"user_id":551,"name":"rag","steam_id":76561198083505031,"connected_time":221000000000,"state":"active","ping":45},{"user_id":552,"name":"Bombilla","steam_id":76561198084281798,"connected_time":191000000000,"state":"active","ping":85},{"user_id":500,"name":"Schro","steam_id":76561198963378933,"connected_time":2795000000000,"state":"active","ping":37},{"user_id":539,"name":"pensioner","steam_id":76561199121717685,"connected_time":603000000000,"state":"active","ping":60},{"user_id":547,"name":"Buford D. Luffy","steam_id":76561198129828715,"connected_time":259000000000,"state":"active","ping":75},{"user_id":543,"name":"Louna","steam_id":76561198393344301,"connected_time":323000000000,"state":"active","ping":92},{"user_id":548,"name":"Sorry","steam_id":76561198040722720,"connected_time":249000000000,"state":"active","ping":127},{"user_id":557,"name":"lawn","steam_id":76561198001243486,"connected_time":32000000000,"state":"active","ping":40},{"user_id":541,"name":"eMcP","steam_id":76561198382509396,"connected_time":560000000000,"state":"active","ping":61},{"user_id":493,"name":"turbo terry","steam_id":76561198307037169,"connected_time":2982000000000,"state":"active","ping":47},{"user_id":514,"name":"grassesmode.exe","steam_id":76561198090167960,"connected_time":1771000000000,"state":"active","ping":99},{"user_id":457,"name":"sin","steam_id":76561198193416785,"connected_time":5532000000000,"state":"active","ping":62},{"user_id":494,"name":"ywyw","steam_id":76561198088624259,"connected_time":2973000000000,"state":"active","ping":61},{"user_id":550,"name":"smetc","steam_id":76561198240696986,"connected_time":233000000000,"state":"active","ping":146},{"user_id":555,"name":"Aiya Lei√ü","steam_id":76561198067677196,"connected_time":79000000000,"state":"active","ping":55},{"user_id":542,"name":"ThatKetos","steam_id":76561198989682540,"connected_time":411000000000,"state":"active","ping":59},{"user_id":495,"name":"AkioTohru","steam_id":76561198197606282,"connected_time":2963000000000,"state":"active","ping":34},{"user_id":536,"name":"thug shaker","steam_id":76561199029212494,"connected_time":850000000000,"state":"active","ping":96},{"user_id":544,"name":"The Subway Scientist","steam_id":76561198193757646,"connected_time":304000000000,"state":"active","ping":45},{"user_id":498,"name":"DEATH ODYSSEY","steam_id":76561198798803845,"connected_time":2851000000000,"state":"active","ping":77},{"user_id":558,"name":"ROX","steam_id":76561198272289320,"connected_time":23000000000,"state":"active","ping":80},{"user_id":496,"name":"kevin","steam_id":76561198077605729,"connected_time":2887000000000,"state":"active","ping":50}]},{"server_id":22,"name":"Uncletopia | London | 6 | All Maps","name_short":"lon-6","host":"lon-1.uk.uncletopia.com","port":27065,"enabled":true,"region":"eu","cc":"gb","latitude":51.509865,"longitude":-0.118092,"reserved":0,"last_update":"0001-01-01T00:00:00Z","name_a2s":"Uncletopia | London | 6 | All Maps","protocol":17,"map":"pl_badwater","folder":"tf","game":"Team Fortress","app_id":440,"player_count":24,"max_players":24,"Bots":0,"server_type":"Dedicated","server_os":"Linux","password":true,"vac":true,"version":"7961495","steam_id":85568392924742830,"keywords":["nocrits","nodmgspread","payload","uncletopia"],"game_id":440,"stv_port":27066,"stv_name":"Uncletopia | London | 6 | All Maps | STV","players":[{"user_id":523,"name":"unga_bunga","steam_id":76561198974154392,"connected_time":1120000000000,"state":"active","ping":53},{"user_id":534,"name":"syms","steam_id":76561198066679812,"connected_time":871000000000,"state":"active","ping":78},{"user_id":496,"name":"Walgon","steam_id":76561198073393489,"connected_time":4186000000000,"state":"active","ping":73},{"user_id":486,"name":"Vanilla Autismotron","steam_id":76561198278604277,"connected_time":4613000000000,"state":"active","ping":56},{"user_id":461,"name":"Swip3r","steam_id":76561198039789772,"connected_time":5909000000000,"state":"active","ping":44},{"user_id":524,"name":"Sodroz","steam_id":76561198109970970,"connected_time":1085000000000,"state":"active","ping":53},{"user_id":535,"name":"H-say","steam_id":76561198177400362,"connected_time":574000000000,"state":"active","ping":101},{"user_id":525,"name":"finbar","steam_id":76561198056812396,"connected_time":1035000000000,"state":"active","ping":75},{"user_id":466,"name":"MsMohexon","steam_id":76561198427847750,"connected_time":5571000000000,"state":"active","ping":77},{"user_id":514,"name":"overman","steam_id":76561198038348301,"connected_time":2250000000000,"state":"active","ping":72},{"user_id":526,"name":"generic alias","steam_id":76561198271607226,"connected_time":1033000000000,"state":"active","ping":98},{"user_id":504,"name":"Peaky","steam_id":76561198107751532,"connected_time":2942000000000,"state":"active","ping":64},{"user_id":532,"name":"KILO","steam_id":76561199023056716,"connected_time":947000000000,"state":"active","ping":119},{"user_id":528,"name":"Economic crisis","steam_id":76561198063562843,"connected_time":1019000000000,"state":"active","ping":75},{"user_id":529,"name":"pellio","steam_id":76561199094535057,"connected_time":1009000000000,"state":"active","ping":55},{"user_id":481,"name":"i sharted","steam_id":76561199028831792,"connected_time":4942000000000,"state":"active","ping":117},{"user_id":530,"name":"Bobirulez","steam_id":76561198009125458,"connected_time":986000000000,"state":"active","ping":80},{"user_id":430,"name":"Sza","steam_id":76561198022132105,"connected_time":8503000000000,"state":"active","ping":63},{"user_id":435,"name":"mr.resetti","steam_id":76561198974520642,"connected_time":8196000000000,"state":"active","ping":78},{"user_id":519,"name":"Guilty_Toast","steam_id":76561199030023425,"connected_time":1384000000000,"state":"active","ping":45},{"user_id":531,"name":"murderwow","steam_id":76561198024566944,"connected_time":985000000000,"state":"active","ping":106},{"user_id":471,"name":"Onbeheerde_Jongeheer","steam_id":76561198051685232,"connected_time":5456000000000,"state":"active","ping":45},{"user_id":533,"name":"toomas2018(real)(official)","steam_id":76561199105796083,"connected_time":943000000000,"state":"active","ping":74},{"user_id":482,"name":"Meguu","steam_id":76561198068761972,"connected_time":4940000000000,"state":"active","ping":116}]},{"server_id":40,"name":"Uncletopia | London | 7 | Stopwatch","name_short":"lon-7","host":"lon-1.uk.uncletopia.com","port":27075,"enabled":true,"region":"eu","cc":"gb","latitude":51.509865,"longitude":-0.118092,"reserved":0,"last_update":"0001-01-01T00:00:00Z","name_a2s":"Uncletopia | London | 7 | Stopwatch","protocol":17,"map":"workshop/cp_process_f12.ugc2302948105","folder":"tf","game":"Team Fortress","app_id":440,"player_count":1,"max_players":24,"Bots":0,"server_type":"Dedicated","server_os":"Linux","password":true,"vac":true,"version":"7961495","steam_id":85568392924964314,"keywords":["cp","nocrits","nodmgspread","uncletopia"],"game_id":440,"stv_port":27076,"stv_name":"Uncletopia | London | 7 | Stopwatch | STV","players":[{"user_id":146,"name":"I AM DOT","steam_id":76561198354118090,"connected_time":4011000000000,"state":"active","ping":86}]},{"server_id":41,"name":"Uncletopia | London | 8 | Community","name_short":"lon-8","host":"lon-1.uk.uncletopia.com","port":27085,"enabled":true,"region":"eu","cc":"gb","latitude":51.509865,"longitude":-0.118092,"reserved":0,"last_update":"0001-01-01T00:00:00Z","name_a2s":"Uncletopia | London | 8 | Community","protocol":17,"map":"workshop/koth_ramjam_rc1.ugc459778887","folder":"tf","game":"Team Fortress","app_id":440,"player_count":0,"max_players":24,"Bots":0,"server_type":"Dedicated","server_os":"Linux","password":true,"vac":true,"version":"7961495","steam_id":85568392924964315,"keywords":["cp","nocrits","nodmgspread","uncletopia"],"game_id":440,"stv_port":27086,"stv_name":"Uncletopia | London | 8 | Community | STV","players":null},{"server_id":300,"name":"Uncletopia | Montr√©al | 1 | One Thousand Uncles","name_short":"mtl-1","host":"mtl-1.ca.uncletopia.com","port":27015,"enabled":true,"region":"us-east","cc":"ca","latitude":45.50889,"longitude":-73.56167,"reserved":0,"last_update":"0001-01-01T00:00:00Z","name_a2s":"","protocol":0,"map":"","folder":"","game":"","app_id":0,"player_count":0,"max_players":0,"Bots":0,"server_type":"","server_os":"","password":false,"vac":false,"version":"","steam_id":0,"keywords":null,"game_id":0,"stv_port":0,"stv_name":"","players":null},{"server_id":301,"name":"Uncletopia | Montr√©al | 2 | One Thousand Uncles","name_short":"mtl-2","host":"mtl-1.ca.uncletopia.com","port":27025,"enabled":true,"region":"us-east","cc":"ca","latitude":45.50889,"longitude":-73.56167,"reserved":0,"last_update":"0001-01-01T00:00:00Z","name_a2s":"","protocol":0,"map":"","folder":"","game":"","app_id":0,"player_count":0,"max_players":0,"Bots":0,"server_type":"","server_os":"","password":false,"vac":false,"version":"","steam_id":0,"keywords":null,"game_id":0,"stv_port":0,"stv_name":"","players":null},{"server_id":302,"name":"Uncletopia | Montr√©al | 3 | One Thousand Uncles","name_short":"mtl-3","host":"mtl-1.ca.uncletopia.com","port":27035,"enabled":true,"region":"us-east","cc":"ca","latitude":45.50889,"longitude":-73.56167,"reserved":0,"last_update":"0001-01-01T00:00:00Z","name_a2s":"","protocol":0,"map":"","folder":"","game":"","app_id":0,"player_count":14,"max_players":0,"Bots":0,"server_type":"","server_os":"","password":false,"vac":false,"version":"","steam_id":0,"keywords":null,"game_id":0,"stv_port":0,"stv_name":"","players":[{"user_id":286,"name":"Catdog32","steam_id":76561198113364714,"connected_time":5742000000000,"state":"active","ping":57},{"user_id":360,"name":"Insecure Potato","steam_id":76561199404322984,"connected_time":1943000000000,"state":"active","ping":41},{"user_id":361,"name":"greydu","steam_id":76561198826924309,"connected_time":1826000000000,"state":"active","ping":88},{"user_id":217,"name":"Pyrrhic Evolution","steam_id":76561198122053439,"connected_time":10504000000000,"state":"active","ping":110},{"user_id":355,"name":"Bronze Age Furvert","steam_id":76561198859118263,"connected_time":2881000000000,"state":"active","ping":51},{"user_id":378,"name":"SHiFT_DeL3TE","steam_id":76561198234965064,"connected_time":1786000000000,"state":"active","ping":74},{"user_id":353,"name":"pufferpheesh","steam_id":76561199275353455,"connected_time":3203000000000,"state":"active","ping":68},{"user_id":379,"name":"Femboy Menace","steam_id":76561199207174631,"connected_time":1751000000000,"state":"active","ping":114},{"user_id":380,"name":"Oden Derg","steam_id":76561198881543434,"connected_time":1622000000000,"state":"active","ping":114},{"user_id":395,"name":"sheep","steam_id":76561198172943006,"connected_time":257000000000,"state":"active","ping":63},{"user_id":393,"name":"Huey","steam_id":76561198972816386,"connected_time":309000000000,"state":"active","ping":95},{"user_id":396,"name":"CloudVic","steam_id":76561198118868716,"connected_time":26000000000,"state":"active","ping":107},{"user_id":386,"name":"Disinfected Cum Sock","steam_id":76561198043256782,"connected_time":1042000000000,"state":"active","ping":84},{"user_id":281,"name":"Neon Sulfur","steam_id":76561198072130947,"connected_time":6788000000000,"state":"active","ping":69}]},{"server_id":13,"name":"Uncletopia | New York City | 1 | All Maps","name_short":"nyc-1","host":"nyc-1.us.uncletopia.com","port":27015,"enabled":true,"region":"us-east","cc":"us","latitude":40.73061,"longitude":-73.93524,"reserved":0,"last_update":"0001-01-01T00:00:00Z","name_a2s":"Uncletopia | New York City | 1 | All Maps","protocol":17,"map":"pl_badwater","folder":"tf","game":"Team Fortress","app_id":440,"player_count":23,"max_players":24,"Bots":0,"server_type":"Dedicated","server_os":"Linux","password":true,"vac":true,"version":"7961495","steam_id":85568392924469993,"keywords":["nocrits","nodmgspread","payload","uncletopia"],"game_id":440,"stv_port":27016,"stv_name":"Uncletopia | New York City | 1 | All Maps | STV","players":[{"user_id":446,"name":"kikikikoboy","steam_id":76561198073380271,"connected_time":438000000000,"state":"active","ping":73},{"user_id":384,"name":"MILF Gaming","steam_id":76561198155378170,"connected_time":5089000000000,"state":"active","ping":40},{"user_id":412,"name":"mostly ham","steam_id":76561199479937232,"connected_time":2289000000000,"state":"active","ping":75},{"user_id":438,"name":"Scum Knight | T.I.D.K.","steam_id":76561198282444763,"connected_time":878000000000,"state":"active","ping":47},{"user_id":411,"name":"taigaxx","steam_id":76561198202669250,"connected_time":2463000000000,"state":"active","ping":60},{"user_id":447,"name":"yougotsauled","steam_id":76561198880754695,"connected_time":416000000000,"state":"active","ping":47},{"user_id":441,"name":"Weasel","steam_id":76561198142461397,"connected_time":821000000000,"state":"active","ping":74},{"user_id":437,"name":"nethersome","steam_id":76561198892225148,"connected_time":911000000000,"state":"active","ping":123},{"user_id":445,"name":"Herb","steam_id":76561198330311949,"connected_time":516000000000,"state":"active","ping":51},{"user_id":423,"name":"GummybearKillr","steam_id":76561198031235750,"connected_time":1640000000000,"state":"active","ping":54},{"user_id":409,"name":"Tristen0808","steam_id":76561198154235444,"connected_time":2572000000000,"state":"active","ping":69},{"user_id":406,"name":"Jonny4Balls","steam_id":76561198979333994,"connected_time":2774000000000,"state":"active","ping":82},{"user_id":431,"name":"the gamer hermit crab","steam_id":76561198969402276,"connected_time":1306000000000,"state":"active","ping":59},{"user_id":440,"name":"Chilidawg","steam_id":76561198108048855,"connected_time":864000000000,"state":"active","ping":61},{"user_id":450,"name":"Penis but it rhymes with Venice","steam_id":76561197986420836,"connected_time":161000000000,"state":"active","ping":49},{"user_id":452,"name":"ndvr","steam_id":76561199379200102,"connected_time":38000000000,"state":"active","ping":49},{"user_id":390,"name":"wool","steam_id":76561198869689933,"connected_time":4397000000000,"state":"active","ping":51},{"user_id":451,"name":"Bath \u0026 Body Works Fan","steam_id":76561198242227952,"connected_time":104000000000,"state":"active","ping":88},{"user_id":442,"name":"Trey The Awesome","steam_id":76561198370718264,"connected_time":807000000000,"state":"active","ping":71},{"user_id":448,"name":"Narh","steam_id":76561198025216294,"connected_time":212000000000,"state":"active","ping":87},{"user_id":444,"name":"Gluestick","steam_id":76561199013430308,"connected_time":538000000000,"state":"active","ping":106},{"user_id":420,"name":"SpaceLeezerd","steam_id":76561198171026678,"connected_time":1963000000000,"state":"active","ping":66},{"user_id":386,"name":"Xavibite","steam_id":76561198209380493,"connected_time":4719000000000,"state":"active","ping":43}]},{"server_id":14,"name":"Uncletopia | New York City | 2 | All Maps","name_short":"nyc-2","host":"nyc-1.us.uncletopia.com","port":27025,"enabled":true,"region":"us-east","cc":"us","latitude":40.73061,"longitude":-73.93524,"reserved":0,"last_update":"0001-01-01T00:00:00Z","name_a2s":"Uncletopia | New York City | 2 | All Maps","protocol":17,"map":"pl_borneo","folder":"tf","game":"Team Fortress","app_id":440,"player_count":24,"max_players":24,"Bots":0,"server_type":"Dedicated","server_os":"Linux","password":true,"vac":true,"version":"7961495","steam_id":85568392924469994,"keywords":["nocrits","nodmgspread","payload","uncletopia"],"game_id":440,"stv_port":27026,"stv_name":"Uncletopia | New York City | 2 | All Maps | STV","players":[{"user_id":439,"name":"Gram Tokers Count Doinkula","steam_id":76561198112811565,"connected_time":1170000000000,"state":"active","ping":57},{"user_id":411,"name":"Plinko","steam_id":76561198884912425,"connected_time":3419000000000,"state":"active","ping":57},{"user_id":453,"name":"Rambly Dambly","steam_id":76561198844496567,"connected_time":217000000000,"state":"active","ping":34},{"user_id":417,"name":"parsee","steam_id":76561198095139889,"connected_time":3147000000000,"state":"active","ping":52},{"user_id":418,"name":"ChillyJones","steam_id":76561198017658702,"connected_time":3143000000000,"state":"active","ping":79},{"user_id":414,"name":"GunSpy872","steam_id":76561198290866348,"connected_time":3188000000000,"state":"active","ping":60},{"user_id":438,"name":"Seayon","steam_id":76561198151688517,"connected_time":1373000000000,"state":"active","ping":52},{"user_id":413,"name":"SE X","steam_id":76561198094525829,"connected_time":3257000000000,"state":"active","ping":68},{"user_id":427,"name":"Dihsar","steam_id":76561198065169821,"connected_time":2491000000000,"state":"active","ping":44},{"user_id":448,"name":"spurdala","steam_id":76561198886546942,"connected_time":399000000000,"state":"active","ping":130},{"user_id":437,"name":"Skooma Steve","steam_id":76561198081696369,"connected_time":1606000000000,"state":"active","ping":45},{"user_id":428,"name":"poopbutt2009","steam_id":76561198398795973,"connected_time":2239000000000,"state":"active","ping":85},{"user_id":404,"name":"marty","steam_id":76561198032782746,"connected_time":3779000000000,"state":"active","ping":105},{"user_id":447,"name":"BradB.","steam_id":76561199163905036,"connected_time":401000000000,"state":"active","ping":78},{"user_id":407,"name":"AzuriteFoxx","steam_id":76561198998093240,"connected_time":3726000000000,"state":"active","ping":71},{"user_id":442,"name":"Some_Arse","steam_id":76561198039095394,"connected_time":1131000000000,"state":"active","ping":70},{"user_id":390,"name":"IsleBound","steam_id":76561198278451717,"connected_time":4154000000000,"state":"active","ping":71},{"user_id":391,"name":"beast from the east","steam_id":76561198267624034,"connected_time":4148000000000,"state":"active","ping":67},{"user_id":449,"name":"Chris P. Bacon","steam_id":76561198000851038,"connected_time":383000000000,"state":"active","ping":54},{"user_id":433,"name":"Joshy","steam_id":76561198061405421,"connected_time":1920000000000,"state":"active","ping":75},{"user_id":450,"name":"Goomby","steam_id":76561198079416561,"connected_time":375000000000,"state":"active","ping":92},{"user_id":444,"name":"dr cock","steam_id":76561198124810219,"connected_time":1046000000000,"state":"active","ping":59},{"user_id":452,"name":"General Lee","steam_id":76561199501497157,"connected_time":225000000000,"state":"active","ping":76},{"user_id":451,"name":"growlitheharpo","steam_id":76561198010424558,"connected_time":368000000000,"state":"active","ping":58}]},{"server_id":15,"name":"Uncletopia | New York City | 3 | Stopwatch","name_short":"nyc-3","host":"nyc-1.us.uncletopia.com","port":27035,"enabled":true,"region":"us-east","cc":"us","latitude":40.73061,"longitude":-73.93524,"reserved":0,"last_update":"0001-01-01T00:00:00Z","name_a2s":"Uncletopia | New York City | 3 | Stopwatch","protocol":17,"map":"workshop/koth_ramjam_rc1.ugc459778887","folder":"tf","game":"Team Fortress","app_id":440,"player_count":0,"max_players":24,"Bots":0,"server_type":"Dedicated","server_os":"Linux","password":true,"vac":true,"version":"7961495","steam_id":85568392924742820,"keywords":["cp","nocrits","nodmgspread","uncletopia"],"game_id":440,"stv_port":27036,"stv_name":"Uncletopia | New York City | 3 | Stopwatch | STV","players":null},{"server_id":16,"name":"Uncletopia | New York City | 4 | Community","name_short":"nyc-4","host":"nyc-1.us.uncletopia.com","port":27045,"enabled":true,"region":"us-east","cc":"us","latitude":40.73061,"longitude":-73.93524,"reserved":0,"last_update":"0001-01-01T00:00:00Z","name_a2s":"Uncletopia | New York City | 4 | Community","protocol":17,"map":"workshop/koth_synthetic_rc6a.ugc1549817316","folder":"tf","game":"Team Fortress","app_id":440,"player_count":0,"max_players":24,"Bots":0,"server_type":"Dedicated","server_os":"Linux","password":true,"vac":true,"version":"7961495","steam_id":85568392924742821,"keywords":["cp","nocrits","nodmgspread","uncletopia"],"game_id":440,"stv_port":27046,"stv_name":"Uncletopia | New York City | 4 | Community | STV","players":null},{"server_id":142,"name":"Uncletopia | S√£o Paulo | 1 | All Maps","name_short":"sao-1","host":"sao-1.br.uncletopia.com","port":27015,"enabled":true,"region":"sa","cc":"br","latitude":-23.533773,"longitude":-46.62529,"reserved":0,"last_update":"0001-01-01T00:00:00Z","name_a2s":"Uncletopia | S√£o Paulo | 1 | All Maps","protocol":17,"map":"koth_viaduct","folder":"tf","game":"Team Fortress","app_id":440,"player_count":0,"max_players":24,"Bots":0,"server_type":"Dedicated","server_os":"Linux","password":true,"vac":true,"version":"7961495","steam_id":85568392924469996,"keywords":["cp","nocrits","nodmgspread","uncletopia"],"game_id":440,"stv_port":27016,"stv_name":"Uncletopia | S√£o Paulo | 1 | All Maps | STV","players":null},{"server_id":143,"name":"Uncletopia | S√£o Paulo | 2 | Community","name_short":"sao-2","host":"sao-2.br.uncletopia.com","port":27015,"enabled":true,"region":"sa","cc":"br","latitude":-23.533773,"longitude":-46.62529,"reserved":0,"last_update":"0001-01-01T00:00:00Z","name_a2s":"Uncletopia | S√£o Paulo | 2 | Community","protocol":17,"map":"workshop/koth_ashville_final.ugc2130459942","folder":"tf","game":"Team Fortress","app_id":440,"player_count":0,"max_players":24,"Bots":0,"server_type":"Dedicated","server_os":"Linux","password":true,"vac":true,"version":"7961495","steam_id":85568392924485349,"keywords":["cp","nocrits","nodmgspread","uncletopia"],"game_id":440,"stv_port":27016,"stv_name":"Uncletopia | S√£o Paulo | 2 | Community | STV","players":null},{"server_id":7,"name":"Uncletopia | Seattle | 1 | All Maps","name_short":"sea-1","host":"sea-1.us.uncletopia.com","port":27015,"enabled":true,"region":"us-west","cc":"us","latitude":47.608013,"longitude":-122.33517,"reserved":0,"last_update":"0001-01-01T00:00:00Z","name_a2s":"Uncletopia | Seattle | 1 | All Maps","protocol":17,"map":"pl_pier","folder":"tf","game":"Team Fortress","app_id":440,"player_count":23,"max_players":24,"Bots":0,"server_type":"Dedicated","server_os":"Linux","password":true,"vac":true,"version":"7961495","steam_id":85568392924469997,"keywords":["nocrits","nodmgspread","payload","uncletopia"],"game_id":440,"stv_port":27016,"stv_name":"Uncletopia | Seattle | 1 | All Maps | STV","players":[{"user_id":256,"name":"jorts","steam_id":76561199041179985,"connected_time":1360000000000,"state":"spawning","ping":47},{"user_id":263,"name":"Jodi Engwyrn","steam_id":76561198131833567,"connected_time":458000000000,"state":"spawning","ping":76},{"user_id":228,"name":"aisu","steam_id":76561198043768507,"connected_time":3836000000000,"state":"active","ping":156},{"user_id":268,"name":"[TrC] Dackstrus","steam_id":76561197973518509,"connected_time":16000000000,"state":"spawning","ping":47},{"user_id":198,"name":"fwoov","steam_id":76561198129166260,"connected_time":7004000000000,"state":"spawning","ping":249},{"user_id":240,"name":"slushy :))","steam_id":76561198135281802,"connected_time":2591000000000,"state":"active","ping":112},{"user_id":257,"name":"Ayayayayayahuasca","steam_id":76561199002906056,"connected_time":1324000000000,"state":"spawning","ping":262},{"user_id":245,"name":"ethan (real)","steam_id":76561198128868891,"connected_time":1930000000000,"state":"spawning","ping":34},{"user_id":226,"name":"Luca","steam_id":76561198125087140,"connected_time":3967000000000,"state":"spawning","ping":50},{"user_id":187,"name":"Lili","steam_id":76561199488457138,"connected_time":7935000000000,"state":"active","ping":183},{"user_id":262,"name":"lynks disease no sound","steam_id":76561198043465434,"connected_time":666000000000,"state":"spawning","ping":68},{"user_id":232,"name":"Lily Thorn","steam_id":76561198305488625,"connected_time":3399000000000,"state":"spawning","ping":49},{"user_id":269,"name":"sleepy‚äπ","steam_id":76561199200969139,"connected_time":3000000000,"state":"spawning","ping":491},{"user_id":264,"name":"dree says relax!","steam_id":76561198079178866,"connected_time":444000000000,"state":"spawning","ping":219},{"user_id":173,"name":"press s to squint","steam_id":76561198073269122,"connected_time":9393000000000,"state":"spawning","ping":195},{"user_id":211,"name":"shane","steam_id":76561198060491451,"connected_time":5168000000000,"state":"spawning","ping":87},{"user_id":216,"name":"ilun","steam_id":76561198042913843,"connected_time":4993000000000,"state":"spawning","ping":62},{"user_id":250,"name":"CashGordon","steam_id":76561197975594096,"connected_time":1415000000000,"state":"spawning","ping":45},{"user_id":260,"name":"greens beans","steam_id":76561198153611491,"connected_time":1202000000000,"state":"active","ping":96},{"user_id":150,"name":"Melly","steam_id":76561198045867175,"connected_time":12394000000000,"state":"spawning","ping":70},{"user_id":241,"name":"Sploonbabagoosecooties","steam_id":76561198139972201,"connected_time":2495000000000,"state":"spawning","ping":43},{"user_id":266,"name":"Strikerbolt","steam_id":76561199095622897,"connected_time":38000000000,"state":"spawning","ping":72},{"user_id":267,"name":"charm quark","steam_id":76561198098770777,"connected_time":38000000000,"state":"spawning","ping":66}]},{"server_id":119,"name":"Uncletopia | Seattle | 2 | All Maps","name_short":"sea-2","host":"sea-1.us.uncletopia.com","port":27025,"enabled":true,"region":"us-west","cc":"us","latitude":47.608013,"longitude":-122.33517,"reserved":0,"last_update":"0001-01-01T00:00:00Z","name_a2s":"Uncletopia | Seattle | 2 | All Maps","protocol":17,"map":"pl_swiftwater_final1","folder":"tf","game":"Team Fortress","app_id":440,"player_count":24,"max_players":24,"Bots":0,"server_type":"Dedicated","server_os":"Linux","password":true,"vac":true,"version":"7961495","steam_id":85568392924469998,"keywords":["nocrits","nodmgspread","payload","uncletopia"],"game_id":440,"stv_port":27026,"stv_name":"Uncletopia | Seattle | 2 | All Maps | STV","players":[{"user_id":149,"name":"Villchip","steam_id":76561198198599982,"connected_time":2111000000000,"state":"active","ping":51},{"user_id":168,"name":"Keamy","steam_id":76561199471434875,"connected_time":95000000000,"state":"active","ping":45},{"user_id":157,"name":"weegeebad","steam_id":76561198280841437,"connected_time":1411000000000,"state":"active","ping":106},{"user_id":167,"name":"Dimple","steam_id":76561198980324190,"connected_time":104000000000,"state":"active","ping":50},{"user_id":160,"name":"mango cafe","steam_id":76561198142328193,"connected_time":1333000000000,"state":"active","ping":46},{"user_id":161,"name":"dodecadron","steam_id":76561198027397222,"connected_time":1033000000000,"state":"active","ping":65},{"user_id":104,"name":"CometDrg0n_(he/him)","steam_id":76561198175713051,"connected_time":6749000000000,"state":"active","ping":26},{"user_id":143,"name":"D(b) Hell","steam_id":76561198067869016,"connected_time":3123000000000,"state":"active","ping":75},{"user_id":155,"name":"lukamine","steam_id":76561198166827208,"connected_time":1459000000000,"state":"active","ping":45},{"user_id":87,"name":"Pyrotek‚Å¥","steam_id":76561198072747672,"connected_time":7950000000000,"state":"active","ping":75},{"user_id":78,"name":"AstronautPug","steam_id":76561198162372709,"connected_time":8341000000000,"state":"active","ping":103},{"user_id":163,"name":"Nom Skirrett","steam_id":76561198014600788,"connected_time":376000000000,"state":"active","ping":60},{"user_id":105,"name":"cask","steam_id":76561198141873995,"connected_time":6737000000000,"state":"active","ping":69},{"user_id":106,"name":"ShellBug","steam_id":76561198144187527,"connected_time":6708000000000,"state":"active","ping":88},{"user_id":147,"name":"Tibetan Pop Star","steam_id":76561198844903984,"connected_time":2352000000000,"state":"active","ping":75},{"user_id":129,"name":"barefoot fruitscato","steam_id":76561198094225038,"connected_time":4662000000000,"state":"active","ping":101},{"user_id":162,"name":"HelloImE","steam_id":76561198069084336,"connected_time":1029000000000,"state":"active","ping":64},{"user_id":169,"name":"Banette","steam_id":76561198215458333,"connected_time":92000000000,"state":"active","ping":51},{"user_id":119,"name":"Branta","steam_id":76561199103842843,"connected_time":5276000000000,"state":"active","ping":41},{"user_id":151,"name":"exa*‚ú©‚Äß‚ÇäÀö","steam_id":76561198044511912,"connected_time":1650000000000,"state":"active","ping":75},{"user_id":164,"name":"Tsunami","steam_id":76561198097188001,"connected_time":376000000000,"state":"active","ping":51},{"user_id":130,"name":"Qwef","steam_id":76561198020361104,"connected_time":4662000000000,"state":"active","ping":59},{"user_id":139,"name":"Amateur Glaswegian","steam_id":76561198030851956,"connected_time":3480000000000,"state":"active","ping":50},{"user_id":141,"name":"ExplosiveGoose","steam_id":76561197971562966,"connected_time":3439000000000,"state":"active","ping":74}]},{"server_id":406,"name":"Uncletopia | Seattle | 3 | Stopwatch","name_short":"sea-3","host":"sea-1.us.uncletopia.com","port":27035,"enabled":true,"region":"us-west","cc":"us","latitude":47.608013,"longitude":-122.33517,"reserved":0,"last_update":"0001-01-01T00:00:00Z","name_a2s":"Uncletopia | Seattle | 3 | Stopwatch","protocol":17,"map":"workshop/pl_badwater_pro_v12.ugc2142942074","folder":"tf","game":"Team Fortress","app_id":440,"player_count":0,"max_players":24,"Bots":0,"server_type":"Dedicated","server_os":"Linux","password":true,"vac":true,"version":"7961495","steam_id":85568392924515217,"keywords":["nocrits","nodmgspread","payload","uncletopia"],"game_id":440,"stv_port":27036,"stv_name":"Uncletopia | Seattle | 3 | Stopwatch | STV","players":null},{"server_id":17,"name":"Uncletopia | San Francisco | 1 | All Maps","name_short":"sfo-1","host":"sfo-1.us.uncletopia.com","port":27015,"enabled":true,"region":"us-west","cc":"us","latitude":37.77397,"longitude":-122.4313,"reserved":0,"last_update":"0001-01-01T00:00:00Z","name_a2s":"Uncletopia | San Francisco | 1 | All Maps","protocol":17,"map":"pl_snowycoast","folder":"tf","game":"Team Fortress","app_id":440,"player_count":21,"max_players":24,"Bots":0,"server_type":"Dedicated","server_os":"Linux","password":true,"vac":true,"version":"7961495","steam_id":85568392924469999,"keywords":["nocrits","nodmgspread","payload","uncletopia"],"game_id":440,"stv_port":27016,"stv_name":"Uncletopia | San Francisco | 1 | All Maps | STV","players":[{"user_id":14,"name":"crowe","steam_id":76561198142185527,"connected_time":6198000000000,"state":"active","ping":42},{"user_id":34,"name":"TheOnlyDj101","steam_id":76561198798152859,"connected_time":3472000000000,"state":"active","ping":101},{"user_id":13,"name":"Onerish","steam_id":76561198042057889,"connected_time":6676000000000,"state":"active","ping":153},{"user_id":59,"name":"yeehaw rodeo","steam_id":76561199217503417,"connected_time":1157000000000,"state":"active","ping":80},{"user_id":17,"name":"thuck","steam_id":76561198858474714,"connected_time":5810000000000,"state":"active","ping":62},{"user_id":22,"name":"A UsedNom","steam_id":76561198402832756,"connected_time":4461000000000,"state":"active","ping":43},{"user_id":71,"name":"Lucky","steam_id":76561198124910662,"connected_time":729000000000,"state":"active","ping":60},{"user_id":43,"name":"Yoi Ishiya","steam_id":76561198041639985,"connected_time":3327000000000,"state":"active","ping":67},{"user_id":56,"name":"Capitalism","steam_id":76561198068677316,"connected_time":1467000000000,"state":"active","ping":74},{"user_id":74,"name":"moosein","steam_id":76561198354272434,"connected_time":80000000000,"state":"active","ping":98},{"user_id":72,"name":"Zetta","steam_id":76561198045710113,"connected_time":649000000000,"state":"active","ping":89},{"user_id":75,"name":"milo","steam_id":76561199081639163,"connected_time":33000000000,"state":"active","ping":49},{"user_id":76,"name":"Banana Mario","steam_id":76561198871692156,"connected_time":28000000000,"state":"active","ping":65},{"user_id":70,"name":"‚Ä∫ We Are You.j2 [NO SOUND]","steam_id":76561197995242200,"connected_time":851000000000,"state":"active","ping":51},{"user_id":58,"name":"Dickride Gaming","steam_id":76561198169915227,"connected_time":1174000000000,"state":"active","ping":56},{"user_id":53,"name":"Hardfall","steam_id":76561198044603323,"connected_time":1893000000000,"state":"active","ping":105},{"user_id":63,"name":"Lycan","steam_id":76561198151499868,"connected_time":1014000000000,"state":"active","ping":74},{"user_id":64,"name":"Biggle","steam_id":76561198079479342,"connected_time":963000000000,"state":"active","ping":130},{"user_id":65,"name":"nope","steam_id":76561198089626323,"connected_time":944000000000,"state":"active","ping":139},{"user_id":48,"name":"Gwuf","steam_id":76561198091503282,"connected_time":2972000000000,"state":"active","ping":71},{"user_id":69,"name":"PerfTaco","steam_id":76561198148705307,"connected_time":906000000000,"state":"active","ping":134}]},{"server_id":18,"name":"Uncletopia | San Francisco | 2 | All Maps","name_short":"sfo-2","host":"sfo-1.us.uncletopia.com","port":27025,"enabled":true,"region":"us-west","cc":"us","latitude":37.77397,"longitude":-122.4313,"reserved":0,"last_update":"0001-01-01T00:00:00Z","name_a2s":"Uncletopia | San Francisco | 2 | All Maps","protocol":17,"map":"cp_well","folder":"tf","game":"Team Fortress","app_id":440,"player_count":23,"max_players":24,"Bots":0,"server_type":"Dedicated","server_os":"Linux","password":true,"vac":true,"version":"7961495","steam_id":85568392924470000,"keywords":["cp","nocrits","nodmgspread","uncletopia"],"game_id":440,"stv_port":27026,"stv_name":"Uncletopia | San Francisco | 2 | All Maps | STV","players":[{"user_id":135,"name":"JACK BRUNO","steam_id":76561198027957690,"connected_time":1257000000000,"state":"active","ping":60},{"user_id":131,"name":"Major_Pippy","steam_id":76561198004482878,"connected_time":1742000000000,"state":"active","ping":64},{"user_id":67,"name":"bonk man","steam_id":76561198386542309,"connected_time":5872000000000,"state":"active","ping":109},{"user_id":150,"name":"Dr.Longmont","steam_id":76561198035566337,"connected_time":534000000000,"state":"active","ping":118},{"user_id":107,"name":"Master of Golfcarts‚Ñ¢","steam_id":76561198071033195,"connected_time":3147000000000,"state":"active","ping":64},{"user_id":66,"name":"bingus :3","steam_id":76561199198633203,"connected_time":5879000000000,"state":"active","ping":85},{"user_id":95,"name":"_cza","steam_id":76561198079793576,"connected_time":3416000000000,"state":"active","ping":61},{"user_id":108,"name":"Bozocow","steam_id":76561197996356354,"connected_time":2959000000000,"state":"active","ping":74},{"user_id":149,"name":"ronald","steam_id":76561197960691622,"connected_time":625000000000,"state":"active","ping":59},{"user_id":146,"name":"Blue‚õßMelon","steam_id":76561197970926435,"connected_time":722000000000,"state":"active","ping":119},{"user_id":152,"name":"Thequirka","steam_id":76561198968058652,"connected_time":438000000000,"state":"active","ping":68},{"user_id":87,"name":"suburban dude","steam_id":76561198044838901,"connected_time":3861000000000,"state":"active","ping":67},{"user_id":127,"name":"Frank Ugly","steam_id":76561198247002810,"connected_time":2062000000000,"state":"active","ping":68},{"user_id":128,"name":"error","steam_id":76561198160792857,"connected_time":2050000000000,"state":"active","ping":64},{"user_id":141,"name":"duckypotato","steam_id":76561198047703790,"connected_time":928000000000,"state":"active","ping":108},{"user_id":147,"name":"kale rarely","steam_id":76561197993458626,"connected_time":722000000000,"state":"active","ping":112},{"user_id":154,"name":"Charlatan","steam_id":76561198345242865,"connected_time":372000000000,"state":"active","ping":47},{"user_id":151,"name":"WhoIsFrosty","steam_id":76561198880588117,"connected_time":502000000000,"state":"active","ping":99},{"user_id":125,"name":"Rock Kickass","steam_id":76561198450510841,"connected_time":2264000000000,"state":"active","ping":88},{"user_id":157,"name":"Gerbias","steam_id":76561198001002427,"connected_time":81000000000,"state":"active","ping":60},{"user_id":129,"name":"opensymbols","steam_id":76561199001161289,"connected_time":2042000000000,"state":"active","ping":69},{"user_id":106,"name":"Hound From Heck","steam_id":76561198087764017,"connected_time":3199000000000,"state":"active","ping":71},{"user_id":136,"name":"pweiss1","steam_id":76561198055009688,"connected_time":1248000000000,"state":"active","ping":101}]},{"server_id":19,"name":"Uncletopia | San Francisco | 3 | Stopwatch","name_short":"sfo-3","host":"sfo-1.us.uncletopia.com","port":27035,"enabled":true,"region":"us-west","cc":"us","latitude":37.77397,"longitude":-122.4313,"reserved":0,"last_update":"0001-01-01T00:00:00Z","name_a2s":"Uncletopia | San Francisco | 3 | Stopwatch","protocol":17,"map":"cp_sunshine","folder":"tf","game":"Team Fortress","app_id":440,"player_count":0,"max_players":24,"Bots":0,"server_type":"Dedicated","server_os":"Linux","password":true,"vac":true,"version":"7961495","steam_id":85568392924742824,"keywords":["cp","nocrits","nodmgspread","uncletopia"],"game_id":440,"stv_port":27036,"stv_name":"Uncletopia | San Francisco | 3 | Stopwatch | STV","players":null},{"server_id":20,"name":"Uncletopia | San Francisco | 4 | Community","name_short":"sfo-4","host":"sfo-1.us.uncletopia.com","port":27045,"enabled":true,"region":"us-west","cc":"us","latitude":37.77397,"longitude":-122.4313,"reserved":0,"last_update":"0001-01-01T00:00:00Z","name_a2s":"Uncletopia | San Francisco | 4 | Community","protocol":17,"map":"workshop/cp_propaganda_b18.ugc1603743849","folder":"tf","game":"Team Fortress","app_id":440,"player_count":0,"max_players":24,"Bots":0,"server_type":"Dedicated","server_os":"Linux","password":true,"vac":true,"version":"7961495","steam_id":85568392924742826,"keywords":["cp","nocrits","nodmgspread","uncletopia"],"game_id":440,"stv_port":27046,"stv_name":"Uncletopia | San Francisco | 4 | Community | STV","players":null},{"server_id":141,"name":"Uncletopia | Sydney | 1 | All Maps","name_short":"syd-1","host":"syd-1.au.uncletopia.com","port":27015,"enabled":true,"region":"au","cc":"au","latitude":-33.865143,"longitude":151.2099,"reserved":0,"last_update":"0001-01-01T00:00:00Z","name_a2s":"Uncletopia | Sydney | 1 | All Maps","protocol":17,"map":"koth_viaduct","folder":"tf","game":"Team Fortress","app_id":440,"player_count":0,"max_players":24,"Bots":0,"server_type":"Dedicated","server_os":"Linux","password":true,"vac":true,"version":"7961495","steam_id":85568392924470001,"keywords":["cp","nocrits","nodmgspread","uncletopia"],"game_id":440,"stv_port":27016,"stv_name":"Uncletopia | Sydney | 1 | All Maps | STV","players":null},{"server_id":123,"name":"Uncletopia | Sydney | 2 | All Maps","name_short":"syd-2","host":"syd-1.au.uncletopia.com","port":27025,"enabled":true,"region":"au","cc":"au","latitude":-33.865143,"longitude":151.2099,"reserved":0,"last_update":"0001-01-01T00:00:00Z","name_a2s":"Uncletopia | Sydney | 2 | All Maps","protocol":17,"map":"pl_snowycoast","folder":"tf","game":"Team Fortress","app_id":440,"player_count":0,"max_players":24,"Bots":0,"server_type":"Dedicated","server_os":"Linux","password":true,"vac":true,"version":"7961495","steam_id":85568392924470002,"keywords":["nocrits","nodmgspread","payload","uncletopia"],"game_id":440,"stv_port":27026,"stv_name":"Uncletopia | Sydney | 2 | All Maps | STV","players":null},{"server_id":395,"name":"Uncletopia | Sydney | 3 | All Maps","name_short":"syd-3","host":"syd-1.au.uncletopia.com","port":27035,"enabled":true,"region":"au","cc":"au","latitude":-33.865143,"longitude":151.2099,"reserved":0,"last_update":"0001-01-01T00:00:00Z","name_a2s":"Uncletopia | Sydney | 3 | All Maps","protocol":17,"map":"pl_frontier_final","folder":"tf","game":"Team Fortress","app_id":440,"player_count":0,"max_players":24,"Bots":0,"server_type":"Dedicated","server_os":"Linux","password":true,"vac":true,"version":"7961495","steam_id":85568392925194467,"keywords":["nocrits","nodmgspread","payload","uncletopia"],"game_id":440,"stv_port":27036,"stv_name":"Uncletopia | Sydney | 3 | All Maps | STV","players":null},{"server_id":396,"name":"Uncletopia | Sydney | 4 | All Maps","name_short":"syd-4","host":"syd-1.au.uncletopia.com","port":27045,"enabled":true,"region":"au","cc":"au","latitude":-33.865143,"longitude":151.2099,"reserved":0,"last_update":"0001-01-01T00:00:00Z","name_a2s":"Uncletopia | Sydney | 4 | All Maps","protocol":17,"map":"cp_process_final","folder":"tf","game":"Team Fortress","app_id":440,"player_count":0,"max_players":24,"Bots":0,"server_type":"Dedicated","server_os":"Linux","password":true,"vac":true,"version":"7961495","steam_id":85568392925397958,"keywords":["cp","nocrits","nodmgspread","uncletopia"],"game_id":440,"stv_port":27046,"stv_name":"Uncletopia | Sydney | 4 | All Maps | STV","players":null},{"server_id":58,"name":"Uncletopia | Sydney | 5 | Stopwatch","name_short":"syd-5","host":"syd-1.au.uncletopia.com","port":27055,"enabled":true,"region":"au","cc":"au","latitude":-33.865143,"longitude":151.2099,"reserved":0,"last_update":"0001-01-01T00:00:00Z","name_a2s":"Uncletopia | Sydney | 5 | Stopwatch","protocol":17,"map":"pl_frontier_final","folder":"tf","game":"Team Fortress","app_id":440,"player_count":0,"max_players":24,"Bots":0,"server_type":"Dedicated","server_os":"Linux","password":true,"vac":true,"version":"7961495","steam_id":85568392925397959,"keywords":["nocrits","nodmgspread","payload","uncletopia"],"game_id":440,"stv_port":27056,"stv_name":"Uncletopia | Sydney | 5 | Stopwatch | STV","players":null},{"server_id":59,"name":"Uncletopia | Sydney | 6 | Community","name_short":"syd-6","host":"syd-1.au.uncletopia.com","port":27065,"enabled":true,"region":"au","cc":"au","latitude":-33.865143,"longitude":151.2099,"reserved":0,"last_update":"0001-01-01T00:00:00Z","name_a2s":"Uncletopia | Sydney | 6 | Community","protocol":17,"map":"cp_sunshine","folder":"tf","game":"Team Fortress","app_id":440,"player_count":0,"max_players":24,"Bots":0,"server_type":"Dedicated","server_os":"Linux","password":true,"vac":true,"version":"7961495","steam_id":85568392925397960,"keywords":["cp","nocrits","nodmgspread","uncletopia"],"game_id":440,"stv_port":27066,"stv_name":"Uncletopia | Sydney | 6 | Community | STV","players":null},{"server_id":49,"name":"Uncletopia | Warsaw | 1 | One Thousand Uncles","name_short":"waw-1","host":"waw-1.pl.uncletopia.com","port":27015,"enabled":true,"region":"eu","cc":"pl","latitude":52.2297,"longitude":21.017532,"reserved":0,"last_update":"0001-01-01T00:00:00Z","name_a2s":"Uncletopia | Warsaw | 1 | One Thousand Uncles","protocol":17,"map":"pl_hoodoo_final","folder":"tf","game":"Team Fortress","app_id":440,"player_count":31,"max_players":32,"Bots":16,"server_type":"Dedicated","server_os":"Linux","password":true,"vac":true,"version":"7961495","steam_id":85568392925397850,"keywords":["alltalk","bots","danepve","increased_maxplayers","nocrits","norespawntime","payload","uncletopia"],"game_id":440,"stv_port":0,"stv_name":"","players":[{"user_id":858,"name":"M√∂nkey","steam_id":76561198120175506,"connected_time":4400000000000,"state":"active","ping":68},{"user_id":859,"name":"Crash¬≥","steam_id":76561198153376662,"connected_time":4017000000000,"state":"active","ping":202},{"user_id":860,"name":"Squeeballs Fanatic","steam_id":76561198327503564,"connected_time":4012000000000,"state":"active","ping":160},{"user_id":906,"name":"Reese","steam_id":76561198215603944,"connected_time":754000000000,"state":"active","ping":164},{"user_id":797,"name":"NordicWinter","steam_id":76561198171769927,"connected_time":9278000000000,"state":"active","ping":87},{"user_id":862,"name":"River Rat","steam_id":76561198116383976,"connected_time":3879000000000,"state":"active","ping":232},{"user_id":889,"name":"Ando","steam_id":76561197994056083,"connected_time":996000000000,"state":"active","ping":71},{"user_id":907,"name":"Garfunkle (MAR)","steam_id":76561198080407059,"connected_time":509000000000,"state":"active","ping":176},{"user_id":863,"name":"GHO5T","steam_id":76561198930223980,"connected_time":3859000000000,"state":"active","ping":75},{"user_id":864,"name":"Herpy Berpy","steam_id":76561198171313001,"connected_time":3851000000000,"state":"active","ping":198},{"user_id":908,"name":"green.fantastic","steam_id":76561197994104309,"connected_time":406000000000,"state":"active","ping":172},{"user_id":909,"name":"Ramzus","steam_id":76561198012385070,"connected_time":126000000000,"state":"active","ping":80},{"user_id":885,"name":"Lorenzo","steam_id":76561198155016205,"connected_time":2034000000000,"state":"active","ping":75},{"user_id":910,"name":"Nuk3tzi","steam_id":76561198271899982,"connected_time":27000000000,"state":"active","ping":119},{"user_id":911,"name":"Eujekas","steam_id":76561198010527145,"connected_time":10000000000,"state":"spawning","ping":151}]},{"server_id":50,"name":"Uncletopia | Warsaw | 2 | One Thousand Uncles","name_short":"waw-2","host":"waw-1.pl.uncletopia.com","port":27025,"enabled":true,"region":"eu","cc":"pl","latitude":52.2297,"longitude":21.017532,"reserved":0,"last_update":"0001-01-01T00:00:00Z","name_a2s":"Uncletopia | Warsaw | 2 | One Thousand Uncles","protocol":17,"map":"cp_mossrock","folder":"tf","game":"Team Fortress","app_id":440,"player_count":0,"max_players":32,"Bots":0,"server_type":"Dedicated","server_os":"Linux","password":true,"vac":true,"version":"7961495","steam_id":85568392925397851,"keywords":["alltalk","cp","danepve","increased_maxplayers","nocrits","norespawntime","uncletopia"],"game_id":440,"stv_port":0,"stv_name":"","players":null},{"server_id":51,"name":"Uncletopia | Warsaw | 3 | All Maps","name_short":"waw-3","host":"waw-1.pl.uncletopia.com","port":27035,"enabled":true,"region":"eu","cc":"pl","latitude":52.2297,"longitude":21.017532,"reserved":0,"last_update":"0001-01-01T00:00:00Z","name_a2s":"Uncletopia | Warsaw | 3 | All Maps","protocol":17,"map":"cp_sunshine","folder":"tf","game":"Team Fortress","app_id":440,"player_count":0,"max_players":24,"Bots":0,"server_type":"Dedicated","server_os":"Linux","password":true,"vac":true,"version":"7961495","steam_id":85568392925397852,"keywords":["cp","nocrits","nodmgspread","uncletopia"],"game_id":440,"stv_port":27036,"stv_name":"Uncletopia | Warsaw | 3 | All Maps | STV","players":null},{"server_id":52,"name":"Uncletopia | Warsaw | 4 | All Maps","name_short":"waw-4","host":"waw-1.pl.uncletopia.com","port":27045,"enabled":true,"region":"eu","cc":"pl","latitude":52.2297,"longitude":21.017532,"reserved":0,"last_update":"0001-01-01T00:00:00Z","name_a2s":"Uncletopia | Warsaw | 4 | All Maps","protocol":17,"map":"pl_snowycoast","folder":"tf","game":"Team Fortress","app_id":440,"player_count":0,"max_players":24,"Bots":0,"server_type":"Dedicated","server_os":"Linux","password":true,"vac":true,"version":"7961495","steam_id":85568392925397853,"keywords":["nocrits","nodmgspread","payload","uncletopia"],"game_id":440,"stv_port":27046,"stv_name":"Uncletopia | Warsaw | 4 | All Maps | STV","players":null},{"server_id":53,"name":"Uncletopia | Warsaw | 5 | Stopwatch","name_short":"waw-5","host":"waw-1.pl.uncletopia.com","port":27055,"enabled":true,"region":"eu","cc":"pl","latitude":52.2297,"longitude":21.017532,"reserved":0,"last_update":"0001-01-01T00:00:00Z","name_a2s":"Uncletopia | Warsaw | 5 | Stopwatch","protocol":17,"map":"workshop/koth_ashville_final.ugc2130459942","folder":"tf","game":"Team Fortress","app_id":440,"player_count":0,"max_players":24,"Bots":0,"server_type":"Dedicated","server_os":"Linux","password":true,"vac":true,"version":"7961495","steam_id":85568392925397854,"keywords":["cp","nocrits","nodmgspread","uncletopia"],"game_id":440,"stv_port":27056,"stv_name":"Uncletopia | Warsaw | 5 | Stopwatch | STV","players":null},{"server_id":54,"name":"Uncletopia | Warsaw | 6 | Community","name_short":"waw-6","host":"waw-1.pl.uncletopia.com","port":27065,"enabled":true,"region":"eu","cc":"pl","latitude":52.2297,"longitude":21.017532,"reserved":0,"last_update":"0001-01-01T00:00:00Z","name_a2s":"Uncletopia | Warsaw | 6 | Community","protocol":17,"map":"workshop/cp_mannbase_rc2a.ugc1900737467","folder":"tf","game":"Team Fortress","app_id":440,"player_count":0,"max_players":24,"Bots":0,"server_type":"Dedicated","server_os":"Linux","password":true,"vac":true,"version":"7961495","steam_id":85568392925397856,"keywords":["cp","nocrits","nodmgspread","uncletopia"],"game_id":440,"stv_port":27066,"stv_name":"Uncletopia | Warsaw | 6 | Community | STV","players":null}]}