{"status":true,"message":"","result":[{"server_id":9,"name":"Uncletopia | Atlanta | 1 | All Maps","name_short":"atl-1","host":"atl-1.us.uncletopia.com","port":27015,"enabled":true,"region":"us-east","cc":"us","latitude":33.753746,"longitude":-84.38633,"reserved":0,"last_update":"0001-01-01T00:00:00Z","name_a2s":"Uncletopia | Atlanta | 1 | All Maps","protocol":17,"map":"cp_dustbowl","folder":"tf","game":"Team Fortress","app_id":440,"player_count":0,"max_players":24,"Bots":0,"server_type":"Dedicated","server_os":"Linux","password":true,"vac":true,"version":"7961495","steam_id":85568392924469982,"keywords":["cp","nocrits","nodmgspread","uncletopia"],"game_id":440,"stv_port":27016,"stv_name":"Uncletopia | Atlanta | 1 | All Maps | STV","players":null},{"server_id":104,"name":"Uncletopia | Atlanta | 2 | All Maps","name_short":"atl-2","host":"atl-1.us.uncletopia.com","port":27025,"enabled":true,"region":"us-east","cc":"us","latitude":33.753746,"longitude":-84.38633,"reserved":0,"last_update":"0001-01-01T00:00:00Z","name_a2s":"Uncletopia | Atlanta | 2 | All Maps","protocol":17,"map":"koth_cascade","folder":"tf","game":"Team Fortress","app_id":440,"player_count":0,"max_players":24,"Bots":0,"server_type":"Dedicated","server_os":"Linux","password":true,"vac":true,"version":"7961495","steam_id":85568392924469983,"keywords":["cp","nocrits","nodmgspread","uncletopia"],"game_id":440,"stv_port":27026,"stv_name":"Uncletopia | Atlanta | 2 | All Maps | STV","players":null},{"server_id":400,"name":"Uncletopia | Atlanta | 3 | Stopwatch","name_short":"atl-3","host":"atl-1.us.uncletopia.com","port":27035,"enabled":true,"region":"us-east","cc":"us","latitude":33.753746,"longitude":-84.38633,"reserved":0,"last_update":"0001-01-01T00:00:00Z","name_a2s":"Uncletopia | Atlanta | 3 | Stopwatch","protocol":17,"map":"pl_badwater","folder":"tf","game":"Team Fortress","app_id":440,"player_count":0,"max_players":24,"Bots":0,"server_type":"Dedicated","server_os":"Linux","password":true,"vac":true,"version":"7961495","steam_id":85568392924515187,"keywords":["nocrits","nodmgspread","payload","uncletopia"],"game_id":440,"stv_port":27036,"stv_name":"Uncletopia | Atlanta | 3 | Stopwatch | STV","players":null},{"server_id":401,"name":"Uncletopia | Atlanta | 4 | Community","name_short":"atl-4","host":"atl-1.us.uncletopia.com","port":27045,"enabled":true,"region":"us-east","cc":"us","latitude":33.753746,"longitude":-84.38633,"reserved":0,"last_update":"0001-01-01T00:00:00Z","name_a2s":"Uncletopia | Atlanta | 4 | Community","protocol":17,"map":"cp_sunshine","folder":"tf","game":"Team Fortress","app_id":440,"player_count":0,"max_players":24,"Bots":0,"server_type":"Dedicated","server_os":"Linux","password":true,"vac":true,"version":"7961495","steam_id":85568392924515188,"keywords":["cp","nocrits","nodmgspread","uncletopia"],"game_id":440,"stv_port":27046,"stv_name":"Uncletopia | Atlanta | 4 | Community | STV","players":null},{"server_id":2,"name":"Uncletopia | Chicago | 1 | All Maps","name_short":"chi-1","host":"chi-1.us.uncletopia.com","port":27015,"enabled":true,"region":"us-central","cc":"us","latitude":41.881832,"longitude":-87.62318,"reserved":0,"last_update":"0001-01-01T00:00:00Z","name_a2s":"Uncletopia | Chicago | 1 | All Maps","protocol":17,"map":"koth_highpass","folder":"tf","game":"Team Fortress","app_id":440,"player_count":21,"max_players":24,"Bots":0,"server_type":"Dedicated","server_os":"Linux","password":true,"vac":true,"version":"7961495","steam_id":85568392924469984,"keywords":["cp","nocrits","nodmgspread","uncletopia"],"game_id":440,"stv_port":27016,"stv_name":"Uncletopia | Chicago | 1 | All Maps | STV","players":[{"user_id":19,"name":"OH BOY","steam_id":76561199052273428,"connected_time":1886000000000,"state":"active","ping":49},{"user_id":20,"name":"PANNED RAT","steam_id":76561198328829278,"connected_time":1564000000000,"state":"active","ping":55},{"user_id":21,"name":"Bunner","steam_id":76561198074464842,"connected_time":1427000000000,"state":"active","ping":102},{"user_id":34,"name":"Tom Wambsgans","steam_id":76561198148332956,"connected_time":609000000000,"state":"active","ping":80},{"user_id":24,"name":"Ares","steam_id":76561198112461019,"connected_time":1161000000000,"state":"active","ping":146},{"user_id":35,"name":"juhg, koop","steam_id":76561198388955908,"connected_time":514000000000,"state":"active","ping":48},{"user_id":28,"name":"Jaeger","steam_id":76561199392187099,"connected_time":805000000000,"state":"active","ping":72},{"user_id":36,"name":"Professional Medic GF","steam_id":76561199174621620,"connected_time":458000000000,"state":"active","ping":79},{"user_id":40,"name":"viviekat","steam_id":76561198296879897,"connected_time":323000000000,"state":"active","ping":70},{"user_id":38,"name":"scrotal recall","steam_id":76561198135945598,"connected_time":419000000000,"state":"active","ping":75},{"user_id":32,"name":"Mr Bootylicious","steam_id":76561199075353403,"connected_time":682000000000,"state":"active","ping":55},{"user_id":33,"name":"RedCo","steam_id":76561198335366889,"connected_time":661000000000,"state":"active","ping":56},{"user_id":45,"name":"Baller64","steam_id":76561199468366156,"connected_time":179000000000,"state":"active","ping":81},{"user_id":49,"name":"dormio","steam_id":76561198400723170,"connected_time":148000000000,"state":"active","ping":74},{"user_id":43,"name":"poppies","steam_id":76561199057269867,"connected_time":198000000000,"state":"active","ping":97},{"user_id":44,"name":"kman_kangaroo","steam_id":76561199379271462,"connected_time":198000000000,"state":"active","ping":80},{"user_id":46,"name":"Kartyac","steam_id":76561197991069005,"connected_time":168000000000,"state":"active","ping":78},{"user_id":47,"name":"Jin Mu-Won","steam_id":76561198414122318,"connected_time":159000000000,"state":"active","ping":69},{"user_id":52,"name":"crabbykiwi","steam_id":76561199066448466,"connected_time":0,"state":"spawning","ping":0},{"user_id":50,"name":"Post nut clarity","steam_id":76561198060246831,"connected_time":142000000000,"state":"active","ping":83},{"user_id":51,"name":"scrapheap","steam_id":76561198202407087,"connected_time":98000000000,"state":"active","ping":71}]},{"server_id":106,"name":"Uncletopia | Chicago | 2 | All Maps","name_short":"chi-2","host":"chi-1.us.uncletopia.com","port":27025,"enabled":true,"region":"us-central","cc":"us","latitude":41.881832,"longitude":-87.62318,"reserved":0,"last_update":"0001-01-01T00:00:00Z","name_a2s":"Uncletopia | Chicago | 2 | All Maps","protocol":17,"map":"pl_badwater","folder":"tf","game":"Team Fortress","app_id":440,"player_count":24,"max_players":24,"Bots":0,"server_type":"Dedicated","server_os":"Linux","password":true,"vac":true,"version":"7961495","steam_id":85568392924469985,"keywords":["nocrits","nodmgspread","payload","uncletopia"],"game_id":440,"stv_port":27026,"stv_name":"Uncletopia | Chicago | 2 | All Maps | STV","players":[{"user_id":100,"name":"lu","steam_id":76561198080731872,"connected_time":1033000000000,"state":"active","ping":74},{"user_id":20,"name":"Snitzman","steam_id":76561198068303272,"connected_time":7010000000000,"state":"active","ping":96},{"user_id":75,"name":"dietcokefan42","steam_id":76561198135307995,"connected_time":3692000000000,"state":"active","ping":71},{"user_id":91,"name":"hearthian","steam_id":76561198113235260,"connected_time":2282000000000,"state":"active","ping":99},{"user_id":108,"name":"king dedede","steam_id":76561198965562679,"connected_time":836000000000,"state":"active","ping":80},{"user_id":101,"name":"NeoWolf","steam_id":76561198144759784,"connected_time":1032000000000,"state":"active","ping":95},{"user_id":112,"name":"Mburesh","steam_id":76561198137460717,"connected_time":387000000000,"state":"active","ping":56},{"user_id":43,"name":"dr peppah chug!","steam_id":76561198068835693,"connected_time":5985000000000,"state":"active","ping":94},{"user_id":103,"name":"Phocae \u003c3","steam_id":76561199317584594,"connected_time":996000000000,"state":"active","ping":82},{"user_id":51,"name":"Obelisk","steam_id":76561198049416866,"connected_time":5016000000000,"state":"active","ping":89},{"user_id":107,"name":"agless","steam_id":76561198045248344,"connected_time":848000000000,"state":"active","ping":58},{"user_id":113,"name":"floppy muppet","steam_id":76561198003076261,"connected_time":238000000000,"state":"active","ping":67},{"user_id":104,"name":"Sunshine","steam_id":76561198885528098,"connected_time":955000000000,"state":"active","ping":74},{"user_id":92,"name":"NotoriousThicc","steam_id":76561198244650474,"connected_time":1758000000000,"state":"active","ping":106},{"user_id":105,"name":"goonaguunagleet","steam_id":76561198081556584,"connected_time":943000000000,"state":"active","ping":55},{"user_id":93,"name":"Chicken","steam_id":76561198855273194,"connected_time":1711000000000,"state":"active","ping":64},{"user_id":83,"name":"SandHanitizer","steam_id":76561198234676500,"connected_time":2901000000000,"state":"active","ping":71},{"user_id":86,"name":"Captain Malarkey","steam_id":76561198869924281,"connected_time":2622000000000,"state":"active","ping":74},{"user_id":44,"name":"Woke Portugal Agenda","steam_id":76561198083276946,"connected_time":5918000000000,"state":"active","ping":66},{"user_id":111,"name":"Kiss Master","steam_id":76561198289572271,"connected_time":409000000000,"state":"active","ping":77},{"user_id":85,"name":"5unny PHD IN HATEOLOGY","steam_id":76561198133111058,"connected_time":2777000000000,"state":"active","ping":77},{"user_id":106,"name":"Bones0010","steam_id":76561198096186958,"connected_time":930000000000,"state":"active","ping":89},{"user_id":94,"name":"CabezaGrande","steam_id":76561197972555502,"connected_time":1704000000000,"state":"active","ping":68},{"user_id":90,"name":"2.5 in. hard ;(","steam_id":76561198106217716,"connected_time":2439000000000,"state":"active","ping":75}]},{"server_id":402,"name":"Uncletopia | Chicago | 3 | All Maps","name_short":"chi-3","host":"chi-1.us.uncletopia.com","port":27035,"enabled":true,"region":"us-central","cc":"us","latitude":41.881832,"longitude":-87.62318,"reserved":0,"last_update":"0001-01-01T00:00:00Z","name_a2s":"Uncletopia | Chicago | 3 | All Maps","protocol":17,"map":"cp_dustbowl","folder":"tf","game":"Team Fortress","app_id":440,"player_count":0,"max_players":24,"Bots":0,"server_type":"Dedicated","server_os":"Linux","password":true,"vac":true,"version":"7961495","steam_id":85568392924515191,"keywords":["cp","nocrits","nodmgspread","uncletopia"],"game_id":440,"stv_port":27036,"stv_name":"Uncletopia | Chicago | 3 | All Maps | STV","players":null},{"server_id":403,"name":"Uncletopia | Chicago | 4 | All Maps","name_short":"chi-4","host":"chi-1.us.uncletopia.com","port":27045,"enabled":true,"region":"us-central","cc":"us","latitude":41.881832,"longitude":-87.62318,"reserved":0,"last_update":"0001-01-01T00:00:00Z","name_a2s":"Uncletopia | Chicago | 4 | All Maps","protocol":17,"map":"pl_borneo","folder":"tf","game":"Team Fortress","app_id":440,"player_count":24,"max_players":24,"Bots":0,"server_type":"Dedicated","server_os":"Linux","password":true,"vac":true,"version":"7961495","steam_id":85568392924515193,"keywords":["nocrits","nodmgspread","payload","uncletopia"],"game_id":440,"stv_port":27046,"stv_name":"Uncletopia | Chicago | 4 | All Maps | STV","players":[{"user_id":255,"name":"SexySpectacles","steam_id":76561198211449103,"connected_time":5675000000000,"state":"active","ping":48},{"user_id":272,"name":"Voids","steam_id":76561198128386726,"connected_time":3928000000000,"state":"active","ping":85},{"user_id":298,"name":"ᨐฅ merry bupmas","steam_id":76561199157846537,"connected_time":1090000000000,"state":"active","ping":46},{"user_id":270,"name":"ATL 1 | Save your wifi","steam_id":76561198286147372,"connected_time":4028000000000,"state":"active","ping":76},{"user_id":289,"name":"my pitbull eats women under 5'7","steam_id":76561198142756572,"connected_time":2811000000000,"state":"active","ping":74},{"user_id":290,"name":"Punchy","steam_id":76561198200000641,"connected_time":2766000000000,"state":"active","ping":56},{"user_id":282,"name":"Dr.Inkmix(femboy)","steam_id":76561198854070384,"connected_time":3349000000000,"state":"active","ping":116},{"user_id":292,"name":"Milkmur","steam_id":76561198210043821,"connected_time":1921000000000,"state":"active","ping":67},{"user_id":207,"name":"ATL1 | cola","steam_id":76561198374390458,"connected_time":11338000000000,"state":"active","ping":77},{"user_id":278,"name":"Kuri","steam_id":76561199037050183,"connected_time":3704000000000,"state":"active","ping":84},{"user_id":248,"name":"Horrowes","steam_id":76561198318446417,"connected_time":7582000000000,"state":"active","ping":80},{"user_id":295,"name":"Albino Jellyfish","steam_id":76561198208561097,"connected_time":1382000000000,"state":"active","ping":52},{"user_id":301,"name":"callum","steam_id":76561198070918366,"connected_time":908000000000,"state":"active","ping":62},{"user_id":302,"name":"Chubbles","steam_id":76561198237619472,"connected_time":900000000000,"state":"active","ping":71},{"user_id":303,"name":"Waesel","steam_id":76561198069188177,"connected_time":892000000000,"state":"active","ping":74},{"user_id":284,"name":"evil tiger","steam_id":76561198152818418,"connected_time":3042000000000,"state":"active","ping":86},{"user_id":296,"name":"Little Skull Boi","steam_id":76561198093595888,"connected_time":1112000000000,"state":"active","ping":98},{"user_id":288,"name":"Cheese4Everyone","steam_id":76561198022333985,"connected_time":2891000000000,"state":"active","ping":74},{"user_id":252,"name":"Kilphax","steam_id":76561197993814144,"connected_time":6702000000000,"state":"active","ping":63},{"user_id":293,"name":"freyja","steam_id":76561198249206656,"connected_time":1880000000000,"state":"active","ping":77},{"user_id":306,"name":"HUMBY","steam_id":76561198065045867,"connected_time":539000000000,"state":"active","ping":80},{"user_id":300,"name":"Antifa Supersoldier","steam_id":76561198141816516,"connected_time":1064000000000,"state":"active","ping":63},{"user_id":275,"name":"Heathcliff","steam_id":76561198044288534,"connected_time":3830000000000,"state":"active","ping":89},{"user_id":285,"name":"C Papi","steam_id":76561198027779564,"connected_time":2992000000000,"state":"active","ping":55}]},{"server_id":36,"name":"Uncletopia | Chicago | 5 | All Maps","name_short":"chi-5","host":"chi-2.us.uncletopia.com","port":27015,"enabled":true,"region":"us-central","cc":"us","latitude":41.881832,"longitude":-87.62318,"reserved":0,"last_update":"0001-01-01T00:00:00Z","name_a2s":"Uncletopia | Chicago | 5 | All Maps","protocol":17,"map":"pl_barnblitz","folder":"tf","game":"Team Fortress","app_id":440,"player_count":24,"max_players":24,"Bots":0,"server_type":"Dedicated","server_os":"Linux","password":true,"vac":true,"version":"7961495","steam_id":85568392924866362,"keywords":["nocrits","nodmgspread","payload","uncletopia"],"game_id":440,"stv_port":27016,"stv_name":"Uncletopia | Chicago | 5 | All Maps | STV","players":[{"user_id":173,"name":"Psychosis","steam_id":76561198078659070,"connected_time":1830000000000,"state":"active","ping":70},{"user_id":185,"name":"PK","steam_id":76561198368722500,"connected_time":47000000000,"state":"active","ping":83},{"user_id":183,"name":"Eomy","steam_id":76561198297783627,"connected_time":813000000000,"state":"active","ping":74},{"user_id":157,"name":"Truly Cryo","steam_id":76561198347497484,"connected_time":3052000000000,"state":"active","ping":87},{"user_id":168,"name":"ChocoMcFudgeCake","steam_id":76561197994591295,"connected_time":2127000000000,"state":"active","ping":47},{"user_id":177,"name":"Goldensliv","steam_id":76561198161673891,"connected_time":997000000000,"state":"active","ping":95},{"user_id":145,"name":"sergeant major cone tits","steam_id":76561198333985626,"connected_time":3723000000000,"state":"active","ping":74},{"user_id":135,"name":"Mug Moment Gaming","steam_id":76561198233098136,"connected_time":4043000000000,"state":"active","ping":57},{"user_id":184,"name":"Luca!","steam_id":76561198137880777,"connected_time":509000000000,"state":"active","ping":73},{"user_id":162,"name":"stir-fried human tonsils","steam_id":76561198312126442,"connected_time":2737000000000,"state":"active","ping":101},{"user_id":170,"name":"Goat","steam_id":76561198068447650,"connected_time":2104000000000,"state":"active","ping":66},{"user_id":180,"name":"Tom","steam_id":76561198070630154,"connected_time":919000000000,"state":"active","ping":91},{"user_id":169,"name":"SpongedSocks","steam_id":76561198374009086,"connected_time":2117000000000,"state":"active","ping":72},{"user_id":142,"name":"sora","steam_id":76561198094256973,"connected_time":3903000000000,"state":"active","ping":92},{"user_id":178,"name":"War on Drugs Fighter","steam_id":76561198103211035,"connected_time":997000000000,"state":"active","ping":62},{"user_id":166,"name":"A Trigger Happy Chipmunk","steam_id":76561198013608736,"connected_time":2338000000000,"state":"active","ping":48},{"user_id":133,"name":"Kerpal45","steam_id":76561198153340350,"connected_time":4266000000000,"state":"active","ping":86},{"user_id":125,"name":"loser","steam_id":76561198259380127,"connected_time":4950000000000,"state":"active","ping":59},{"user_id":175,"name":"TinyTator","steam_id":76561198799282234,"connected_time":1255000000000,"state":"active","ping":79},{"user_id":171,"name":"gooselover42069","steam_id":76561198059562839,"connected_time":2084000000000,"state":"active","ping":53},{"user_id":181,"name":"BLOCKHEAD","steam_id":76561198808224331,"connected_time":910000000000,"state":"active","ping":104},{"user_id":152,"name":"Sprit ♥","steam_id":76561198268780781,"connected_time":3408000000000,"state":"active","ping":50},{"user_id":172,"name":"King","steam_id":76561198039763676,"connected_time":2066000000000,"state":"active","ping":70},{"user_id":167,"name":"Genetic Komodo (He/Him)","steam_id":76561198174806758,"connected_time":2330000000000,"state":"active","ping":72}]},{"server_id":37,"name":"Uncletopia | Chicago | 6 | All Maps","name_short":"chi-6","host":"chi-2.us.uncletopia.com","port":27025,"enabled":true,"region":"us-central","cc":"us","latitude":41.881832,"longitude":-87.62318,"reserved":0,"last_update":"0001-01-01T00:00:00Z","name_a2s":"Uncletopia | Chicago | 6 | All Maps","protocol":17,"map":"cp_process_final","folder":"tf","game":"Team Fortress","app_id":440,"player_count":0,"max_players":24,"Bots":0,"server_type":"Dedicated","server_os":"Linux","password":true,"vac":true,"version":"7961495","steam_id":85568392924866363,"keywords":["cp","nocrits","nodmgspread","uncletopia"],"game_id":440,"stv_port":27026,"stv_name":"Uncletopia | Chicago | 6 | All Maps | STV","players":null},{"server_id":38,"name":"Uncletopia | Chicago | 7 | Stopwatch","name_short":"chi-7","host":"chi-2.us.uncletopia.com","port":27035,"enabled":true,"region":"us-central","cc":"us","latitude":41.881832,"longitude":-87.62318,"reserved":0,"last_update":"0001-01-01T00:00:00Z","name_a2s":"Uncletopia | Chicago | 7 | Stopwatch","protocol":17,"map":"workshop/koth_ramjam_rc1.ugc459778887","folder":"tf","game":"Team Fortress","app_id":440,"player_count":0,"max_players":24,"Bots":0,"server_type":"Dedicated","server_os":"Linux","password":true,"vac":true,"version":"7961495","steam_id":85568392924866364,"keywords":["cp","nocrits","nodmgspread","uncletopia"],"game_id":440,"stv_port":27036,"stv_name":"Uncletopia | Chicago | 7 | Stopwatch | STV","players":null},{"server_id":39,"name":"Uncletopia | Chicago | 8 | Community","name_short":"chi-8","host":"chi-2.us.uncletopia.com","port":27045,"enabled":true,"region":"us-central","cc":"us","latitude":41.881832,"longitude":-87.62318,"reserved":0,"last_update":"0001-01-01T00:00:00Z","name_a2s":"Uncletopia | Chicago | 8 | Community","protocol":17,"map":"pl_pier","folder":"tf","game":"Team Fortress","app_id":440,"player_count":0,"max_players":24,"Bots":0,"server_type":"Dedicated","server_os":"Linux","password":true,"vac":true,"version":"7961495","steam_id":85568392924866365,"keywords":["nocrits","nodmgspread","payload","uncletopia"],"game_id":440,"stv_port":27046,"stv_name":"Uncletopia | Chicago | 8 | Community | STV","players":null},{"server_id":8,"name":"Uncletopia | Dallas | 1 | All Maps","name_short":"dal-1","host":"dal-1.us.uncletopia.com","port":27015,"enabled":true,"region":"us-central","cc":"us","latitude":32.779167,"longitude":-96.80889,"reserved":0,"last_update":"0001-01-01T00:00:00Z","name_a2s":"Uncletopia | Dallas | 1 | All Maps","protocol":17,"map":"pl_swiftwater_final1","folder":"tf","game":"Team Fortress","app_id":440,"player_count":0,"max_players":24,"Bots":0,"server_type":"Dedicated","server_os":"Linux","password":true,"vac":true,"version":"7961495","steam_id":85568392924469986,"keywords":["nocrits","nodmgspread","payload","uncletopia"],"game_id":440,"stv_port":27016,"stv_name":"Uncletopia | Dallas | 1 | All Maps | STV","players":null},{"server_id":108,"name":"Uncletopia | Dallas | 2 | All Maps","name_short":"dal-2","host":"dal-1.us.uncletopia.com","port":27025,"enabled":true,"region":"us-central","cc":"us","latitude":32.779167,"longitude":-96.80889,"reserved":0,"last_update":"0001-01-01T00:00:00Z","name_a2s":"Uncletopia | Dallas | 2 | All Maps","protocol":17,"map":"pl_swiftwater_final1","folder":"tf","game":"Team Fortress","app_id":440,"player_count":14,"max_players":24,"Bots":0,"server_type":"Dedicated","server_os":"Linux","password":true,"vac":true,"version":"7961495","steam_id":85568392924469988,"keywords":["nocrits","nodmgspread","payload","uncletopia"],"game_id":440,"stv_port":27026,"stv_name":"Uncletopia | Dallas | 2 | All Maps | STV","players":[{"user_id":87,"name":"Glaceon","steam_id":76561198177715869,"connected_time":60000000000,"state":"active","ping":56},{"user_id":86,"name":"Tlaloc","steam_id":76561198375215983,"connected_time":809000000000,"state":"spawning","ping":1925},{"user_id":88,"name":"Zing","steam_id":76561198097160898,"connected_time":31000000000,"state":"active","ping":68},{"user_id":67,"name":"bdkaine1","steam_id":76561198133545467,"connected_time":1654000000000,"state":"active","ping":61},{"user_id":44,"name":"Never Ovaryacting","steam_id":76561198158691254,"connected_time":4527000000000,"state":"active","ping":70},{"user_id":83,"name":"kat","steam_id":76561198099191938,"connected_time":1018000000000,"state":"active","ping":66},{"user_id":69,"name":"Chet Dingus","steam_id":76561198205181788,"connected_time":1620000000000,"state":"spawning","ping":80},{"user_id":70,"name":"Fercho Mo","steam_id":76561198168935077,"connected_time":1614000000000,"state":"active","ping":75},{"user_id":81,"name":"mkl","steam_id":76561197986401685,"connected_time":1042000000000,"state":"active","ping":39},{"user_id":25,"name":"UwU","steam_id":76561198971629959,"connected_time":5860000000000,"state":"active","ping":134},{"user_id":50,"name":"Franticraven177","steam_id":76561198334105579,"connected_time":3639000000000,"state":"active","ping":73},{"user_id":72,"name":"Poopisviel Von Einzbern","steam_id":76561198259260433,"connected_time":1603000000000,"state":"active","ping":88},{"user_id":85,"name":"SparksKitsune","steam_id":76561198066890691,"connected_time":941000000000,"state":"active","ping":46},{"user_id":84,"name":"Mr. Noodle","steam_id":76561198037803087,"connected_time":989000000000,"state":"active","ping":60}]},{"server_id":404,"name":"Uncletopia | Dallas | 3 | All Maps","name_short":"dal-3","host":"dal-1.us.uncletopia.com","port":27035,"enabled":true,"region":"us-central","cc":"us","latitude":32.779167,"longitude":-96.80889,"reserved":0,"last_update":"0001-01-01T00:00:00Z","name_a2s":"Uncletopia | Dallas | 3 | All Maps","protocol":17,"map":"pl_badwater","folder":"tf","game":"Team Fortress","app_id":440,"player_count":0,"max_players":24,"Bots":0,"server_type":"Dedicated","server_os":"Linux","password":true,"vac":true,"version":"7961495","steam_id":85568392924515219,"keywords":["nocrits","nodmgspread","payload","uncletopia"],"game_id":440,"stv_port":27036,"stv_name":"Uncletopia | Dallas | 3 | All Maps | STV","players":null},{"server_id":405,"name":"Uncletopia | Dallas | 4 | Community","name_short":"dal-4","host":"dal-1.us.uncletopia.com","port":27045,"enabled":true,"region":"us-central","cc":"us","latitude":32.779167,"longitude":-96.80889,"reserved":0,"last_update":"0001-01-01T00:00:00Z","name_a2s":"Uncletopia | Dallas | 4 | Community","protocol":17,"map":"workshop/cp_villa_b19.ugc2113052569","folder":"tf","game":"Team Fortress","app_id":440,"player_count":0,"max_players":24,"Bots":0,"server_type":"Dedicated","server_os":"Linux","password":true,"vac":true,"version":"7961495","steam_id":85568392924515220,"keywords":["cp","nocrits","nodmgspread","uncletopia"],"game_id":440,"stv_port":27046,"stv_name":"Uncletopia | Dallas | 4 | Community | STV","players":null},{"server_id":5,"name":"Uncletopia | Frankfurt | 1 | All Maps","name_short":"frk-1","host":"frk-1.de.uncletopia.com","port":27015,"enabled":true,"region":"eu","cc":"de","latitude":50.110924,"longitude":8.682127,"reserved":0,"last_update":"0001-01-01T00:00:00Z","name_a2s":"Uncletopia | Frankfurt | 1 | All Maps","protocol":17,"map":"pl_barnblitz","folder":"tf","game":"Team Fortress","app_id":440,"player_count":24,"max_players":24,"Bots":0,"server_type":"Dedicated","server_os":"Linux","password":true,"vac":true,"version":"7961495","steam_id":85568392924469989,"keywords":["nocrits","nodmgspread","payload","uncletopia"],"game_id":440,"stv_port":27016,"stv_name":"Uncletopia | Frankfurt | 1 | All Maps | STV","players":[{"user_id":297,"name":"cister0","steam_id":76561198130195469,"connected_time":6419000000000,"state":"active","ping":74},{"user_id":345,"name":"Oceanic | tuesday maybe","steam_id":76561197979741827,"connected_time":3401000000000,"state":"active","ping":71},{"user_id":282,"name":"Carry Krypl","steam_id":76561198136938121,"connected_time":7258000000000,"state":"active","ping":58},{"user_id":357,"name":"Glonkdod","steam_id":76561198035119964,"connected_time":2038000000000,"state":"active","ping":59},{"user_id":346,"name":"Günther","steam_id":76561198333417038,"connected_time":3083000000000,"state":"active","ping":76},{"user_id":277,"name":"LE","steam_id":76561198810056289,"connected_time":7982000000000,"state":"active","ping":90},{"user_id":352,"name":"A moon goose","steam_id":76561198064734905,"connected_time":2878000000000,"state":"active","ping":91},{"user_id":373,"name":"Marty™","steam_id":76561198060073673,"connected_time":226000000000,"state":"active","ping":61},{"user_id":312,"name":"Obscure Rock Album","steam_id":76561198032359132,"connected_time":5789000000000,"state":"active","ping":59},{"user_id":365,"name":"glyph","steam_id":76561197980736364,"connected_time":1619000000000,"state":"active","ping":76},{"user_id":334,"name":"TheShadowScribe","steam_id":76561199037525945,"connected_time":4887000000000,"state":"active","ping":97},{"user_id":367,"name":"I Cant Aim","steam_id":76561199241354828,"connected_time":1441000000000,"state":"active","ping":134},{"user_id":348,"name":"so cute it kils","steam_id":76561198256660599,"connected_time":3010000000000,"state":"active","ping":68},{"user_id":349,"name":"Chopperson_","steam_id":76561198873728497,"connected_time":2969000000000,"state":"active","ping":113},{"user_id":313,"name":"finbar","steam_id":76561198056812396,"connected_time":5783000000000,"state":"active","ping":74},{"user_id":369,"name":"Razef","steam_id":76561198030309484,"connected_time":737000000000,"state":"active","ping":69},{"user_id":359,"name":"Wir suchen dich!","steam_id":76561198307613521,"connected_time":1706000000000,"state":"active","ping":68},{"user_id":360,"name":"CerealKiller154","steam_id":76561198831177630,"connected_time":1701000000000,"state":"active","ping":85},{"user_id":273,"name":"d1sk","steam_id":76561197986511308,"connected_time":8345000000000,"state":"active","ping":80},{"user_id":324,"name":"Lord of the Ping","steam_id":76561198019648669,"connected_time":5280000000000,"state":"active","ping":60},{"user_id":341,"name":"FUKAYOU","steam_id":76561198380484033,"connected_time":4171000000000,"state":"active","ping":56},{"user_id":338,"name":"Head empty","steam_id":76561198067561269,"connected_time":4386000000000,"state":"active","ping":58},{"user_id":363,"name":"Malkuth","steam_id":76561198058567662,"connected_time":1651000000000,"state":"active","ping":99},{"user_id":294,"name":"Ratman","steam_id":76561198121888714,"connected_time":7096000000000,"state":"active","ping":76}]},{"server_id":110,"name":"Uncletopia | Frankfurt | 2 | All Maps","name_short":"frk-2","host":"frk-1.de.uncletopia.com","port":27025,"enabled":true,"region":"eu","cc":"de","latitude":50.110924,"longitude":8.682127,"reserved":0,"last_update":"0001-01-01T00:00:00Z","name_a2s":"Uncletopia | Frankfurt | 2 | All Maps","protocol":17,"map":"cp_sunshine","folder":"tf","game":"Team Fortress","app_id":440,"player_count":24,"max_players":24,"Bots":0,"server_type":"Dedicated","server_os":"Linux","password":true,"vac":true,"version":"7961495","steam_id":85568392924469990,"keywords":["cp","nocrits","nodmgspread","uncletopia"],"game_id":440,"stv_port":27026,"stv_name":"Uncletopia | Frankfurt | 2 | All Maps | STV","players":[{"user_id":380,"name":"Mael-chan\u003c3","steam_id":76561197996852498,"connected_time":518000000000,"state":"active","ping":45},{"user_id":385,"name":"cirrem","steam_id":76561198265192382,"connected_time":494000000000,"state":"active","ping":54},{"user_id":392,"name":"noot","steam_id":76561198148074472,"connected_time":36000000000,"state":"active","ping":38},{"user_id":356,"name":"Begone","steam_id":76561199093369711,"connected_time":1584000000000,"state":"active","ping":89},{"user_id":313,"name":"Exoduc","steam_id":76561198121166441,"connected_time":5026000000000,"state":"active","ping":75},{"user_id":396,"name":"Stefman","steam_id":76561199025104038,"connected_time":2000000000,"state":"spawning","ping":46},{"user_id":344,"name":"julidulen","steam_id":76561199225661729,"connected_time":2806000000000,"state":"active","ping":41},{"user_id":379,"name":"crizzl","steam_id":76561197983130737,"connected_time":525000000000,"state":"active","ping":50},{"user_id":375,"name":"Clayishcolt","steam_id":76561199487838368,"connected_time":738000000000,"state":"active","ping":117},{"user_id":394,"name":"ra","steam_id":76561198147277460,"connected_time":13000000000,"state":"active","ping":60},{"user_id":395,"name":"AJIJI4X HA TP3B3JI4X","steam_id":76561198144879361,"connected_time":4000000000,"state":"spawning","ping":89},{"user_id":382,"name":"Cöffee","steam_id":76561198115131952,"connected_time":515000000000,"state":"active","ping":100},{"user_id":387,"name":"so no head ?","steam_id":76561198237560644,"connected_time":283000000000,"state":"active","ping":96},{"user_id":191,"name":"[UM-monster","steam_id":76561198085098243,"connected_time":13262000000000,"state":"active","ping":112},{"user_id":345,"name":"Purrplehaze","steam_id":76561198297604298,"connected_time":2800000000000,"state":"active","ping":80},{"user_id":371,"name":"Spooni_Boi","steam_id":76561198308140374,"connected_time":989000000000,"state":"active","ping":155},{"user_id":341,"name":"Charles Darwin","steam_id":76561197973496139,"connected_time":3050000000000,"state":"active","ping":70},{"user_id":368,"name":"Alyosha","steam_id":76561198032771167,"connected_time":1362000000000,"state":"active","ping":83},{"user_id":383,"name":"tealoverr.190","steam_id":76561199028497703,"connected_time":514000000000,"state":"active","ping":102},{"user_id":362,"name":"Keroz1n","steam_id":76561197998681491,"connected_time":1529000000000,"state":"active","ping":59},{"user_id":384,"name":"Mafew","steam_id":76561198119993886,"connected_time":509000000000,"state":"active","ping":67},{"user_id":364,"name":"Pudlich","steam_id":76561198300089671,"connected_time":1526000000000,"state":"active","ping":64},{"user_id":388,"name":"Violent_Raccoons","steam_id":76561199006002337,"connected_time":254000000000,"state":"active","ping":57},{"user_id":391,"name":"GregerUlander","steam_id":76561198152375055,"connected_time":220000000000,"state":"active","ping":83}]},{"server_id":308,"name":"Uncletopia | Frankfurt | 3 | All Maps","name_short":"frk-3","host":"frk-1.de.uncletopia.com","port":27035,"enabled":true,"region":"eu","cc":"de","latitude":50.110924,"longitude":8.682127,"reserved":0,"last_update":"0001-01-01T00:00:00Z","name_a2s":"Uncletopia | Frankfurt | 3 | All Maps","protocol":17,"map":"cp_altitude","folder":"tf","game":"Team Fortress","app_id":440,"player_count":24,"max_players":24,"Bots":0,"server_type":"Dedicated","server_os":"Linux","password":true,"vac":true,"version":"7961495","steam_id":85568392924504274,"keywords":["cp","nocrits","nodmgspread","uncletopia"],"game_id":440,"stv_port":27036,"stv_name":"Uncletopia | Frankfurt | 3 | All Maps | STV","players":[{"user_id":368,"name":"Eliazz","steam_id":76561198374651481,"connected_time":232000000000,"state":"active","ping":72},{"user_id":342,"name":"GMsU | AuxiliusM","steam_id":76561198071903356,"connected_time":2357000000000,"state":"active","ping":37},{"user_id":345,"name":"✪ m_br3","steam_id":76561198044981990,"connected_time":1782000000000,"state":"active","ping":67},{"user_id":375,"name":"asmv","steam_id":76561198162108345,"connected_time":157000000000,"state":"active","ping":46},{"user_id":352,"name":"Technic","steam_id":76561198128096130,"connected_time":1262000000000,"state":"active","ping":45},{"user_id":378,"name":"La Résistance","steam_id":76561198891046692,"connected_time":142000000000,"state":"active","ping":75},{"user_id":376,"name":"Kacperos12","steam_id":76561198044168268,"connected_time":153000000000,"state":"active","ping":92},{"user_id":374,"name":"The economy","steam_id":76561198358275344,"connected_time":160000000000,"state":"active","ping":73},{"user_id":370,"name":"tallen","steam_id":76561198061708595,"connected_time":175000000000,"state":"active","ping":73},{"user_id":318,"name":"тукку ирма","steam_id":76561197998715016,"connected_time":3388000000000,"state":"active","ping":60},{"user_id":377,"name":"FoOzTV","steam_id":76561197998636728,"connected_time":153000000000,"state":"active","ping":59},{"user_id":332,"name":"GMsU | Acoul","steam_id":76561198229222992,"connected_time":2967000000000,"state":"active","ping":46},{"user_id":382,"name":"Zenhard","steam_id":76561198099744014,"connected_time":55000000000,"state":"active","ping":82},{"user_id":354,"name":"GMsU | Smiley","steam_id":76561198121494414,"connected_time":1117000000000,"state":"active","ping":45},{"user_id":380,"name":"Kirre","steam_id":76561198446872726,"connected_time":112000000000,"state":"active","ping":71},{"user_id":357,"name":"Grumtsior","steam_id":76561198043563111,"connected_time":817000000000,"state":"active","ping":65},{"user_id":367,"name":"´R3ddy","steam_id":76561198093203685,"connected_time":404000000000,"state":"active","ping":54},{"user_id":379,"name":"Remizer","steam_id":76561198799755616,"connected_time":140000000000,"state":"active","ping":61},{"user_id":372,"name":"Ziemniaczki","steam_id":76561198061866742,"connected_time":170000000000,"state":"active","ping":55},{"user_id":317,"name":"Qwertuss","steam_id":76561198026305366,"connected_time":3449000000000,"state":"active","ping":58},{"user_id":373,"name":"scoutcasper","steam_id":76561199019266022,"connected_time":167000000000,"state":"active","ping":50},{"user_id":381,"name":"not a nihilist","steam_id":76561198004340466,"connected_time":73000000000,"state":"active","ping":50},{"user_id":371,"name":"Visphiric - Ping Comms Only","steam_id":76561198071938027,"connected_time":175000000000,"state":"active","ping":53},{"user_id":356,"name":"DaLuigi","steam_id":76561198054486188,"connected_time":834000000000,"state":"active","ping":47}]},{"server_id":309,"name":"Uncletopia | Frankfurt | 4 | All Maps","name_short":"frk-4","host":"frk-1.de.uncletopia.com","port":27045,"enabled":true,"region":"eu","cc":"de","latitude":50.110924,"longitude":8.682127,"reserved":0,"last_update":"0001-01-01T00:00:00Z","name_a2s":"Uncletopia | Frankfurt | 4 | All Maps","protocol":17,"map":"pl_barnblitz","folder":"tf","game":"Team Fortress","app_id":440,"player_count":24,"max_players":24,"Bots":0,"server_type":"Dedicated","server_os":"Linux","password":true,"vac":true,"version":"7961495","steam_id":85568392924504275,"keywords":["nocrits","nodmgspread","payload","uncletopia"],"game_id":440,"stv_port":27046,"stv_name":"Uncletopia | Frankfurt | 4 | All Maps | STV","players":[{"user_id":139,"name":"Doriian","steam_id":76561198071438810,"connected_time":2322000000000,"state":"active","ping":74},{"user_id":135,"name":"night.s","steam_id":76561198326287823,"connected_time":2393000000000,"state":"active","ping":75},{"user_id":54,"name":"Coldynator","steam_id":76561198042224175,"connected_time":4662000000000,"state":"active","ping":79},{"user_id":165,"name":"Avoonix","steam_id":76561198186954897,"connected_time":452000000000,"state":"active","ping":67},{"user_id":89,"name":"tiamat","steam_id":76561198116027948,"connected_time":4175000000000,"state":"active","ping":100},{"user_id":132,"name":"gendolfas","steam_id":76561198062856371,"connected_time":2696000000000,"state":"active","ping":92},{"user_id":125,"name":"Several geollos screaming","steam_id":76561198291326102,"connected_time":2857000000000,"state":"active","ping":71},{"user_id":166,"name":"gunter_funnyman","steam_id":76561198298432099,"connected_time":452000000000,"state":"active","ping":82},{"user_id":143,"name":"sloppy transgirl toppy","steam_id":76561198057092208,"connected_time":2251000000000,"state":"active","ping":60},{"user_id":156,"name":"Artemis","steam_id":76561198199091801,"connected_time":1082000000000,"state":"active","ping":37},{"user_id":157,"name":"Paramedic_101","steam_id":76561198157205078,"connected_time":1074000000000,"state":"active","ping":79},{"user_id":161,"name":"Virtual Mage","steam_id":76561198180779897,"connected_time":1036000000000,"state":"active","ping":58},{"user_id":145,"name":"Random","steam_id":76561199079951047,"connected_time":2119000000000,"state":"active","ping":99},{"user_id":163,"name":"I watch solarlight","steam_id":76561199143232222,"connected_time":802000000000,"state":"active","ping":109},{"user_id":170,"name":"Daredevil","steam_id":76561198153488940,"connected_time":110000000000,"state":"active","ping":63},{"user_id":168,"name":"G_raff","steam_id":76561199048512726,"connected_time":436000000000,"state":"active","ping":75},{"user_id":159,"name":"Tomato","steam_id":76561199124472513,"connected_time":1057000000000,"state":"active","ping":119},{"user_id":158,"name":"Anet1k","steam_id":76561198137123138,"connected_time":1067000000000,"state":"active","ping":45},{"user_id":112,"name":"Homosapien","steam_id":76561197972035953,"connected_time":3814000000000,"state":"active","ping":46},{"user_id":133,"name":"Edla","steam_id":76561198062815315,"connected_time":2668000000000,"state":"active","ping":135},{"user_id":150,"name":"L.Ron Hoyabembe","steam_id":76561198009887251,"connected_time":1609000000000,"state":"active","ping":72},{"user_id":154,"name":"RapJeff_9","steam_id":76561198242611576,"connected_time":1228000000000,"state":"active","ping":60},{"user_id":148,"name":"Madkey99","steam_id":76561198251164426,"connected_time":2055000000000,"state":"active","ping":65},{"user_id":102,"name":"SuntanPikachu","steam_id":76561198121242476,"connected_time":3937000000000,"state":"active","ping":79}]},{"server_id":310,"name":"Uncletopia | Frankfurt | 5 | All Maps","name_short":"frk-5","host":"frk-1.de.uncletopia.com","port":27055,"enabled":true,"region":"eu","cc":"de","latitude":50.110924,"longitude":8.682127,"reserved":0,"last_update":"0001-01-01T00:00:00Z","name_a2s":"Uncletopia | Frankfurt | 5 | All Maps","protocol":17,"map":"pl_badwater","folder":"tf","game":"Team Fortress","app_id":440,"player_count":24,"max_players":24,"Bots":0,"server_type":"Dedicated","server_os":"Linux","password":true,"vac":true,"version":"7961495","steam_id":85568392924504277,"keywords":["nocrits","nodmgspread","payload","uncletopia"],"game_id":440,"stv_port":27056,"stv_name":"Uncletopia | Frankfurt | 5 | All Maps | STV","players":[{"user_id":503,"name":"Piox","steam_id":76561198125689157,"connected_time":1192000000000,"state":"active","ping":76},{"user_id":488,"name":"SirClyan","steam_id":76561199196651938,"connected_time":1895000000000,"state":"active","ping":71},{"user_id":519,"name":"p8ps","steam_id":76561199137042715,"connected_time":107000000000,"state":"active","ping":98},{"user_id":456,"name":"ramko_","steam_id":76561198379753516,"connected_time":4169000000000,"state":"active","ping":84},{"user_id":504,"name":"taste Fanta through your balls","steam_id":76561198823497252,"connected_time":1125000000000,"state":"active","ping":47},{"user_id":502,"name":"cl_skinnyboi 1","steam_id":76561198042864708,"connected_time":1229000000000,"state":"active","ping":66},{"user_id":446,"name":"relaX","steam_id":76561198354409001,"connected_time":4720000000000,"state":"active","ping":111},{"user_id":486,"name":"three rats in a trenchcoat","steam_id":76561197983889333,"connected_time":2058000000000,"state":"active","ping":55},{"user_id":498,"name":"Chinpo to bōru no gōmon","steam_id":76561199214163032,"connected_time":1304000000000,"state":"active","ping":89},{"user_id":511,"name":"Samuel L. Jackson","steam_id":76561198130427881,"connected_time":375000000000,"state":"active","ping":164},{"user_id":458,"name":"Ixion","steam_id":76561198041660675,"connected_time":3803000000000,"state":"active","ping":74},{"user_id":512,"name":"tequila sunset","steam_id":76561198315969106,"connected_time":210000000000,"state":"active","ping":90},{"user_id":517,"name":"﷽","steam_id":76561198365973345,"connected_time":121000000000,"state":"active","ping":56},{"user_id":475,"name":"_Alonso","steam_id":76561198041893314,"connected_time":2457000000000,"state":"active","ping":50},{"user_id":462,"name":"Domcxz","steam_id":76561198291703984,"connected_time":3736000000000,"state":"active","ping":74},{"user_id":505,"name":"bryophyta","steam_id":76561197968945306,"connected_time":1098000000000,"state":"active","ping":74},{"user_id":491,"name":"ssx tricky \\\\\\ dryg","steam_id":76561197994299134,"connected_time":1804000000000,"state":"active","ping":61},{"user_id":483,"name":"sixhundredseventy","steam_id":76561199441772083,"connected_time":2152000000000,"state":"active","ping":67},{"user_id":506,"name":"rts","steam_id":76561199090876980,"connected_time":1094000000000,"state":"active","ping":80},{"user_id":507,"name":"chocy milk addict","steam_id":76561199042178118,"connected_time":1080000000000,"state":"active","ping":75},{"user_id":495,"name":"Commander Pasta","steam_id":76561198045773077,"connected_time":1329000000000,"state":"active","ping":43},{"user_id":453,"name":"DrakeTheDuck","steam_id":76561199182279601,"connected_time":4408000000000,"state":"active","ping":100},{"user_id":509,"name":"Doctor Mobius","steam_id":76561197971281806,"connected_time":560000000000,"state":"active","ping":59},{"user_id":518,"name":"nootyami","steam_id":76561199380830136,"connected_time":121000000000,"state":"active","ping":115}]},{"server_id":311,"name":"Uncletopia | Frankfurt | 6 | All Maps","name_short":"frk-6","host":"frk-1.de.uncletopia.com","port":27065,"enabled":true,"region":"eu","cc":"de","latitude":50.110924,"longitude":8.682127,"reserved":0,"last_update":"0001-01-01T00:00:00Z","name_a2s":"Uncletopia | Frankfurt | 6 | All Maps","protocol":17,"map":"koth_highpass","folder":"tf","game":"Team Fortress","app_id":440,"player_count":0,"max_players":24,"Bots":0,"server_type":"Dedicated","server_os":"Linux","password":true,"vac":true,"version":"7961495","steam_id":85568392924504278,"keywords":["cp","nocrits","nodmgspread","uncletopia"],"game_id":440,"stv_port":27066,"stv_name":"Uncletopia | Frankfurt | 6 | All Maps | STV","players":null},{"server_id":23,"name":"Uncletopia | Frankfurt | 7 | Stopwatch","name_short":"frk-7","host":"frk-1.de.uncletopia.com","port":27075,"enabled":true,"region":"eu","cc":"de","latitude":50.110924,"longitude":8.682127,"reserved":0,"last_update":"0001-01-01T00:00:00Z","name_a2s":"Uncletopia | Frankfurt | 7 | Stopwatch","protocol":17,"map":"pl_frontier_final","folder":"tf","game":"Team Fortress","app_id":440,"player_count":1,"max_players":24,"Bots":0,"server_type":"Dedicated","server_os":"Linux","password":true,"vac":true,"version":"7961495","steam_id":85568392924742827,"keywords":["nocrits","nodmgspread","payload","uncletopia"],"game_id":440,"stv_port":27076,"stv_name":"Uncletopia | Frankfurt | 7 | Stopwatch | STV","players":[{"user_id":7,"name":"Kekeke","steam_id":76561198063672270,"connected_time":2000000000,"state":"spawning","ping":61}]},{"server_id":24,"name":"Uncletopia | Frankfurt | 8 | Community","name_short":"frk-8","host":"frk-1.de.uncletopia.com","port":27085,"enabled":true,"region":"eu","cc":"de","latitude":50.110924,"longitude":8.682127,"reserved":0,"last_update":"0001-01-01T00:00:00Z","name_a2s":"Uncletopia | Frankfurt | 8 | Community","protocol":17,"map":"workshop/koth_product_final.ugc454272353","folder":"tf","game":"Team Fortress","app_id":440,"player_count":0,"max_players":24,"Bots":0,"server_type":"Dedicated","server_os":"Linux","password":true,"vac":true,"version":"7961495","steam_id":85568392924742828,"keywords":["cp","nocrits","nodmgspread","uncletopia"],"game_id":440,"stv_port":27086,"stv_name":"Uncletopia | Frankfurt | 8 | Community | STV","players":null},{"server_id":202,"name":"Uncletopia | Hong Kong | 1 | All Maps","name_short":"hgk-1","host":"hgk-1.hk.uncletopia.com","port":27015,"enabled":true,"region":"asia","cc":"hk","latitude":22.302711,"longitude":114.177216,"reserved":0,"last_update":"0001-01-01T00:00:00Z","name_a2s":"Uncletopia | Hong Kong | 1 | All Maps","protocol":17,"map":"koth_viaduct","folder":"tf","game":"Team Fortress","app_id":440,"player_count":0,"max_players":24,"Bots":0,"server_type":"Dedicated","server_os":"Linux","password":true,"vac":true,"version":"7961495","steam_id":85568392924494504,"keywords":["cp","nocrits","nodmgspread","uncletopia"],"game_id":440,"stv_port":27016,"stv_name":"Uncletopia | Hong Kong | 1 | All Maps | STV","players":null},{"server_id":1,"name":"Uncletopia | Los Angeles | 1 | All Maps","name_short":"lax-1","host":"lax-1.us.uncletopia.com","port":27015,"enabled":true,"region":"us-west","cc":"us","latitude":33.94279,"longitude":-118.41004,"reserved":0,"last_update":"0001-01-01T00:00:00Z","name_a2s":"Uncletopia | Los Angeles | 1 | All Maps","protocol":17,"map":"pl_snowycoast","folder":"tf","game":"Team Fortress","app_id":440,"player_count":0,"max_players":24,"Bots":0,"server_type":"Dedicated","server_os":"Linux","password":true,"vac":true,"version":"7961495","steam_id":85568392924469991,"keywords":["nocrits","nodmgspread","payload","uncletopia"],"game_id":440,"stv_port":27016,"stv_name":"Uncletopia | Los Angeles | 1 | All Maps | STV","players":null},{"server_id":112,"name":"Uncletopia | Los Angeles | 2 | All Maps","name_short":"lax-2","host":"lax-1.us.uncletopia.com","port":27025,"enabled":true,"region":"us-west","cc":"us","latitude":33.94279,"longitude":-118.41004,"reserved":0,"last_update":"0001-01-01T00:00:00Z","name_a2s":"Uncletopia | Los Angeles | 2 | All Maps","protocol":17,"map":"cp_mountainlab","folder":"tf","game":"Team Fortress","app_id":440,"player_count":0,"max_players":24,"Bots":0,"server_type":"Dedicated","server_os":"Linux","password":true,"vac":true,"version":"7961495","steam_id":85568392924469992,"keywords":["cp","nocrits","nodmgspread","uncletopia"],"game_id":440,"stv_port":27026,"stv_name":"Uncletopia | Los Angeles | 2 | All Maps | STV","players":null},{"server_id":324,"name":"Uncletopia | Los Angeles | 3 | All Maps","name_short":"lax-3","host":"lax-1.us.uncletopia.com","port":27035,"enabled":true,"region":"us-west","cc":"us","latitude":33.94279,"longitude":-118.41004,"reserved":0,"last_update":"0001-01-01T00:00:00Z","name_a2s":"Uncletopia | Los Angeles | 3 | All Maps","protocol":17,"map":"pl_frontier_final","folder":"tf","game":"Team Fortress","app_id":440,"player_count":0,"max_players":24,"Bots":0,"server_type":"Dedicated","server_os":"Linux","password":true,"vac":true,"version":"7961495","steam_id":85568392924510198,"keywords":["nocrits","nodmgspread","payload","uncletopia"],"game_id":440,"stv_port":27036,"stv_name":"Uncletopia | Los Angeles | 3 | All Maps | STV","players":null},{"server_id":25,"name":"Uncletopia | Los Angeles | 4 | Stopwatch","name_short":"lax-4","host":"lax-1.us.uncletopia.com","port":27045,"enabled":true,"region":"us-west","cc":"us","latitude":33.94279,"longitude":-118.41004,"reserved":0,"last_update":"0001-01-01T00:00:00Z","name_a2s":"Uncletopia | Los Angeles | 4 | Stopwatch","protocol":17,"map":"pl_barnblitz","folder":"tf","game":"Team Fortress","app_id":440,"player_count":0,"max_players":24,"Bots":0,"server_type":"Dedicated","server_os":"Linux","password":true,"vac":true,"version":"7961495","steam_id":85568392924510199,"keywords":["nocrits","nodmgspread","payload","uncletopia"],"game_id":440,"stv_port":27046,"stv_name":"Uncletopia | Los Angeles | 4 | Stopwatch | STV","players":null},{"server_id":11,"name":"Uncletopia | London | 1 | All Maps","name_short":"lon-1","host":"lon-1.uk.uncletopia.com","port":27015,"enabled":true,"region":"eu","cc":"gb","latitude":51.509865,"longitude":-0.118092,"reserved":0,"last_update":"0001-01-01T00:00:00Z","name_a2s":"Uncletopia | London | 1 | All Maps","protocol":17,"map":"pl_borneo","folder":"tf","game":"Team Fortress","app_id":440,"player_count":24,"max_players":24,"Bots":0,"server_type":"Dedicated","server_os":"Linux","password":true,"vac":true,"version":"7961495","steam_id":85568392924367362,"keywords":["nocrits","nodmgspread","payload","uncletopia"],"game_id":440,"stv_port":27016,"stv_name":"Uncletopia | London | 1 | All Maps | STV","players":[{"user_id":569,"name":"ber","steam_id":76561197993892057,"connected_time":8735000000000,"state":"active","ping":87},{"user_id":718,"name":"itsPanzerPanda","steam_id":76561199441946346,"connected_time":2044000000000,"state":"active","ping":146},{"user_id":722,"name":"BepisR47","steam_id":76561198084515716,"connected_time":1098000000000,"state":"active","ping":34},{"user_id":705,"name":"Archer","steam_id":76561197994239444,"connected_time":3004000000000,"state":"active","ping":115},{"user_id":724,"name":"emmy","steam_id":76561198066298422,"connected_time":1075000000000,"state":"active","ping":84},{"user_id":715,"name":"Mind Fuzz","steam_id":76561198050079428,"connected_time":2207000000000,"state":"active","ping":101},{"user_id":726,"name":"Minimi","steam_id":76561198873850443,"connected_time":847000000000,"state":"active","ping":45},{"user_id":696,"name":"Chonky dorito","steam_id":76561199076870571,"connected_time":3594000000000,"state":"active","ping":99},{"user_id":566,"name":"soil.dirt.earth","steam_id":76561198014377623,"connected_time":9048000000000,"state":"active","ping":32},{"user_id":727,"name":"whimsy. (live)","steam_id":76561198878171763,"connected_time":844000000000,"state":"active","ping":57},{"user_id":690,"name":"ACG_Dubsy","steam_id":76561198797308565,"connected_time":3732000000000,"state":"active","ping":70},{"user_id":699,"name":"STEFF","steam_id":76561198013306538,"connected_time":3504000000000,"state":"active","ping":50},{"user_id":725,"name":"ein","steam_id":76561198152162834,"connected_time":1075000000000,"state":"active","ping":107},{"user_id":714,"name":"trite","steam_id":76561197983765323,"connected_time":2215000000000,"state":"active","ping":56},{"user_id":710,"name":"Slifer the Egyptian God Furry","steam_id":76561198062255803,"connected_time":2342000000000,"state":"active","ping":75},{"user_id":719,"name":"EricToGo","steam_id":76561198068019642,"connected_time":1713000000000,"state":"active","ping":63},{"user_id":733,"name":"kelpie","steam_id":76561198128327529,"connected_time":227000000000,"state":"active","ping":45},{"user_id":736,"name":"shooer!","steam_id":76561198110531281,"connected_time":109000000000,"state":"active","ping":65},{"user_id":737,"name":"swatton","steam_id":76561198875537106,"connected_time":103000000000,"state":"active","ping":60},{"user_id":721,"name":"Woman (Real)","steam_id":76561199151823932,"connected_time":1207000000000,"state":"active","ping":88},{"user_id":723,"name":"The Holy Bible","steam_id":76561197967683724,"connected_time":1098000000000,"state":"active","ping":41},{"user_id":701,"name":"albert","steam_id":76561198353496134,"connected_time":3369000000000,"state":"active","ping":54},{"user_id":712,"name":"lillunya ♡","steam_id":76561198330418866,"connected_time":2262000000000,"state":"active","ping":72},{"user_id":662,"name":"bigwish | bmod.tf","steam_id":76561197997859723,"connected_time":5532000000000,"state":"active","ping":84}]},{"server_id":114,"name":"Uncletopia | London | 2 | All Maps","name_short":"lon-2","host":"lon-1.uk.uncletopia.com","port":27025,"enabled":true,"region":"eu","cc":"gb","latitude":51.509865,"longitude":-0.118092,"reserved":0,"last_update":"0001-01-01T00:00:00Z","name_a2s":"Uncletopia | London | 2 | All Maps","protocol":17,"map":"pl_badwater","folder":"tf","game":"Team Fortress","app_id":440,"player_count":24,"max_players":24,"Bots":0,"server_type":"Dedicated","server_os":"Linux","password":true,"vac":true,"version":"7961495","steam_id":85568392924470941,"keywords":["nocrits","nodmgspread","payload","uncletopia"],"game_id":440,"stv_port":27026,"stv_name":"Uncletopia | London | 2 | All Maps | STV","players":[{"user_id":257,"name":"An Idiot in space","steam_id":76561198011089239,"connected_time":3465000000000,"state":"active","ping":54},{"user_id":258,"name":"Cobalt","steam_id":76561198349228196,"connected_time":3451000000000,"state":"active","ping":52},{"user_id":266,"name":"Mr. Mundy","steam_id":76561198132008918,"connected_time":2718000000000,"state":"active","ping":81},{"user_id":251,"name":"Fat Pigeon","steam_id":76561198817940142,"connected_time":3643000000000,"state":"active","ping":47},{"user_id":150,"name":"Hexagon","steam_id":76561198151205758,"connected_time":8949000000000,"state":"active","ping":60},{"user_id":297,"name":"[AXG] PK Blizzard","steam_id":76561198039836567,"connected_time":187000000000,"state":"active","ping":45},{"user_id":288,"name":"cao ni ma","steam_id":76561198121177512,"connected_time":933000000000,"state":"active","ping":63},{"user_id":291,"name":"Oak","steam_id":76561198027681311,"connected_time":840000000000,"state":"active","ping":62},{"user_id":287,"name":"Bim Jeam","steam_id":76561198039417163,"connected_time":943000000000,"state":"active","ping":43},{"user_id":289,"name":"Katta363","steam_id":76561198877144992,"connected_time":925000000000,"state":"active","ping":85},{"user_id":265,"name":"Nick","steam_id":76561198036109469,"connected_time":2961000000000,"state":"active","ping":101},{"user_id":290,"name":"EngulfedHorizon","steam_id":76561198060056829,"connected_time":923000000000,"state":"active","ping":172},{"user_id":274,"name":"Xtis","steam_id":76561198043837480,"connected_time":2196000000000,"state":"active","ping":76},{"user_id":250,"name":"CallMeUnoriginal","steam_id":76561198977528294,"connected_time":3647000000000,"state":"active","ping":45},{"user_id":281,"name":"jacob","steam_id":76561198010662796,"connected_time":1107000000000,"state":"active","ping":56},{"user_id":259,"name":"Nittugai","steam_id":76561198067366462,"connected_time":3424000000000,"state":"active","ping":62},{"user_id":243,"name":"Plep","steam_id":76561198840259819,"connected_time":4161000000000,"state":"active","ping":60},{"user_id":278,"name":"child cruncher","steam_id":76561199376433147,"connected_time":1846000000000,"state":"active","ping":51},{"user_id":284,"name":"the freak of greek * _ *","steam_id":76561198046873337,"connected_time":1019000000000,"state":"active","ping":53},{"user_id":267,"name":"Farmercy","steam_id":76561198000038039,"connected_time":2689000000000,"state":"active","ping":63},{"user_id":295,"name":"NALA","steam_id":76561198039806469,"connected_time":450000000000,"state":"active","ping":75},{"user_id":296,"name":"Phat","steam_id":76561198272293356,"connected_time":444000000000,"state":"active","ping":68},{"user_id":219,"name":"Ullr","steam_id":76561198140547483,"connected_time":5474000000000,"state":"active","ping":44},{"user_id":210,"name":"Goldblade","steam_id":76561198382997614,"connected_time":5868000000000,"state":"active","ping":91}]},{"server_id":320,"name":"Uncletopia | London | 3 | All Maps","name_short":"lon-3","host":"lon-1.uk.uncletopia.com","port":27035,"enabled":true,"region":"eu","cc":"gb","latitude":51.509865,"longitude":-0.118092,"reserved":0,"last_update":"0001-01-01T00:00:00Z","name_a2s":"Uncletopia | London | 3 | All Maps","protocol":17,"map":"pl_upward","folder":"tf","game":"Team Fortress","app_id":440,"player_count":24,"max_players":24,"Bots":0,"server_type":"Dedicated","server_os":"Linux","password":true,"vac":true,"version":"7961495","steam_id":85568392924510192,"keywords":["nocrits","nodmgspread","payload","uncletopia"],"game_id":440,"stv_port":27036,"stv_name":"Uncletopia | London | 3 | All Maps | STV","players":[{"user_id":24,"name":"Tx_madmash \u0026 knuckles","steam_id":76561198924656512,"connected_time":2880000000000,"state":"active","ping":77},{"user_id":33,"name":"gaming (official)","steam_id":76561198106012909,"connected_time":1607000000000,"state":"active","ping":76},{"user_id":62,"name":"eXenz","steam_id":76561198255136723,"connected_time":1092000000000,"state":"active","ping":60},{"user_id":75,"name":"ROX","steam_id":76561198272289320,"connected_time":414000000000,"state":"active","ping":58},{"user_id":31,"name":"Egor Pomidor","steam_id":76561199175688390,"connected_time":1777000000000,"state":"active","ping":77},{"user_id":92,"name":"Bill Clinton","steam_id":76561198060011032,"connected_time":137000000000,"state":"active","ping":76},{"user_id":34,"name":"Jethro Tull","steam_id":76561199034041634,"connected_time":1604000000000,"state":"active","ping":66},{"user_id":65,"name":"Endi","steam_id":76561198914938199,"connected_time":1018000000000,"state":"active","ping":100},{"user_id":66,"name":"VolcanicArts","steam_id":76561198063453246,"connected_time":986000000000,"state":"active","ping":46},{"user_id":37,"name":"you like silly femboys don't yo","steam_id":76561198837586838,"connected_time":1508000000000,"state":"active","ping":67},{"user_id":38,"name":"The worst TF2 player(Real)","steam_id":76561199184873889,"connected_time":1469000000000,"state":"active","ping":64},{"user_id":39,"name":"sprinkle ✧* ༝","steam_id":76561198055871696,"connected_time":1469000000000,"state":"active","ping":42},{"user_id":56,"name":"sam_","steam_id":76561198814734120,"connected_time":1231000000000,"state":"active","ping":125},{"user_id":63,"name":"Jombus Quan","steam_id":76561198240560666,"connected_time":1079000000000,"state":"active","ping":52},{"user_id":47,"name":"boxama","steam_id":76561198040721321,"connected_time":1320000000000,"state":"active","ping":49},{"user_id":49,"name":"im getting me mallet","steam_id":76561198389556655,"connected_time":1317000000000,"state":"active","ping":80},{"user_id":71,"name":"NESS","steam_id":76561197995225318,"connected_time":450000000000,"state":"active","ping":48},{"user_id":45,"name":"Kili","steam_id":76561198138456346,"connected_time":1335000000000,"state":"active","ping":78},{"user_id":67,"name":"DOKTOR SEX","steam_id":76561198226378616,"connected_time":905000000000,"state":"active","ping":96},{"user_id":51,"name":"Catze Gamin","steam_id":76561198855516168,"connected_time":1313000000000,"state":"active","ping":75},{"user_id":69,"name":"Milk","steam_id":76561198125876588,"connected_time":462000000000,"state":"active","ping":49},{"user_id":53,"name":"SaltyCupcakes","steam_id":76561198256386417,"connected_time":1308000000000,"state":"active","ping":44},{"user_id":70,"name":"r","steam_id":76561198239927434,"connected_time":459000000000,"state":"active","ping":60},{"user_id":82,"name":"Dr Bondus Bolongus Dongus","steam_id":76561198378657692,"connected_time":303000000000,"state":"active","ping":49}]},{"server_id":321,"name":"Uncletopia | London | 4 | All Maps","name_short":"lon-4","host":"lon-1.uk.uncletopia.com","port":27045,"enabled":true,"region":"eu","cc":"gb","latitude":51.509865,"longitude":-0.118092,"reserved":0,"last_update":"0001-01-01T00:00:00Z","name_a2s":"Uncletopia | London | 4 | All Maps","protocol":17,"map":"cp_dustbowl","folder":"tf","game":"Team Fortress","app_id":440,"player_count":24,"max_players":24,"Bots":0,"server_type":"Dedicated","server_os":"Linux","password":true,"vac":true,"version":"7961495","steam_id":85568392924510193,"keywords":["cp","nocrits","nodmgspread","uncletopia"],"game_id":440,"stv_port":27046,"stv_name":"Uncletopia | London | 4 | All Maps | STV","players":[{"user_id":72,"name":"2fort's silliest soldier","steam_id":76561198128613675,"connected_time":1294000000000,"state":"active","ping":57},{"user_id":60,"name":"DrSpoonMan","steam_id":76561199214098986,"connected_time":1906000000000,"state":"active","ping":60},{"user_id":44,"name":"emer","steam_id":76561198001420975,"connected_time":2510000000000,"state":"active","ping":102},{"user_id":24,"name":"gabrielglod928","steam_id":76561199014805744,"connected_time":3907000000000,"state":"active","ping":53},{"user_id":22,"name":"Deez nuts","steam_id":76561199429562693,"connected_time":4032000000000,"state":"active","ping":74},{"user_id":66,"name":"V.Z.C.Szahibe.az amateur","steam_id":76561198015603940,"connected_time":1509000000000,"state":"active","ping":63},{"user_id":78,"name":"Storm's Foreshadow","steam_id":76561198098462526,"connected_time":422000000000,"state":"active","ping":71},{"user_id":47,"name":"R'aiq","steam_id":76561198063083993,"connected_time":2272000000000,"state":"active","ping":66},{"user_id":79,"name":"toomas2018(vote for toomas2018)","steam_id":76561199105796083,"connected_time":385000000000,"state":"active","ping":83},{"user_id":34,"name":"Rez","steam_id":76561198410598772,"connected_time":2895000000000,"state":"active","ping":44},{"user_id":46,"name":"Toa LightMakuta","steam_id":76561198212178104,"connected_time":2478000000000,"state":"active","ping":67},{"user_id":75,"name":"Acucutl","steam_id":76561198133867096,"connected_time":1109000000000,"state":"active","ping":51},{"user_id":76,"name":"Sex Monster","steam_id":76561199426920744,"connected_time":848000000000,"state":"active","ping":114},{"user_id":70,"name":"Thisisforyou!","steam_id":76561198052113055,"connected_time":1399000000000,"state":"active","ping":120},{"user_id":50,"name":"Prawo Jazdy","steam_id":76561198121589024,"connected_time":2202000000000,"state":"active","ping":56},{"user_id":41,"name":"BLÅHAJ","steam_id":76561199353672293,"connected_time":2668000000000,"state":"active","ping":59},{"user_id":42,"name":"Hellbrud","steam_id":76561198040142466,"connected_time":2664000000000,"state":"active","ping":100},{"user_id":73,"name":"Raivop","steam_id":76561197980854307,"connected_time":1275000000000,"state":"active","ping":93},{"user_id":48,"name":"Jarppa!","steam_id":76561197995834786,"connected_time":2260000000000,"state":"active","ping":75},{"user_id":49,"name":"say gex","steam_id":76561198265479349,"connected_time":2250000000000,"state":"active","ping":61},{"user_id":74,"name":"d3stint2","steam_id":76561199487880831,"connected_time":1253000000000,"state":"active","ping":44},{"user_id":58,"name":"Serg","steam_id":76561198218959001,"connected_time":1982000000000,"state":"active","ping":77},{"user_id":77,"name":"modembreaker863","steam_id":76561198871463629,"connected_time":832000000000,"state":"active","ping":52},{"user_id":56,"name":"hasky","steam_id":76561197986052798,"connected_time":2128000000000,"state":"active","ping":71}]},{"server_id":21,"name":"Uncletopia | London | 5 | All Maps","name_short":"lon-5","host":"lon-1.uk.uncletopia.com","port":27055,"enabled":true,"region":"eu","cc":"gb","latitude":51.509865,"longitude":-0.118092,"reserved":0,"last_update":"0001-01-01T00:00:00Z","name_a2s":"Uncletopia | London | 5 | All Maps","protocol":17,"map":"cp_sunshine","folder":"tf","game":"Team Fortress","app_id":440,"player_count":13,"max_players":24,"Bots":0,"server_type":"Dedicated","server_os":"Linux","password":true,"vac":true,"version":"7961495","steam_id":85568392924742829,"keywords":["cp","nocrits","nodmgspread","uncletopia"],"game_id":440,"stv_port":27056,"stv_name":"Uncletopia | London | 5 | All Maps | STV","players":[{"user_id":151,"name":"Grey","steam_id":76561198187190267,"connected_time":647000000000,"state":"active","ping":45},{"user_id":152,"name":"ran is running","steam_id":76561199443185667,"connected_time":523000000000,"state":"active","ping":126},{"user_id":157,"name":"Kahvi","steam_id":76561198723244199,"connected_time":324000000000,"state":"active","ping":75},{"user_id":159,"name":"Luke SpyWalker","steam_id":76561198008643276,"connected_time":319000000000,"state":"active","ping":70},{"user_id":155,"name":"cislastar","steam_id":76561198027202375,"connected_time":449000000000,"state":"active","ping":74},{"user_id":156,"name":"Egg Soap","steam_id":76561198436817109,"connected_time":436000000000,"state":"active","ping":64},{"user_id":160,"name":"Cypher","steam_id":76561199023619899,"connected_time":300000000000,"state":"active","ping":47},{"user_id":161,"name":"possible_skeleton69","steam_id":76561199469666174,"connected_time":142000000000,"state":"active","ping":197},{"user_id":162,"name":"Rock..","steam_id":76561198004641963,"connected_time":135000000000,"state":"active","ping":75},{"user_id":163,"name":"tokss","steam_id":76561198033084982,"connected_time":131000000000,"state":"active","ping":90},{"user_id":164,"name":"секретный кор","steam_id":76561198295954395,"connected_time":119000000000,"state":"active","ping":83},{"user_id":165,"name":"Dark moon","steam_id":76561198801782801,"connected_time":98000000000,"state":"active","ping":204},{"user_id":167,"name":"Irdi","steam_id":76561198357322167,"connected_time":63000000000,"state":"active","ping":30}]},{"server_id":22,"name":"Uncletopia | London | 6 | All Maps","name_short":"lon-6","host":"lon-1.uk.uncletopia.com","port":27065,"enabled":true,"region":"eu","cc":"gb","latitude":51.509865,"longitude":-0.118092,"reserved":0,"last_update":"0001-01-01T00:00:00Z","name_a2s":"Uncletopia | London | 6 | All Maps","protocol":17,"map":"koth_harvest_final","folder":"tf","game":"Team Fortress","app_id":440,"player_count":24,"max_players":24,"Bots":0,"server_type":"Dedicated","server_os":"Linux","password":true,"vac":true,"version":"7961495","steam_id":85568392924742830,"keywords":["cp","nocrits","nodmgspread","uncletopia"],"game_id":440,"stv_port":27066,"stv_name":"Uncletopia | London | 6 | All Maps | STV","players":[{"user_id":209,"name":"The Bread Bringer","steam_id":76561198264079743,"connected_time":3040000000000,"state":"active","ping":41},{"user_id":239,"name":"sz(k)","steam_id":76561198118500940,"connected_time":1155000000000,"state":"active","ping":75},{"user_id":270,"name":"Palex","steam_id":76561198093219465,"connected_time":100000000000,"state":"active","ping":44},{"user_id":257,"name":"Alyx","steam_id":76561198064654326,"connected_time":235000000000,"state":"active","ping":61},{"user_id":191,"name":"Unreliable, funny and dangerous","steam_id":76561198050709790,"connected_time":4140000000000,"state":"active","ping":94},{"user_id":271,"name":"Weegee","steam_id":76561198150308523,"connected_time":78000000000,"state":"active","ping":48},{"user_id":255,"name":"lysik","steam_id":76561198039498027,"connected_time":330000000000,"state":"active","ping":66},{"user_id":250,"name":"randompixel","steam_id":76561198003941207,"connected_time":591000000000,"state":"active","ping":55},{"user_id":242,"name":"Jonkheervanflep","steam_id":76561198006853101,"connected_time":962000000000,"state":"active","ping":66},{"user_id":232,"name":"Štěpán","steam_id":76561198275742101,"connected_time":1521000000000,"state":"active","ping":70},{"user_id":213,"name":"Spinya","steam_id":76561198086653667,"connected_time":2767000000000,"state":"active","ping":54},{"user_id":266,"name":"Testy","steam_id":76561198169996602,"connected_time":146000000000,"state":"active","ping":53},{"user_id":272,"name":"LEGEND FUMO.","steam_id":76561198061033903,"connected_time":70000000000,"state":"active","ping":53},{"user_id":244,"name":"LivEssense","steam_id":76561198052476979,"connected_time":951000000000,"state":"active","ping":90},{"user_id":167,"name":"Ark-e","steam_id":76561198261870909,"connected_time":5633000000000,"state":"active","ping":35},{"user_id":273,"name":"bob","steam_id":76561198448135228,"connected_time":22000000000,"state":"active","ping":147},{"user_id":251,"name":"Creamy","steam_id":76561198063907478,"connected_time":557000000000,"state":"active","ping":57},{"user_id":248,"name":"Michael","steam_id":76561198003146906,"connected_time":777000000000,"state":"active","ping":44},{"user_id":229,"name":"Siwpy","steam_id":76561198972368808,"connected_time":1969000000000,"state":"active","ping":46},{"user_id":230,"name":"Citromfa","steam_id":76561198427549600,"connected_time":1698000000000,"state":"active","ping":85},{"user_id":246,"name":"chrome heart","steam_id":76561198101978330,"connected_time":861000000000,"state":"active","ping":68},{"user_id":214,"name":"DudeoftheRock","steam_id":76561198059401865,"connected_time":2763000000000,"state":"active","ping":57},{"user_id":249,"name":"icymelon","steam_id":76561198072239175,"connected_time":614000000000,"state":"active","ping":41},{"user_id":262,"name":"Pvt. Prinny","steam_id":76561198030278562,"connected_time":192000000000,"state":"active","ping":43}]},{"server_id":40,"name":"Uncletopia | London | 7 | Stopwatch","name_short":"lon-7","host":"lon-1.uk.uncletopia.com","port":27075,"enabled":true,"region":"eu","cc":"gb","latitude":51.509865,"longitude":-0.118092,"reserved":0,"last_update":"0001-01-01T00:00:00Z","name_a2s":"Uncletopia | London | 7 | Stopwatch","protocol":17,"map":"workshop/pl_barnblitz_pro7.ugc582280235","folder":"tf","game":"Team Fortress","app_id":440,"player_count":0,"max_players":24,"Bots":0,"server_type":"Dedicated","server_os":"Linux","password":true,"vac":true,"version":"7961495","steam_id":85568392924964314,"keywords":["nocrits","nodmgspread","payload","uncletopia"],"game_id":440,"stv_port":27076,"stv_name":"Uncletopia | London | 7 | Stopwatch | STV","players":null},{"server_id":41,"name":"Uncletopia | London | 8 | Community","name_short":"lon-8","host":"lon-1.uk.uncletopia.com","port":27085,"enabled":true,"region":"eu","cc":"gb","latitude":51.509865,"longitude":-0.118092,"reserved":0,"last_update":"0001-01-01T00:00:00Z","name_a2s":"Uncletopia | London | 8 | Community","protocol":17,"map":"workshop/pl_barnblitz_pro7.ugc582280235","folder":"tf","game":"Team Fortress","app_id":440,"player_count":20,"max_players":24,"Bots":0,"server_type":"Dedicated","server_os":"Linux","password":true,"vac":true,"version":"7961495","steam_id":85568392924964315,"keywords":["nocrits","nodmgspread","payload","uncletopia"],"game_id":440,"stv_port":27086,"stv_name":"Uncletopia | London | 8 | Community | STV","players":[{"user_id":55,"name":"Vel0city","steam_id":76561198049687798,"connected_time":2925000000000,"state":"active","ping":45},{"user_id":96,"name":"Team Fortress","steam_id":76561198058722801,"connected_time":194000000000,"state":"active","ping":50},{"user_id":99,"name":"stoppen","steam_id":76561197960281482,"connected_time":94000000000,"state":"active","ping":73},{"user_id":101,"name":"Demicore","steam_id":76561197976922136,"connected_time":70000000000,"state":"active","ping":87},{"user_id":29,"name":"TSx* EmperoT","steam_id":76561198018656942,"connected_time":4271000000000,"state":"active","ping":87},{"user_id":105,"name":"Tryrn","steam_id":76561198075487436,"connected_time":4000000000,"state":"spawning","ping":75},{"user_id":78,"name":"Ferrariracer5f1","steam_id":76561199229815098,"connected_time":1496000000000,"state":"active","ping":52},{"user_id":103,"name":"Sir Ax-elot","steam_id":76561198048832733,"connected_time":40000000000,"state":"active","ping":72},{"user_id":88,"name":"moglimbo","steam_id":76561198083937378,"connected_time":720000000000,"state":"active","ping":45},{"user_id":102,"name":"(MAC) [BN] Crazyking","steam_id":76561198001668616,"connected_time":63000000000,"state":"active","ping":60},{"user_id":37,"name":"silicon based life form","steam_id":76561199127121346,"connected_time":3882000000000,"state":"active","ping":56},{"user_id":89,"name":"breadbear \u003c3","steam_id":76561198036895007,"connected_time":693000000000,"state":"active","ping":92},{"user_id":40,"name":"Rodak","steam_id":76561199135986344,"connected_time":3775000000000,"state":"active","ping":62},{"user_id":43,"name":"Mr Fruitypebbles","steam_id":76561198133823242,"connected_time":3560000000000,"state":"active","ping":56},{"user_id":72,"name":"tea for trees too","steam_id":76561198131031404,"connected_time":1907000000000,"state":"active","ping":90},{"user_id":93,"name":"teddy","steam_id":76561198007436837,"connected_time":357000000000,"state":"active","ping":42},{"user_id":90,"name":"jabo","steam_id":76561199429839245,"connected_time":676000000000,"state":"active","ping":58},{"user_id":91,"name":"Pixel-Jay","steam_id":76561198853840115,"connected_time":663000000000,"state":"active","ping":57},{"user_id":79,"name":"Jeremy Pinkman","steam_id":76561198345967214,"connected_time":1362000000000,"state":"active","ping":93},{"user_id":74,"name":"Bavarian Blayer","steam_id":76561198504744583,"connected_time":1881000000000,"state":"active","ping":65}]},{"server_id":300,"name":"Uncletopia | Montréal | 1 | One Thousand Uncles","name_short":"mtl-1","host":"mtl-1.ca.uncletopia.com","port":27015,"enabled":true,"region":"us-east","cc":"ca","latitude":45.50889,"longitude":-73.56167,"reserved":0,"last_update":"0001-01-01T00:00:00Z","name_a2s":"","protocol":0,"map":"","folder":"","game":"","app_id":0,"player_count":0,"max_players":0,"Bots":0,"server_type":"","server_os":"","password":false,"vac":false,"version":"","steam_id":0,"keywords":null,"game_id":0,"stv_port":0,"stv_name":"","players":null},{"server_id":301,"name":"Uncletopia | Montréal | 2 | One Thousand Uncles","name_short":"mtl-2","host":"mtl-1.ca.uncletopia.com","port":27025,"enabled":true,"region":"us-east","cc":"ca","latitude":45.50889,"longitude":-73.56167,"reserved":0,"last_update":"0001-01-01T00:00:00Z","name_a2s":"","protocol":0,"map":"","folder":"","game":"","app_id":0,"player_count":0,"max_players":0,"Bots":0,"server_type":"","server_os":"","password":false,"vac":false,"version":"","steam_id":0,"keywords":null,"game_id":0,"stv_port":0,"stv_name":"","players":null},{"server_id":302,"name":"Uncletopia | Montréal | 3 | One Thousand Uncles","name_short":"mtl-3","host":"mtl-1.ca.uncletopia.com","port":27035,"enabled":true,"region":"us-east","cc":"ca","latitude":45.50889,"longitude":-73.56167,"reserved":0,"last_update":"0001-01-01T00:00:00Z","name_a2s":"","protocol":0,"map":"","folder":"","game":"","app_id":0,"player_count":0,"max_players":0,"Bots":0,"server_type":"","server_os":"","password":false,"vac":false,"version":"","steam_id":0,"keywords":null,"game_id":0,"stv_port":0,"stv_name":"","players":null},{"server_id":13,"name":"Uncletopia | New York City | 1 | All Maps","name_short":"nyc-1","host":"nyc-1.us.uncletopia.com","port":27015,"enabled":true,"region":"us-east","cc":"us","latitude":40.73061,"longitude":-73.93524,"reserved":0,"last_update":"0001-01-01T00:00:00Z","name_a2s":"Uncletopia | New York City | 1 | All Maps","protocol":17,"map":"koth_highpass","folder":"tf","game":"Team Fortress","app_id":440,"player_count":0,"max_players":24,"Bots":0,"server_type":"Dedicated","server_os":"Linux","password":true,"vac":true,"version":"7961495","steam_id":85568392924469993,"keywords":["cp","nocrits","nodmgspread","uncletopia"],"game_id":440,"stv_port":27016,"stv_name":"Uncletopia | New York City | 1 | All Maps | STV","players":null},{"server_id":14,"name":"Uncletopia | New York City | 2 | All Maps","name_short":"nyc-2","host":"nyc-1.us.uncletopia.com","port":27025,"enabled":true,"region":"us-east","cc":"us","latitude":40.73061,"longitude":-73.93524,"reserved":0,"last_update":"0001-01-01T00:00:00Z","name_a2s":"Uncletopia | New York City | 2 | All Maps","protocol":17,"map":"pl_upward","folder":"tf","game":"Team Fortress","app_id":440,"player_count":16,"max_players":24,"Bots":0,"server_type":"Dedicated","server_os":"Linux","password":true,"vac":true,"version":"7961495","steam_id":85568392924469994,"keywords":["nocrits","nodmgspread","payload","uncletopia"],"game_id":440,"stv_port":27026,"stv_name":"Uncletopia | New York City | 2 | All Maps | STV","players":[{"user_id":91,"name":"The Big","steam_id":76561198078572184,"connected_time":79000000000,"state":"active","ping":79},{"user_id":82,"name":"CHAI","steam_id":76561198119556082,"connected_time":428000000000,"state":"active","ping":69},{"user_id":60,"name":"Mr_MagicMan","steam_id":76561198372713689,"connected_time":1328000000000,"state":"active","ping":95},{"user_id":58,"name":"emotional suppport e-cigarette","steam_id":76561198172120615,"connected_time":1664000000000,"state":"active","ping":33},{"user_id":86,"name":"Maniac Hat","steam_id":76561199082942851,"connected_time":303000000000,"state":"active","ping":75},{"user_id":17,"name":"beats (across the sea)","steam_id":76561199245717718,"connected_time":4158000000000,"state":"active","ping":57},{"user_id":21,"name":"yer_nerd","steam_id":76561199435454093,"connected_time":3885000000000,"state":"active","ping":61},{"user_id":69,"name":"ndvr (femboy (REAL))","steam_id":76561199379200102,"connected_time":994000000000,"state":"active","ping":43},{"user_id":55,"name":"1920","steam_id":76561198111669774,"connected_time":1723000000000,"state":"active","ping":66},{"user_id":59,"name":"Fundy","steam_id":76561198044648667,"connected_time":1457000000000,"state":"active","ping":87},{"user_id":61,"name":"sqerkbo","steam_id":76561198080012700,"connected_time":1236000000000,"state":"active","ping":44},{"user_id":81,"name":"Menachem","steam_id":76561198041226420,"connected_time":489000000000,"state":"active","ping":63},{"user_id":74,"name":"Eiss","steam_id":76561198343183806,"connected_time":772000000000,"state":"active","ping":60},{"user_id":85,"name":"Quick-Fix","steam_id":76561198295501978,"connected_time":331000000000,"state":"active","ping":90},{"user_id":88,"name":"Isilawuli","steam_id":76561198084150503,"connected_time":224000000000,"state":"active","ping":40},{"user_id":80,"name":"Oddjob","steam_id":76561198976160793,"connected_time":525000000000,"state":"active","ping":64}]},{"server_id":15,"name":"Uncletopia | New York City | 3 | Stopwatch","name_short":"nyc-3","host":"nyc-1.us.uncletopia.com","port":27035,"enabled":true,"region":"us-east","cc":"us","latitude":40.73061,"longitude":-73.93524,"reserved":0,"last_update":"0001-01-01T00:00:00Z","name_a2s":"Uncletopia | New York City | 3 | Stopwatch","protocol":17,"map":"koth_highpass","folder":"tf","game":"Team Fortress","app_id":440,"player_count":0,"max_players":24,"Bots":0,"server_type":"Dedicated","server_os":"Linux","password":true,"vac":true,"version":"7961495","steam_id":85568392924742820,"keywords":["cp","nocrits","nodmgspread","uncletopia"],"game_id":440,"stv_port":27036,"stv_name":"Uncletopia | New York City | 3 | Stopwatch | STV","players":null},{"server_id":16,"name":"Uncletopia | New York City | 4 | Community","name_short":"nyc-4","host":"nyc-1.us.uncletopia.com","port":27045,"enabled":true,"region":"us-east","cc":"us","latitude":40.73061,"longitude":-73.93524,"reserved":0,"last_update":"0001-01-01T00:00:00Z","name_a2s":"Uncletopia | New York City | 4 | Community","protocol":17,"map":"workshop/koth_slaughter_rc1.ugc1712845210","folder":"tf","game":"Team Fortress","app_id":440,"player_count":0,"max_players":24,"Bots":0,"server_type":"Dedicated","server_os":"Linux","password":true,"vac":true,"version":"7961495","steam_id":85568392924742821,"keywords":["cp","nocrits","nodmgspread","uncletopia"],"game_id":440,"stv_port":27046,"stv_name":"Uncletopia | New York City | 4 | Community | STV","players":null},{"server_id":142,"name":"Uncletopia | São Paulo | 1 | All Maps","name_short":"sao-1","host":"sao-1.br.uncletopia.com","port":27015,"enabled":true,"region":"sa","cc":"br","latitude":-23.533773,"longitude":-46.62529,"reserved":0,"last_update":"0001-01-01T00:00:00Z","name_a2s":"Uncletopia | São Paulo | 1 | All Maps","protocol":17,"map":"koth_lakeside_final","folder":"tf","game":"Team Fortress","app_id":440,"player_count":0,"max_players":24,"Bots":0,"server_type":"Dedicated","server_os":"Linux","password":true,"vac":true,"version":"7961495","steam_id":85568392924469996,"keywords":["cp","nocrits","nodmgspread","uncletopia"],"game_id":440,"stv_port":27016,"stv_name":"Uncletopia | São Paulo | 1 | All Maps | STV","players":null},{"server_id":143,"name":"Uncletopia | São Paulo | 2 | Community","name_short":"sao-2","host":"sao-2.br.uncletopia.com","port":27015,"enabled":true,"region":"sa","cc":"br","latitude":-23.533773,"longitude":-46.62529,"reserved":0,"last_update":"0001-01-01T00:00:00Z","name_a2s":"Uncletopia | São Paulo | 2 | Community","protocol":17,"map":"workshop/koth_ramjam_rc1.ugc459778887","folder":"tf","game":"Team Fortress","app_id":440,"player_count":0,"max_players":24,"Bots":0,"server_type":"Dedicated","server_os":"Linux","password":true,"vac":true,"version":"7961495","steam_id":85568392924485349,"keywords":["cp","nocrits","nodmgspread","uncletopia"],"game_id":440,"stv_port":27016,"stv_name":"Uncletopia | São Paulo | 2 | Community | STV","players":null},{"server_id":7,"name":"Uncletopia | Seattle | 1 | All Maps","name_short":"sea-1","host":"sea-1.us.uncletopia.com","port":27015,"enabled":true,"region":"us-west","cc":"us","latitude":47.608013,"longitude":-122.33517,"reserved":0,"last_update":"0001-01-01T00:00:00Z","name_a2s":"Uncletopia | Seattle | 1 | All Maps","protocol":17,"map":"cp_process_final","folder":"tf","game":"Team Fortress","app_id":440,"player_count":19,"max_players":24,"Bots":0,"server_type":"Dedicated","server_os":"Linux","password":true,"vac":true,"version":"7961495","steam_id":85568392924469997,"keywords":["cp","nocrits","nodmgspread","uncletopia"],"game_id":440,"stv_port":27016,"stv_name":"Uncletopia | Seattle | 1 | All Maps | STV","players":[{"user_id":130,"name":"BooGotShot","steam_id":76561198039062270,"connected_time":6815000000000,"state":"active","ping":102},{"user_id":206,"name":"Bob","steam_id":76561198059258610,"connected_time":1828000000000,"state":"active","ping":78},{"user_id":218,"name":"A Pizza Already","steam_id":76561198064918401,"connected_time":972000000000,"state":"active","ping":59},{"user_id":229,"name":"Gustavo_Fring_6969","steam_id":76561199373610279,"connected_time":189000000000,"state":"active","ping":186},{"user_id":233,"name":"lukamine","steam_id":76561198166827208,"connected_time":86000000000,"state":"active","ping":42},{"user_id":231,"name":"lorient","steam_id":76561198150831438,"connected_time":120000000000,"state":"active","ping":77},{"user_id":194,"name":"Sudsen","steam_id":76561198370603787,"connected_time":2250000000000,"state":"active","ping":60},{"user_id":201,"name":"UnReLinked","steam_id":76561199366044663,"connected_time":1973000000000,"state":"active","ping":46},{"user_id":205,"name":"Eden","steam_id":76561198081284664,"connected_time":1850000000000,"state":"active","ping":85},{"user_id":198,"name":"Dog","steam_id":76561198041841128,"connected_time":2088000000000,"state":"active","ping":79},{"user_id":212,"name":"SHUSH nikoOS","steam_id":76561198180020521,"connected_time":1764000000000,"state":"active","ping":148},{"user_id":208,"name":"slime ( ,'' w'' )","steam_id":76561198198984282,"connected_time":1815000000000,"state":"active","ping":120},{"user_id":225,"name":"tek lintowe fan","steam_id":76561198206177593,"connected_time":535000000000,"state":"active","ping":71},{"user_id":227,"name":"Cave Mushroom","steam_id":76561198090419068,"connected_time":350000000000,"state":"active","ping":59},{"user_id":141,"name":"THE CUMEST LORD","steam_id":76561198061412592,"connected_time":6252000000000,"state":"active","ping":105},{"user_id":168,"name":"oo","steam_id":76561198119626492,"connected_time":4511000000000,"state":"active","ping":69},{"user_id":217,"name":"paranoid","steam_id":76561198055089667,"connected_time":1225000000000,"state":"active","ping":44},{"user_id":178,"name":"Korota","steam_id":76561198095891641,"connected_time":4195000000000,"state":"active","ping":100},{"user_id":214,"name":"FloatingQuaker","steam_id":76561198928993208,"connected_time":1744000000000,"state":"active","ping":62}]},{"server_id":119,"name":"Uncletopia | Seattle | 2 | All Maps","name_short":"sea-2","host":"sea-1.us.uncletopia.com","port":27025,"enabled":true,"region":"us-west","cc":"us","latitude":47.608013,"longitude":-122.33517,"reserved":0,"last_update":"0001-01-01T00:00:00Z","name_a2s":"Uncletopia | Seattle | 2 | All Maps","protocol":17,"map":"cp_snakewater_final1","folder":"tf","game":"Team Fortress","app_id":440,"player_count":0,"max_players":24,"Bots":0,"server_type":"Dedicated","server_os":"Linux","password":true,"vac":true,"version":"7961495","steam_id":85568392924469998,"keywords":["cp","nocrits","nodmgspread","uncletopia"],"game_id":440,"stv_port":27026,"stv_name":"Uncletopia | Seattle | 2 | All Maps | STV","players":null},{"server_id":406,"name":"Uncletopia | Seattle | 3 | Stopwatch","name_short":"sea-3","host":"sea-1.us.uncletopia.com","port":27035,"enabled":true,"region":"us-west","cc":"us","latitude":47.608013,"longitude":-122.33517,"reserved":0,"last_update":"0001-01-01T00:00:00Z","name_a2s":"Uncletopia | Seattle | 3 | Stopwatch","protocol":17,"map":"pl_pier","folder":"tf","game":"Team Fortress","app_id":440,"player_count":0,"max_players":24,"Bots":0,"server_type":"Dedicated","server_os":"Linux","password":true,"vac":true,"version":"7961495","steam_id":85568392924515217,"keywords":["nocrits","nodmgspread","payload","uncletopia"],"game_id":440,"stv_port":27036,"stv_name":"Uncletopia | Seattle | 3 | Stopwatch | STV","players":null},{"server_id":17,"name":"Uncletopia | San Francisco | 1 | All Maps","name_short":"sfo-1","host":"sfo-1.us.uncletopia.com","port":27015,"enabled":true,"region":"us-west","cc":"us","latitude":37.77397,"longitude":-122.4313,"reserved":0,"last_update":"0001-01-01T00:00:00Z","name_a2s":"Uncletopia | San Francisco | 1 | All Maps","protocol":17,"map":"koth_cascade","folder":"tf","game":"Team Fortress","app_id":440,"player_count":0,"max_players":24,"Bots":0,"server_type":"Dedicated","server_os":"Linux","password":true,"vac":true,"version":"7961495","steam_id":85568392924469999,"keywords":["cp","nocrits","nodmgspread","uncletopia"],"game_id":440,"stv_port":27016,"stv_name":"Uncletopia | San Francisco | 1 | All Maps | STV","players":null},{"server_id":18,"name":"Uncletopia | San Francisco | 2 | All Maps","name_short":"sfo-2","host":"sfo-1.us.uncletopia.com","port":27025,"enabled":true,"region":"us-west","cc":"us","latitude":37.77397,"longitude":-122.4313,"reserved":0,"last_update":"0001-01-01T00:00:00Z","name_a2s":"Uncletopia | San Francisco | 2 | All Maps","protocol":17,"map":"pl_frontier_final","folder":"tf","game":"Team Fortress","app_id":440,"player_count":23,"max_players":24,"Bots":0,"server_type":"Dedicated","server_os":"Linux","password":true,"vac":true,"version":"7961495","steam_id":85568392924470000,"keywords":["nocrits","nodmgspread","payload","uncletopia"],"game_id":440,"stv_port":27026,"stv_name":"Uncletopia | San Francisco | 2 | All Maps | STV","players":[{"user_id":95,"name":"Logical","steam_id":76561198167315656,"connected_time":1138000000000,"state":"active","ping":89},{"user_id":113,"name":"Dog","steam_id":76561198450992953,"connected_time":153000000000,"state":"active","ping":64},{"user_id":114,"name":"Dallas","steam_id":76561198066542919,"connected_time":123000000000,"state":"active","ping":95},{"user_id":99,"name":"leaf","steam_id":76561198061516523,"connected_time":1007000000000,"state":"active","ping":106},{"user_id":100,"name":"imng","steam_id":76561198014988031,"connected_time":689000000000,"state":"active","ping":110},{"user_id":98,"name":"Mentally Ill Woman","steam_id":76561198072030567,"connected_time":1055000000000,"state":"active","ping":98},{"user_id":101,"name":"♥ur :3 medic gf♥ (51ref/hr)","steam_id":76561198816778484,"connected_time":626000000000,"state":"active","ping":79},{"user_id":78,"name":"PadrePockets","steam_id":76561197993251606,"connected_time":2349000000000,"state":"active","ping":111},{"user_id":79,"name":"dantheman","steam_id":76561199486390813,"connected_time":2295000000000,"state":"active","ping":123},{"user_id":102,"name":"HappyHarby","steam_id":76561198056965702,"connected_time":614000000000,"state":"active","ping":143},{"user_id":103,"name":"Beta Fish","steam_id":76561198073504861,"connected_time":544000000000,"state":"active","ping":102},{"user_id":104,"name":"filthycasual","steam_id":76561199138226238,"connected_time":452000000000,"state":"active","ping":71},{"user_id":109,"name":"cilo","steam_id":76561198046163502,"connected_time":321000000000,"state":"active","ping":65},{"user_id":105,"name":"Jam Jams","steam_id":76561198128811267,"connected_time":446000000000,"state":"active","ping":98},{"user_id":106,"name":"Hero Smasher","steam_id":76561198150681669,"connected_time":430000000000,"state":"active","ping":57},{"user_id":91,"name":"Kiril","steam_id":76561198051433762,"connected_time":1296000000000,"state":"active","ping":108},{"user_id":108,"name":"Dr. Juvenal","steam_id":76561198114553453,"connected_time":399000000000,"state":"active","ping":64},{"user_id":115,"name":"StaigerDuck","steam_id":76561199190706582,"connected_time":121000000000,"state":"active","ping":125},{"user_id":111,"name":"Brain Magic","steam_id":76561198010201477,"connected_time":281000000000,"state":"active","ping":66},{"user_id":112,"name":"Cleveland Gaming","steam_id":76561198144066745,"connected_time":254000000000,"state":"active","ping":151},{"user_id":116,"name":"Naffty","steam_id":76561198119734981,"connected_time":96000000000,"state":"active","ping":116},{"user_id":117,"name":"williwillinui","steam_id":76561198253202693,"connected_time":77000000000,"state":"active","ping":45},{"user_id":118,"name":"noceof","steam_id":76561198043656816,"connected_time":75000000000,"state":"active","ping":163}]},{"server_id":19,"name":"Uncletopia | San Francisco | 3 | Stopwatch","name_short":"sfo-3","host":"sfo-1.us.uncletopia.com","port":27035,"enabled":true,"region":"us-west","cc":"us","latitude":37.77397,"longitude":-122.4313,"reserved":0,"last_update":"0001-01-01T00:00:00Z","name_a2s":"Uncletopia | San Francisco | 3 | Stopwatch","protocol":17,"map":"pl_pier","folder":"tf","game":"Team Fortress","app_id":440,"player_count":0,"max_players":24,"Bots":0,"server_type":"Dedicated","server_os":"Linux","password":true,"vac":true,"version":"7961495","steam_id":85568392924742824,"keywords":["nocrits","nodmgspread","payload","uncletopia"],"game_id":440,"stv_port":27036,"stv_name":"Uncletopia | San Francisco | 3 | Stopwatch | STV","players":null},{"server_id":20,"name":"Uncletopia | San Francisco | 4 | Community","name_short":"sfo-4","host":"sfo-1.us.uncletopia.com","port":27045,"enabled":true,"region":"us-west","cc":"us","latitude":37.77397,"longitude":-122.4313,"reserved":0,"last_update":"0001-01-01T00:00:00Z","name_a2s":"Uncletopia | San Francisco | 4 | Community","protocol":17,"map":"pl_pier","folder":"tf","game":"Team Fortress","app_id":440,"player_count":0,"max_players":24,"Bots":0,"server_type":"Dedicated","server_os":"Linux","password":true,"vac":true,"version":"7961495","steam_id":85568392924742826,"keywords":["nocrits","nodmgspread","payload","uncletopia"],"game_id":440,"stv_port":27046,"stv_name":"Uncletopia | San Francisco | 4 | Community | STV","players":null},{"server_id":141,"name":"Uncletopia | Sydney | 1 | All Maps","name_short":"syd-1","host":"syd-1.au.uncletopia.com","port":27015,"enabled":true,"region":"au","cc":"au","latitude":-33.865143,"longitude":151.2099,"reserved":0,"last_update":"0001-01-01T00:00:00Z","name_a2s":"Uncletopia | Sydney | 1 | All Maps","protocol":17,"map":"koth_highpass","folder":"tf","game":"Team Fortress","app_id":440,"player_count":0,"max_players":24,"Bots":0,"server_type":"Dedicated","server_os":"Linux","password":true,"vac":true,"version":"7961495","steam_id":85568392924470001,"keywords":["cp","nocrits","nodmgspread","uncletopia"],"game_id":440,"stv_port":27016,"stv_name":"Uncletopia | Sydney | 1 | All Maps | STV","players":null},{"server_id":123,"name":"Uncletopia | Sydney | 2 | All Maps","name_short":"syd-2","host":"syd-1.au.uncletopia.com","port":27025,"enabled":true,"region":"au","cc":"au","latitude":-33.865143,"longitude":151.2099,"reserved":0,"last_update":"0001-01-01T00:00:00Z","name_a2s":"Uncletopia | Sydney | 2 | All Maps","protocol":17,"map":"koth_cascade","folder":"tf","game":"Team Fortress","app_id":440,"player_count":0,"max_players":24,"Bots":0,"server_type":"Dedicated","server_os":"Linux","password":true,"vac":true,"version":"7961495","steam_id":85568392924470002,"keywords":["cp","nocrits","nodmgspread","uncletopia"],"game_id":440,"stv_port":27026,"stv_name":"Uncletopia | Sydney | 2 | All Maps | STV","players":null},{"server_id":395,"name":"Uncletopia | Sydney | 3 | All Maps","name_short":"syd-3","host":"syd-1.au.uncletopia.com","port":27035,"enabled":true,"region":"au","cc":"au","latitude":-33.865143,"longitude":151.2099,"reserved":0,"last_update":"0001-01-01T00:00:00Z","name_a2s":"Uncletopia | Sydney | 3 | All Maps","protocol":17,"map":"koth_highpass","folder":"tf","game":"Team Fortress","app_id":440,"player_count":0,"max_players":24,"Bots":0,"server_type":"Dedicated","server_os":"Linux","password":true,"vac":true,"version":"7961495","steam_id":85568392925194467,"keywords":["cp","nocrits","nodmgspread","uncletopia"],"game_id":440,"stv_port":27036,"stv_name":"Uncletopia | Sydney | 3 | All Maps | STV","players":null},{"server_id":396,"name":"Uncletopia | Sydney | 4 | All Maps","name_short":"syd-4","host":"syd-1.au.uncletopia.com","port":27045,"enabled":true,"region":"au","cc":"au","latitude":-33.865143,"longitude":151.2099,"reserved":0,"last_update":"0001-01-01T00:00:00Z","name_a2s":"Uncletopia | Sydney | 4 | All Maps","protocol":17,"map":"koth_highpass","folder":"tf","game":"Team Fortress","app_id":440,"player_count":0,"max_players":24,"Bots":0,"server_type":"Dedicated","server_os":"Linux","password":true,"vac":true,"version":"7961495","steam_id":85568392925397958,"keywords":["cp","nocrits","nodmgspread","uncletopia"],"game_id":440,"stv_port":27046,"stv_name":"Uncletopia | Sydney | 4 | All Maps | STV","players":null},{"server_id":58,"name":"Uncletopia | Sydney | 5 | Stopwatch","name_short":"syd-5","host":"syd-1.au.uncletopia.com","port":27055,"enabled":true,"region":"au","cc":"au","latitude":-33.865143,"longitude":151.2099,"reserved":0,"last_update":"0001-01-01T00:00:00Z","name_a2s":"Uncletopia | Sydney | 5 | Stopwatch","protocol":17,"map":"pl_frontier_final","folder":"tf","game":"Team Fortress","app_id":440,"player_count":0,"max_players":24,"Bots":0,"server_type":"Dedicated","server_os":"Linux","password":true,"vac":true,"version":"7961495","steam_id":85568392925397959,"keywords":["nocrits","nodmgspread","payload","uncletopia"],"game_id":440,"stv_port":27056,"stv_name":"Uncletopia | Sydney | 5 | Stopwatch | STV","players":null},{"server_id":59,"name":"Uncletopia | Sydney | 6 | Community","name_short":"syd-6","host":"syd-1.au.uncletopia.com","port":27065,"enabled":true,"region":"au","cc":"au","latitude":-33.865143,"longitude":151.2099,"reserved":0,"last_update":"0001-01-01T00:00:00Z","name_a2s":"Uncletopia | Sydney | 6 | Community","protocol":17,"map":"cp_sunshine","folder":"tf","game":"Team Fortress","app_id":440,"player_count":1,"max_players":24,"Bots":0,"server_type":"Dedicated","server_os":"Linux","password":true,"vac":true,"version":"7961495","steam_id":85568392925397960,"keywords":["cp","nocrits","nodmgspread","uncletopia"],"game_id":440,"stv_port":27066,"stv_name":"Uncletopia | Sydney | 6 | Community | STV","players":[{"user_id":3,"name":"Matt VII (7) (seven)","steam_id":76561198065340795,"connected_time":66000000000,"state":"active","ping":50}]},{"server_id":49,"name":"Uncletopia | Warsaw | 1 | One Thousand Uncles","name_short":"waw-1","host":"waw-1.pl.uncletopia.com","port":27015,"enabled":true,"region":"eu","cc":"pl","latitude":52.2297,"longitude":21.017532,"reserved":0,"last_update":"0001-01-01T00:00:00Z","name_a2s":"Uncletopia | Warsaw | 1 | One Thousand Uncles","protocol":17,"map":"koth_highpass","folder":"tf","game":"Team Fortress","app_id":440,"player_count":22,"max_players":32,"Bots":16,"server_type":"Dedicated","server_os":"Linux","password":true,"vac":true,"version":"7961495","steam_id":85568392925397850,"keywords":["alltalk","bots","cp","danepve","increased_maxplayers","nocrits","norespawntime","uncletopia"],"game_id":440,"stv_port":0,"stv_name":"","players":[{"user_id":25,"name":"Rayco","steam_id":76561198048013129,"connected_time":811000000000,"state":"active","ping":60},{"user_id":20,"name":"0scr_","steam_id":76561198042631352,"connected_time":1212000000000,"state":"active","ping":82},{"user_id":29,"name":"Junkie","steam_id":76561199435573349,"connected_time":454000000000,"state":"active","ping":109},{"user_id":30,"name":"aaaaaa","steam_id":76561198086304421,"connected_time":420000000000,"state":"active","ping":86},{"user_id":33,"name":"Coac","steam_id":76561198085265740,"connected_time":276000000000,"state":"active","ping":78},{"user_id":34,"name":"Ironhood","steam_id":76561198200396837,"connected_time":267000000000,"state":"active","ping":73}]},{"server_id":50,"name":"Uncletopia | Warsaw | 2 | One Thousand Uncles","name_short":"waw-2","host":"waw-1.pl.uncletopia.com","port":27025,"enabled":true,"region":"eu","cc":"pl","latitude":52.2297,"longitude":21.017532,"reserved":0,"last_update":"0001-01-01T00:00:00Z","name_a2s":"Uncletopia | Warsaw | 2 | One Thousand Uncles","protocol":17,"map":"pl_badwater","folder":"tf","game":"Team Fortress","app_id":440,"player_count":29,"max_players":32,"Bots":16,"server_type":"Dedicated","server_os":"Linux","password":true,"vac":true,"version":"7961495","steam_id":85568392925397851,"keywords":["alltalk","bots","danepve","increased_maxplayers","nocrits","norespawntime","payload","uncletopia"],"game_id":440,"stv_port":0,"stv_name":"","players":[{"user_id":528,"name":"akozako69","steam_id":76561199351679541,"connected_time":407000000000,"state":"active","ping":66},{"user_id":519,"name":"Skişehirli","steam_id":76561198421239254,"connected_time":787000000000,"state":"active","ping":108},{"user_id":487,"name":"Debch1k","steam_id":76561198144985727,"connected_time":2176000000000,"state":"active","ping":47},{"user_id":511,"name":"Denton","steam_id":76561198367991717,"connected_time":1190000000000,"state":"active","ping":52},{"user_id":486,"name":"Advokat","steam_id":76561198307121174,"connected_time":2207000000000,"state":"active","ping":39},{"user_id":479,"name":"Pestilence","steam_id":76561198140938904,"connected_time":2897000000000,"state":"active","ping":68},{"user_id":508,"name":"Jack Dickfister","steam_id":76561198145145810,"connected_time":1297000000000,"state":"active","ping":68},{"user_id":513,"name":"ReeceU01","steam_id":76561198391922588,"connected_time":1146000000000,"state":"active","ping":97},{"user_id":526,"name":"ุุุุุุุุุุ","steam_id":76561198999004934,"connected_time":464000000000,"state":"active","ping":64},{"user_id":527,"name":"LePest","steam_id":76561198389887121,"connected_time":459000000000,"state":"active","ping":106},{"user_id":509,"name":"Girl with 4k (pocket pls ❤)","steam_id":76561198091512580,"connected_time":1267000000000,"state":"active","ping":85},{"user_id":520,"name":"Celiek","steam_id":76561198179319610,"connected_time":727000000000,"state":"active","ping":63},{"user_id":530,"name":"medicinal man","steam_id":76561198202668788,"connected_time":330000000000,"state":"active","ping":36}]},{"server_id":51,"name":"Uncletopia | Warsaw | 3 | All Maps","name_short":"waw-3","host":"waw-1.pl.uncletopia.com","port":27035,"enabled":true,"region":"eu","cc":"pl","latitude":52.2297,"longitude":21.017532,"reserved":0,"last_update":"0001-01-01T00:00:00Z","name_a2s":"Uncletopia | Warsaw | 3 | All Maps","protocol":17,"map":"plr_pipeline","folder":"tf","game":"Team Fortress","app_id":440,"player_count":0,"max_players":24,"Bots":0,"server_type":"Dedicated","server_os":"Linux","password":true,"vac":true,"version":"7961495","steam_id":85568392925397852,"keywords":["nocrits","nodmgspread","payload","uncletopia"],"game_id":440,"stv_port":27036,"stv_name":"Uncletopia | Warsaw | 3 | All Maps | STV","players":null},{"server_id":52,"name":"Uncletopia | Warsaw | 4 | All Maps","name_short":"waw-4","host":"waw-1.pl.uncletopia.com","port":27045,"enabled":true,"region":"eu","cc":"pl","latitude":52.2297,"longitude":21.017532,"reserved":0,"last_update":"0001-01-01T00:00:00Z","name_a2s":"Uncletopia | Warsaw | 4 | All Maps","protocol":17,"map":"pl_pier","folder":"tf","game":"Team Fortress","app_id":440,"player_count":0,"max_players":24,"Bots":0,"server_type":"Dedicated","server_os":"Linux","password":true,"vac":true,"version":"7961495","steam_id":85568392925397853,"keywords":["nocrits","nodmgspread","payload","uncletopia"],"game_id":440,"stv_port":27046,"stv_name":"Uncletopia | Warsaw | 4 | All Maps | STV","players":null},{"server_id":53,"name":"Uncletopia | Warsaw | 5 | Stopwatch","name_short":"waw-5","host":"waw-1.pl.uncletopia.com","port":27055,"enabled":true,"region":"eu","cc":"pl","latitude":52.2297,"longitude":21.017532,"reserved":0,"last_update":"0001-01-01T00:00:00Z","name_a2s":"Uncletopia | Warsaw | 5 | Stopwatch","protocol":17,"map":"koth_highpass","folder":"tf","game":"Team Fortress","app_id":440,"player_count":0,"max_players":24,"Bots":0,"server_type":"Dedicated","server_os":"Linux","password":true,"vac":true,"version":"7961495","steam_id":85568392925397854,"keywords":["cp","nocrits","nodmgspread","uncletopia"],"game_id":440,"stv_port":27056,"stv_name":"Uncletopia | Warsaw | 5 | Stopwatch | STV","players":null},{"server_id":54,"name":"Uncletopia | Warsaw | 6 | Community","name_short":"waw-6","host":"waw-1.pl.uncletopia.com","port":27065,"enabled":true,"region":"eu","cc":"pl","latitude":52.2297,"longitude":21.017532,"reserved":0,"last_update":"0001-01-01T00:00:00Z","name_a2s":"Uncletopia | Warsaw | 6 | Community","protocol":17,"map":"workshop/cp_villa_b19.ugc2113052569","folder":"tf","game":"Team Fortress","app_id":440,"player_count":0,"max_players":24,"Bots":0,"server_type":"Dedicated","server_os":"Linux","password":true,"vac":true,"version":"7961495","steam_id":85568392925397856,"keywords":["cp","nocrits","nodmgspread","uncletopia"],"game_id":440,"stv_port":27066,"stv_name":"Uncletopia | Warsaw | 6 | Community | STV","players":null}]}