{"status":true,"message":"","result":[{"server_id":9,"name":"Uncletopia | Atlanta | 1 | All Maps","name_short":"atl-1","host":"atl-1.us.uncletopia.com","port":27015,"enabled":true,"region":"us-east","cc":"us","latitude":33.753746,"longitude":-84.38633,"reserved":0,"last_update":"0001-01-01T00:00:00Z","name_a2s":"Uncletopia | Atlanta | 1 | All Maps","protocol":17,"map":"ctf_turbine","folder":"tf","game":"Team Fortress","app_id":440,"player_count":24,"max_players":24,"Bots":0,"server_type":"Dedicated","server_os":"Linux","password":true,"vac":true,"version":"7961495","steam_id":85568392924469982,"keywords":["ctf","nocrits","nodmgspread","uncletopia"],"game_id":440,"stv_port":27016,"stv_name":"Uncletopia | Atlanta | 1 | All Maps | STV","players":[{"user_id":538,"name":"lynt","steam_id":76561198988333976,"connected_time":12446000000000,"state":"active","ping":34},{"user_id":684,"name":"ATL1 | cola","steam_id":76561198374390458,"connected_time":577000000000,"state":"active","ping":65},{"user_id":635,"name":"CoffeeZombi","steam_id":76561198172708053,"connected_time":4880000000000,"state":"active","ping":69},{"user_id":645,"name":"johnny wang","steam_id":76561198969143876,"connected_time":4189000000000,"state":"active","ping":75},{"user_id":674,"name":"Fidel Cashflow","steam_id":76561198165508772,"connected_time":1652000000000,"state":"active","ping":76},{"user_id":662,"name":"why","steam_id":76561199059732212,"connected_time":2378000000000,"state":"active","ping":59},{"user_id":646,"name":"z #based","steam_id":76561198377478982,"connected_time":3902000000000,"state":"active","ping":54},{"user_id":653,"name":"C.E.O of the SWAG Corporation","steam_id":76561199009151946,"connected_time":2553000000000,"state":"active","ping":61},{"user_id":675,"name":"Jin Gulilo","steam_id":76561198065151242,"connected_time":1422000000000,"state":"active","ping":74},{"user_id":606,"name":"stink #FoldingChairGaming","steam_id":76561198099318923,"connected_time":7932000000000,"state":"active","ping":79},{"user_id":534,"name":"Heathcliff","steam_id":76561198044288534,"connected_time":12877000000000,"state":"active","ping":82},{"user_id":630,"name":"PelicanFeet","steam_id":76561198042513717,"connected_time":5918000000000,"state":"active","ping":56},{"user_id":622,"name":"Sorbet Shark Cookie","steam_id":76561198133082665,"connected_time":6150000000000,"state":"active","ping":65},{"user_id":676,"name":"BIG HOG","steam_id":76561198079923652,"connected_time":995000000000,"state":"active","ping":73},{"user_id":670,"name":"aaaxel","steam_id":76561198137430598,"connected_time":1846000000000,"state":"active","ping":68},{"user_id":681,"name":"otwtomarsoffdabars(spacecore)","steam_id":76561199085974120,"connected_time":660000000000,"state":"active","ping":98},{"user_id":658,"name":"Ashes!","steam_id":76561197998475441,"connected_time":2466000000000,"state":"active","ping":77},{"user_id":673,"name":"Tay1Qr","steam_id":76561198082809935,"connected_time":1774000000000,"state":"active","ping":63},{"user_id":613,"name":"e0e0","steam_id":76561198293839750,"connected_time":7247000000000,"state":"active","ping":56},{"user_id":669,"name":"pootispogger69 (G.E.W.P)","steam_id":76561198249206656,"connected_time":2109000000000,"state":"active","ping":78},{"user_id":626,"name":"Luigi4tl","steam_id":76561198051862389,"connected_time":6036000000000,"state":"active","ping":64},{"user_id":614,"name":"PinkLemonade","steam_id":76561198799286228,"connected_time":7240000000000,"state":"active","ping":90},{"user_id":665,"name":"ATL1 | on my hunting trip","steam_id":76561198315341646,"connected_time":2195000000000,"state":"active","ping":82},{"user_id":679,"name":"(Mage) damn I must be a genius","steam_id":76561198285026879,"connected_time":907000000000,"state":"active","ping":76}]},{"server_id":104,"name":"Uncletopia | Atlanta | 2 | All Maps","name_short":"atl-2","host":"atl-1.us.uncletopia.com","port":27025,"enabled":true,"region":"us-east","cc":"us","latitude":33.753746,"longitude":-84.38633,"reserved":0,"last_update":"0001-01-01T00:00:00Z","name_a2s":"Uncletopia | Atlanta | 2 | All Maps","protocol":17,"map":"pl_borneo","folder":"tf","game":"Team Fortress","app_id":440,"player_count":24,"max_players":24,"Bots":0,"server_type":"Dedicated","server_os":"Linux","password":true,"vac":true,"version":"7961495","steam_id":85568392924469983,"keywords":["nocrits","nodmgspread","payload","uncletopia"],"game_id":440,"stv_port":27026,"stv_name":"Uncletopia | Atlanta | 2 | All Maps | STV","players":[{"user_id":365,"name":"brick","steam_id":76561198381123094,"connected_time":2749000000000,"state":"active","ping":78},{"user_id":341,"name":"Ganon","steam_id":76561198114972080,"connected_time":4423000000000,"state":"active","ping":49},{"user_id":396,"name":"Dractyl","steam_id":76561198034661004,"connected_time":501000000000,"state":"active","ping":196},{"user_id":317,"name":"awsomeeevee1","steam_id":76561199012905300,"connected_time":5122000000000,"state":"active","ping":92},{"user_id":397,"name":"Blade Racer","steam_id":76561198155896703,"connected_time":459000000000,"state":"active","ping":59},{"user_id":366,"name":"Kas-AI","steam_id":76561199131044338,"connected_time":2727000000000,"state":"active","ping":89},{"user_id":388,"name":"Magnoliam_","steam_id":76561198356983746,"connected_time":1345000000000,"state":"active","ping":92},{"user_id":399,"name":"Andrew Weber","steam_id":76561199359977174,"connected_time":331000000000,"state":"active","ping":75},{"user_id":369,"name":"ANuSensation","steam_id":76561198296757260,"connected_time":2212000000000,"state":"active","ping":70},{"user_id":345,"name":"AlexLovesYou","steam_id":76561199163263543,"connected_time":4115000000000,"state":"active","ping":69},{"user_id":370,"name":"Fever Dreams","steam_id":76561198116614620,"connected_time":2098000000000,"state":"active","ping":74},{"user_id":358,"name":"gaming123","steam_id":76561198801780168,"connected_time":3283000000000,"state":"active","ping":75},{"user_id":302,"name":"mann","steam_id":76561198171239787,"connected_time":5516000000000,"state":"active","ping":86},{"user_id":377,"name":"Helix","steam_id":76561198099239722,"connected_time":1772000000000,"state":"active","ping":81},{"user_id":378,"name":"lilscot","steam_id":76561198099212453,"connected_time":1769000000000,"state":"active","ping":81},{"user_id":379,"name":"Klip","steam_id":76561198316254429,"connected_time":1716000000000,"state":"active","ping":76},{"user_id":389,"name":"eggo-on-a-stick","steam_id":76561198799357966,"connected_time":1324000000000,"state":"active","ping":100},{"user_id":394,"name":"helen keller","steam_id":76561197979870540,"connected_time":782000000000,"state":"active","ping":72},{"user_id":331,"name":"fachions_tip","steam_id":76561198848962575,"connected_time":4752000000000,"state":"active","ping":49},{"user_id":387,"name":"Marsk","steam_id":76561198417568196,"connected_time":1381000000000,"state":"active","ping":101},{"user_id":400,"name":"Spiffyputt","steam_id":76561198439345687,"connected_time":310000000000,"state":"active","ping":65},{"user_id":395,"name":"Doctor Vegeta","steam_id":76561198353898356,"connected_time":776000000000,"state":"active","ping":79},{"user_id":350,"name":"bonehead","steam_id":76561198345111741,"connected_time":3757000000000,"state":"active","ping":61},{"user_id":335,"name":"mr ploobmeister","steam_id":76561198128908529,"connected_time":4568000000000,"state":"active","ping":85}]},{"server_id":400,"name":"Uncletopia | Atlanta | 3 | Stopwatch","name_short":"atl-3","host":"atl-1.us.uncletopia.com","port":27035,"enabled":true,"region":"us-east","cc":"us","latitude":33.753746,"longitude":-84.38633,"reserved":0,"last_update":"0001-01-01T00:00:00Z","name_a2s":"Uncletopia | Atlanta | 3 | Stopwatch","protocol":17,"map":"koth_highpass","folder":"tf","game":"Team Fortress","app_id":440,"player_count":0,"max_players":24,"Bots":0,"server_type":"Dedicated","server_os":"Linux","password":true,"vac":true,"version":"7961495","steam_id":85568392924515187,"keywords":["cp","nocrits","nodmgspread","uncletopia"],"game_id":440,"stv_port":27036,"stv_name":"Uncletopia | Atlanta | 3 | Stopwatch | STV","players":null},{"server_id":401,"name":"Uncletopia | Atlanta | 4 | Community","name_short":"atl-4","host":"atl-1.us.uncletopia.com","port":27045,"enabled":true,"region":"us-east","cc":"us","latitude":33.753746,"longitude":-84.38633,"reserved":0,"last_update":"0001-01-01T00:00:00Z","name_a2s":"Uncletopia | Atlanta | 4 | Community","protocol":17,"map":"workshop/koth_bagel_rc6.ugc2514036946","folder":"tf","game":"Team Fortress","app_id":440,"player_count":0,"max_players":24,"Bots":0,"server_type":"Dedicated","server_os":"Linux","password":true,"vac":true,"version":"7961495","steam_id":85568392924515188,"keywords":["cp","nocrits","nodmgspread","uncletopia"],"game_id":440,"stv_port":27046,"stv_name":"Uncletopia | Atlanta | 4 | Community | STV","players":null},{"server_id":2,"name":"Uncletopia | Chicago | 1 | All Maps","name_short":"chi-1","host":"chi-1.us.uncletopia.com","port":27015,"enabled":true,"region":"us-central","cc":"us","latitude":41.881832,"longitude":-87.62318,"reserved":0,"last_update":"0001-01-01T00:00:00Z","name_a2s":"Uncletopia | Chicago | 1 | All Maps","protocol":17,"map":"cp_freight_final1","folder":"tf","game":"Team Fortress","app_id":440,"player_count":24,"max_players":24,"Bots":0,"server_type":"Dedicated","server_os":"Linux","password":true,"vac":true,"version":"7961495","steam_id":85568392924469984,"keywords":["cp","nocrits","nodmgspread","uncletopia"],"game_id":440,"stv_port":27016,"stv_name":"Uncletopia | Chicago | 1 | All Maps | STV","players":[{"user_id":435,"name":"Word To Your Mothership","steam_id":76561198034329138,"connected_time":3312000000000,"state":"active","ping":102},{"user_id":397,"name":"add syrup","steam_id":76561198224614084,"connected_time":6185000000000,"state":"active","ping":66},{"user_id":462,"name":"Gum from Jet Set Radio Future","steam_id":76561199035402139,"connected_time":983000000000,"state":"active","ping":87},{"user_id":458,"name":"emeraldrhymes","steam_id":76561198842486176,"connected_time":1666000000000,"state":"active","ping":80},{"user_id":411,"name":"Toxic Mercenary","steam_id":76561197988501611,"connected_time":4249000000000,"state":"active","ping":80},{"user_id":426,"name":"corntent","steam_id":76561198824847948,"connected_time":3947000000000,"state":"active","ping":58},{"user_id":438,"name":"Tommy Provolone","steam_id":76561198170062377,"connected_time":3112000000000,"state":"active","ping":75},{"user_id":448,"name":"jb","steam_id":76561198038607085,"connected_time":2534000000000,"state":"active","ping":74},{"user_id":370,"name":"Hooked","steam_id":76561198007302139,"connected_time":8292000000000,"state":"active","ping":75},{"user_id":466,"name":"rat eater","steam_id":76561199216874750,"connected_time":795000000000,"state":"active","ping":57},{"user_id":479,"name":"Morgster","steam_id":76561198131697761,"connected_time":161000000000,"state":"active","ping":79},{"user_id":445,"name":"Satchamo","steam_id":76561198012968239,"connected_time":2828000000000,"state":"active","ping":75},{"user_id":476,"name":"√∂¬ør√∂  √π œÄ (NG√Ø‚óã√° x 21","steam_id":76561198069589278,"connected_time":214000000000,"state":"active","ping":147},{"user_id":307,"name":"SammyD","steam_id":76561198057216118,"connected_time":13912000000000,"state":"active","ping":67},{"user_id":474,"name":"DesDavis","steam_id":76561198012148489,"connected_time":260000000000,"state":"active","ping":71},{"user_id":431,"name":"Vanilla Rice","steam_id":76561198315725190,"connected_time":3690000000000,"state":"active","ping":62},{"user_id":456,"name":"Snom","steam_id":76561198333827920,"connected_time":1944000000000,"state":"active","ping":108},{"user_id":477,"name":"hej","steam_id":76561197996366940,"connected_time":180000000000,"state":"active","ping":60},{"user_id":472,"name":"the one they call \"lil travis\"","steam_id":76561198253172399,"connected_time":440000000000,"state":"active","ping":71},{"user_id":465,"name":"Coup de Grass","steam_id":76561198011643226,"connected_time":964000000000,"state":"active","ping":63},{"user_id":414,"name":"Ultimate Cookie","steam_id":76561198011297674,"connected_time":4243000000000,"state":"active","ping":46},{"user_id":447,"name":"uhooter","steam_id":76561198007829078,"connected_time":2777000000000,"state":"active","ping":53},{"user_id":460,"name":"Eugene Porter","steam_id":76561198834556559,"connected_time":1588000000000,"state":"active","ping":84},{"user_id":475,"name":"Slugger01","steam_id":76561198975798014,"connected_time":257000000000,"state":"active","ping":51}]},{"server_id":106,"name":"Uncletopia | Chicago | 2 | All Maps","name_short":"chi-2","host":"chi-1.us.uncletopia.com","port":27025,"enabled":true,"region":"us-central","cc":"us","latitude":41.881832,"longitude":-87.62318,"reserved":0,"last_update":"0001-01-01T00:00:00Z","name_a2s":"Uncletopia | Chicago | 2 | All Maps","protocol":17,"map":"pl_borneo","folder":"tf","game":"Team Fortress","app_id":440,"player_count":24,"max_players":24,"Bots":0,"server_type":"Dedicated","server_os":"Linux","password":true,"vac":true,"version":"7961495","steam_id":85568392924469985,"keywords":["nocrits","nodmgspread","payload","uncletopia"],"game_id":440,"stv_port":27026,"stv_name":"Uncletopia | Chicago | 2 | All Maps | STV","players":[{"user_id":530,"name":"Proofs","steam_id":76561198027122314,"connected_time":3059000000000,"state":"active","ping":54},{"user_id":545,"name":"Izzie","steam_id":76561199160229422,"connected_time":579000000000,"state":"active","ping":80},{"user_id":533,"name":"ther","steam_id":76561199191376935,"connected_time":1968000000000,"state":"active","ping":76},{"user_id":427,"name":"The strongest ‚ë® ball","steam_id":76561198126760743,"connected_time":9520000000000,"state":"active","ping":73},{"user_id":517,"name":"Crab Rangoon","steam_id":76561198059310510,"connected_time":4189000000000,"state":"active","ping":87},{"user_id":555,"name":"Telly G","steam_id":76561198049592405,"connected_time":136000000000,"state":"active","ping":91},{"user_id":521,"name":"Gene Takovic","steam_id":76561198881039861,"connected_time":3922000000000,"state":"active","ping":45},{"user_id":548,"name":"josh","steam_id":76561198111565081,"connected_time":550000000000,"state":"active","ping":117},{"user_id":497,"name":"pizza rat","steam_id":76561198044874072,"connected_time":5167000000000,"state":"active","ping":55},{"user_id":550,"name":"Femboy Garfield","steam_id":76561198356164204,"connected_time":538000000000,"state":"active","ping":74},{"user_id":493,"name":"greg","steam_id":76561198046650995,"connected_time":6026000000000,"state":"active","ping":80},{"user_id":527,"name":"trappy (autism)","steam_id":76561198402801140,"connected_time":3226000000000,"state":"active","ping":55},{"user_id":535,"name":"JOOOOOOOOOOOOO!!!!!!","steam_id":76561199101638460,"connected_time":1957000000000,"state":"active","ping":80},{"user_id":551,"name":"scrotal recall","steam_id":76561198135945598,"connected_time":490000000000,"state":"active","ping":80},{"user_id":541,"name":"AzuriousAlex","steam_id":76561198158026405,"connected_time":1898000000000,"state":"active","ping":85},{"user_id":552,"name":"Dei Genetrix","steam_id":76561198305678122,"connected_time":471000000000,"state":"active","ping":140},{"user_id":553,"name":"LG_Fridge_User","steam_id":76561198977815014,"connected_time":451000000000,"state":"active","ping":76},{"user_id":504,"name":"Haveltherock27","steam_id":76561199219844391,"connected_time":5077000000000,"state":"active","ping":88},{"user_id":554,"name":"notmanhattan","steam_id":76561198143117561,"connected_time":389000000000,"state":"active","ping":72},{"user_id":382,"name":"Uwu Micster","steam_id":76561198843890616,"connected_time":12402000000000,"state":"active","ping":77},{"user_id":532,"name":"Tobo","steam_id":76561198085846393,"connected_time":1969000000000,"state":"active","ping":82},{"user_id":505,"name":"VixianUwU","steam_id":76561198948815060,"connected_time":5038000000000,"state":"active","ping":73},{"user_id":524,"name":"HumFreY","steam_id":76561198076639682,"connected_time":3618000000000,"state":"active","ping":75},{"user_id":544,"name":"mousejumper","steam_id":76561198220181353,"connected_time":1384000000000,"state":"active","ping":83}]},{"server_id":402,"name":"Uncletopia | Chicago | 3 | All Maps","name_short":"chi-3","host":"chi-1.us.uncletopia.com","port":27035,"enabled":true,"region":"us-central","cc":"us","latitude":41.881832,"longitude":-87.62318,"reserved":0,"last_update":"0001-01-01T00:00:00Z","name_a2s":"Uncletopia | Chicago | 3 | All Maps","protocol":17,"map":"cp_altitude","folder":"tf","game":"Team Fortress","app_id":440,"player_count":24,"max_players":24,"Bots":0,"server_type":"Dedicated","server_os":"Linux","password":true,"vac":true,"version":"7961495","steam_id":85568392924515191,"keywords":["cp","nocrits","nodmgspread","uncletopia"],"game_id":440,"stv_port":27036,"stv_name":"Uncletopia | Chicago | 3 | All Maps | STV","players":[{"user_id":279,"name":"TransSatanic, Artist Arc","steam_id":76561198080212467,"connected_time":970000000000,"state":"active","ping":58},{"user_id":203,"name":"MaineGameBoy","steam_id":76561198278698726,"connected_time":6122000000000,"state":"active","ping":79},{"user_id":280,"name":"Space Captainface","steam_id":76561197995103493,"connected_time":936000000000,"state":"active","ping":66},{"user_id":263,"name":"Doll coded","steam_id":76561198085813708,"connected_time":2401000000000,"state":"active","ping":64},{"user_id":254,"name":"prayin' for tidal waves","steam_id":76561198017228729,"connected_time":2588000000000,"state":"active","ping":57},{"user_id":210,"name":"asscastle","steam_id":76561198097330521,"connected_time":5651000000000,"state":"active","ping":163},{"user_id":281,"name":"Skippa","steam_id":76561198181928613,"connected_time":933000000000,"state":"active","ping":65},{"user_id":282,"name":"yes daddy","steam_id":76561198166100997,"connected_time":925000000000,"state":"active","ping":90},{"user_id":233,"name":"Wiener Hole Paper Cut","steam_id":76561198000808203,"connected_time":4276000000000,"state":"active","ping":79},{"user_id":269,"name":"stungoperation","steam_id":76561199162409918,"connected_time":1908000000000,"state":"active","ping":68},{"user_id":283,"name":"Not Rook","steam_id":76561199232296380,"connected_time":919000000000,"state":"active","ping":84},{"user_id":290,"name":"Harpua","steam_id":76561197988020228,"connected_time":256000000000,"state":"active","ping":67},{"user_id":262,"name":"BookBurner23","steam_id":76561198034771185,"connected_time":2471000000000,"state":"active","ping":63},{"user_id":268,"name":"Bottom Trans Cowgirl","steam_id":76561198304239680,"connected_time":1933000000000,"state":"active","ping":76},{"user_id":239,"name":"JackToeRip","steam_id":76561198046523256,"connected_time":4197000000000,"state":"active","ping":79},{"user_id":285,"name":"Gary Budussy","steam_id":76561197969793969,"connected_time":867000000000,"state":"active","ping":65},{"user_id":293,"name":"slep.py","steam_id":76561197988287144,"connected_time":79000000000,"state":"active","ping":54},{"user_id":257,"name":"SodaKid_7","steam_id":76561198079419485,"connected_time":2571000000000,"state":"active","ping":101},{"user_id":287,"name":"viagra addict","steam_id":76561198017705248,"connected_time":858000000000,"state":"active","ping":46},{"user_id":288,"name":"mister slippery","steam_id":76561198057076267,"connected_time":793000000000,"state":"active","ping":82},{"user_id":267,"name":"Bobbn","steam_id":76561198876124683,"connected_time":2193000000000,"state":"active","ping":63},{"user_id":274,"name":"Ethan","steam_id":76561198129056840,"connected_time":1333000000000,"state":"active","ping":91},{"user_id":260,"name":"TheGrassMan (He/Him)","steam_id":76561198118984048,"connected_time":2511000000000,"state":"active","ping":69},{"user_id":261,"name":"Lucy Lou!","steam_id":76561198078209088,"connected_time":2506000000000,"state":"active","ping":46}]},{"server_id":403,"name":"Uncletopia | Chicago | 4 | All Maps","name_short":"chi-4","host":"chi-1.us.uncletopia.com","port":27045,"enabled":true,"region":"us-central","cc":"us","latitude":41.881832,"longitude":-87.62318,"reserved":0,"last_update":"0001-01-01T00:00:00Z","name_a2s":"Uncletopia | Chicago | 4 | All Maps","protocol":17,"map":"pl_upward","folder":"tf","game":"Team Fortress","app_id":440,"player_count":22,"max_players":24,"Bots":0,"server_type":"Dedicated","server_os":"Linux","password":true,"vac":true,"version":"7961495","steam_id":85568392924515193,"keywords":["nocrits","nodmgspread","payload","uncletopia"],"game_id":440,"stv_port":27046,"stv_name":"Uncletopia | Chicago | 4 | All Maps | STV","players":[{"user_id":626,"name":"JellyRoll Jerry","steam_id":76561198037149474,"connected_time":3129000000000,"state":"spawning","ping":105},{"user_id":650,"name":"gps","steam_id":76561198067492304,"connected_time":792000000000,"state":"spawning","ping":81},{"user_id":567,"name":"onionaid","steam_id":76561198065266282,"connected_time":6821000000000,"state":"spawning","ping":128},{"user_id":624,"name":"Bond","steam_id":76561198089262776,"connected_time":3233000000000,"state":"spawning","ping":65},{"user_id":573,"name":"my bootiful shouty wife","steam_id":76561198011675372,"connected_time":5871000000000,"state":"spawning","ping":96},{"user_id":636,"name":"Ghost Kaisar","steam_id":76561198103629357,"connected_time":2445000000000,"state":"active","ping":168},{"user_id":634,"name":"√úberBurst inVinci","steam_id":76561198044470684,"connected_time":2507000000000,"state":"spawning","ping":65},{"user_id":608,"name":"Shapeshiftertrue","steam_id":76561198440835095,"connected_time":3675000000000,"state":"spawning","ping":107},{"user_id":653,"name":"Cat doin laundry","steam_id":76561198063895852,"connected_time":575000000000,"state":"spawning","ping":144},{"user_id":656,"name":"MacawAbalone","steam_id":76561198015127948,"connected_time":342000000000,"state":"spawning","ping":33},{"user_id":645,"name":"Ze_√úber_Nerd","steam_id":76561198091148675,"connected_time":1065000000000,"state":"spawning","ping":199},{"user_id":625,"name":"j_thane","steam_id":76561198040933603,"connected_time":3227000000000,"state":"active","ping":314},{"user_id":658,"name":"BIG FLOPPA","steam_id":76561198304978514,"connected_time":24000000000,"state":"spawning","ping":144},{"user_id":651,"name":"SixtyTwoCents","steam_id":76561198142724783,"connected_time":729000000000,"state":"spawning","ping":53},{"user_id":657,"name":"kaputon","steam_id":76561198146299782,"connected_time":56000000000,"state":"spawning","ping":61},{"user_id":654,"name":"?pengin","steam_id":76561198254236408,"connected_time":557000000000,"state":"spawning","ping":99},{"user_id":649,"name":"Piss God","steam_id":76561198090504334,"connected_time":971000000000,"state":"spawning","ping":41},{"user_id":639,"name":"No aim :(","steam_id":76561198298310744,"connected_time":1787000000000,"state":"spawning","ping":214},{"user_id":635,"name":"Sir Iasis","steam_id":76561198035666760,"connected_time":2500000000000,"state":"spawning","ping":49},{"user_id":643,"name":"the dragon","steam_id":76561198222580424,"connected_time":1121000000000,"state":"spawning","ping":82},{"user_id":605,"name":"MichaelBurger2","steam_id":76561198151131323,"connected_time":3825000000000,"state":"spawning","ping":50},{"user_id":622,"name":"Lumidishi","steam_id":76561198880266147,"connected_time":3310000000000,"state":"spawning","ping":49}]},{"server_id":36,"name":"Uncletopia | Chicago | 5 | All Maps","name_short":"chi-5","host":"chi-2.us.uncletopia.com","port":27015,"enabled":true,"region":"us-central","cc":"us","latitude":41.881832,"longitude":-87.62318,"reserved":0,"last_update":"0001-01-01T00:00:00Z","name_a2s":"Uncletopia | Chicago | 5 | All Maps","protocol":17,"map":"pl_upward","folder":"tf","game":"Team Fortress","app_id":440,"player_count":24,"max_players":24,"Bots":0,"server_type":"Dedicated","server_os":"Linux","password":true,"vac":true,"version":"7961495","steam_id":85568392924866362,"keywords":["nocrits","nodmgspread","payload","uncletopia"],"game_id":440,"stv_port":27016,"stv_name":"Uncletopia | Chicago | 5 | All Maps | STV","players":[{"user_id":377,"name":"Dragon_Spiced","steam_id":76561198097517957,"connected_time":588000000000,"state":"active","ping":76},{"user_id":364,"name":"Beebo, Son of Beebo","steam_id":76561198055948497,"connected_time":1285000000000,"state":"active","ping":56},{"user_id":370,"name":"Moofins","steam_id":76561198050291949,"connected_time":1038000000000,"state":"active","ping":84},{"user_id":356,"name":"ninety9dragonfly","steam_id":76561198363406983,"connected_time":2000000000000,"state":"active","ping":100},{"user_id":378,"name":"WM1 PYRO","steam_id":76561198045893896,"connected_time":507000000000,"state":"active","ping":90},{"user_id":382,"name":"god's best gambler","steam_id":76561198051015496,"connected_time":111000000000,"state":"active","ping":103},{"user_id":381,"name":"86","steam_id":76561198060553584,"connected_time":233000000000,"state":"active","ping":95},{"user_id":357,"name":"monky (funky)","steam_id":76561198350027075,"connected_time":1994000000000,"state":"active","ping":57},{"user_id":251,"name":"snakeeatr","steam_id":76561198147652684,"connected_time":9968000000000,"state":"active","ping":104},{"user_id":299,"name":"KFC Pork Bucket","steam_id":76561198066333380,"connected_time":6592000000000,"state":"active","ping":125},{"user_id":372,"name":"Password is Taco","steam_id":76561198026092945,"connected_time":729000000000,"state":"active","ping":93},{"user_id":330,"name":"gorf?","steam_id":76561198142286417,"connected_time":3862000000000,"state":"active","ping":62},{"user_id":325,"name":"Colossal Falafel","steam_id":76561198108086245,"connected_time":5090000000000,"state":"active","ping":48},{"user_id":261,"name":"Cassafras","steam_id":76561197961994834,"connected_time":9314000000000,"state":"active","ping":78},{"user_id":358,"name":"Abel","steam_id":76561198404428205,"connected_time":1984000000000,"state":"active","ping":73},{"user_id":309,"name":"Chadmander","steam_id":76561197974136337,"connected_time":5919000000000,"state":"active","ping":45},{"user_id":380,"name":"Free2Play","steam_id":76561198065920486,"connected_time":314000000000,"state":"active","ping":56},{"user_id":285,"name":"Mega_Man23","steam_id":76561198138341391,"connected_time":7871000000000,"state":"active","ping":62},{"user_id":242,"name":"oni","steam_id":76561198082038479,"connected_time":11051000000000,"state":"active","ping":115},{"user_id":306,"name":"Elias","steam_id":76561198106431732,"connected_time":6128000000000,"state":"active","ping":56},{"user_id":352,"name":"Emberdened","steam_id":76561199163688421,"connected_time":2319000000000,"state":"active","ping":103},{"user_id":373,"name":"Steven","steam_id":76561198075526342,"connected_time":714000000000,"state":"active","ping":72},{"user_id":376,"name":"DeletedTaters","steam_id":76561198040773153,"connected_time":597000000000,"state":"active","ping":74},{"user_id":349,"name":"argabargian","steam_id":76561198889600853,"connected_time":2585000000000,"state":"active","ping":75}]},{"server_id":37,"name":"Uncletopia | Chicago | 6 | All Maps","name_short":"chi-6","host":"chi-2.us.uncletopia.com","port":27025,"enabled":true,"region":"us-central","cc":"us","latitude":41.881832,"longitude":-87.62318,"reserved":0,"last_update":"0001-01-01T00:00:00Z","name_a2s":"Uncletopia | Chicago | 6 | All Maps","protocol":17,"map":"cp_altitude","folder":"tf","game":"Team Fortress","app_id":440,"player_count":24,"max_players":24,"Bots":0,"server_type":"Dedicated","server_os":"Linux","password":true,"vac":true,"version":"7961495","steam_id":85568392924866363,"keywords":["cp","nocrits","nodmgspread","uncletopia"],"game_id":440,"stv_port":27026,"stv_name":"Uncletopia | Chicago | 6 | All Maps | STV","players":[{"user_id":818,"name":"Asha'man","steam_id":76561198057913763,"connected_time":635000000000,"state":"active","ping":52},{"user_id":794,"name":"jamie ‚õü","steam_id":76561198333032571,"connected_time":2893000000000,"state":"active","ping":77},{"user_id":790,"name":"bruckle bama","steam_id":76561198386542139,"connected_time":3121000000000,"state":"active","ping":66},{"user_id":807,"name":"EvilStickGuy","steam_id":76561197985379320,"connected_time":2060000000000,"state":"active","ping":69},{"user_id":831,"name":"beefmaster","steam_id":76561198072578009,"connected_time":50000000000,"state":"active","ping":62},{"user_id":816,"name":"AppleTruffle","steam_id":76561198031299571,"connected_time":658000000000,"state":"active","ping":61},{"user_id":797,"name":"minecraft_2.0","steam_id":76561198391819120,"connected_time":2844000000000,"state":"active","ping":86},{"user_id":817,"name":"RainboomCrash","steam_id":76561198065612273,"connected_time":656000000000,"state":"active","ping":97},{"user_id":815,"name":"Tec-9 Fubar","steam_id":76561198403649648,"connected_time":1073000000000,"state":"active","ping":61},{"user_id":820,"name":"SpongedSocks","steam_id":76561198374009086,"connected_time":553000000000,"state":"active","ping":65},{"user_id":821,"name":"Butter Dog","steam_id":76561198855973613,"connected_time":546000000000,"state":"active","ping":79},{"user_id":769,"name":"VX Ghost","steam_id":76561198072541436,"connected_time":4037000000000,"state":"active","ping":50},{"user_id":822,"name":"golbat","steam_id":76561198041601161,"connected_time":508000000000,"state":"active","ping":60},{"user_id":823,"name":"Aztea","steam_id":76561198982089893,"connected_time":435000000000,"state":"active","ping":81},{"user_id":776,"name":"Mitsuba","steam_id":76561198034175095,"connected_time":3852000000000,"state":"active","ping":82},{"user_id":810,"name":"shoobs","steam_id":76561198042507255,"connected_time":1837000000000,"state":"active","ping":85},{"user_id":830,"name":"Papa Beans","steam_id":76561198867358649,"connected_time":224000000000,"state":"active","ping":99},{"user_id":825,"name":"Rock Kickass","steam_id":76561198450510841,"connected_time":364000000000,"state":"active","ping":113},{"user_id":826,"name":"robert.smith.2004","steam_id":76561198865812602,"connected_time":350000000000,"state":"active","ping":74},{"user_id":676,"name":"fritzy","steam_id":76561198044188019,"connected_time":9004000000000,"state":"active","ping":60},{"user_id":812,"name":"Ronnie Coleman","steam_id":76561198083087813,"connected_time":1751000000000,"state":"active","ping":108},{"user_id":827,"name":"AlpacaTheSk8er","steam_id":76561198304028791,"connected_time":331000000000,"state":"active","ping":79},{"user_id":828,"name":"sasharudzik","steam_id":76561199126617781,"connected_time":326000000000,"state":"active","ping":83},{"user_id":829,"name":"MrLeftTurn","steam_id":76561198856743969,"connected_time":297000000000,"state":"active","ping":131}]},{"server_id":38,"name":"Uncletopia | Chicago | 7 | Stopwatch","name_short":"chi-7","host":"chi-2.us.uncletopia.com","port":27035,"enabled":true,"region":"us-central","cc":"us","latitude":41.881832,"longitude":-87.62318,"reserved":0,"last_update":"0001-01-01T00:00:00Z","name_a2s":"Uncletopia | Chicago | 7 | Stopwatch","protocol":17,"map":"koth_highpass","folder":"tf","game":"Team Fortress","app_id":440,"player_count":3,"max_players":24,"Bots":0,"server_type":"Dedicated","server_os":"Linux","password":true,"vac":true,"version":"7961495","steam_id":85568392924866364,"keywords":["cp","nocrits","nodmgspread","uncletopia"],"game_id":440,"stv_port":27036,"stv_name":"Uncletopia | Chicago | 7 | Stopwatch | STV","players":[{"user_id":59,"name":"Dundaa","steam_id":76561198891724753,"connected_time":983000000000,"state":"active","ping":47},{"user_id":52,"name":"Screw and Wrench Rob","steam_id":76561198407166710,"connected_time":1824000000000,"state":"active","ping":70},{"user_id":53,"name":"Bip","steam_id":76561199022962204,"connected_time":1809000000000,"state":"active","ping":68}]},{"server_id":39,"name":"Uncletopia | Chicago | 8 | Community","name_short":"chi-8","host":"chi-2.us.uncletopia.com","port":27045,"enabled":true,"region":"us-central","cc":"us","latitude":41.881832,"longitude":-87.62318,"reserved":0,"last_update":"0001-01-01T00:00:00Z","name_a2s":"Uncletopia | Chicago | 8 | Community","protocol":17,"map":"workshop/koth_rotunda_rc10w.ugc2964421291","folder":"tf","game":"Team Fortress","app_id":440,"player_count":24,"max_players":24,"Bots":0,"server_type":"Dedicated","server_os":"Linux","password":true,"vac":true,"version":"7961495","steam_id":85568392924866365,"keywords":["cp","nocrits","nodmgspread","uncletopia"],"game_id":440,"stv_port":27046,"stv_name":"Uncletopia | Chicago | 8 | Community | STV","players":[{"user_id":131,"name":"biden cart 15 dollars","steam_id":76561198253731826,"connected_time":1919000000000,"state":"active","ping":62},{"user_id":137,"name":"bigballerbill1137","steam_id":76561199256682338,"connected_time":1580000000000,"state":"active","ping":74},{"user_id":166,"name":"Skillins","steam_id":76561198024939275,"connected_time":287000000000,"state":"active","ping":111},{"user_id":165,"name":":3","steam_id":76561199194702127,"connected_time":371000000000,"state":"active","ping":88},{"user_id":77,"name":"pizza cuck","steam_id":76561198040455711,"connected_time":5023000000000,"state":"active","ping":88},{"user_id":159,"name":"stuffedidiot","steam_id":76561199181513019,"connected_time":862000000000,"state":"active","ping":101},{"user_id":110,"name":"gaming elliptical","steam_id":76561198013456569,"connected_time":3013000000000,"state":"active","ping":46},{"user_id":101,"name":"Revolv3r","steam_id":76561199104799292,"connected_time":3365000000000,"state":"active","ping":102},{"user_id":78,"name":"pizza whore","steam_id":76561199471269566,"connected_time":5017000000000,"state":"active","ping":76},{"user_id":162,"name":"Atomic Faced Horror","steam_id":76561198108025180,"connected_time":677000000000,"state":"active","ping":61},{"user_id":21,"name":"green bean","steam_id":76561198113099204,"connected_time":7917000000000,"state":"active","ping":86},{"user_id":97,"name":"[TF2Apples] Intense Green Apple","steam_id":76561198803561622,"connected_time":3717000000000,"state":"active","ping":103},{"user_id":130,"name":"frank","steam_id":76561198137777483,"connected_time":1932000000000,"state":"active","ping":72},{"user_id":163,"name":"PewPewBulletGuns","steam_id":76561198106289426,"connected_time":641000000000,"state":"active","ping":70},{"user_id":62,"name":"Squigly","steam_id":76561198084811625,"connected_time":5972000000000,"state":"active","ping":85},{"user_id":168,"name":"Monky duh luppy","steam_id":76561198035410427,"connected_time":111000000000,"state":"active","ping":94},{"user_id":148,"name":"Fatass Hennessy Sargent","steam_id":76561198363267009,"connected_time":1316000000000,"state":"active","ping":72},{"user_id":169,"name":"Vroooooooooooooooom","steam_id":76561198139913628,"connected_time":94000000000,"state":"active","ping":67},{"user_id":41,"name":"jehdye","steam_id":76561198284388342,"connected_time":7247000000000,"state":"active","ping":47},{"user_id":81,"name":"Worm","steam_id":76561198323365777,"connected_time":4948000000000,"state":"active","ping":53},{"user_id":157,"name":"TheUnusualKiller","steam_id":76561199032732284,"connected_time":1069000000000,"state":"active","ping":55},{"user_id":121,"name":"Great Value Rice Crispers","steam_id":76561198211512619,"connected_time":2427000000000,"state":"active","ping":73},{"user_id":145,"name":"Grim","steam_id":76561198985601764,"connected_time":1536000000000,"state":"active","ping":63},{"user_id":156,"name":"Doc Romie","steam_id":76561198953778878,"connected_time":1112000000000,"state":"active","ping":53}]},{"server_id":8,"name":"Uncletopia | Dallas | 1 | All Maps","name_short":"dal-1","host":"dal-1.us.uncletopia.com","port":27015,"enabled":true,"region":"us-central","cc":"us","latitude":32.779167,"longitude":-96.80889,"reserved":0,"last_update":"0001-01-01T00:00:00Z","name_a2s":"Uncletopia | Dallas | 1 | All Maps","protocol":17,"map":"plr_hightower","folder":"tf","game":"Team Fortress","app_id":440,"player_count":22,"max_players":24,"Bots":0,"server_type":"Dedicated","server_os":"Linux","password":true,"vac":true,"version":"7961495","steam_id":85568392924469986,"keywords":["nocrits","nodmgspread","payload","uncletopia"],"game_id":440,"stv_port":27016,"stv_name":"Uncletopia | Dallas | 1 | All Maps | STV","players":[{"user_id":400,"name":"BobbyLord_II","steam_id":76561198062356650,"connected_time":1125000000000,"state":"active","ping":117},{"user_id":411,"name":"Sckullchrusher","steam_id":76561198862361104,"connected_time":507000000000,"state":"active","ping":52},{"user_id":410,"name":"Gundam Guy","steam_id":76561198178453993,"connected_time":586000000000,"state":"active","ping":54},{"user_id":412,"name":"Ballista","steam_id":76561197983182562,"connected_time":426000000000,"state":"active","ping":133},{"user_id":371,"name":"Ping","steam_id":76561199206514106,"connected_time":3315000000000,"state":"active","ping":74},{"user_id":414,"name":"Jombi","steam_id":76561198427813097,"connected_time":255000000000,"state":"active","ping":77},{"user_id":407,"name":"Wonder Pest","steam_id":76561198062763756,"connected_time":916000000000,"state":"active","ping":75},{"user_id":397,"name":"Glaceon","steam_id":76561198177715869,"connected_time":1593000000000,"state":"active","ping":61},{"user_id":406,"name":"earthDF","steam_id":76561198026084025,"connected_time":933000000000,"state":"active","ping":91},{"user_id":379,"name":"freesia","steam_id":76561198127525888,"connected_time":2119000000000,"state":"active","ping":58},{"user_id":372,"name":"Gl√ºhbirne","steam_id":76561198189278869,"connected_time":2857000000000,"state":"active","ping":75},{"user_id":415,"name":"tsz","steam_id":76561199246231090,"connected_time":181000000000,"state":"active","ping":91},{"user_id":401,"name":"AshleyJWilliams","steam_id":76561199319657907,"connected_time":1063000000000,"state":"active","ping":98},{"user_id":383,"name":"Got Hat?","steam_id":76561197998486431,"connected_time":2044000000000,"state":"active","ping":78},{"user_id":399,"name":"Rob","steam_id":76561199187786660,"connected_time":1290000000000,"state":"active","ping":46},{"user_id":416,"name":"StuartBell511","steam_id":76561198060931721,"connected_time":131000000000,"state":"active","ping":73},{"user_id":385,"name":"StudioMania (#SAVETF2)","steam_id":76561198211315795,"connected_time":2019000000000,"state":"active","ping":80},{"user_id":417,"name":"Sneed-poster","steam_id":76561198206198937,"connected_time":50000000000,"state":"active","ping":73},{"user_id":402,"name":"J The Jounin","steam_id":76561198034583622,"connected_time":1043000000000,"state":"active","ping":84},{"user_id":376,"name":"üê∫-Iwky-ü¶ä","steam_id":76561198185616311,"connected_time":2784000000000,"state":"active","ping":69},{"user_id":403,"name":"Yoyo","steam_id":76561198216333768,"connected_time":1026000000000,"state":"active","ping":99},{"user_id":396,"name":"NANOBITES","steam_id":76561198186944363,"connected_time":1676000000000,"state":"active","ping":79}]},{"server_id":108,"name":"Uncletopia | Dallas | 2 | All Maps","name_short":"dal-2","host":"dal-1.us.uncletopia.com","port":27025,"enabled":true,"region":"us-central","cc":"us","latitude":32.779167,"longitude":-96.80889,"reserved":0,"last_update":"0001-01-01T00:00:00Z","name_a2s":"Uncletopia | Dallas | 2 | All Maps","protocol":17,"map":"pl_frontier_final","folder":"tf","game":"Team Fortress","app_id":440,"player_count":21,"max_players":24,"Bots":0,"server_type":"Dedicated","server_os":"Linux","password":true,"vac":true,"version":"7961495","steam_id":85568392924469988,"keywords":["nocrits","nodmgspread","payload","uncletopia"],"game_id":440,"stv_port":27026,"stv_name":"Uncletopia | Dallas | 2 | All Maps | STV","players":[{"user_id":486,"name":"Muselk, but mexican","steam_id":76561199289676387,"connected_time":2383000000000,"state":"active","ping":48},{"user_id":389,"name":"‡∏∏","steam_id":76561198170624701,"connected_time":10278000000000,"state":"active","ping":74},{"user_id":497,"name":"Fizzle","steam_id":76561199466859396,"connected_time":1138000000000,"state":"active","ping":37},{"user_id":495,"name":"LXXVII","steam_id":76561199435288545,"connected_time":1281000000000,"state":"active","ping":77},{"user_id":504,"name":"transfem atsuko kagari","steam_id":76561198217402847,"connected_time":407000000000,"state":"active","ping":100},{"user_id":494,"name":"Cherubi","steam_id":76561199015772917,"connected_time":1384000000000,"state":"active","ping":74},{"user_id":484,"name":"Cofi","steam_id":76561199026721822,"connected_time":2399000000000,"state":"active","ping":92},{"user_id":506,"name":"Bad Medic Buddy","steam_id":76561198093222632,"connected_time":10000000000,"state":"spawning","ping":82},{"user_id":507,"name":"dax","steam_id":76561198045335319,"connected_time":5000000000,"state":"spawning","ping":115},{"user_id":501,"name":"Donkski","steam_id":76561198406895347,"connected_time":671000000000,"state":"active","ping":65},{"user_id":496,"name":"Drinkable Milk","steam_id":76561199418706430,"connected_time":1196000000000,"state":"active","ping":57},{"user_id":477,"name":"ÎùºÎãà","steam_id":76561198399201495,"connected_time":3065000000000,"state":"active","ping":63},{"user_id":476,"name":"Dreamzapp","steam_id":76561199084936632,"connected_time":3130000000000,"state":"active","ping":93},{"user_id":460,"name":"[VZLA] TheSexFatalis","steam_id":76561198070240320,"connected_time":3408000000000,"state":"active","ping":105},{"user_id":487,"name":"me shoot floor","steam_id":76561198046526036,"connected_time":2382000000000,"state":"active","ping":74},{"user_id":505,"name":"Gwando","steam_id":76561198294629124,"connected_time":338000000000,"state":"active","ping":50},{"user_id":479,"name":"GUH","steam_id":76561199013202758,"connected_time":3026000000000,"state":"active","ping":71},{"user_id":500,"name":"PickleHater13","steam_id":76561198259380127,"connected_time":838000000000,"state":"active","ping":80},{"user_id":345,"name":"The Benefactor","steam_id":76561198307247913,"connected_time":13281000000000,"state":"active","ping":78},{"user_id":499,"name":"minecraft","steam_id":76561198104345201,"connected_time":1069000000000,"state":"active","ping":80}]},{"server_id":404,"name":"Uncletopia | Dallas | 3 | All Maps","name_short":"dal-3","host":"dal-1.us.uncletopia.com","port":27035,"enabled":true,"region":"us-central","cc":"us","latitude":32.779167,"longitude":-96.80889,"reserved":0,"last_update":"0001-01-01T00:00:00Z","name_a2s":"Uncletopia | Dallas | 3 | All Maps","protocol":17,"map":"pl_borneo","folder":"tf","game":"Team Fortress","app_id":440,"player_count":24,"max_players":24,"Bots":0,"server_type":"Dedicated","server_os":"Linux","password":true,"vac":true,"version":"7961495","steam_id":85568392924515219,"keywords":["nocrits","nodmgspread","payload","uncletopia"],"game_id":440,"stv_port":27036,"stv_name":"Uncletopia | Dallas | 3 | All Maps | STV","players":[{"user_id":377,"name":"yugodaboi","steam_id":76561199387130263,"connected_time":1475000000000,"state":"active","ping":93},{"user_id":392,"name":"Stoopnagle","steam_id":76561198011942560,"connected_time":604000000000,"state":"active","ping":96},{"user_id":387,"name":"Piggy","steam_id":76561198269019428,"connected_time":1117000000000,"state":"active","ping":70},{"user_id":337,"name":"Dr.Blunt","steam_id":76561198096333958,"connected_time":4508000000000,"state":"active","ping":86},{"user_id":378,"name":"Master Of Whales","steam_id":76561198349104889,"connected_time":1461000000000,"state":"active","ping":91},{"user_id":357,"name":"[P-CAN] At\u0026t Home Internet","steam_id":76561198126700526,"connected_time":2753000000000,"state":"active","ping":77},{"user_id":393,"name":"RedReimu","steam_id":76561199211311731,"connected_time":592000000000,"state":"active","ping":88},{"user_id":228,"name":"Whyamidoingthisaaaa","steam_id":76561199168837342,"connected_time":10501000000000,"state":"active","ping":82},{"user_id":367,"name":"Carnyx","steam_id":76561198956823243,"connected_time":2501000000000,"state":"active","ping":63},{"user_id":394,"name":"Barmy","steam_id":76561198111626352,"connected_time":321000000000,"state":"active","ping":91},{"user_id":395,"name":"idiovic","steam_id":76561198414355727,"connected_time":295000000000,"state":"active","ping":86},{"user_id":398,"name":"Glue Sniffer","steam_id":76561198289642788,"connected_time":157000000000,"state":"active","ping":115},{"user_id":396,"name":"Super_Polite","steam_id":76561198081493839,"connected_time":282000000000,"state":"active","ping":85},{"user_id":291,"name":"Willy the Wonderdog","steam_id":76561198067089970,"connected_time":7525000000000,"state":"active","ping":40},{"user_id":389,"name":"Prinz","steam_id":76561198175476071,"connected_time":1017000000000,"state":"active","ping":93},{"user_id":370,"name":"-_-","steam_id":76561198005773253,"connected_time":2086000000000,"state":"active","ping":92},{"user_id":390,"name":"catnip","steam_id":76561198000831161,"connected_time":865000000000,"state":"active","ping":55},{"user_id":339,"name":"celestia ludenberg","steam_id":76561199196437823,"connected_time":4467000000000,"state":"active","ping":107},{"user_id":399,"name":"nick","steam_id":76561198041362771,"connected_time":149000000000,"state":"active","ping":87},{"user_id":383,"name":"A Random Guy","steam_id":76561198282519457,"connected_time":1356000000000,"state":"active","ping":74},{"user_id":400,"name":"DrCoeloCephalo","steam_id":76561198102666293,"connected_time":147000000000,"state":"active","ping":58},{"user_id":384,"name":"Shattered Glass","steam_id":76561198116835391,"connected_time":1296000000000,"state":"active","ping":105},{"user_id":401,"name":"kennedy","steam_id":76561198304536343,"connected_time":145000000000,"state":"active","ping":75},{"user_id":402,"name":"‚ù§ Ashleyyy ‚ù§","steam_id":76561198056428303,"connected_time":77000000000,"state":"active","ping":76}]},{"server_id":405,"name":"Uncletopia | Dallas | 4 | Community","name_short":"dal-4","host":"dal-1.us.uncletopia.com","port":27045,"enabled":true,"region":"us-central","cc":"us","latitude":32.779167,"longitude":-96.80889,"reserved":0,"last_update":"0001-01-01T00:00:00Z","name_a2s":"Uncletopia | Dallas | 4 | Community","protocol":17,"map":"workshop/koth_kemptown_rc1.ugc767410655","folder":"tf","game":"Team Fortress","app_id":440,"player_count":0,"max_players":24,"Bots":0,"server_type":"Dedicated","server_os":"Linux","password":true,"vac":true,"version":"7961495","steam_id":85568392924515220,"keywords":["cp","nocrits","nodmgspread","uncletopia"],"game_id":440,"stv_port":27046,"stv_name":"Uncletopia | Dallas | 4 | Community | STV","players":null},{"server_id":5,"name":"Uncletopia | Frankfurt | 1 | All Maps","name_short":"frk-1","host":"frk-1.de.uncletopia.com","port":27015,"enabled":true,"region":"eu","cc":"de","latitude":50.110924,"longitude":8.682127,"reserved":0,"last_update":"0001-01-01T00:00:00Z","name_a2s":"Uncletopia | Frankfurt | 1 | All Maps","protocol":17,"map":"pl_snowycoast","folder":"tf","game":"Team Fortress","app_id":440,"player_count":0,"max_players":24,"Bots":0,"server_type":"Dedicated","server_os":"Linux","password":true,"vac":true,"version":"7961495","steam_id":85568392924469989,"keywords":["nocrits","nodmgspread","payload","uncletopia"],"game_id":440,"stv_port":27016,"stv_name":"Uncletopia | Frankfurt | 1 | All Maps | STV","players":null},{"server_id":110,"name":"Uncletopia | Frankfurt | 2 | All Maps","name_short":"frk-2","host":"frk-1.de.uncletopia.com","port":27025,"enabled":true,"region":"eu","cc":"de","latitude":50.110924,"longitude":8.682127,"reserved":0,"last_update":"0001-01-01T00:00:00Z","name_a2s":"Uncletopia | Frankfurt | 2 | All Maps","protocol":17,"map":"cp_process_final","folder":"tf","game":"Team Fortress","app_id":440,"player_count":0,"max_players":24,"Bots":0,"server_type":"Dedicated","server_os":"Linux","password":true,"vac":true,"version":"7961495","steam_id":85568392924469990,"keywords":["cp","nocrits","nodmgspread","uncletopia"],"game_id":440,"stv_port":27026,"stv_name":"Uncletopia | Frankfurt | 2 | All Maps | STV","players":null},{"server_id":308,"name":"Uncletopia | Frankfurt | 3 | All Maps","name_short":"frk-3","host":"frk-1.de.uncletopia.com","port":27035,"enabled":true,"region":"eu","cc":"de","latitude":50.110924,"longitude":8.682127,"reserved":0,"last_update":"0001-01-01T00:00:00Z","name_a2s":"Uncletopia | Frankfurt | 3 | All Maps","protocol":17,"map":"koth_cascade","folder":"tf","game":"Team Fortress","app_id":440,"player_count":0,"max_players":24,"Bots":0,"server_type":"Dedicated","server_os":"Linux","password":true,"vac":true,"version":"7961495","steam_id":85568392924504274,"keywords":["cp","nocrits","nodmgspread","uncletopia"],"game_id":440,"stv_port":27036,"stv_name":"Uncletopia | Frankfurt | 3 | All Maps | STV","players":null},{"server_id":309,"name":"Uncletopia | Frankfurt | 4 | All Maps","name_short":"frk-4","host":"frk-1.de.uncletopia.com","port":27045,"enabled":true,"region":"eu","cc":"de","latitude":50.110924,"longitude":8.682127,"reserved":0,"last_update":"0001-01-01T00:00:00Z","name_a2s":"Uncletopia | Frankfurt | 4 | All Maps","protocol":17,"map":"cp_granary","folder":"tf","game":"Team Fortress","app_id":440,"player_count":0,"max_players":24,"Bots":0,"server_type":"Dedicated","server_os":"Linux","password":true,"vac":true,"version":"7961495","steam_id":85568392924504275,"keywords":["cp","nocrits","nodmgspread","uncletopia"],"game_id":440,"stv_port":27046,"stv_name":"Uncletopia | Frankfurt | 4 | All Maps | STV","players":null},{"server_id":310,"name":"Uncletopia | Frankfurt | 5 | All Maps","name_short":"frk-5","host":"frk-1.de.uncletopia.com","port":27055,"enabled":true,"region":"eu","cc":"de","latitude":50.110924,"longitude":8.682127,"reserved":0,"last_update":"0001-01-01T00:00:00Z","name_a2s":"Uncletopia | Frankfurt | 5 | All Maps","protocol":17,"map":"pl_upward","folder":"tf","game":"Team Fortress","app_id":440,"player_count":17,"max_players":24,"Bots":0,"server_type":"Dedicated","server_os":"Linux","password":true,"vac":true,"version":"7961495","steam_id":85568392924504277,"keywords":["nocrits","nodmgspread","payload","uncletopia"],"game_id":440,"stv_port":27056,"stv_name":"Uncletopia | Frankfurt | 5 | All Maps | STV","players":[{"user_id":816,"name":"Lewylow","steam_id":76561198005425686,"connected_time":7271000000000,"state":"active","ping":60},{"user_id":868,"name":"heuji","steam_id":76561197971067828,"connected_time":2324000000000,"state":"active","ping":63},{"user_id":899,"name":"teigtasche","steam_id":76561199316121356,"connected_time":59000000000,"state":"active","ping":129},{"user_id":867,"name":"chewBAKA","steam_id":76561198278889109,"connected_time":2398000000000,"state":"active","ping":45},{"user_id":869,"name":"DNA","steam_id":76561198095477557,"connected_time":2200000000000,"state":"active","ping":60},{"user_id":895,"name":"Pepefuckurmom","steam_id":76561199467404806,"connected_time":792000000000,"state":"active","ping":58},{"user_id":871,"name":"itunes shadow person","steam_id":76561198074464755,"connected_time":2132000000000,"state":"active","ping":74},{"user_id":873,"name":"christina appelgate","steam_id":76561198257287335,"connected_time":2044000000000,"state":"active","ping":45},{"user_id":889,"name":"Pimpin' \u0026 Blimpin'","steam_id":76561198326776107,"connected_time":1452000000000,"state":"active","ping":81},{"user_id":875,"name":"my fault og","steam_id":76561198256811438,"connected_time":1959000000000,"state":"active","ping":94},{"user_id":896,"name":"Nick","steam_id":76561198813099407,"connected_time":584000000000,"state":"active","ping":53},{"user_id":898,"name":"why rum gone","steam_id":76561198158484784,"connected_time":294000000000,"state":"active","ping":59},{"user_id":877,"name":"hAhA hEy, HeY yOu. AeAeAeAeAe","steam_id":76561199223880297,"connected_time":1922000000000,"state":"active","ping":140},{"user_id":900,"name":"faker","steam_id":76561199179040672,"connected_time":18000000000,"state":"active","ping":69},{"user_id":881,"name":"Smegmius","steam_id":76561198075631037,"connected_time":1721000000000,"state":"active","ping":58},{"user_id":883,"name":"Taylor Hebert Apologist","steam_id":76561198108591358,"connected_time":1715000000000,"state":"active","ping":55},{"user_id":850,"name":"Volodya","steam_id":76561198124484658,"connected_time":4135000000000,"state":"active","ping":102}]},{"server_id":311,"name":"Uncletopia | Frankfurt | 6 | All Maps","name_short":"frk-6","host":"frk-1.de.uncletopia.com","port":27065,"enabled":true,"region":"eu","cc":"de","latitude":50.110924,"longitude":8.682127,"reserved":0,"last_update":"0001-01-01T00:00:00Z","name_a2s":"Uncletopia | Frankfurt | 6 | All Maps","protocol":17,"map":"pl_badwater","folder":"tf","game":"Team Fortress","app_id":440,"player_count":0,"max_players":24,"Bots":0,"server_type":"Dedicated","server_os":"Linux","password":true,"vac":true,"version":"7961495","steam_id":85568392924504278,"keywords":["nocrits","nodmgspread","payload","uncletopia"],"game_id":440,"stv_port":27066,"stv_name":"Uncletopia | Frankfurt | 6 | All Maps | STV","players":null},{"server_id":23,"name":"Uncletopia | Frankfurt | 7 | Stopwatch","name_short":"frk-7","host":"frk-1.de.uncletopia.com","port":27075,"enabled":true,"region":"eu","cc":"de","latitude":50.110924,"longitude":8.682127,"reserved":0,"last_update":"0001-01-01T00:00:00Z","name_a2s":"Uncletopia | Frankfurt | 7 | Stopwatch","protocol":17,"map":"koth_lakeside_final","folder":"tf","game":"Team Fortress","app_id":440,"player_count":0,"max_players":24,"Bots":0,"server_type":"Dedicated","server_os":"Linux","password":true,"vac":true,"version":"7961495","steam_id":85568392924742827,"keywords":["cp","nocrits","nodmgspread","uncletopia"],"game_id":440,"stv_port":27076,"stv_name":"Uncletopia | Frankfurt | 7 | Stopwatch | STV","players":null},{"server_id":24,"name":"Uncletopia | Frankfurt | 8 | Community","name_short":"frk-8","host":"frk-1.de.uncletopia.com","port":27085,"enabled":true,"region":"eu","cc":"de","latitude":50.110924,"longitude":8.682127,"reserved":0,"last_update":"0001-01-01T00:00:00Z","name_a2s":"Uncletopia | Frankfurt | 8 | Community","protocol":17,"map":"workshop/koth_relic_rc3.ugc2965301326","folder":"tf","game":"Team Fortress","app_id":440,"player_count":0,"max_players":24,"Bots":0,"server_type":"Dedicated","server_os":"Linux","password":true,"vac":true,"version":"7961495","steam_id":85568392924742828,"keywords":["cp","nocrits","nodmgspread","uncletopia"],"game_id":440,"stv_port":27086,"stv_name":"Uncletopia | Frankfurt | 8 | Community | STV","players":null},{"server_id":202,"name":"Uncletopia | Hong Kong | 1 | All Maps","name_short":"hgk-1","host":"hgk-1.hk.uncletopia.com","port":27015,"enabled":true,"region":"asia","cc":"hk","latitude":22.302711,"longitude":114.177216,"reserved":0,"last_update":"0001-01-01T00:00:00Z","name_a2s":"Uncletopia | Hong Kong | 1 | All Maps","protocol":17,"map":"cp_metalworks","folder":"tf","game":"Team Fortress","app_id":440,"player_count":0,"max_players":24,"Bots":0,"server_type":"Dedicated","server_os":"Linux","password":true,"vac":true,"version":"7961495","steam_id":85568392924494504,"keywords":["cp","nocrits","nodmgspread","uncletopia"],"game_id":440,"stv_port":27016,"stv_name":"Uncletopia | Hong Kong | 1 | All Maps | STV","players":null},{"server_id":1,"name":"Uncletopia | Los Angeles | 1 | All Maps","name_short":"lax-1","host":"lax-1.us.uncletopia.com","port":27015,"enabled":true,"region":"us-west","cc":"us","latitude":33.94279,"longitude":-118.41004,"reserved":0,"last_update":"0001-01-01T00:00:00Z","name_a2s":"Uncletopia | Los Angeles | 1 | All Maps","protocol":17,"map":"cp_dustbowl","folder":"tf","game":"Team Fortress","app_id":440,"player_count":24,"max_players":24,"Bots":0,"server_type":"Dedicated","server_os":"Linux","password":true,"vac":true,"version":"7961495","steam_id":85568392924469991,"keywords":["cp","nocrits","nodmgspread","uncletopia"],"game_id":440,"stv_port":27016,"stv_name":"Uncletopia | Los Angeles | 1 | All Maps | STV","players":[{"user_id":62,"name":"TheRealTSK","steam_id":76561198261739201,"connected_time":4088000000000,"state":"active","ping":67},{"user_id":120,"name":"Fred","steam_id":76561198114281255,"connected_time":124000000000,"state":"active","ping":99},{"user_id":64,"name":"CovenJinx","steam_id":76561198116228388,"connected_time":3724000000000,"state":"active","ping":100},{"user_id":90,"name":"Moss","steam_id":76561198200421851,"connected_time":2285000000000,"state":"active","ping":115},{"user_id":114,"name":"Brightroot","steam_id":76561198022750670,"connected_time":668000000000,"state":"active","ping":96},{"user_id":97,"name":"BoB :)","steam_id":76561198397174192,"connected_time":2078000000000,"state":"active","ping":64},{"user_id":103,"name":"Lostgamer64","steam_id":76561198108794287,"connected_time":1867000000000,"state":"active","ping":129},{"user_id":111,"name":"Braided ass-hair","steam_id":76561198041623428,"connected_time":946000000000,"state":"active","ping":72},{"user_id":121,"name":"Dullahan","steam_id":76561198119668908,"connected_time":33000000000,"state":"active","ping":56},{"user_id":96,"name":"Nep","steam_id":76561198312425752,"connected_time":2115000000000,"state":"active","ping":79},{"user_id":72,"name":"Travorski","steam_id":76561198072493142,"connected_time":2921000000000,"state":"active","ping":86},{"user_id":91,"name":"kloo_","steam_id":76561199090218013,"connected_time":2237000000000,"state":"active","ping":79},{"user_id":85,"name":"Wigeon","steam_id":76561198049504459,"connected_time":2361000000000,"state":"active","ping":47},{"user_id":98,"name":"Burnbeast","steam_id":76561198088104601,"connected_time":2071000000000,"state":"active","ping":66},{"user_id":122,"name":"GreenApples","steam_id":76561198120559543,"connected_time":28000000000,"state":"active","ping":53},{"user_id":79,"name":"Depresso","steam_id":76561198397540437,"connected_time":2703000000000,"state":"active","ping":87},{"user_id":109,"name":"Professor Kegstand PhD.","steam_id":76561198437703253,"connected_time":1103000000000,"state":"active","ping":112},{"user_id":119,"name":"moxxie","steam_id":76561198893111808,"connected_time":295000000000,"state":"active","ping":66},{"user_id":99,"name":"vozz","steam_id":76561198242065410,"connected_time":2067000000000,"state":"active","ping":45},{"user_id":110,"name":"Handsome Pete","steam_id":76561198003224229,"connected_time":1051000000000,"state":"active","ping":49},{"user_id":112,"name":"Chad MorningWood","steam_id":76561198139832291,"connected_time":932000000000,"state":"active","ping":49},{"user_id":116,"name":"L-","steam_id":76561198046074220,"connected_time":615000000000,"state":"active","ping":38},{"user_id":117,"name":"exx","steam_id":76561198090552145,"connected_time":615000000000,"state":"active","ping":48},{"user_id":118,"name":"Slavaskii","steam_id":76561198046673499,"connected_time":481000000000,"state":"active","ping":109}]},{"server_id":112,"name":"Uncletopia | Los Angeles | 2 | All Maps","name_short":"lax-2","host":"lax-1.us.uncletopia.com","port":27025,"enabled":true,"region":"us-west","cc":"us","latitude":33.94279,"longitude":-118.41004,"reserved":0,"last_update":"0001-01-01T00:00:00Z","name_a2s":"Uncletopia | Los Angeles | 2 | All Maps","protocol":17,"map":"cp_process_final","folder":"tf","game":"Team Fortress","app_id":440,"player_count":24,"max_players":24,"Bots":0,"server_type":"Dedicated","server_os":"Linux","password":true,"vac":true,"version":"7961495","steam_id":85568392924469992,"keywords":["cp","nocrits","nodmgspread","uncletopia"],"game_id":440,"stv_port":27026,"stv_name":"Uncletopia | Los Angeles | 2 | All Maps | STV","players":[{"user_id":233,"name":"NASA PEEPO","steam_id":76561198024982267,"connected_time":4356000000000,"state":"active","ping":58},{"user_id":289,"name":"bowser","steam_id":76561198138261545,"connected_time":246000000000,"state":"active","ping":104},{"user_id":276,"name":"UncleDanesUncle","steam_id":76561199353970793,"connected_time":1507000000000,"state":"active","ping":100},{"user_id":279,"name":"Pizza Cat","steam_id":76561198044362988,"connected_time":1162000000000,"state":"active","ping":100},{"user_id":268,"name":"Crusade","steam_id":76561199192979051,"connected_time":1948000000000,"state":"active","ping":128},{"user_id":295,"name":"super dude epic fail","steam_id":76561198101823902,"connected_time":88000000000,"state":"active","ping":46},{"user_id":274,"name":"Schmupp","steam_id":76561198150928115,"connected_time":1732000000000,"state":"active","ping":45},{"user_id":271,"name":"manthony","steam_id":76561198169219561,"connected_time":1936000000000,"state":"active","ping":47},{"user_id":282,"name":"Fehr","steam_id":76561198037749723,"connected_time":830000000000,"state":"active","ping":90},{"user_id":283,"name":"zy","steam_id":76561199339997328,"connected_time":445000000000,"state":"active","ping":85},{"user_id":294,"name":"yin","steam_id":76561198154144014,"connected_time":151000000000,"state":"active","ping":60},{"user_id":290,"name":"aidonz","steam_id":76561198066395960,"connected_time":192000000000,"state":"active","ping":106},{"user_id":258,"name":"The_Pacific_gamer","steam_id":76561198089491446,"connected_time":2566000000000,"state":"active","ping":60},{"user_id":280,"name":"Aligote","steam_id":76561199188849493,"connected_time":1053000000000,"state":"active","ping":116},{"user_id":281,"name":"spacetoven","steam_id":76561198115821131,"connected_time":912000000000,"state":"active","ping":60},{"user_id":287,"name":"thai tea","steam_id":76561198308290211,"connected_time":302000000000,"state":"active","ping":65},{"user_id":288,"name":"Drive-By-Fish-Guy","steam_id":76561198105513652,"connected_time":274000000000,"state":"active","ping":56},{"user_id":272,"name":"JangoMango","steam_id":76561199144102361,"connected_time":1934000000000,"state":"active","ping":133},{"user_id":291,"name":"MaDeuce","steam_id":76561198110732835,"connected_time":190000000000,"state":"active","ping":74},{"user_id":227,"name":"SanitysEdge","steam_id":76561198130732813,"connected_time":5087000000000,"state":"active","ping":47},{"user_id":264,"name":"flo rida","steam_id":76561198226169704,"connected_time":2057000000000,"state":"active","ping":68},{"user_id":292,"name":"SafetyInstructor","steam_id":76561199195205705,"connected_time":181000000000,"state":"active","ping":76},{"user_id":256,"name":"Catgirl Explise","steam_id":76561198044413891,"connected_time":2748000000000,"state":"active","ping":78},{"user_id":278,"name":"bcizzo","steam_id":76561197994399953,"connected_time":1277000000000,"state":"active","ping":71}]},{"server_id":324,"name":"Uncletopia | Los Angeles | 3 | All Maps","name_short":"lax-3","host":"lax-1.us.uncletopia.com","port":27035,"enabled":true,"region":"us-west","cc":"us","latitude":33.94279,"longitude":-118.41004,"reserved":0,"last_update":"0001-01-01T00:00:00Z","name_a2s":"Uncletopia | Los Angeles | 3 | All Maps","protocol":17,"map":"cp_well","folder":"tf","game":"Team Fortress","app_id":440,"player_count":2,"max_players":24,"Bots":0,"server_type":"Dedicated","server_os":"Linux","password":true,"vac":true,"version":"7961495","steam_id":85568392924510198,"keywords":["cp","nocrits","nodmgspread","uncletopia"],"game_id":440,"stv_port":27036,"stv_name":"Uncletopia | Los Angeles | 3 | All Maps | STV","players":[{"user_id":18,"name":"FlexTape","steam_id":76561198871834867,"connected_time":144000000000,"state":"active","ping":55},{"user_id":19,"name":"tigermouse1939","steam_id":76561199078976251,"connected_time":115000000000,"state":"active","ping":54}]},{"server_id":25,"name":"Uncletopia | Los Angeles | 4 | Stopwatch","name_short":"lax-4","host":"lax-1.us.uncletopia.com","port":27045,"enabled":true,"region":"us-west","cc":"us","latitude":33.94279,"longitude":-118.41004,"reserved":0,"last_update":"0001-01-01T00:00:00Z","name_a2s":"Uncletopia | Los Angeles | 4 | Stopwatch","protocol":17,"map":"koth_highpass","folder":"tf","game":"Team Fortress","app_id":440,"player_count":0,"max_players":24,"Bots":0,"server_type":"Dedicated","server_os":"Linux","password":true,"vac":true,"version":"7961495","steam_id":85568392924510199,"keywords":["cp","nocrits","nodmgspread","uncletopia"],"game_id":440,"stv_port":27046,"stv_name":"Uncletopia | Los Angeles | 4 | Stopwatch | STV","players":null},{"server_id":11,"name":"Uncletopia | London | 1 | All Maps","name_short":"lon-1","host":"lon-1.uk.uncletopia.com","port":27015,"enabled":true,"region":"eu","cc":"gb","latitude":51.509865,"longitude":-0.118092,"reserved":0,"last_update":"0001-01-01T00:00:00Z","name_a2s":"Uncletopia | London | 1 | All Maps","protocol":17,"map":"koth_lakeside_final","folder":"tf","game":"Team Fortress","app_id":440,"player_count":0,"max_players":24,"Bots":0,"server_type":"Dedicated","server_os":"Linux","password":true,"vac":true,"version":"7961495","steam_id":85568392924367362,"keywords":["cp","nocrits","nodmgspread","uncletopia"],"game_id":440,"stv_port":27016,"stv_name":"Uncletopia | London | 1 | All Maps | STV","players":null},{"server_id":114,"name":"Uncletopia | London | 2 | All Maps","name_short":"lon-2","host":"lon-1.uk.uncletopia.com","port":27025,"enabled":true,"region":"eu","cc":"gb","latitude":51.509865,"longitude":-0.118092,"reserved":0,"last_update":"0001-01-01T00:00:00Z","name_a2s":"Uncletopia | London | 2 | All Maps","protocol":17,"map":"cp_mountainlab","folder":"tf","game":"Team Fortress","app_id":440,"player_count":0,"max_players":24,"Bots":0,"server_type":"Dedicated","server_os":"Linux","password":true,"vac":true,"version":"7961495","steam_id":85568392924470941,"keywords":["cp","nocrits","nodmgspread","uncletopia"],"game_id":440,"stv_port":27026,"stv_name":"Uncletopia | London | 2 | All Maps | STV","players":null},{"server_id":320,"name":"Uncletopia | London | 3 | All Maps","name_short":"lon-3","host":"lon-1.uk.uncletopia.com","port":27035,"enabled":true,"region":"eu","cc":"gb","latitude":51.509865,"longitude":-0.118092,"reserved":0,"last_update":"0001-01-01T00:00:00Z","name_a2s":"Uncletopia | London | 3 | All Maps","protocol":17,"map":"pl_snowycoast","folder":"tf","game":"Team Fortress","app_id":440,"player_count":0,"max_players":24,"Bots":0,"server_type":"Dedicated","server_os":"Linux","password":true,"vac":true,"version":"7961495","steam_id":85568392924510192,"keywords":["nocrits","nodmgspread","payload","uncletopia"],"game_id":440,"stv_port":27036,"stv_name":"Uncletopia | London | 3 | All Maps | STV","players":null},{"server_id":321,"name":"Uncletopia | London | 4 | All Maps","name_short":"lon-4","host":"lon-1.uk.uncletopia.com","port":27045,"enabled":true,"region":"eu","cc":"gb","latitude":51.509865,"longitude":-0.118092,"reserved":0,"last_update":"0001-01-01T00:00:00Z","name_a2s":"Uncletopia | London | 4 | All Maps","protocol":17,"map":"pl_pier","folder":"tf","game":"Team Fortress","app_id":440,"player_count":18,"max_players":24,"Bots":0,"server_type":"Dedicated","server_os":"Linux","password":true,"vac":true,"version":"7961495","steam_id":85568392924510193,"keywords":["nocrits","nodmgspread","payload","uncletopia"],"game_id":440,"stv_port":27046,"stv_name":"Uncletopia | London | 4 | All Maps | STV","players":[{"user_id":576,"name":"CreepyYellowDuck","steam_id":76561198000479387,"connected_time":2384000000000,"state":"active","ping":34},{"user_id":577,"name":"Sholunan","steam_id":76561198062435739,"connected_time":2383000000000,"state":"active","ping":58},{"user_id":557,"name":"HazzaV","steam_id":76561198185069859,"connected_time":3748000000000,"state":"active","ping":49},{"user_id":594,"name":"Chaffy2125","steam_id":76561198232839260,"connected_time":750000000000,"state":"active","ping":74},{"user_id":591,"name":"mercedes ben","steam_id":76561198000147423,"connected_time":1056000000000,"state":"active","ping":45},{"user_id":595,"name":"v0ddo","steam_id":76561198092745537,"connected_time":475000000000,"state":"active","ping":56},{"user_id":592,"name":"I always come back","steam_id":76561198296729800,"connected_time":1023000000000,"state":"active","ping":60},{"user_id":579,"name":"LoonLoyalty","steam_id":76561198379070816,"connected_time":2311000000000,"state":"active","ping":75},{"user_id":596,"name":"Saken","steam_id":76561198049075295,"connected_time":387000000000,"state":"active","ping":60},{"user_id":597,"name":"Local Moldovan Farmer","steam_id":76561198066109166,"connected_time":124000000000,"state":"active","ping":90},{"user_id":580,"name":"JujuBalu","steam_id":76561198207253071,"connected_time":2278000000000,"state":"active","ping":35},{"user_id":581,"name":"Loudladdy","steam_id":76561198095271834,"connected_time":2255000000000,"state":"active","ping":44},{"user_id":544,"name":"finn","steam_id":76561198366652456,"connected_time":5550000000000,"state":"active","ping":76},{"user_id":560,"name":"froglids","steam_id":76561198045466919,"connected_time":3673000000000,"state":"active","ping":69},{"user_id":561,"name":"SuperBob103","steam_id":76561199175360012,"connected_time":3671000000000,"state":"active","ping":49},{"user_id":582,"name":"Suko","steam_id":76561198982649363,"connected_time":2246000000000,"state":"active","ping":99},{"user_id":586,"name":"miishhaa","steam_id":76561198879857560,"connected_time":1659000000000,"state":"active","ping":47},{"user_id":587,"name":"CumbustiblePunda","steam_id":76561197974274677,"connected_time":1378000000000,"state":"active","ping":58}]},{"server_id":21,"name":"Uncletopia | London | 5 | All Maps","name_short":"lon-5","host":"lon-1.uk.uncletopia.com","port":27055,"enabled":true,"region":"eu","cc":"gb","latitude":51.509865,"longitude":-0.118092,"reserved":0,"last_update":"0001-01-01T00:00:00Z","name_a2s":"Uncletopia | London | 5 | All Maps","protocol":17,"map":"koth_highpass","folder":"tf","game":"Team Fortress","app_id":440,"player_count":0,"max_players":24,"Bots":0,"server_type":"Dedicated","server_os":"Linux","password":true,"vac":true,"version":"7961495","steam_id":85568392924742829,"keywords":["cp","nocrits","nodmgspread","uncletopia"],"game_id":440,"stv_port":27056,"stv_name":"Uncletopia | London | 5 | All Maps | STV","players":null},{"server_id":22,"name":"Uncletopia | London | 6 | All Maps","name_short":"lon-6","host":"lon-1.uk.uncletopia.com","port":27065,"enabled":true,"region":"eu","cc":"gb","latitude":51.509865,"longitude":-0.118092,"reserved":0,"last_update":"0001-01-01T00:00:00Z","name_a2s":"Uncletopia | London | 6 | All Maps","protocol":17,"map":"cp_sunshine","folder":"tf","game":"Team Fortress","app_id":440,"player_count":0,"max_players":24,"Bots":0,"server_type":"Dedicated","server_os":"Linux","password":true,"vac":true,"version":"7961495","steam_id":85568392924742830,"keywords":["cp","nocrits","nodmgspread","uncletopia"],"game_id":440,"stv_port":27066,"stv_name":"Uncletopia | London | 6 | All Maps | STV","players":null},{"server_id":40,"name":"Uncletopia | London | 7 | Stopwatch","name_short":"lon-7","host":"lon-1.uk.uncletopia.com","port":27075,"enabled":true,"region":"eu","cc":"gb","latitude":51.509865,"longitude":-0.118092,"reserved":0,"last_update":"0001-01-01T00:00:00Z","name_a2s":"Uncletopia | London | 7 | Stopwatch","protocol":17,"map":"workshop/koth_clearcut_b15.ugc2107050255","folder":"tf","game":"Team Fortress","app_id":440,"player_count":0,"max_players":24,"Bots":0,"server_type":"Dedicated","server_os":"Linux","password":true,"vac":true,"version":"7961495","steam_id":85568392924964314,"keywords":["cp","nocrits","nodmgspread","uncletopia"],"game_id":440,"stv_port":27076,"stv_name":"Uncletopia | London | 7 | Stopwatch | STV","players":null},{"server_id":41,"name":"Uncletopia | London | 8 | Community","name_short":"lon-8","host":"lon-1.uk.uncletopia.com","port":27085,"enabled":true,"region":"eu","cc":"gb","latitude":51.509865,"longitude":-0.118092,"reserved":0,"last_update":"0001-01-01T00:00:00Z","name_a2s":"Uncletopia | London | 8 | Community","protocol":17,"map":"workshop/koth_kemptown_rc1.ugc767410655","folder":"tf","game":"Team Fortress","app_id":440,"player_count":0,"max_players":24,"Bots":0,"server_type":"Dedicated","server_os":"Linux","password":true,"vac":true,"version":"7961495","steam_id":85568392924964315,"keywords":["cp","nocrits","nodmgspread","uncletopia"],"game_id":440,"stv_port":27086,"stv_name":"Uncletopia | London | 8 | Community | STV","players":null},{"server_id":300,"name":"Uncletopia | Montr√©al | 1 | One Thousand Uncles","name_short":"mtl-1","host":"mtl-1.ca.uncletopia.com","port":27015,"enabled":true,"region":"us-east","cc":"ca","latitude":45.50889,"longitude":-73.56167,"reserved":0,"last_update":"0001-01-01T00:00:00Z","name_a2s":"Uncletopia | Montr√©al | 1 | One Thousand Uncles","protocol":17,"map":"cp_mercenarypark","folder":"tf","game":"Team Fortress","app_id":440,"player_count":32,"max_players":32,"Bots":20,"server_type":"Dedicated","server_os":"Linux","password":true,"vac":true,"version":"7961495","steam_id":85568392924500087,"keywords":["alltalk","bots","cp","danepve","increased_maxplayers","norespawntime","uncletopia"],"game_id":440,"stv_port":0,"stv_name":"","players":[{"user_id":409,"name":"Kiervce","steam_id":76561199175427371,"connected_time":1994000000000,"state":"active","ping":50},{"user_id":373,"name":"Flappus","steam_id":76561198857949632,"connected_time":3846000000000,"state":"active","ping":69},{"user_id":415,"name":"Knocksban","steam_id":76561198436480853,"connected_time":249000000000,"state":"active","ping":94},{"user_id":414,"name":"Lots0","steam_id":76561198043143145,"connected_time":367000000000,"state":"active","ping":102},{"user_id":365,"name":"1-800-GHOST-DANCE","steam_id":76561198835430429,"connected_time":5130000000000,"state":"active","ping":89},{"user_id":376,"name":"The Skyfoogle","steam_id":76561198797090812,"connected_time":3828000000000,"state":"active","ping":95},{"user_id":379,"name":"DeepDive","steam_id":76561198140542184,"connected_time":3405000000000,"state":"active","ping":54},{"user_id":388,"name":"ZharMeny","steam_id":76561199086841610,"connected_time":2379000000000,"state":"active","ping":210},{"user_id":381,"name":"Luki","steam_id":76561198180609107,"connected_time":3140000000000,"state":"active","ping":128},{"user_id":387,"name":"St. Arnold of Soissons","steam_id":76561197974133892,"connected_time":2755000000000,"state":"active","ping":67},{"user_id":416,"name":"Zwischenton","steam_id":76561198164089380,"connected_time":180000000000,"state":"active","ping":136},{"user_id":385,"name":"Nuka","steam_id":76561199179283250,"connected_time":3035000000000,"state":"active","ping":93}]},{"server_id":301,"name":"Uncletopia | Montr√©al | 2 | One Thousand Uncles","name_short":"mtl-2","host":"mtl-1.ca.uncletopia.com","port":27025,"enabled":true,"region":"us-east","cc":"ca","latitude":45.50889,"longitude":-73.56167,"reserved":0,"last_update":"0001-01-01T00:00:00Z","name_a2s":"Uncletopia | Montr√©al | 2 | One Thousand Uncles","protocol":17,"map":"pl_swiftwater_final1","folder":"tf","game":"Team Fortress","app_id":440,"player_count":0,"max_players":32,"Bots":0,"server_type":"Dedicated","server_os":"Linux","password":true,"vac":true,"version":"7961495","steam_id":85568392924500088,"keywords":["alltalk","danepve","increased_maxplayers","norespawntime","payload","uncletopia"],"game_id":440,"stv_port":0,"stv_name":"","players":null},{"server_id":302,"name":"Uncletopia | Montr√©al | 3 | One Thousand Uncles","name_short":"mtl-3","host":"mtl-1.ca.uncletopia.com","port":27035,"enabled":true,"region":"us-east","cc":"ca","latitude":45.50889,"longitude":-73.56167,"reserved":0,"last_update":"0001-01-01T00:00:00Z","name_a2s":"Uncletopia | Montr√©al | 3 | One Thousand Uncles","protocol":17,"map":"pl_swiftwater_final1","folder":"tf","game":"Team Fortress","app_id":440,"player_count":0,"max_players":32,"Bots":0,"server_type":"Dedicated","server_os":"Linux","password":true,"vac":true,"version":"7961495","steam_id":85568392924500089,"keywords":["alltalk","danepve","increased_maxplayers","norespawntime","payload","uncletopia"],"game_id":440,"stv_port":0,"stv_name":"","players":null},{"server_id":13,"name":"Uncletopia | New York City | 1 | All Maps","name_short":"nyc-1","host":"nyc-1.us.uncletopia.com","port":27015,"enabled":true,"region":"us-east","cc":"us","latitude":40.73061,"longitude":-73.93524,"reserved":0,"last_update":"0001-01-01T00:00:00Z","name_a2s":"Uncletopia | New York City | 1 | All Maps","protocol":17,"map":"pl_badwater","folder":"tf","game":"Team Fortress","app_id":440,"player_count":23,"max_players":24,"Bots":0,"server_type":"Dedicated","server_os":"Linux","password":true,"vac":true,"version":"7961495","steam_id":85568392924469993,"keywords":["nocrits","nodmgspread","payload","uncletopia"],"game_id":440,"stv_port":27016,"stv_name":"Uncletopia | New York City | 1 | All Maps | STV","players":[{"user_id":667,"name":"mostly ham","steam_id":76561199479937232,"connected_time":16000000000,"state":"spawning","ping":59},{"user_id":668,"name":"A_Happy_Fellow","steam_id":76561199229475610,"connected_time":8000000000,"state":"spawning","ping":95},{"user_id":648,"name":"Subborbital","steam_id":76561198360416189,"connected_time":1228000000000,"state":"active","ping":49},{"user_id":662,"name":"Gargathor the Entity Catcher","steam_id":76561198189429665,"connected_time":524000000000,"state":"active","ping":75},{"user_id":608,"name":"Orb","steam_id":76561198353963523,"connected_time":5477000000000,"state":"active","ping":83},{"user_id":660,"name":"beep","steam_id":76561199096448766,"connected_time":626000000000,"state":"active","ping":81},{"user_id":637,"name":"Porcupine's Revenge!","steam_id":76561199121615234,"connected_time":2483000000000,"state":"active","ping":41},{"user_id":564,"name":"leon my beloved","steam_id":76561198089430717,"connected_time":8331000000000,"state":"active","ping":99},{"user_id":640,"name":"BiggSlorp","steam_id":76561199130776156,"connected_time":1878000000000,"state":"active","ping":53},{"user_id":570,"name":"BreezeDanish","steam_id":76561198029758057,"connected_time":7569000000000,"state":"active","ping":65},{"user_id":666,"name":"Sebi","steam_id":76561198182090858,"connected_time":206000000000,"state":"active","ping":52},{"user_id":636,"name":"Lin","steam_id":76561198143746480,"connected_time":2531000000000,"state":"active","ping":126},{"user_id":651,"name":"Scita","steam_id":76561198066861559,"connected_time":1198000000000,"state":"active","ping":52},{"user_id":656,"name":"Maxyyt","steam_id":76561198062309005,"connected_time":979000000000,"state":"active","ping":52},{"user_id":661,"name":"Fishybros","steam_id":76561198182045699,"connected_time":545000000000,"state":"active","ping":58},{"user_id":557,"name":"meow","steam_id":76561198236343140,"connected_time":8531000000000,"state":"active","ping":63},{"user_id":631,"name":"oppenheimer style","steam_id":76561198026664629,"connected_time":3333000000000,"state":"active","ping":45},{"user_id":618,"name":"ferdy","steam_id":76561198140926729,"connected_time":4347000000000,"state":"active","ping":63},{"user_id":655,"name":"Lemurian","steam_id":76561198324118507,"connected_time":1050000000000,"state":"active","ping":64},{"user_id":638,"name":"Fish","steam_id":76561199258053772,"connected_time":2365000000000,"state":"active","ping":76},{"user_id":663,"name":"Vava","steam_id":76561199061877557,"connected_time":492000000000,"state":"active","ping":59},{"user_id":665,"name":"Stick","steam_id":76561198001509374,"connected_time":330000000000,"state":"active","ping":81},{"user_id":664,"name":"Yuzu","steam_id":76561198417913035,"connected_time":472000000000,"state":"active","ping":62}]},{"server_id":14,"name":"Uncletopia | New York City | 2 | All Maps","name_short":"nyc-2","host":"nyc-1.us.uncletopia.com","port":27025,"enabled":true,"region":"us-east","cc":"us","latitude":40.73061,"longitude":-73.93524,"reserved":0,"last_update":"0001-01-01T00:00:00Z","name_a2s":"Uncletopia | New York City | 2 | All Maps","protocol":17,"map":"pl_snowycoast","folder":"tf","game":"Team Fortress","app_id":440,"player_count":24,"max_players":24,"Bots":0,"server_type":"Dedicated","server_os":"Linux","password":true,"vac":true,"version":"7961495","steam_id":85568392924469994,"keywords":["nocrits","nodmgspread","payload","uncletopia"],"game_id":440,"stv_port":27026,"stv_name":"Uncletopia | New York City | 2 | All Maps | STV","players":[{"user_id":717,"name":"S≈Çeggie","steam_id":76561199482258848,"connected_time":862000000000,"state":"active","ping":61},{"user_id":666,"name":"Bootes","steam_id":76561197968255551,"connected_time":3869000000000,"state":"active","ping":52},{"user_id":682,"name":"=7CAV=SGT.Goel.B","steam_id":76561198048174446,"connected_time":2897000000000,"state":"active","ping":173},{"user_id":736,"name":"Buckethead","steam_id":76561198210181296,"connected_time":184000000000,"state":"active","ping":110},{"user_id":667,"name":"Crescent","steam_id":76561198095124633,"connected_time":3826000000000,"state":"active","ping":67},{"user_id":722,"name":"Punkin","steam_id":76561198334301755,"connected_time":817000000000,"state":"active","ping":56},{"user_id":738,"name":"Saucy Boy","steam_id":76561198178332031,"connected_time":22000000000,"state":"spawning","ping":120},{"user_id":611,"name":"‡∏∏","steam_id":76561198355935693,"connected_time":7596000000000,"state":"active","ping":65},{"user_id":723,"name":"Space Cops","steam_id":76561198032414253,"connected_time":789000000000,"state":"active","ping":55},{"user_id":710,"name":"MakutaArty1987","steam_id":76561199048865492,"connected_time":1066000000000,"state":"active","ping":68},{"user_id":732,"name":"Frawg","steam_id":76561198951162196,"connected_time":359000000000,"state":"active","ping":55},{"user_id":734,"name":"White","steam_id":76561198305863331,"connected_time":290000000000,"state":"active","ping":71},{"user_id":718,"name":"confield","steam_id":76561198004322265,"connected_time":860000000000,"state":"active","ping":69},{"user_id":674,"name":"guy","steam_id":76561198163306561,"connected_time":3585000000000,"state":"active","ping":69},{"user_id":685,"name":"Ludcmorais","steam_id":76561198359217809,"connected_time":2869000000000,"state":"active","ping":176},{"user_id":711,"name":"Snoogs","steam_id":76561198444880931,"connected_time":1044000000000,"state":"active","ping":67},{"user_id":712,"name":"lunamoon250","steam_id":76561199122331888,"connected_time":1044000000000,"state":"active","ping":67},{"user_id":737,"name":"JPSS","steam_id":76561199239530493,"connected_time":172000000000,"state":"active","ping":101},{"user_id":721,"name":"mahik","steam_id":76561198012270322,"connected_time":824000000000,"state":"active","ping":52},{"user_id":686,"name":"kairOs.fk","steam_id":76561197972421260,"connected_time":2864000000000,"state":"active","ping":46},{"user_id":719,"name":"Liver stealer","steam_id":76561199029954287,"connected_time":851000000000,"state":"active","ping":149},{"user_id":735,"name":"choi","steam_id":76561198053669887,"connected_time":287000000000,"state":"active","ping":133},{"user_id":702,"name":"Terror-Billy #SaveTF2","steam_id":76561198328141870,"connected_time":1691000000000,"state":"active","ping":65},{"user_id":713,"name":"Mr. JC Denton","steam_id":76561198883964471,"connected_time":1003000000000,"state":"active","ping":81}]},{"server_id":15,"name":"Uncletopia | New York City | 3 | Stopwatch","name_short":"nyc-3","host":"nyc-1.us.uncletopia.com","port":27035,"enabled":true,"region":"us-east","cc":"us","latitude":40.73061,"longitude":-73.93524,"reserved":0,"last_update":"0001-01-01T00:00:00Z","name_a2s":"Uncletopia | New York City | 3 | Stopwatch","protocol":17,"map":"workshop/pl_vigil_rc10.ugc1266210012","folder":"tf","game":"Team Fortress","app_id":440,"player_count":1,"max_players":24,"Bots":0,"server_type":"Dedicated","server_os":"Linux","password":true,"vac":true,"version":"7961495","steam_id":85568392924742820,"keywords":["nocrits","nodmgspread","payload","uncletopia"],"game_id":440,"stv_port":27036,"stv_name":"Uncletopia | New York City | 3 | Stopwatch | STV","players":[{"user_id":322,"name":"krtxzena","steam_id":76561199078490321,"connected_time":196000000000,"state":"spawning","ping":245}]},{"server_id":16,"name":"Uncletopia | New York City | 4 | Community","name_short":"nyc-4","host":"nyc-1.us.uncletopia.com","port":27045,"enabled":true,"region":"us-east","cc":"us","latitude":40.73061,"longitude":-73.93524,"reserved":0,"last_update":"0001-01-01T00:00:00Z","name_a2s":"Uncletopia | New York City | 4 | Community","protocol":17,"map":"workshop/cp_villa_b19.ugc2113052569","folder":"tf","game":"Team Fortress","app_id":440,"player_count":24,"max_players":24,"Bots":0,"server_type":"Dedicated","server_os":"Linux","password":true,"vac":true,"version":"7961495","steam_id":85568392924742821,"keywords":["cp","nocrits","nodmgspread","uncletopia"],"game_id":440,"stv_port":27046,"stv_name":"Uncletopia | New York City | 4 | Community | STV","players":[{"user_id":191,"name":"Scoundrel","steam_id":76561198056672372,"connected_time":809000000000,"state":"active","ping":77},{"user_id":94,"name":"MichelangeloStark","steam_id":76561197976489900,"connected_time":9197000000000,"state":"active","ping":74},{"user_id":185,"name":"BodyOdorMan6","steam_id":76561198924913871,"connected_time":1138000000000,"state":"active","ping":58},{"user_id":199,"name":"BOOMER DOOMER","steam_id":76561198262318826,"connected_time":8000000000,"state":"spawning","ping":116},{"user_id":186,"name":"HumorlessButton","steam_id":76561198170128638,"connected_time":1109000000000,"state":"active","ping":137},{"user_id":165,"name":"gerge","steam_id":76561198092238353,"connected_time":2636000000000,"state":"active","ping":87},{"user_id":187,"name":"colorblindwizardlvl5","steam_id":76561199208988804,"connected_time":1091000000000,"state":"active","ping":75},{"user_id":171,"name":"Rated_C","steam_id":76561199226478414,"connected_time":2204000000000,"state":"active","ping":81},{"user_id":148,"name":"Hank the Tank","steam_id":76561198424853684,"connected_time":3967000000000,"state":"active","ping":69},{"user_id":195,"name":"garfield","steam_id":76561198114119308,"connected_time":232000000000,"state":"active","ping":60},{"user_id":153,"name":"Eiss","steam_id":76561198343183806,"connected_time":3740000000000,"state":"active","ping":61},{"user_id":161,"name":"Bim","steam_id":76561198155979811,"connected_time":2929000000000,"state":"active","ping":53},{"user_id":197,"name":"never needed help","steam_id":76561198045604421,"connected_time":64000000000,"state":"active","ping":53},{"user_id":193,"name":"Gugomo","steam_id":76561198121428316,"connected_time":664000000000,"state":"active","ping":106},{"user_id":121,"name":"Ben Shapiro Gaming","steam_id":76561198113651011,"connected_time":5424000000000,"state":"active","ping":64},{"user_id":196,"name":"Bran Flakes","steam_id":76561198043552741,"connected_time":122000000000,"state":"active","ping":88},{"user_id":166,"name":"Stanis≈Çaw","steam_id":76561198064359644,"connected_time":2625000000000,"state":"active","ping":55},{"user_id":136,"name":"Drake the Pixel","steam_id":76561198131824401,"connected_time":5083000000000,"state":"active","ping":42},{"user_id":198,"name":"GOTTA CLOBBAH DAT KIRBEH","steam_id":76561198153348162,"connected_time":54000000000,"state":"spawning","ping":131},{"user_id":188,"name":"Lost CS2 player","steam_id":76561198892387723,"connected_time":1080000000000,"state":"active","ping":59},{"user_id":194,"name":"slammin","steam_id":76561197965022076,"connected_time":616000000000,"state":"active","ping":45},{"user_id":189,"name":"DoctorDrew","steam_id":76561197962400538,"connected_time":1064000000000,"state":"active","ping":69},{"user_id":163,"name":"Thilo","steam_id":76561197987278784,"connected_time":2914000000000,"state":"active","ping":79},{"user_id":138,"name":"Juan Pablo Gonzalez 2023","steam_id":76561199197961413,"connected_time":5021000000000,"state":"active","ping":45}]},{"server_id":142,"name":"Uncletopia | S√£o Paulo | 1 | All Maps","name_short":"sao-1","host":"sao-1.br.uncletopia.com","port":27015,"enabled":true,"region":"sa","cc":"br","latitude":-23.533773,"longitude":-46.62529,"reserved":0,"last_update":"0001-01-01T00:00:00Z","name_a2s":"Uncletopia | S√£o Paulo | 1 | All Maps","protocol":17,"map":"koth_lakeside_final","folder":"tf","game":"Team Fortress","app_id":440,"player_count":0,"max_players":24,"Bots":0,"server_type":"Dedicated","server_os":"Linux","password":true,"vac":true,"version":"7961495","steam_id":85568392924469996,"keywords":["cp","nocrits","nodmgspread","uncletopia"],"game_id":440,"stv_port":27016,"stv_name":"Uncletopia | S√£o Paulo | 1 | All Maps | STV","players":null},{"server_id":143,"name":"Uncletopia | S√£o Paulo | 2 | Community","name_short":"sao-2","host":"sao-2.br.uncletopia.com","port":27015,"enabled":true,"region":"sa","cc":"br","latitude":-23.533773,"longitude":-46.62529,"reserved":0,"last_update":"0001-01-01T00:00:00Z","name_a2s":"Uncletopia | S√£o Paulo | 2 | Community","protocol":17,"map":"workshop/koth_slaughter_rc1.ugc1712845210","folder":"tf","game":"Team Fortress","app_id":440,"player_count":0,"max_players":24,"Bots":0,"server_type":"Dedicated","server_os":"Linux","password":true,"vac":true,"version":"7961495","steam_id":85568392924485349,"keywords":["cp","nocrits","nodmgspread","uncletopia"],"game_id":440,"stv_port":27016,"stv_name":"Uncletopia | S√£o Paulo | 2 | Community | STV","players":null},{"server_id":7,"name":"Uncletopia | Seattle | 1 | All Maps","name_short":"sea-1","host":"sea-1.us.uncletopia.com","port":27015,"enabled":true,"region":"us-west","cc":"us","latitude":47.608013,"longitude":-122.33517,"reserved":0,"last_update":"0001-01-01T00:00:00Z","name_a2s":"Uncletopia | Seattle | 1 | All Maps","protocol":17,"map":"ctf_landfall","folder":"tf","game":"Team Fortress","app_id":440,"player_count":23,"max_players":24,"Bots":0,"server_type":"Dedicated","server_os":"Linux","password":true,"vac":true,"version":"7961495","steam_id":85568392924469997,"keywords":["ctf","nocrits","nodmgspread","uncletopia"],"game_id":440,"stv_port":27016,"stv_name":"Uncletopia | Seattle | 1 | All Maps | STV","players":[{"user_id":428,"name":"Peppy","steam_id":76561198866629645,"connected_time":1302000000000,"state":"active","ping":51},{"user_id":425,"name":"PorgyPork","steam_id":76561198824399078,"connected_time":1439000000000,"state":"active","ping":57},{"user_id":420,"name":"Weed Pyro (real)","steam_id":76561199388058358,"connected_time":1895000000000,"state":"active","ping":55},{"user_id":423,"name":"The Shaq Attack","steam_id":76561198075285534,"connected_time":1472000000000,"state":"active","ping":40},{"user_id":377,"name":"Shah","steam_id":76561198047508851,"connected_time":5654000000000,"state":"active","ping":61},{"user_id":448,"name":"Lil B (Tha Based/God)","steam_id":76561198133195238,"connected_time":18000000000,"state":"active","ping":113},{"user_id":445,"name":"‚òÖCaseyGlows‚òÖ","steam_id":76561198113616168,"connected_time":243000000000,"state":"active","ping":71},{"user_id":421,"name":"pk;member delete","steam_id":76561198027321950,"connected_time":1773000000000,"state":"active","ping":45},{"user_id":446,"name":"Greenwood RN","steam_id":76561198088641060,"connected_time":123000000000,"state":"active","ping":42},{"user_id":431,"name":"LAB8","steam_id":76561198047743526,"connected_time":1253000000000,"state":"active","ping":42},{"user_id":432,"name":"minerkid2004","steam_id":76561198044262827,"connected_time":1242000000000,"state":"active","ping":86},{"user_id":434,"name":"johnman gooberguy","steam_id":76561199014859764,"connected_time":1206000000000,"state":"active","ping":79},{"user_id":437,"name":"Napa cabbage","steam_id":76561198103825541,"connected_time":1017000000000,"state":"active","ping":124},{"user_id":440,"name":"Can of Oranges","steam_id":76561199121813529,"connected_time":675000000000,"state":"active","ping":52},{"user_id":355,"name":"goofy goober","steam_id":76561199024079388,"connected_time":7238000000000,"state":"active","ping":47},{"user_id":405,"name":"Monte","steam_id":76561198097499917,"connected_time":3774000000000,"state":"active","ping":76},{"user_id":442,"name":"Watermelon","steam_id":76561199487351992,"connected_time":468000000000,"state":"active","ping":88},{"user_id":443,"name":"Just washed","steam_id":76561199030160932,"connected_time":432000000000,"state":"active","ping":132},{"user_id":189,"name":"Banana Man","steam_id":76561199012105803,"connected_time":21574000000000,"state":"active","ping":60},{"user_id":267,"name":"rat gets the cheese","steam_id":76561198031234032,"connected_time":15310000000000,"state":"active","ping":101},{"user_id":439,"name":"Teckn1cal","steam_id":76561198972914209,"connected_time":687000000000,"state":"active","ping":60},{"user_id":385,"name":"Synergy","steam_id":76561198098630198,"connected_time":5356000000000,"state":"active","ping":47},{"user_id":444,"name":"Jovo","steam_id":76561197993265970,"connected_time":428000000000,"state":"active","ping":44}]},{"server_id":119,"name":"Uncletopia | Seattle | 2 | All Maps","name_short":"sea-2","host":"sea-1.us.uncletopia.com","port":27025,"enabled":true,"region":"us-west","cc":"us","latitude":47.608013,"longitude":-122.33517,"reserved":0,"last_update":"0001-01-01T00:00:00Z","name_a2s":"Uncletopia | Seattle | 2 | All Maps","protocol":17,"map":"cp_egypt_final","folder":"tf","game":"Team Fortress","app_id":440,"player_count":19,"max_players":24,"Bots":0,"server_type":"Dedicated","server_os":"Linux","password":true,"vac":true,"version":"7961495","steam_id":85568392924469998,"keywords":["cp","nocrits","nodmgspread","uncletopia"],"game_id":440,"stv_port":27026,"stv_name":"Uncletopia | Seattle | 2 | All Maps | STV","players":[{"user_id":196,"name":"Ryshy02","steam_id":76561198055425447,"connected_time":1601000000000,"state":"active","ping":87},{"user_id":235,"name":"Noxcat lunacy","steam_id":76561199088881426,"connected_time":67000000000,"state":"active","ping":78},{"user_id":201,"name":"dolphin man","steam_id":76561198881001640,"connected_time":1416000000000,"state":"active","ping":78},{"user_id":236,"name":"Antzen","steam_id":76561198041343470,"connected_time":63000000000,"state":"active","ping":63},{"user_id":205,"name":"Thexx [she/they]","steam_id":76561198113823050,"connected_time":1197000000000,"state":"active","ping":49},{"user_id":214,"name":"[BALLS] weedsmoker2009","steam_id":76561199042250833,"connected_time":936000000000,"state":"active","ping":100},{"user_id":199,"name":"t","steam_id":76561198175988929,"connected_time":1504000000000,"state":"active","ping":90},{"user_id":238,"name":"Maid 'n' China","steam_id":76561198423392976,"connected_time":10000000000,"state":"spawning","ping":63},{"user_id":204,"name":"alx","steam_id":76561198013078572,"connected_time":1259000000000,"state":"active","ping":104},{"user_id":209,"name":"sapskook","steam_id":76561198375571018,"connected_time":1136000000000,"state":"active","ping":67},{"user_id":210,"name":"ZemkJval","steam_id":76561198154464008,"connected_time":1128000000000,"state":"active","ping":74},{"user_id":211,"name":"Kepa","steam_id":76561198091975728,"connected_time":1108000000000,"state":"active","ping":75},{"user_id":223,"name":"uncle ricky","steam_id":76561198152405141,"connected_time":685000000000,"state":"active","ping":81},{"user_id":219,"name":"ClosetBotany","steam_id":76561198088324821,"connected_time":813000000000,"state":"active","ping":51},{"user_id":234,"name":"Dimple","steam_id":76561198980324190,"connected_time":173000000000,"state":"active","ping":57},{"user_id":225,"name":"SorryICan","steam_id":76561199138270672,"connected_time":660000000000,"state":"active","ping":72},{"user_id":230,"name":"meat monkey","steam_id":76561198924502457,"connected_time":548000000000,"state":"active","ping":41},{"user_id":231,"name":"GATE GUARDIAN","steam_id":76561198141718725,"connected_time":520000000000,"state":"active","ping":47},{"user_id":233,"name":"Keamy","steam_id":76561199471434875,"connected_time":323000000000,"state":"active","ping":43}]},{"server_id":406,"name":"Uncletopia | Seattle | 3 | Stopwatch","name_short":"sea-3","host":"sea-1.us.uncletopia.com","port":27035,"enabled":true,"region":"us-west","cc":"us","latitude":47.608013,"longitude":-122.33517,"reserved":0,"last_update":"0001-01-01T00:00:00Z","name_a2s":"Uncletopia | Seattle | 3 | Stopwatch","protocol":17,"map":"workshop/koth_jamram_rc1a.ugc2964065613","folder":"tf","game":"Team Fortress","app_id":440,"player_count":0,"max_players":24,"Bots":0,"server_type":"Dedicated","server_os":"Linux","password":true,"vac":true,"version":"7961495","steam_id":85568392924515217,"keywords":["cp","nocrits","nodmgspread","uncletopia"],"game_id":440,"stv_port":27036,"stv_name":"Uncletopia | Seattle | 3 | Stopwatch | STV","players":null},{"server_id":17,"name":"Uncletopia | San Francisco | 1 | All Maps","name_short":"sfo-1","host":"sfo-1.us.uncletopia.com","port":27015,"enabled":true,"region":"us-west","cc":"us","latitude":37.77397,"longitude":-122.4313,"reserved":0,"last_update":"0001-01-01T00:00:00Z","name_a2s":"Uncletopia | San Francisco | 1 | All Maps","protocol":17,"map":"pl_pier","folder":"tf","game":"Team Fortress","app_id":440,"player_count":24,"max_players":24,"Bots":0,"server_type":"Dedicated","server_os":"Linux","password":true,"vac":true,"version":"7961495","steam_id":85568392924469999,"keywords":["nocrits","nodmgspread","payload","uncletopia"],"game_id":440,"stv_port":27016,"stv_name":"Uncletopia | San Francisco | 1 | All Maps | STV","players":[{"user_id":169,"name":"Major_Pippy","steam_id":76561198004482878,"connected_time":820000000000,"state":"active","ping":56},{"user_id":160,"name":"too many fives","steam_id":76561198128465482,"connected_time":1322000000000,"state":"active","ping":81},{"user_id":167,"name":"Invert","steam_id":76561199183326245,"connected_time":883000000000,"state":"active","ping":67},{"user_id":171,"name":"uberchain","steam_id":76561198059177902,"connected_time":632000000000,"state":"active","ping":80},{"user_id":157,"name":"Primordial pouch","steam_id":76561198077993687,"connected_time":1404000000000,"state":"active","ping":125},{"user_id":173,"name":"flynn","steam_id":76561199449454995,"connected_time":545000000000,"state":"active","ping":75},{"user_id":128,"name":"chunkysquare","steam_id":76561199076468383,"connected_time":1967000000000,"state":"active","ping":40},{"user_id":120,"name":"ark","steam_id":76561198041066271,"connected_time":2417000000000,"state":"active","ping":90},{"user_id":172,"name":"b2b","steam_id":76561198082601857,"connected_time":594000000000,"state":"active","ping":59},{"user_id":174,"name":"reverie","steam_id":76561198168158637,"connected_time":545000000000,"state":"active","ping":63},{"user_id":125,"name":"God's Drunkest Driver","steam_id":76561199174579733,"connected_time":1999000000000,"state":"active","ping":98},{"user_id":117,"name":"SolarusD","steam_id":76561198029279861,"connected_time":2680000000000,"state":"active","ping":45},{"user_id":109,"name":"Caspian","steam_id":76561199041466962,"connected_time":3591000000000,"state":"active","ping":44},{"user_id":175,"name":"Yackaboi","steam_id":76561199444911765,"connected_time":501000000000,"state":"active","ping":86},{"user_id":176,"name":"green rain 57","steam_id":76561199404849068,"connected_time":480000000000,"state":"active","ping":72},{"user_id":177,"name":"Sorbis The Grungler","steam_id":76561198057138795,"connected_time":456000000000,"state":"active","ping":76},{"user_id":129,"name":"The Grungler","steam_id":76561198126561438,"connected_time":1964000000000,"state":"active","ping":57},{"user_id":163,"name":"Other Players, My One Weakness","steam_id":76561197989247588,"connected_time":1030000000000,"state":"active","ping":72},{"user_id":178,"name":"midijamshred","steam_id":76561197999416403,"connected_time":426000000000,"state":"active","ping":117},{"user_id":168,"name":"vanillain","steam_id":76561198058617608,"connected_time":881000000000,"state":"active","ping":60},{"user_id":170,"name":"Hamlindigo Blue‚Ñ¢","steam_id":76561198116337540,"connected_time":762000000000,"state":"active","ping":83},{"user_id":179,"name":"Eden","steam_id":76561198081284664,"connected_time":424000000000,"state":"active","ping":61},{"user_id":180,"name":"bowling","steam_id":76561198854571744,"connected_time":403000000000,"state":"active","ping":59},{"user_id":181,"name":"river","steam_id":76561198043828927,"connected_time":381000000000,"state":"active","ping":116}]},{"server_id":18,"name":"Uncletopia | San Francisco | 2 | All Maps","name_short":"sfo-2","host":"sfo-1.us.uncletopia.com","port":27025,"enabled":true,"region":"us-west","cc":"us","latitude":37.77397,"longitude":-122.4313,"reserved":0,"last_update":"0001-01-01T00:00:00Z","name_a2s":"Uncletopia | San Francisco | 2 | All Maps","protocol":17,"map":"cp_gorge","folder":"tf","game":"Team Fortress","app_id":440,"player_count":6,"max_players":24,"Bots":0,"server_type":"Dedicated","server_os":"Linux","password":true,"vac":true,"version":"7961495","steam_id":85568392924470000,"keywords":["cp","nocrits","nodmgspread","uncletopia"],"game_id":440,"stv_port":27026,"stv_name":"Uncletopia | San Francisco | 2 | All Maps | STV","players":[{"user_id":26,"name":"Charcoal","steam_id":76561198268638706,"connected_time":857000000000,"state":"active","ping":57},{"user_id":16,"name":"Rustys_Revenge","steam_id":76561198269414024,"connected_time":1727000000000,"state":"active","ping":51},{"user_id":18,"name":"TTV/RONCHI1030","steam_id":76561198063086116,"connected_time":1417000000000,"state":"active","ping":99},{"user_id":27,"name":"zero_death#6969","steam_id":76561199222319411,"connected_time":712000000000,"state":"active","ping":70},{"user_id":24,"name":"Ocublox","steam_id":76561198177316798,"connected_time":1109000000000,"state":"active","ping":90},{"user_id":22,"name":"DarkSpace","steam_id":76561198884668517,"connected_time":1237000000000,"state":"active","ping":71}]},{"server_id":19,"name":"Uncletopia | San Francisco | 3 | Stopwatch","name_short":"sfo-3","host":"sfo-1.us.uncletopia.com","port":27035,"enabled":true,"region":"us-west","cc":"us","latitude":37.77397,"longitude":-122.4313,"reserved":0,"last_update":"0001-01-01T00:00:00Z","name_a2s":"Uncletopia | San Francisco | 3 | Stopwatch","protocol":17,"map":"workshop/koth_clearcut_b15.ugc2107050255","folder":"tf","game":"Team Fortress","app_id":440,"player_count":0,"max_players":24,"Bots":0,"server_type":"Dedicated","server_os":"Linux","password":true,"vac":true,"version":"7961495","steam_id":85568392924742824,"keywords":["cp","nocrits","nodmgspread","uncletopia"],"game_id":440,"stv_port":27036,"stv_name":"Uncletopia | San Francisco | 3 | Stopwatch | STV","players":null},{"server_id":20,"name":"Uncletopia | San Francisco | 4 | Community","name_short":"sfo-4","host":"sfo-1.us.uncletopia.com","port":27045,"enabled":true,"region":"us-west","cc":"us","latitude":37.77397,"longitude":-122.4313,"reserved":0,"last_update":"0001-01-01T00:00:00Z","name_a2s":"Uncletopia | San Francisco | 4 | Community","protocol":17,"map":"workshop/cp_reckoner_rc6.ugc674719999","folder":"tf","game":"Team Fortress","app_id":440,"player_count":0,"max_players":24,"Bots":0,"server_type":"Dedicated","server_os":"Linux","password":true,"vac":true,"version":"7961495","steam_id":85568392924742826,"keywords":["cp","nocrits","nodmgspread","uncletopia"],"game_id":440,"stv_port":27046,"stv_name":"Uncletopia | San Francisco | 4 | Community | STV","players":null},{"server_id":141,"name":"Uncletopia | Sydney | 1 | All Maps","name_short":"syd-1","host":"syd-1.au.uncletopia.com","port":27015,"enabled":true,"region":"au","cc":"au","latitude":-33.865143,"longitude":151.2099,"reserved":0,"last_update":"0001-01-01T00:00:00Z","name_a2s":"Uncletopia | Sydney | 1 | All Maps","protocol":17,"map":"cp_process_final","folder":"tf","game":"Team Fortress","app_id":440,"player_count":0,"max_players":24,"Bots":0,"server_type":"Dedicated","server_os":"Linux","password":true,"vac":true,"version":"7961495","steam_id":85568392924470001,"keywords":["cp","nocrits","nodmgspread","uncletopia"],"game_id":440,"stv_port":27016,"stv_name":"Uncletopia | Sydney | 1 | All Maps | STV","players":null},{"server_id":123,"name":"Uncletopia | Sydney | 2 | All Maps","name_short":"syd-2","host":"syd-1.au.uncletopia.com","port":27025,"enabled":true,"region":"au","cc":"au","latitude":-33.865143,"longitude":151.2099,"reserved":0,"last_update":"0001-01-01T00:00:00Z","name_a2s":"Uncletopia | Sydney | 2 | All Maps","protocol":17,"map":"cp_mercenarypark","folder":"tf","game":"Team Fortress","app_id":440,"player_count":0,"max_players":24,"Bots":0,"server_type":"Dedicated","server_os":"Linux","password":true,"vac":true,"version":"7961495","steam_id":85568392924470002,"keywords":["cp","nocrits","nodmgspread","uncletopia"],"game_id":440,"stv_port":27026,"stv_name":"Uncletopia | Sydney | 2 | All Maps | STV","players":null},{"server_id":395,"name":"Uncletopia | Sydney | 3 | All Maps","name_short":"syd-3","host":"syd-1.au.uncletopia.com","port":27035,"enabled":true,"region":"au","cc":"au","latitude":-33.865143,"longitude":151.2099,"reserved":0,"last_update":"0001-01-01T00:00:00Z","name_a2s":"Uncletopia | Sydney | 3 | All Maps","protocol":17,"map":"koth_brazil","folder":"tf","game":"Team Fortress","app_id":440,"player_count":0,"max_players":24,"Bots":0,"server_type":"Dedicated","server_os":"Linux","password":true,"vac":true,"version":"7961495","steam_id":85568392925194467,"keywords":["cp","nocrits","nodmgspread","uncletopia"],"game_id":440,"stv_port":27036,"stv_name":"Uncletopia | Sydney | 3 | All Maps | STV","players":null},{"server_id":396,"name":"Uncletopia | Sydney | 4 | All Maps","name_short":"syd-4","host":"syd-1.au.uncletopia.com","port":27045,"enabled":true,"region":"au","cc":"au","latitude":-33.865143,"longitude":151.2099,"reserved":0,"last_update":"0001-01-01T00:00:00Z","name_a2s":"Uncletopia | Sydney | 4 | All Maps","protocol":17,"map":"cp_standin_final","folder":"tf","game":"Team Fortress","app_id":440,"player_count":0,"max_players":24,"Bots":0,"server_type":"Dedicated","server_os":"Linux","password":true,"vac":true,"version":"7961495","steam_id":85568392925397958,"keywords":["cp","nocrits","nodmgspread","uncletopia"],"game_id":440,"stv_port":27046,"stv_name":"Uncletopia | Sydney | 4 | All Maps | STV","players":null},{"server_id":58,"name":"Uncletopia | Sydney | 5 | Stopwatch","name_short":"syd-5","host":"syd-1.au.uncletopia.com","port":27055,"enabled":true,"region":"au","cc":"au","latitude":-33.865143,"longitude":151.2099,"reserved":0,"last_update":"0001-01-01T00:00:00Z","name_a2s":"Uncletopia | Sydney | 5 | Stopwatch","protocol":17,"map":"koth_highpass","folder":"tf","game":"Team Fortress","app_id":440,"player_count":0,"max_players":24,"Bots":0,"server_type":"Dedicated","server_os":"Linux","password":true,"vac":true,"version":"7961495","steam_id":85568392925397959,"keywords":["cp","nocrits","nodmgspread","uncletopia"],"game_id":440,"stv_port":27056,"stv_name":"Uncletopia | Sydney | 5 | Stopwatch | STV","players":null},{"server_id":59,"name":"Uncletopia | Sydney | 6 | Community","name_short":"syd-6","host":"syd-1.au.uncletopia.com","port":27065,"enabled":true,"region":"au","cc":"au","latitude":-33.865143,"longitude":151.2099,"reserved":0,"last_update":"0001-01-01T00:00:00Z","name_a2s":"Uncletopia | Sydney | 6 | Community","protocol":17,"map":"workshop/koth_soot_final1.ugc2969540689","folder":"tf","game":"Team Fortress","app_id":440,"player_count":0,"max_players":24,"Bots":0,"server_type":"Dedicated","server_os":"Linux","password":true,"vac":true,"version":"7961495","steam_id":85568392925397960,"keywords":["cp","nocrits","nodmgspread","uncletopia"],"game_id":440,"stv_port":27066,"stv_name":"Uncletopia | Sydney | 6 | Community | STV","players":null},{"server_id":49,"name":"Uncletopia | Warsaw | 1 | One Thousand Uncles","name_short":"waw-1","host":"waw-1.pl.uncletopia.com","port":27015,"enabled":true,"region":"eu","cc":"pl","latitude":52.2297,"longitude":21.017532,"reserved":0,"last_update":"0001-01-01T00:00:00Z","name_a2s":"Uncletopia | Warsaw | 1 | One Thousand Uncles","protocol":17,"map":"pl_thundermountain","folder":"tf","game":"Team Fortress","app_id":440,"player_count":0,"max_players":32,"Bots":0,"server_type":"Dedicated","server_os":"Linux","password":true,"vac":true,"version":"7961495","steam_id":85568392925397850,"keywords":["alltalk","danepve","increased_maxplayers","norespawntime","payload","uncletopia"],"game_id":440,"stv_port":0,"stv_name":"","players":null},{"server_id":50,"name":"Uncletopia | Warsaw | 2 | One Thousand Uncles","name_short":"waw-2","host":"waw-1.pl.uncletopia.com","port":27025,"enabled":true,"region":"eu","cc":"pl","latitude":52.2297,"longitude":21.017532,"reserved":0,"last_update":"0001-01-01T00:00:00Z","name_a2s":"Uncletopia | Warsaw | 2 | One Thousand Uncles","protocol":17,"map":"cp_dustbowl","folder":"tf","game":"Team Fortress","app_id":440,"player_count":0,"max_players":32,"Bots":0,"server_type":"Dedicated","server_os":"Linux","password":true,"vac":true,"version":"7961495","steam_id":85568392925397851,"keywords":["alltalk","cp","danepve","increased_maxplayers","norespawntime","uncletopia"],"game_id":440,"stv_port":0,"stv_name":"","players":null},{"server_id":51,"name":"Uncletopia | Warsaw | 3 | All Maps","name_short":"waw-3","host":"waw-1.pl.uncletopia.com","port":27035,"enabled":true,"region":"eu","cc":"pl","latitude":52.2297,"longitude":21.017532,"reserved":0,"last_update":"0001-01-01T00:00:00Z","name_a2s":"Uncletopia | Warsaw | 3 | All Maps","protocol":17,"map":"koth_viaduct","folder":"tf","game":"Team Fortress","app_id":440,"player_count":0,"max_players":24,"Bots":0,"server_type":"Dedicated","server_os":"Linux","password":true,"vac":true,"version":"7961495","steam_id":85568392925397852,"keywords":["cp","nocrits","nodmgspread","uncletopia"],"game_id":440,"stv_port":27036,"stv_name":"Uncletopia | Warsaw | 3 | All Maps | STV","players":null},{"server_id":52,"name":"Uncletopia | Warsaw | 4 | All Maps","name_short":"waw-4","host":"waw-1.pl.uncletopia.com","port":27045,"enabled":true,"region":"eu","cc":"pl","latitude":52.2297,"longitude":21.017532,"reserved":0,"last_update":"0001-01-01T00:00:00Z","name_a2s":"Uncletopia | Warsaw | 4 | All Maps","protocol":17,"map":"koth_viaduct","folder":"tf","game":"Team Fortress","app_id":440,"player_count":0,"max_players":24,"Bots":0,"server_type":"Dedicated","server_os":"Linux","password":true,"vac":true,"version":"7961495","steam_id":85568392925397853,"keywords":["cp","nocrits","nodmgspread","uncletopia"],"game_id":440,"stv_port":27046,"stv_name":"Uncletopia | Warsaw | 4 | All Maps | STV","players":null},{"server_id":53,"name":"Uncletopia | Warsaw | 5 | Stopwatch","name_short":"waw-5","host":"waw-1.pl.uncletopia.com","port":27055,"enabled":true,"region":"eu","cc":"pl","latitude":52.2297,"longitude":21.017532,"reserved":0,"last_update":"0001-01-01T00:00:00Z","name_a2s":"Uncletopia | Warsaw | 5 | Stopwatch","protocol":17,"map":"workshop/koth_clearcut_b15.ugc2107050255","folder":"tf","game":"Team Fortress","app_id":440,"player_count":0,"max_players":24,"Bots":0,"server_type":"Dedicated","server_os":"Linux","password":true,"vac":true,"version":"7961495","steam_id":85568392925397854,"keywords":["cp","nocrits","nodmgspread","uncletopia"],"game_id":440,"stv_port":27056,"stv_name":"Uncletopia | Warsaw | 5 | Stopwatch | STV","players":null},{"server_id":54,"name":"Uncletopia | Warsaw | 6 | Community","name_short":"waw-6","host":"waw-1.pl.uncletopia.com","port":27065,"enabled":true,"region":"eu","cc":"pl","latitude":52.2297,"longitude":21.017532,"reserved":0,"last_update":"0001-01-01T00:00:00Z","name_a2s":"Uncletopia | Warsaw | 6 | Community","protocol":17,"map":"workshop/pl_boundary_final1.ugc456799153","folder":"tf","game":"Team Fortress","app_id":440,"player_count":0,"max_players":24,"Bots":0,"server_type":"Dedicated","server_os":"Linux","password":true,"vac":true,"version":"7961495","steam_id":85568392925397856,"keywords":["nocrits","nodmgspread","payload","uncletopia"],"game_id":440,"stv_port":27066,"stv_name":"Uncletopia | Warsaw | 6 | Community | STV","players":null}]}