{"status":true,"message":"","result":[{"server_id":9,"name":"Uncletopia | Atlanta | 1 | All Maps","name_short":"atl-1","host":"atl-1.us.uncletopia.com","port":27015,"enabled":true,"region":"us-east","cc":"us","latitude":33.753746,"longitude":-84.38633,"reserved":0,"last_update":"0001-01-01T00:00:00Z","name_a2s":"Uncletopia | Atlanta | 1 | All Maps","protocol":17,"map":"pl_upward","folder":"tf","game":"Team Fortress","app_id":440,"player_count":24,"max_players":24,"Bots":0,"server_type":"Dedicated","server_os":"Linux","password":true,"vac":true,"version":"7961495","steam_id":85568392924469982,"keywords":["nocrits","nodmgspread","payload","uncletopia"],"game_id":440,"stv_port":27016,"stv_name":"Uncletopia | Atlanta | 1 | All Maps | STV","players":null},{"server_id":104,"name":"Uncletopia | Atlanta | 2 | All Maps","name_short":"atl-2","host":"atl-1.us.uncletopia.com","port":27025,"enabled":true,"region":"us-east","cc":"us","latitude":33.753746,"longitude":-84.38633,"reserved":0,"last_update":"0001-01-01T00:00:00Z","name_a2s":"Uncletopia | Atlanta | 2 | All Maps","protocol":17,"map":"cp_sunshine","folder":"tf","game":"Team Fortress","app_id":440,"player_count":24,"max_players":24,"Bots":0,"server_type":"Dedicated","server_os":"Linux","password":true,"vac":true,"version":"7961495","steam_id":85568392924469983,"keywords":["cp","nocrits","nodmgspread","uncletopia"],"game_id":440,"stv_port":27026,"stv_name":"Uncletopia | Atlanta | 2 | All Maps | STV","players":null},{"server_id":400,"name":"Uncletopia | Atlanta | 3 | Stopwatch","name_short":"atl-3","host":"atl-1.us.uncletopia.com","port":27035,"enabled":true,"region":"us-east","cc":"us","latitude":33.753746,"longitude":-84.38633,"reserved":0,"last_update":"0001-01-01T00:00:00Z","name_a2s":"Uncletopia | Atlanta | 3 | Stopwatch","protocol":17,"map":"cp_sunshine","folder":"tf","game":"Team Fortress","app_id":440,"player_count":2,"max_players":24,"Bots":0,"server_type":"Dedicated","server_os":"Linux","password":true,"vac":true,"version":"7961495","steam_id":85568392924515187,"keywords":["cp","nocrits","nodmgspread","uncletopia"],"game_id":440,"stv_port":27036,"stv_name":"Uncletopia | Atlanta | 3 | Stopwatch | STV","players":null},{"server_id":401,"name":"Uncletopia | Atlanta | 4 | Community","name_short":"atl-4","host":"atl-1.us.uncletopia.com","port":27045,"enabled":true,"region":"us-east","cc":"us","latitude":33.753746,"longitude":-84.38633,"reserved":0,"last_update":"0001-01-01T00:00:00Z","name_a2s":"Uncletopia | Atlanta | 4 | Community","protocol":17,"map":"koth_bagel_rc6","folder":"tf","game":"Team Fortress","app_id":440,"player_count":0,"max_players":24,"Bots":0,"server_type":"Dedicated","server_os":"Linux","password":true,"vac":true,"version":"7961495","steam_id":85568392924515188,"keywords":["cp","nocrits","nodmgspread","uncletopia"],"game_id":440,"stv_port":27046,"stv_name":"Uncletopia | Atlanta | 4 | Community | STV","players":null},{"server_id":2,"name":"Uncletopia | Chicago | 1 | All Maps","name_short":"chi-1","host":"chi-1.us.uncletopia.com","port":27015,"enabled":true,"region":"us-central","cc":"us","latitude":41.881832,"longitude":-87.62318,"reserved":0,"last_update":"0001-01-01T00:00:00Z","name_a2s":"Uncletopia | Chicago | 1 | All Maps","protocol":17,"map":"cp_dustbowl","folder":"tf","game":"Team Fortress","app_id":440,"player_count":24,"max_players":24,"Bots":0,"server_type":"Dedicated","server_os":"Linux","password":true,"vac":true,"version":"7961495","steam_id":85568392924469984,"keywords":["cp","nocrits","nodmgspread","uncletopia"],"game_id":440,"stv_port":27016,"stv_name":"Uncletopia | Chicago | 1 | All Maps | STV","players":[{"user_id":416,"name":"thecal","steam_id":76561198307893384,"connected_time":3574000000000,"state":"active","ping":59},{"user_id":448,"name":"Whyme!?","steam_id":76561198154768084,"connected_time":2129000000000,"state":"active","ping":63},{"user_id":421,"name":"Sucks-At-Aiming","steam_id":76561198027487285,"connected_time":3223000000000,"state":"active","ping":89},{"user_id":434,"name":"Matt","steam_id":76561198182639406,"connected_time":2991000000000,"state":"active","ping":72},{"user_id":422,"name":"Peepster","steam_id":76561198297854733,"connected_time":3212000000000,"state":"active","ping":71},{"user_id":479,"name":"Renegade","steam_id":76561198066847055,"connected_time":315000000000,"state":"active","ping":50},{"user_id":469,"name":"jubanya","steam_id":76561198830921046,"connected_time":762000000000,"state":"active","ping":64},{"user_id":439,"name":"fried rice","steam_id":76561198928939100,"connected_time":2755000000000,"state":"active","ping":80},{"user_id":474,"name":"Lt. Col Kilgore","steam_id":76561198307792506,"connected_time":494000000000,"state":"active","ping":84},{"user_id":447,"name":"Milkmur","steam_id":76561198210043821,"connected_time":2138000000000,"state":"active","ping":69},{"user_id":458,"name":"Sergeant Joker #savetf2","steam_id":76561198854616604,"connected_time":1341000000000,"state":"active","ping":63},{"user_id":393,"name":"the munch","steam_id":76561199164347838,"connected_time":4758000000000,"state":"active","ping":65},{"user_id":465,"name":"edwinbrood","steam_id":76561198044848769,"connected_time":893000000000,"state":"active","ping":65},{"user_id":450,"name":"Monkey D. Management","steam_id":76561198400603422,"connected_time":1693000000000,"state":"active","ping":68},{"user_id":473,"name":"tg cid","steam_id":76561197961277967,"connected_time":585000000000,"state":"active","ping":67},{"user_id":470,"name":"LONG LIVE THE KING","steam_id":76561199017754044,"connected_time":733000000000,"state":"active","ping":75},{"user_id":454,"name":"ZombieMaster428","steam_id":76561198085251146,"connected_time":1483000000000,"state":"active","ping":76},{"user_id":472,"name":"Epifiny","steam_id":76561198027958086,"connected_time":594000000000,"state":"active","ping":70},{"user_id":475,"name":"fizzelfamilyguy","steam_id":76561198363158196,"connected_time":485000000000,"state":"active","ping":88},{"user_id":459,"name":"Quandale Dingle","steam_id":76561198894408534,"connected_time":1324000000000,"state":"active","ping":83},{"user_id":476,"name":"kkadera","steam_id":76561197960353890,"connected_time":483000000000,"state":"active","ping":69},{"user_id":462,"name":"AkimboAoki","steam_id":76561198158323058,"connected_time":1050000000000,"state":"active","ping":97},{"user_id":433,"name":"Humwrecker","steam_id":76561199003607331,"connected_time":3047000000000,"state":"active","ping":129},{"user_id":463,"name":"jimmz","steam_id":76561199076776118,"connected_time":1044000000000,"state":"active","ping":62}]},{"server_id":106,"name":"Uncletopia | Chicago | 2 | All Maps","name_short":"chi-2","host":"chi-1.us.uncletopia.com","port":27025,"enabled":true,"region":"us-central","cc":"us","latitude":41.881832,"longitude":-87.62318,"reserved":0,"last_update":"0001-01-01T00:00:00Z","name_a2s":"Uncletopia | Chicago | 2 | All Maps","protocol":17,"map":"pl_badwater","folder":"tf","game":"Team Fortress","app_id":440,"player_count":22,"max_players":24,"Bots":0,"server_type":"Dedicated","server_os":"Linux","password":true,"vac":true,"version":"7961495","steam_id":85568392924469985,"keywords":["nocrits","nodmgspread","payload","uncletopia"],"game_id":440,"stv_port":27026,"stv_name":"Uncletopia | Chicago | 2 | All Maps | STV","players":[{"user_id":46,"name":"Waterwindow","steam_id":76561198112151398,"connected_time":5150000000000,"state":"active","ping":76},{"user_id":149,"name":"A_Plush","steam_id":76561198147582451,"connected_time":1534000000000,"state":"active","ping":64},{"user_id":134,"name":"Goldblock","steam_id":76561198405515937,"connected_time":2277000000000,"state":"active","ping":98},{"user_id":157,"name":"GingerBoss","steam_id":76561198165708901,"connected_time":645000000000,"state":"active","ping":82},{"user_id":142,"name":"Plasmie{ylo}","steam_id":76561198083513154,"connected_time":1593000000000,"state":"active","ping":69},{"user_id":162,"name":"Ginnunga","steam_id":76561198000320083,"connected_time":11000000000,"state":"active","ping":124},{"user_id":47,"name":"Animal Slices","steam_id":76561198137545511,"connected_time":5138000000000,"state":"active","ping":54},{"user_id":143,"name":"triangleman","steam_id":76561198972733542,"connected_time":1580000000000,"state":"active","ping":48},{"user_id":144,"name":"Jake_Spencer","steam_id":76561198025176750,"connected_time":1570000000000,"state":"active","ping":90},{"user_id":154,"name":"volta","steam_id":76561199214283884,"connected_time":1102000000000,"state":"active","ping":118},{"user_id":161,"name":"Joe Family guy","steam_id":76561198065327106,"connected_time":42000000000,"state":"active","ping":68},{"user_id":156,"name":"THORNFIELDGAMER","steam_id":76561199087167473,"connected_time":697000000000,"state":"active","ping":88},{"user_id":141,"name":"Lunartik","steam_id":76561199004827382,"connected_time":1596000000000,"state":"active","ping":70},{"user_id":145,"name":"MonkeyNobody","steam_id":76561199451266605,"connected_time":1566000000000,"state":"active","ping":104},{"user_id":146,"name":"Sunshine","steam_id":76561198885528098,"connected_time":1561000000000,"state":"active","ping":72},{"user_id":127,"name":"My 600 lbs gaming","steam_id":76561198027968822,"connected_time":2530000000000,"state":"active","ping":72},{"user_id":147,"name":"carter","steam_id":76561198391280639,"connected_time":1550000000000,"state":"active","ping":56},{"user_id":158,"name":"tren cat","steam_id":76561198975824400,"connected_time":586000000000,"state":"active","ping":54},{"user_id":150,"name":"Red on Red","steam_id":76561198802356746,"connected_time":1521000000000,"state":"active","ping":90},{"user_id":139,"name":"Diego","steam_id":76561198415113054,"connected_time":2195000000000,"state":"active","ping":44},{"user_id":151,"name":"Degree","steam_id":76561198059812393,"connected_time":1512000000000,"state":"active","ping":74},{"user_id":160,"name":"Moss","steam_id":76561199122200727,"connected_time":210000000000,"state":"active","ping":66}]},{"server_id":402,"name":"Uncletopia | Chicago | 3 | All Maps","name_short":"chi-3","host":"chi-1.us.uncletopia.com","port":27035,"enabled":true,"region":"us-central","cc":"us","latitude":41.881832,"longitude":-87.62318,"reserved":0,"last_update":"0001-01-01T00:00:00Z","name_a2s":"Uncletopia | Chicago | 3 | All Maps","protocol":17,"map":"koth_lakeside_final","folder":"tf","game":"Team Fortress","app_id":440,"player_count":24,"max_players":24,"Bots":0,"server_type":"Dedicated","server_os":"Linux","password":true,"vac":true,"version":"7961495","steam_id":85568392924515191,"keywords":["cp","nocrits","nodmgspread","uncletopia"],"game_id":440,"stv_port":27036,"stv_name":"Uncletopia | Chicago | 3 | All Maps | STV","players":[{"user_id":341,"name":"xelph","steam_id":76561198443008847,"connected_time":1334000000000,"state":"active","ping":124},{"user_id":348,"name":"KB Ashley","steam_id":76561198378242263,"connected_time":679000000000,"state":"active","ping":61},{"user_id":358,"name":"pithall harry","steam_id":76561198116821551,"connected_time":271000000000,"state":"active","ping":60},{"user_id":353,"name":"hyazZaza","steam_id":76561199100342013,"connected_time":633000000000,"state":"active","ping":89},{"user_id":313,"name":"Pork Soda","steam_id":76561198119575082,"connected_time":3073000000000,"state":"active","ping":82},{"user_id":314,"name":"anotherl2","steam_id":76561198354418895,"connected_time":3046000000000,"state":"active","ping":94},{"user_id":344,"name":"eryn üó∫","steam_id":76561198004433070,"connected_time":789000000000,"state":"active","ping":79},{"user_id":350,"name":"Trumpetspyman59","steam_id":76561198048989561,"connected_time":664000000000,"state":"active","ping":65},{"user_id":361,"name":"Dr Oshawott","steam_id":76561198042021629,"connected_time":190000000000,"state":"active","ping":62},{"user_id":339,"name":"Blehnder","steam_id":76561198172097526,"connected_time":1688000000000,"state":"active","ping":88},{"user_id":352,"name":"Mr.HumanSoup","steam_id":76561198799202879,"connected_time":660000000000,"state":"active","ping":85},{"user_id":356,"name":"SlurpyTheDog","steam_id":76561198799733154,"connected_time":319000000000,"state":"active","ping":61},{"user_id":346,"name":"Zen Obron","steam_id":76561198130167754,"connected_time":704000000000,"state":"active","ping":60},{"user_id":359,"name":"poopnugget142","steam_id":76561198915816552,"connected_time":221000000000,"state":"active","ping":101},{"user_id":360,"name":"EddyQTooReal","steam_id":76561198088480679,"connected_time":212000000000,"state":"active","ping":78},{"user_id":355,"name":"Saber 0X1","steam_id":76561198090226093,"connected_time":403000000000,"state":"active","ping":75},{"user_id":246,"name":"PyroEagle","steam_id":76561198296434231,"connected_time":7165000000000,"state":"active","ping":69},{"user_id":362,"name":"Your Local Queer Librarian","steam_id":76561198013077080,"connected_time":154000000000,"state":"active","ping":59},{"user_id":337,"name":"bAlls","steam_id":76561198976282224,"connected_time":1884000000000,"state":"active","ping":72},{"user_id":363,"name":"sentry food","steam_id":76561198042926224,"connected_time":109000000000,"state":"active","ping":95},{"user_id":340,"name":"PhaserLazer","steam_id":76561198407341298,"connected_time":1571000000000,"state":"active","ping":80},{"user_id":347,"name":"skoops","steam_id":76561198083276946,"connected_time":704000000000,"state":"active","ping":72},{"user_id":319,"name":"Owen","steam_id":76561198126511851,"connected_time":2373000000000,"state":"active","ping":69},{"user_id":327,"name":"primordialheath","steam_id":76561199386942638,"connected_time":2246000000000,"state":"active","ping":60}]},{"server_id":403,"name":"Uncletopia | Chicago | 4 | All Maps","name_short":"chi-4","host":"chi-1.us.uncletopia.com","port":27045,"enabled":true,"region":"us-central","cc":"us","latitude":41.881832,"longitude":-87.62318,"reserved":0,"last_update":"0001-01-01T00:00:00Z","name_a2s":"Uncletopia | Chicago | 4 | All Maps","protocol":17,"map":"cp_altitude","folder":"tf","game":"Team Fortress","app_id":440,"player_count":24,"max_players":24,"Bots":0,"server_type":"Dedicated","server_os":"Linux","password":true,"vac":true,"version":"7961495","steam_id":85568392924515193,"keywords":["cp","nocrits","nodmgspread","uncletopia"],"game_id":440,"stv_port":27046,"stv_name":"Uncletopia | Chicago | 4 | All Maps | STV","players":[{"user_id":592,"name":"guy who loves eating cigarettes","steam_id":76561198094495920,"connected_time":800000000000,"state":"active","ping":32},{"user_id":603,"name":"n00dle","steam_id":76561198120798040,"connected_time":106000000000,"state":"active","ping":38},{"user_id":581,"name":"Skendiesel","steam_id":76561198015497676,"connected_time":1374000000000,"state":"active","ping":51},{"user_id":593,"name":"Pablo","steam_id":76561199036648192,"connected_time":781000000000,"state":"active","ping":119},{"user_id":594,"name":"ryan2goofy","steam_id":76561198131488280,"connected_time":779000000000,"state":"active","ping":90},{"user_id":602,"name":"Oddtortiose","steam_id":76561198303507249,"connected_time":202000000000,"state":"active","ping":61},{"user_id":605,"name":"daxx","steam_id":76561197971296086,"connected_time":49000000000,"state":"active","ping":59},{"user_id":577,"name":"[NAME-REDACTED]","steam_id":76561198035682975,"connected_time":2172000000000,"state":"active","ping":59},{"user_id":586,"name":"SQ | Work-Mann","steam_id":76561198136662801,"connected_time":1040000000000,"state":"active","ping":66},{"user_id":604,"name":"eat Pant","steam_id":76561197974965536,"connected_time":92000000000,"state":"active","ping":62},{"user_id":595,"name":"RocketNinja8162","steam_id":76561199221665694,"connected_time":767000000000,"state":"active","ping":106},{"user_id":572,"name":"[MRY] Sk-iLite","steam_id":76561198041797350,"connected_time":2490000000000,"state":"active","ping":65},{"user_id":582,"name":"SwaggerEggs","steam_id":76561199057357191,"connected_time":1372000000000,"state":"active","ping":135},{"user_id":588,"name":"phantom","steam_id":76561197963860777,"connected_time":972000000000,"state":"active","ping":58},{"user_id":607,"name":"Lawnmower","steam_id":76561198186680197,"connected_time":43000000000,"state":"active","ping":90},{"user_id":590,"name":"swan","steam_id":76561198012569200,"connected_time":802000000000,"state":"active","ping":73},{"user_id":587,"name":"1337Potato","steam_id":76561198134436480,"connected_time":993000000000,"state":"active","ping":145},{"user_id":599,"name":"Robin","steam_id":76561198121165149,"connected_time":555000000000,"state":"active","ping":30},{"user_id":609,"name":"Tea Enthusiast","steam_id":76561198185583925,"connected_time":33000000000,"state":"spawning","ping":50},{"user_id":598,"name":"King of Ping","steam_id":76561198278737470,"connected_time":704000000000,"state":"active","ping":69},{"user_id":610,"name":"Horrific Necktie","steam_id":76561197999439391,"connected_time":24000000000,"state":"active","ping":78},{"user_id":573,"name":"You're The One That I Want","steam_id":76561198256886614,"connected_time":2487000000000,"state":"active","ping":110},{"user_id":611,"name":"PullPosition","steam_id":76561198833384713,"connected_time":24000000000,"state":"spawning","ping":352},{"user_id":584,"name":"Aerobro","steam_id":76561198033530996,"connected_time":1344000000000,"state":"active","ping":90}]},{"server_id":36,"name":"Uncletopia | Chicago | 5 | All Maps","name_short":"chi-5","host":"chi-2.us.uncletopia.com","port":27015,"enabled":true,"region":"us-central","cc":"us","latitude":41.881832,"longitude":-87.62318,"reserved":0,"last_update":"0001-01-01T00:00:00Z","name_a2s":"Uncletopia | Chicago | 5 | All Maps","protocol":17,"map":"cp_sunshine","folder":"tf","game":"Team Fortress","app_id":440,"player_count":0,"max_players":24,"Bots":0,"server_type":"Dedicated","server_os":"Linux","password":true,"vac":true,"version":"7961495","steam_id":85568392924866362,"keywords":["cp","nocrits","nodmgspread","uncletopia"],"game_id":440,"stv_port":27016,"stv_name":"Uncletopia | Chicago | 5 | All Maps | STV","players":null},{"server_id":37,"name":"Uncletopia | Chicago | 6 | All Maps","name_short":"chi-6","host":"chi-2.us.uncletopia.com","port":27025,"enabled":true,"region":"us-central","cc":"us","latitude":41.881832,"longitude":-87.62318,"reserved":0,"last_update":"0001-01-01T00:00:00Z","name_a2s":"Uncletopia | Chicago | 6 | All Maps","protocol":17,"map":"cp_snakewater_final1","folder":"tf","game":"Team Fortress","app_id":440,"player_count":0,"max_players":24,"Bots":0,"server_type":"Dedicated","server_os":"Linux","password":true,"vac":true,"version":"7961495","steam_id":85568392924866363,"keywords":["cp","nocrits","nodmgspread","uncletopia"],"game_id":440,"stv_port":27026,"stv_name":"Uncletopia | Chicago | 6 | All Maps | STV","players":null},{"server_id":38,"name":"Uncletopia | Chicago | 7 | Stopwatch","name_short":"chi-7","host":"chi-2.us.uncletopia.com","port":27035,"enabled":true,"region":"us-central","cc":"us","latitude":41.881832,"longitude":-87.62318,"reserved":0,"last_update":"0001-01-01T00:00:00Z","name_a2s":"Uncletopia | Chicago | 7 | Stopwatch","protocol":17,"map":"pl_badwater","folder":"tf","game":"Team Fortress","app_id":440,"player_count":0,"max_players":24,"Bots":0,"server_type":"Dedicated","server_os":"Linux","password":true,"vac":true,"version":"7961495","steam_id":85568392924866364,"keywords":["nocrits","nodmgspread","payload","uncletopia"],"game_id":440,"stv_port":27036,"stv_name":"Uncletopia | Chicago | 7 | Stopwatch | STV","players":null},{"server_id":39,"name":"Uncletopia | Chicago | 8 | Community","name_short":"chi-8","host":"chi-2.us.uncletopia.com","port":27045,"enabled":true,"region":"us-central","cc":"us","latitude":41.881832,"longitude":-87.62318,"reserved":0,"last_update":"0001-01-01T00:00:00Z","name_a2s":"Uncletopia | Chicago | 8 | Community","protocol":17,"map":"workshop/pl_highwood_b13.ugc1769496557","folder":"tf","game":"Team Fortress","app_id":440,"player_count":0,"max_players":24,"Bots":0,"server_type":"Dedicated","server_os":"Linux","password":true,"vac":true,"version":"7961495","steam_id":85568392924866365,"keywords":["nocrits","nodmgspread","payload","uncletopia"],"game_id":440,"stv_port":27046,"stv_name":"Uncletopia | Chicago | 8 | Community | STV","players":null},{"server_id":8,"name":"Uncletopia | Dallas | 1 | All Maps","name_short":"dal-1","host":"dal-1.us.uncletopia.com","port":27015,"enabled":true,"region":"us-central","cc":"us","latitude":32.779167,"longitude":-96.80889,"reserved":0,"last_update":"0001-01-01T00:00:00Z","name_a2s":"Uncletopia | Dallas | 1 | All Maps","protocol":17,"map":"pl_frontier_final","folder":"tf","game":"Team Fortress","app_id":440,"player_count":24,"max_players":24,"Bots":0,"server_type":"Dedicated","server_os":"Linux","password":true,"vac":true,"version":"7961495","steam_id":85568392924469986,"keywords":["nocrits","nodmgspread","payload","uncletopia"],"game_id":440,"stv_port":27016,"stv_name":"Uncletopia | Dallas | 1 | All Maps | STV","players":[{"user_id":362,"name":"Greg Boberton 2012","steam_id":76561198983566026,"connected_time":2474000000000,"state":"active","ping":90},{"user_id":374,"name":"Aye ayeron","steam_id":76561199000325343,"connected_time":1932000000000,"state":"active","ping":40},{"user_id":291,"name":"Robzilla","steam_id":76561198035236155,"connected_time":7380000000000,"state":"active","ping":67},{"user_id":403,"name":"Piggy","steam_id":76561198000399862,"connected_time":577000000000,"state":"active","ping":70},{"user_id":386,"name":"Legit_Jaxer","steam_id":76561198172234053,"connected_time":1253000000000,"state":"active","ping":101},{"user_id":276,"name":"TheDapperTaco","steam_id":76561199103076602,"connected_time":7997000000000,"state":"active","ping":123},{"user_id":334,"name":"Gigacheat","steam_id":76561198862843572,"connected_time":5333000000000,"state":"active","ping":65},{"user_id":390,"name":"FanaticSalt","steam_id":76561199380123059,"connected_time":987000000000,"state":"active","ping":46},{"user_id":384,"name":"SamFire7645","steam_id":76561198171924179,"connected_time":1642000000000,"state":"active","ping":113},{"user_id":360,"name":"flippercurve","steam_id":76561199238295034,"connected_time":2598000000000,"state":"active","ping":73},{"user_id":320,"name":"OddSlaush","steam_id":76561198043898488,"connected_time":5935000000000,"state":"active","ping":76},{"user_id":406,"name":"Barium_Oxide","steam_id":76561198318491448,"connected_time":365000000000,"state":"active","ping":72},{"user_id":379,"name":"TheGFG","steam_id":76561198166150556,"connected_time":1744000000000,"state":"active","ping":81},{"user_id":371,"name":"Rodgedan","steam_id":76561198226236524,"connected_time":1975000000000,"state":"active","ping":104},{"user_id":382,"name":"Wigl","steam_id":76561198019324464,"connected_time":1681000000000,"state":"active","ping":85},{"user_id":385,"name":"frog gaming","steam_id":76561198323926258,"connected_time":1597000000000,"state":"active","ping":60},{"user_id":349,"name":"‚í∑‚ì™‚ì™‚ì£‚ì®‚ìí‚ìê‚ìö‚ìî‚ì¢","steam_id":76561198088776421,"connected_time":3941000000000,"state":"active","ping":91},{"user_id":405,"name":"Workplace Daydreamer","steam_id":76561199230019748,"connected_time":541000000000,"state":"active","ping":80},{"user_id":407,"name":"Bigjon300","steam_id":76561198137902441,"connected_time":365000000000,"state":"active","ping":113},{"user_id":319,"name":"qt pa 2t","steam_id":76561198066867150,"connected_time":5967000000000,"state":"active","ping":89},{"user_id":400,"name":"R.Y.","steam_id":76561199384459715,"connected_time":757000000000,"state":"active","ping":131},{"user_id":324,"name":"Moonflower ‚ú¶","steam_id":76561198191782483,"connected_time":5570000000000,"state":"active","ping":108},{"user_id":389,"name":"samsoeder","steam_id":76561198293741183,"connected_time":1051000000000,"state":"active","ping":94},{"user_id":398,"name":"i need u","steam_id":76561198030625151,"connected_time":819000000000,"state":"active","ping":78}]},{"server_id":108,"name":"Uncletopia | Dallas | 2 | All Maps","name_short":"dal-2","host":"dal-1.us.uncletopia.com","port":27025,"enabled":true,"region":"us-central","cc":"us","latitude":32.779167,"longitude":-96.80889,"reserved":0,"last_update":"0001-01-01T00:00:00Z","name_a2s":"Uncletopia | Dallas | 2 | All Maps","protocol":17,"map":"pl_frontier_final","folder":"tf","game":"Team Fortress","app_id":440,"player_count":24,"max_players":24,"Bots":0,"server_type":"Dedicated","server_os":"Linux","password":true,"vac":true,"version":"7961495","steam_id":85568392924469988,"keywords":["nocrits","nodmgspread","payload","uncletopia"],"game_id":440,"stv_port":27026,"stv_name":"Uncletopia | Dallas | 2 | All Maps | STV","players":[{"user_id":390,"name":"Cosmic sR","steam_id":76561198081738675,"connected_time":1457000000000,"state":"active","ping":83},{"user_id":395,"name":"artichoke","steam_id":76561198980994364,"connected_time":769000000000,"state":"active","ping":126},{"user_id":413,"name":"SharpStabbyThing","steam_id":76561199059465912,"connected_time":71000000000,"state":"active","ping":88},{"user_id":361,"name":"5kPrime","steam_id":76561198039471915,"connected_time":3562000000000,"state":"active","ping":114},{"user_id":396,"name":"The Punisher","steam_id":76561199126731778,"connected_time":749000000000,"state":"active","ping":120},{"user_id":397,"name":"Krustytoepaste","steam_id":76561198320265524,"connected_time":746000000000,"state":"active","ping":125},{"user_id":415,"name":"DSGR (F2P)","steam_id":76561199038076856,"connected_time":11000000000,"state":"spawning","ping":168},{"user_id":391,"name":"Skiddy","steam_id":76561198125942665,"connected_time":1439000000000,"state":"active","ping":94},{"user_id":407,"name":"EIMB KILLER","steam_id":76561198046870291,"connected_time":360000000000,"state":"active","ping":45},{"user_id":411,"name":"shaq$","steam_id":76561198045246504,"connected_time":170000000000,"state":"active","ping":76},{"user_id":367,"name":"Dknight2","steam_id":76561199187382295,"connected_time":2914000000000,"state":"active","ping":71},{"user_id":414,"name":"Kondha","steam_id":76561198084588336,"connected_time":49000000000,"state":"active","ping":45},{"user_id":400,"name":"cyren caster","steam_id":76561198204509499,"connected_time":736000000000,"state":"active","ping":100},{"user_id":405,"name":"harley","steam_id":76561198799384110,"connected_time":408000000000,"state":"active","ping":111},{"user_id":363,"name":"Lobokart11","steam_id":76561198025017465,"connected_time":3126000000000,"state":"active","ping":114},{"user_id":402,"name":"Yohnny wit da Fade","steam_id":76561198048696348,"connected_time":703000000000,"state":"active","ping":76},{"user_id":365,"name":"bobbymcbobington","steam_id":76561199089411172,"connected_time":3109000000000,"state":"active","ping":125},{"user_id":403,"name":"Defragmented","steam_id":76561198854210081,"connected_time":699000000000,"state":"active","ping":69},{"user_id":408,"name":"LordKirby","steam_id":76561198006938286,"connected_time":287000000000,"state":"active","ping":101},{"user_id":380,"name":"Dum_Bass(Fish)","steam_id":76561197988105207,"connected_time":2412000000000,"state":"active","ping":83},{"user_id":406,"name":"here2he1p","steam_id":76561199216977630,"connected_time":390000000000,"state":"active","ping":111},{"user_id":369,"name":"TrashPanda (she/her)","steam_id":76561198447864095,"connected_time":2640000000000,"state":"active","ping":60},{"user_id":404,"name":"Wiggee","steam_id":76561197972792989,"connected_time":695000000000,"state":"active","ping":47},{"user_id":305,"name":"Dutch","steam_id":76561198040969743,"connected_time":7544000000000,"state":"active","ping":74}]},{"server_id":404,"name":"Uncletopia | Dallas | 3 | All Maps","name_short":"dal-3","host":"dal-1.us.uncletopia.com","port":27035,"enabled":true,"region":"us-central","cc":"us","latitude":32.779167,"longitude":-96.80889,"reserved":0,"last_update":"0001-01-01T00:00:00Z","name_a2s":"Uncletopia | Dallas | 3 | All Maps","protocol":17,"map":"pl_borneo","folder":"tf","game":"Team Fortress","app_id":440,"player_count":24,"max_players":24,"Bots":0,"server_type":"Dedicated","server_os":"Linux","password":true,"vac":true,"version":"7961495","steam_id":85568392924515219,"keywords":["nocrits","nodmgspread","payload","uncletopia"],"game_id":440,"stv_port":27036,"stv_name":"Uncletopia | Dallas | 3 | All Maps | STV","players":[{"user_id":138,"name":"Mr.Kuma","steam_id":76561198145162149,"connected_time":247000000000,"state":"active","ping":96},{"user_id":122,"name":"Stryder","steam_id":76561199387418697,"connected_time":1219000000000,"state":"active","ping":71},{"user_id":66,"name":"Kingland","steam_id":76561199062268425,"connected_time":4116000000000,"state":"active","ping":67},{"user_id":117,"name":"The Greendale Human Beings","steam_id":76561198055433422,"connected_time":1550000000000,"state":"active","ping":107},{"user_id":132,"name":"webaline  =Ôºæ‚óè ‚ãè ‚óèÔºæ=","steam_id":76561199052450127,"connected_time":642000000000,"state":"active","ping":78},{"user_id":72,"name":"Kumatora","steam_id":76561198137748378,"connected_time":3654000000000,"state":"active","ping":75},{"user_id":112,"name":"DirtyTurtle6647","steam_id":76561199446387460,"connected_time":2058000000000,"state":"active","ping":119},{"user_id":139,"name":"silly jester","steam_id":76561198079609974,"connected_time":221000000000,"state":"active","ping":117},{"user_id":124,"name":"\u003c3yaoi-boy-princess\u003c3","steam_id":76561197997343746,"connected_time":1161000000000,"state":"active","ping":86},{"user_id":135,"name":"Chilis 2 for 20","steam_id":76561198121544531,"connected_time":340000000000,"state":"active","ping":77},{"user_id":110,"name":"Ice cream sandwich","steam_id":76561198172748357,"connected_time":2296000000000,"state":"active","ping":84},{"user_id":96,"name":"Jazz2T","steam_id":76561198154418867,"connected_time":2905000000000,"state":"active","ping":105},{"user_id":79,"name":"Bucket of Chestnuts","steam_id":76561198115079427,"connected_time":3449000000000,"state":"active","ping":99},{"user_id":114,"name":"Anxious Nerd Bird","steam_id":76561198112178602,"connected_time":1801000000000,"state":"active","ping":104},{"user_id":125,"name":"rice white","steam_id":76561198320732910,"connected_time":1160000000000,"state":"active","ping":92},{"user_id":136,"name":"Jezzus","steam_id":76561199289676387,"connected_time":329000000000,"state":"active","ping":66},{"user_id":115,"name":"allahsdroptop","steam_id":76561198133195238,"connected_time":1801000000000,"state":"active","ping":102},{"user_id":126,"name":"slowdance","steam_id":76561198097427947,"connected_time":1136000000000,"state":"active","ping":128},{"user_id":133,"name":"Sirphantom","steam_id":76561198125415432,"connected_time":455000000000,"state":"active","ping":96},{"user_id":87,"name":"Bread","steam_id":76561198046006469,"connected_time":3385000000000,"state":"active","ping":90},{"user_id":129,"name":"uzr","steam_id":76561198799343084,"connected_time":1087000000000,"state":"active","ping":112},{"user_id":140,"name":"leumas","steam_id":76561198240408540,"connected_time":154000000000,"state":"active","ping":75},{"user_id":137,"name":"too funky ·óúÀ¨·óú","steam_id":76561199120399776,"connected_time":297000000000,"state":"active","ping":107},{"user_id":109,"name":"small meth pouch","steam_id":76561198130412963,"connected_time":2555000000000,"state":"active","ping":66}]},{"server_id":405,"name":"Uncletopia | Dallas | 4 | Community","name_short":"dal-4","host":"dal-1.us.uncletopia.com","port":27045,"enabled":true,"region":"us-central","cc":"us","latitude":32.779167,"longitude":-96.80889,"reserved":0,"last_update":"0001-01-01T00:00:00Z","name_a2s":"Uncletopia | Dallas | 4 | Community","protocol":17,"map":"workshop/cp_mannbase_rc2a.ugc1900737467","folder":"tf","game":"Team Fortress","app_id":440,"player_count":0,"max_players":24,"Bots":0,"server_type":"Dedicated","server_os":"Linux","password":true,"vac":true,"version":"7961495","steam_id":85568392924515220,"keywords":["cp","nocrits","nodmgspread","uncletopia"],"game_id":440,"stv_port":27046,"stv_name":"Uncletopia | Dallas | 4 | Community | STV","players":null},{"server_id":5,"name":"Uncletopia | Frankfurt | 1 | All Maps","name_short":"frk-1","host":"frk-1.de.uncletopia.com","port":27015,"enabled":true,"region":"eu","cc":"de","latitude":50.110924,"longitude":8.682127,"reserved":0,"last_update":"0001-01-01T00:00:00Z","name_a2s":"Uncletopia | Frankfurt | 1 | All Maps","protocol":17,"map":"pl_borneo","folder":"tf","game":"Team Fortress","app_id":440,"player_count":21,"max_players":24,"Bots":0,"server_type":"Dedicated","server_os":"Linux","password":true,"vac":true,"version":"7961495","steam_id":85568392924469989,"keywords":["nocrits","nodmgspread","payload","uncletopia"],"game_id":440,"stv_port":27016,"stv_name":"Uncletopia | Frankfurt | 1 | All Maps | STV","players":[{"user_id":840,"name":"Femboy Gaming","steam_id":76561198174108515,"connected_time":1220000000000,"state":"active","ping":51},{"user_id":845,"name":"a","steam_id":76561198159073505,"connected_time":995000000000,"state":"active","ping":87},{"user_id":832,"name":"Worm","steam_id":76561198296497176,"connected_time":1463000000000,"state":"active","ping":59},{"user_id":850,"name":"Joejee","steam_id":76561199122423976,"connected_time":290000000000,"state":"active","ping":73},{"user_id":851,"name":"dredomilicete","steam_id":76561199135216928,"connected_time":189000000000,"state":"active","ping":89},{"user_id":852,"name":"diogob_coelho","steam_id":76561199076279677,"connected_time":186000000000,"state":"active","ping":80},{"user_id":842,"name":"ÎßàÏπò","steam_id":76561198263068744,"connected_time":1178000000000,"state":"active","ping":89},{"user_id":846,"name":"King Goomba","steam_id":76561198146467813,"connected_time":990000000000,"state":"active","ping":77},{"user_id":783,"name":"Ganasti","steam_id":76561198382925185,"connected_time":4476000000000,"state":"active","ping":97},{"user_id":853,"name":"mid keef","steam_id":76561198235739036,"connected_time":165000000000,"state":"active","ping":74},{"user_id":854,"name":"Ciggeron Door","steam_id":76561198111462976,"connected_time":162000000000,"state":"active","ping":81},{"user_id":805,"name":"joachym","steam_id":76561198428579761,"connected_time":3397000000000,"state":"active","ping":57},{"user_id":847,"name":"Lorenzo Lovers","steam_id":76561198073973581,"connected_time":989000000000,"state":"active","ping":75},{"user_id":855,"name":"DDGAF","steam_id":76561198257836694,"connected_time":151000000000,"state":"active","ping":45},{"user_id":856,"name":"NeonPixel","steam_id":76561198165901066,"connected_time":104000000000,"state":"active","ping":74},{"user_id":836,"name":"Dictatorial Karelian","steam_id":76561198196736457,"connected_time":1435000000000,"state":"active","ping":75},{"user_id":857,"name":"fl1p","steam_id":76561198148565659,"connected_time":84000000000,"state":"active","ping":75},{"user_id":825,"name":"Ch4bby","steam_id":76561198058792875,"connected_time":2093000000000,"state":"active","ping":59},{"user_id":848,"name":"IcOn","steam_id":76561198101340725,"connected_time":962000000000,"state":"active","ping":73},{"user_id":759,"name":"T√° pr√°ta√≠ go maith","steam_id":76561198372536459,"connected_time":6364000000000,"state":"active","ping":55},{"user_id":812,"name":"ttk","steam_id":76561198094684065,"connected_time":2985000000000,"state":"active","ping":70}]},{"server_id":110,"name":"Uncletopia | Frankfurt | 2 | All Maps","name_short":"frk-2","host":"frk-1.de.uncletopia.com","port":27025,"enabled":true,"region":"eu","cc":"de","latitude":50.110924,"longitude":8.682127,"reserved":0,"last_update":"0001-01-01T00:00:00Z","name_a2s":"Uncletopia | Frankfurt | 2 | All Maps","protocol":17,"map":"pl_badwater","folder":"tf","game":"Team Fortress","app_id":440,"player_count":24,"max_players":24,"Bots":0,"server_type":"Dedicated","server_os":"Linux","password":true,"vac":true,"version":"7961495","steam_id":85568392924469990,"keywords":["nocrits","nodmgspread","payload","uncletopia"],"game_id":440,"stv_port":27026,"stv_name":"Uncletopia | Frankfurt | 2 | All Maps | STV","players":[{"user_id":688,"name":"REDA652","steam_id":76561198164733067,"connected_time":1749000000000,"state":"active","ping":139},{"user_id":707,"name":"Dr.Disrespect","steam_id":76561198043820228,"connected_time":150000000000,"state":"active","ping":34},{"user_id":658,"name":"nekoooooo","steam_id":76561198974207724,"connected_time":3511000000000,"state":"active","ping":109},{"user_id":704,"name":"Kodak White","steam_id":76561198134663458,"connected_time":351000000000,"state":"active","ping":61},{"user_id":695,"name":"ChPerette üéÆ","steam_id":76561198060004887,"connected_time":1305000000000,"state":"active","ping":46},{"user_id":674,"name":"Check Your Posture!","steam_id":76561198097466136,"connected_time":2470000000000,"state":"active","ping":58},{"user_id":705,"name":"dmEngineer_tf2 #SaveTF2","steam_id":76561199388956338,"connected_time":330000000000,"state":"active","ping":78},{"user_id":691,"name":"tone","steam_id":76561197975301462,"connected_time":1463000000000,"state":"active","ping":81},{"user_id":703,"name":"lesiuk","steam_id":76561199223972045,"connected_time":510000000000,"state":"active","ping":69},{"user_id":644,"name":"Grillem Dafoe","steam_id":76561198306874574,"connected_time":5109000000000,"state":"active","ping":85},{"user_id":675,"name":"slippin jimmy","steam_id":76561198090788590,"connected_time":2455000000000,"state":"active","ping":59},{"user_id":692,"name":"Sleepy |","steam_id":76561198072300849,"connected_time":1398000000000,"state":"active","ping":52},{"user_id":696,"name":"Pain in a Box","steam_id":76561197990777173,"connected_time":1298000000000,"state":"active","ping":96},{"user_id":702,"name":"IIIIIIIIII","steam_id":76561198882591193,"connected_time":856000000000,"state":"active","ping":159},{"user_id":685,"name":"Burrito","steam_id":76561198023919089,"connected_time":1897000000000,"state":"active","ping":87},{"user_id":687,"name":"thekoolest88","steam_id":76561199022415672,"connected_time":1825000000000,"state":"active","ping":142},{"user_id":681,"name":"pierogi","steam_id":76561198718760200,"connected_time":2282000000000,"state":"active","ping":64},{"user_id":632,"name":"madhead200","steam_id":76561198119498666,"connected_time":6157000000000,"state":"active","ping":84},{"user_id":664,"name":"whatever...","steam_id":76561197980736364,"connected_time":2999000000000,"state":"active","ping":76},{"user_id":690,"name":"Vexu","steam_id":76561198113145846,"connected_time":1516000000000,"state":"active","ping":89},{"user_id":648,"name":"beeper","steam_id":76561198130416479,"connected_time":4995000000000,"state":"active","ping":59},{"user_id":662,"name":"monte","steam_id":76561199075506275,"connected_time":3166000000000,"state":"active","ping":59},{"user_id":701,"name":"Maximilian1359","steam_id":76561198152439608,"connected_time":1052000000000,"state":"active","ping":54},{"user_id":706,"name":"JosepXXL","steam_id":76561198407124695,"connected_time":283000000000,"state":"active","ping":89}]},{"server_id":308,"name":"Uncletopia | Frankfurt | 3 | All Maps","name_short":"frk-3","host":"frk-1.de.uncletopia.com","port":27035,"enabled":true,"region":"eu","cc":"de","latitude":50.110924,"longitude":8.682127,"reserved":0,"last_update":"0001-01-01T00:00:00Z","name_a2s":"Uncletopia | Frankfurt | 3 | All Maps","protocol":17,"map":"pl_goldrush","folder":"tf","game":"Team Fortress","app_id":440,"player_count":14,"max_players":24,"Bots":0,"server_type":"Dedicated","server_os":"Linux","password":true,"vac":true,"version":"7961495","steam_id":85568392924504274,"keywords":["nocrits","nodmgspread","payload","uncletopia"],"game_id":440,"stv_port":27036,"stv_name":"Uncletopia | Frankfurt | 3 | All Maps | STV","players":[{"user_id":350,"name":"nesag","steam_id":76561198041483314,"connected_time":964000000000,"state":"active","ping":55},{"user_id":369,"name":"Popop","steam_id":76561198004793795,"connected_time":162000000000,"state":"active","ping":42},{"user_id":320,"name":"Cataleptic","steam_id":76561197997966949,"connected_time":2078000000000,"state":"active","ping":70},{"user_id":344,"name":"Zero Sleep Gaming","steam_id":76561198982674420,"connected_time":1328000000000,"state":"active","ping":52},{"user_id":352,"name":"pardner","steam_id":76561198451471161,"connected_time":942000000000,"state":"active","ping":59},{"user_id":368,"name":"lik 21‚∏∏‚õ§","steam_id":76561198443267978,"connected_time":196000000000,"state":"active","ping":89},{"user_id":353,"name":"elmstJP ‚Ç™ F4.exe","steam_id":76561197997909480,"connected_time":939000000000,"state":"active","ping":61},{"user_id":358,"name":"F4.exe","steam_id":76561198278822807,"connected_time":800000000000,"state":"active","ping":61},{"user_id":355,"name":"√áodar","steam_id":76561198235518444,"connected_time":896000000000,"state":"active","ping":45},{"user_id":318,"name":"Sinnmeister","steam_id":76561198201091797,"connected_time":2198000000000,"state":"active","ping":45},{"user_id":370,"name":"Iskandar","steam_id":76561198024973096,"connected_time":151000000000,"state":"active","ping":55},{"user_id":323,"name":"Desnot","steam_id":76561198862581894,"connected_time":1948000000000,"state":"active","ping":74},{"user_id":367,"name":"Lupine Primogen","steam_id":76561198028921204,"connected_time":301000000000,"state":"active","ping":88},{"user_id":362,"name":"PORNO WARRIOR","steam_id":76561198113863344,"connected_time":728000000000,"state":"active","ping":84}]},{"server_id":309,"name":"Uncletopia | Frankfurt | 4 | All Maps","name_short":"frk-4","host":"frk-1.de.uncletopia.com","port":27045,"enabled":true,"region":"eu","cc":"de","latitude":50.110924,"longitude":8.682127,"reserved":0,"last_update":"0001-01-01T00:00:00Z","name_a2s":"Uncletopia | Frankfurt | 4 | All Maps","protocol":17,"map":"koth_highpass","folder":"tf","game":"Team Fortress","app_id":440,"player_count":0,"max_players":24,"Bots":0,"server_type":"Dedicated","server_os":"Linux","password":true,"vac":true,"version":"7961495","steam_id":85568392924504275,"keywords":["cp","nocrits","nodmgspread","uncletopia"],"game_id":440,"stv_port":27046,"stv_name":"Uncletopia | Frankfurt | 4 | All Maps | STV","players":null},{"server_id":310,"name":"Uncletopia | Frankfurt | 5 | All Maps","name_short":"frk-5","host":"frk-1.de.uncletopia.com","port":27055,"enabled":true,"region":"eu","cc":"de","latitude":50.110924,"longitude":8.682127,"reserved":0,"last_update":"0001-01-01T00:00:00Z","name_a2s":"Uncletopia | Frankfurt | 5 | All Maps","protocol":17,"map":"pl_upward","folder":"tf","game":"Team Fortress","app_id":440,"player_count":0,"max_players":24,"Bots":0,"server_type":"Dedicated","server_os":"Linux","password":true,"vac":true,"version":"7961495","steam_id":85568392924504277,"keywords":["nocrits","nodmgspread","payload","uncletopia"],"game_id":440,"stv_port":27056,"stv_name":"Uncletopia | Frankfurt | 5 | All Maps | STV","players":null},{"server_id":311,"name":"Uncletopia | Frankfurt | 6 | All Maps","name_short":"frk-6","host":"frk-1.de.uncletopia.com","port":27065,"enabled":true,"region":"eu","cc":"de","latitude":50.110924,"longitude":8.682127,"reserved":0,"last_update":"0001-01-01T00:00:00Z","name_a2s":"Uncletopia | Frankfurt | 6 | All Maps","protocol":17,"map":"pl_pier","folder":"tf","game":"Team Fortress","app_id":440,"player_count":0,"max_players":24,"Bots":0,"server_type":"Dedicated","server_os":"Linux","password":true,"vac":true,"version":"7961495","steam_id":85568392924504278,"keywords":["nocrits","nodmgspread","payload","uncletopia"],"game_id":440,"stv_port":27066,"stv_name":"Uncletopia | Frankfurt | 6 | All Maps | STV","players":null},{"server_id":23,"name":"Uncletopia | Frankfurt | 7 | Stopwatch","name_short":"frk-7","host":"frk-1.de.uncletopia.com","port":27075,"enabled":true,"region":"eu","cc":"de","latitude":50.110924,"longitude":8.682127,"reserved":0,"last_update":"0001-01-01T00:00:00Z","name_a2s":"Uncletopia | Frankfurt | 7 | Stopwatch","protocol":17,"map":"cp_granary","folder":"tf","game":"Team Fortress","app_id":440,"player_count":1,"max_players":24,"Bots":0,"server_type":"Dedicated","server_os":"Linux","password":true,"vac":true,"version":"7961495","steam_id":85568392924742827,"keywords":["cp","nocrits","nodmgspread","uncletopia"],"game_id":440,"stv_port":27076,"stv_name":"Uncletopia | Frankfurt | 7 | Stopwatch | STV","players":[{"user_id":361,"name":"M4N","steam_id":76561199021460632,"connected_time":3630000000000,"state":"active","ping":149}]},{"server_id":24,"name":"Uncletopia | Frankfurt | 8 | Community","name_short":"frk-8","host":"frk-1.de.uncletopia.com","port":27085,"enabled":true,"region":"eu","cc":"de","latitude":50.110924,"longitude":8.682127,"reserved":0,"last_update":"0001-01-01T00:00:00Z","name_a2s":"Uncletopia | Frankfurt | 8 | Community","protocol":17,"map":"workshop/pl_shoreleave_rc2.ugc1238849347","folder":"tf","game":"Team Fortress","app_id":440,"player_count":1,"max_players":24,"Bots":0,"server_type":"Dedicated","server_os":"Linux","password":true,"vac":true,"version":"7961495","steam_id":85568392924742828,"keywords":["nocrits","nodmgspread","payload","uncletopia"],"game_id":440,"stv_port":27086,"stv_name":"Uncletopia | Frankfurt | 8 | Community | STV","players":[{"user_id":39,"name":"Girlboy Theenie","steam_id":76561198029025500,"connected_time":614000000000,"state":"active","ping":63}]},{"server_id":202,"name":"Uncletopia | Hong Kong | 1 | All Maps","name_short":"hgk-1","host":"hgk-1.hk.uncletopia.com","port":27015,"enabled":true,"region":"asia","cc":"hk","latitude":22.302711,"longitude":114.177216,"reserved":0,"last_update":"0001-01-01T00:00:00Z","name_a2s":"Uncletopia | Hong Kong | 1 | All Maps","protocol":17,"map":"pl_frontier_final","folder":"tf","game":"Team Fortress","app_id":440,"player_count":0,"max_players":24,"Bots":0,"server_type":"Dedicated","server_os":"Linux","password":true,"vac":true,"version":"7961495","steam_id":85568392924494504,"keywords":["nocrits","nodmgspread","payload","uncletopia"],"game_id":440,"stv_port":27016,"stv_name":"Uncletopia | Hong Kong | 1 | All Maps | STV","players":null},{"server_id":1,"name":"Uncletopia | Los Angeles | 1 | All Maps","name_short":"lax-1","host":"lax-1.us.uncletopia.com","port":27015,"enabled":true,"region":"us-west","cc":"us","latitude":33.94279,"longitude":-118.41004,"reserved":0,"last_update":"0001-01-01T00:00:00Z","name_a2s":"Uncletopia | Los Angeles | 1 | All Maps","protocol":17,"map":"cp_mountainlab","folder":"tf","game":"Team Fortress","app_id":440,"player_count":0,"max_players":24,"Bots":0,"server_type":"Dedicated","server_os":"Linux","password":true,"vac":true,"version":"7961495","steam_id":85568392924469991,"keywords":["cp","nocrits","nodmgspread","uncletopia"],"game_id":440,"stv_port":27016,"stv_name":"Uncletopia | Los Angeles | 1 | All Maps | STV","players":null},{"server_id":112,"name":"Uncletopia | Los Angeles | 2 | All Maps","name_short":"lax-2","host":"lax-1.us.uncletopia.com","port":27025,"enabled":true,"region":"us-west","cc":"us","latitude":33.94279,"longitude":-118.41004,"reserved":0,"last_update":"0001-01-01T00:00:00Z","name_a2s":"Uncletopia | Los Angeles | 2 | All Maps","protocol":17,"map":"koth_lakeside_final","folder":"tf","game":"Team Fortress","app_id":440,"player_count":0,"max_players":24,"Bots":0,"server_type":"Dedicated","server_os":"Linux","password":true,"vac":true,"version":"7961495","steam_id":85568392924469992,"keywords":["cp","nocrits","nodmgspread","uncletopia"],"game_id":440,"stv_port":27026,"stv_name":"Uncletopia | Los Angeles | 2 | All Maps | STV","players":null},{"server_id":324,"name":"Uncletopia | Los Angeles | 3 | All Maps","name_short":"lax-3","host":"lax-1.us.uncletopia.com","port":27035,"enabled":true,"region":"us-west","cc":"us","latitude":33.94279,"longitude":-118.41004,"reserved":0,"last_update":"0001-01-01T00:00:00Z","name_a2s":"Uncletopia | Los Angeles | 3 | All Maps","protocol":17,"map":"pl_borneo","folder":"tf","game":"Team Fortress","app_id":440,"player_count":23,"max_players":24,"Bots":0,"server_type":"Dedicated","server_os":"Linux","password":true,"vac":true,"version":"7961495","steam_id":85568392924510198,"keywords":["nocrits","nodmgspread","payload","uncletopia"],"game_id":440,"stv_port":27036,"stv_name":"Uncletopia | Los Angeles | 3 | All Maps | STV","players":[{"user_id":5,"name":"usedhalfcart","steam_id":76561198072621852,"connected_time":8208000000000,"state":"active","ping":80},{"user_id":103,"name":"Scrampled Aigs","steam_id":76561198014526583,"connected_time":1649000000000,"state":"active","ping":104},{"user_id":95,"name":"MakerRov","steam_id":76561198914108894,"connected_time":2086000000000,"state":"active","ping":57},{"user_id":123,"name":"Joh Bags","steam_id":76561198097004438,"connected_time":512000000000,"state":"active","ping":74},{"user_id":89,"name":"The Angel of Death","steam_id":76561198026079349,"connected_time":2477000000000,"state":"active","ping":86},{"user_id":124,"name":"Titar Industries","steam_id":76561198143078476,"connected_time":491000000000,"state":"active","ping":121},{"user_id":104,"name":"coolbust carti","steam_id":76561198065384345,"connected_time":1622000000000,"state":"active","ping":53},{"user_id":80,"name":"noceof","steam_id":76561198043656816,"connected_time":2568000000000,"state":"active","ping":171},{"user_id":120,"name":"Buswolley","steam_id":76561197995205571,"connected_time":832000000000,"state":"active","ping":59},{"user_id":115,"name":"ƒê√Ø…ê»ê…π…¶…Üa","steam_id":76561198981411945,"connected_time":989000000000,"state":"active","ping":35},{"user_id":47,"name":"riSygneD","steam_id":76561198331618687,"connected_time":4947000000000,"state":"active","ping":35},{"user_id":117,"name":"Su1tCas3","steam_id":76561198035989471,"connected_time":906000000000,"state":"active","ping":78},{"user_id":130,"name":"Babymozfather","steam_id":76561199485566302,"connected_time":266000000000,"state":"active","ping":81},{"user_id":131,"name":"Don't Fuckle with Shuckle","steam_id":76561199020102367,"connected_time":144000000000,"state":"active","ping":124},{"user_id":127,"name":"Pirate with radio","steam_id":76561199247095754,"connected_time":397000000000,"state":"active","ping":125},{"user_id":108,"name":"Robolow","steam_id":76561198238109496,"connected_time":1593000000000,"state":"active","ping":90},{"user_id":122,"name":"mn","steam_id":76561198042357436,"connected_time":543000000000,"state":"active","ping":61},{"user_id":102,"name":"Karg","steam_id":76561198091387866,"connected_time":1819000000000,"state":"active","ping":66},{"user_id":119,"name":"XxDragon4321xX","steam_id":76561198046705735,"connected_time":844000000000,"state":"active","ping":69},{"user_id":121,"name":"josh","steam_id":76561198111565081,"connected_time":807000000000,"state":"active","ping":58},{"user_id":128,"name":"Komrade-Patata","steam_id":76561198406745219,"connected_time":376000000000,"state":"active","ping":131},{"user_id":129,"name":"Handsome Pete","steam_id":76561198003224229,"connected_time":375000000000,"state":"active","ping":52},{"user_id":86,"name":"Thequirka","steam_id":76561198968058652,"connected_time":2525000000000,"state":"active","ping":78}]},{"server_id":25,"name":"Uncletopia | Los Angeles | 4 | Stopwatch","name_short":"lax-4","host":"lax-1.us.uncletopia.com","port":27045,"enabled":true,"region":"us-west","cc":"us","latitude":33.94279,"longitude":-118.41004,"reserved":0,"last_update":"0001-01-01T00:00:00Z","name_a2s":"Uncletopia | Los Angeles | 4 | Stopwatch","protocol":17,"map":"pl_barnblitz","folder":"tf","game":"Team Fortress","app_id":440,"player_count":0,"max_players":24,"Bots":0,"server_type":"Dedicated","server_os":"Linux","password":true,"vac":true,"version":"7961495","steam_id":85568392924510199,"keywords":["nocrits","nodmgspread","payload","uncletopia"],"game_id":440,"stv_port":27046,"stv_name":"Uncletopia | Los Angeles | 4 | Stopwatch | STV","players":null},{"server_id":11,"name":"Uncletopia | London | 1 | All Maps","name_short":"lon-1","host":"lon-1.uk.uncletopia.com","port":27015,"enabled":true,"region":"eu","cc":"gb","latitude":51.509865,"longitude":-0.118092,"reserved":0,"last_update":"0001-01-01T00:00:00Z","name_a2s":"Uncletopia | London | 1 | All Maps","protocol":17,"map":"koth_lakeside_final","folder":"tf","game":"Team Fortress","app_id":440,"player_count":23,"max_players":24,"Bots":0,"server_type":"Dedicated","server_os":"Linux","password":true,"vac":true,"version":"7961495","steam_id":85568392924367362,"keywords":["cp","nocrits","nodmgspread","uncletopia"],"game_id":440,"stv_port":27016,"stv_name":"Uncletopia | London | 1 | All Maps | STV","players":[{"user_id":620,"name":"sora","steam_id":76561198096547662,"connected_time":4826000000000,"state":"active","ping":50},{"user_id":659,"name":"Pantroglodytestherapy","steam_id":76561198236015392,"connected_time":1912000000000,"state":"active","ping":118},{"user_id":670,"name":"Mong","steam_id":76561198254497427,"connected_time":495000000000,"state":"active","ping":34},{"user_id":638,"name":"lorislk989","steam_id":76561199224251630,"connected_time":3167000000000,"state":"active","ping":67},{"user_id":672,"name":"Jokerz","steam_id":76561199453766677,"connected_time":486000000000,"state":"active","ping":143},{"user_id":675,"name":"Vitamin Weee","steam_id":76561199183937747,"connected_time":286000000000,"state":"active","ping":86},{"user_id":669,"name":"get off my lawn","steam_id":76561198281175098,"connected_time":530000000000,"state":"active","ping":61},{"user_id":611,"name":"Slifer the SKY Acorn","steam_id":76561198062255803,"connected_time":6405000000000,"state":"active","ping":74},{"user_id":621,"name":"Illy","steam_id":76561198045537823,"connected_time":4740000000000,"state":"active","ping":56},{"user_id":660,"name":"bird ideas","steam_id":76561199480942903,"connected_time":1632000000000,"state":"active","ping":75},{"user_id":661,"name":"krayy (bl√•haj enjoyer)","steam_id":76561198035037830,"connected_time":1616000000000,"state":"active","ping":51},{"user_id":644,"name":"SOPHIIEE","steam_id":76561198443798981,"connected_time":3101000000000,"state":"active","ping":47},{"user_id":664,"name":"bowchika wowa #SlavaUkraine","steam_id":76561198159564550,"connected_time":614000000000,"state":"active","ping":71},{"user_id":649,"name":"sloppy transgirl toppy","steam_id":76561198057092208,"connected_time":2652000000000,"state":"active","ping":69},{"user_id":662,"name":"‚ú™ Danny","steam_id":76561198104483241,"connected_time":1177000000000,"state":"active","ping":52},{"user_id":602,"name":"Minimi","steam_id":76561198873850443,"connected_time":8318000000000,"state":"active","ping":45},{"user_id":666,"name":"Air","steam_id":76561198271025518,"connected_time":573000000000,"state":"active","ping":106},{"user_id":677,"name":"Toofy","steam_id":76561197989727907,"connected_time":117000000000,"state":"active","ping":35},{"user_id":671,"name":"—è —Å–æ—Å–∞–ª –º–µ–Ω—è –µ–±–∞–ª","steam_id":76561197971140507,"connected_time":494000000000,"state":"active","ping":90},{"user_id":645,"name":"Dr Anthony Fauci","steam_id":76561199184100727,"connected_time":3093000000000,"state":"active","ping":75},{"user_id":673,"name":"eMcP!","steam_id":76561198382509396,"connected_time":480000000000,"state":"active","ping":54},{"user_id":646,"name":"Son Goku","steam_id":76561199383437138,"connected_time":3090000000000,"state":"active","ping":129},{"user_id":667,"name":"row","steam_id":76561198053400769,"connected_time":572000000000,"state":"active","ping":49}]},{"server_id":114,"name":"Uncletopia | London | 2 | All Maps","name_short":"lon-2","host":"lon-1.uk.uncletopia.com","port":27025,"enabled":true,"region":"eu","cc":"gb","latitude":51.509865,"longitude":-0.118092,"reserved":0,"last_update":"0001-01-01T00:00:00Z","name_a2s":"Uncletopia | London | 2 | All Maps","protocol":17,"map":"cp_dustbowl","folder":"tf","game":"Team Fortress","app_id":440,"player_count":8,"max_players":24,"Bots":0,"server_type":"Dedicated","server_os":"Linux","password":true,"vac":true,"version":"7961495","steam_id":85568392924470941,"keywords":["cp","nocrits","nodmgspread","uncletopia"],"game_id":440,"stv_port":27026,"stv_name":"Uncletopia | London | 2 | All Maps | STV","players":[{"user_id":635,"name":"Neb","steam_id":76561198829937839,"connected_time":98000000000,"state":"spawning","ping":50},{"user_id":618,"name":"s.ghost","steam_id":76561198851865793,"connected_time":1214000000000,"state":"active","ping":44},{"user_id":629,"name":"coella","steam_id":76561198442803577,"connected_time":356000000000,"state":"active","ping":74},{"user_id":625,"name":"glorpis","steam_id":76561199225333422,"connected_time":890000000000,"state":"active","ping":56},{"user_id":633,"name":"Iocm","steam_id":76561198027572660,"connected_time":260000000000,"state":"active","ping":297},{"user_id":616,"name":"Jon","steam_id":76561199380849468,"connected_time":1301000000000,"state":"active","ping":60},{"user_id":573,"name":"‚ôÇ Twink Hunter ‚ôÇ","steam_id":76561198397024973,"connected_time":4736000000000,"state":"active","ping":30},{"user_id":557,"name":"Coke Zero","steam_id":76561198158562873,"connected_time":6339000000000,"state":"active","ping":71}]},{"server_id":320,"name":"Uncletopia | London | 3 | All Maps","name_short":"lon-3","host":"lon-1.uk.uncletopia.com","port":27035,"enabled":true,"region":"eu","cc":"gb","latitude":51.509865,"longitude":-0.118092,"reserved":0,"last_update":"0001-01-01T00:00:00Z","name_a2s":"Uncletopia | London | 3 | All Maps","protocol":17,"map":"koth_cascade","folder":"tf","game":"Team Fortress","app_id":440,"player_count":0,"max_players":24,"Bots":0,"server_type":"Dedicated","server_os":"Linux","password":true,"vac":true,"version":"7961495","steam_id":85568392924510192,"keywords":["cp","nocrits","nodmgspread","uncletopia"],"game_id":440,"stv_port":27036,"stv_name":"Uncletopia | London | 3 | All Maps | STV","players":null},{"server_id":321,"name":"Uncletopia | London | 4 | All Maps","name_short":"lon-4","host":"lon-1.uk.uncletopia.com","port":27045,"enabled":true,"region":"eu","cc":"gb","latitude":51.509865,"longitude":-0.118092,"reserved":0,"last_update":"0001-01-01T00:00:00Z","name_a2s":"Uncletopia | London | 4 | All Maps","protocol":17,"map":"pl_borneo","folder":"tf","game":"Team Fortress","app_id":440,"player_count":4,"max_players":24,"Bots":0,"server_type":"Dedicated","server_os":"Linux","password":true,"vac":true,"version":"7961495","steam_id":85568392924510193,"keywords":["nocrits","nodmgspread","payload","uncletopia"],"game_id":440,"stv_port":27046,"stv_name":"Uncletopia | London | 4 | All Maps | STV","players":[{"user_id":758,"name":"Rodak","steam_id":76561199135986344,"connected_time":2463000000000,"state":"active","ping":69},{"user_id":754,"name":"Tx_madmash","steam_id":76561198924656512,"connected_time":3234000000000,"state":"active","ping":180},{"user_id":765,"name":"Mangocat_69","steam_id":76561199429701799,"connected_time":591000000000,"state":"active","ping":373},{"user_id":767,"name":"Vigilante","steam_id":76561198230415476,"connected_time":345000000000,"state":"active","ping":147}]},{"server_id":21,"name":"Uncletopia | London | 5 | All Maps","name_short":"lon-5","host":"lon-1.uk.uncletopia.com","port":27055,"enabled":true,"region":"eu","cc":"gb","latitude":51.509865,"longitude":-0.118092,"reserved":0,"last_update":"0001-01-01T00:00:00Z","name_a2s":"Uncletopia | London | 5 | All Maps","protocol":17,"map":"pl_badwater","folder":"tf","game":"Team Fortress","app_id":440,"player_count":24,"max_players":24,"Bots":0,"server_type":"Dedicated","server_os":"Linux","password":true,"vac":true,"version":"7961495","steam_id":85568392924742829,"keywords":["nocrits","nodmgspread","payload","uncletopia"],"game_id":440,"stv_port":27056,"stv_name":"Uncletopia | London | 5 | All Maps | STV","players":[{"user_id":274,"name":"Kernel Panic","steam_id":76561198215811047,"connected_time":84000000000,"state":"active","ping":41},{"user_id":234,"name":"mommy milkers","steam_id":76561198964975161,"connected_time":2023000000000,"state":"active","ping":53},{"user_id":265,"name":"Tommy Toughknuckles","steam_id":76561198180438386,"connected_time":632000000000,"state":"active","ping":43},{"user_id":270,"name":"Stormosaurus","steam_id":76561197999089931,"connected_time":432000000000,"state":"active","ping":74},{"user_id":248,"name":"free back real estate","steam_id":76561197999437155,"connected_time":1128000000000,"state":"active","ping":56},{"user_id":244,"name":"mohemmedmokhter2005","steam_id":76561199197650506,"connected_time":1297000000000,"state":"active","ping":116},{"user_id":256,"name":"Vince","steam_id":76561199103000131,"connected_time":992000000000,"state":"active","ping":34},{"user_id":266,"name":"Burpman","steam_id":76561198022897937,"connected_time":611000000000,"state":"active","ping":51},{"user_id":267,"name":"Obvious Spy","steam_id":76561198003193507,"connected_time":529000000000,"state":"active","ping":68},{"user_id":273,"name":"Habimbi","steam_id":76561198047271252,"connected_time":170000000000,"state":"active","ping":62},{"user_id":258,"name":"Heisenburger","steam_id":76561199098248458,"connected_time":947000000000,"state":"active","ping":93},{"user_id":268,"name":"mr.resetti","steam_id":76561198974520642,"connected_time":502000000000,"state":"active","ping":71},{"user_id":253,"name":"cansado","steam_id":76561198003898089,"connected_time":1058000000000,"state":"active","ping":66},{"user_id":240,"name":"harper","steam_id":76561198188642265,"connected_time":1682000000000,"state":"active","ping":62},{"user_id":202,"name":"Potshott","steam_id":76561198184014158,"connected_time":3292000000000,"state":"active","ping":50},{"user_id":254,"name":"Locke","steam_id":76561198339408300,"connected_time":1058000000000,"state":"active","ping":94},{"user_id":226,"name":"Implywood (they/them)","steam_id":76561198096762648,"connected_time":2223000000000,"state":"active","ping":55},{"user_id":236,"name":"balls","steam_id":76561198865130048,"connected_time":2006000000000,"state":"active","ping":55},{"user_id":259,"name":"Silver","steam_id":76561198175238807,"connected_time":905000000000,"state":"active","ping":64},{"user_id":219,"name":"Real (Real)","steam_id":76561198323425034,"connected_time":2654000000000,"state":"active","ping":77},{"user_id":204,"name":"Batch Number 443714","steam_id":76561197977497969,"connected_time":3282000000000,"state":"active","ping":46},{"user_id":272,"name":"Star in a pond","steam_id":76561198205501279,"connected_time":232000000000,"state":"active","ping":90},{"user_id":262,"name":"Qdarks","steam_id":76561198013391340,"connected_time":841000000000,"state":"active","ping":143},{"user_id":257,"name":"j√π xiƒì","steam_id":76561198096189399,"connected_time":962000000000,"state":"active","ping":68}]},{"server_id":22,"name":"Uncletopia | London | 6 | All Maps","name_short":"lon-6","host":"lon-1.uk.uncletopia.com","port":27065,"enabled":true,"region":"eu","cc":"gb","latitude":51.509865,"longitude":-0.118092,"reserved":0,"last_update":"0001-01-01T00:00:00Z","name_a2s":"Uncletopia | London | 6 | All Maps","protocol":17,"map":"pl_upward","folder":"tf","game":"Team Fortress","app_id":440,"player_count":0,"max_players":24,"Bots":0,"server_type":"Dedicated","server_os":"Linux","password":true,"vac":true,"version":"7961495","steam_id":85568392924742830,"keywords":["nocrits","nodmgspread","payload","uncletopia"],"game_id":440,"stv_port":27066,"stv_name":"Uncletopia | London | 6 | All Maps | STV","players":null},{"server_id":40,"name":"Uncletopia | London | 7 | Stopwatch","name_short":"lon-7","host":"lon-1.uk.uncletopia.com","port":27075,"enabled":true,"region":"eu","cc":"gb","latitude":51.509865,"longitude":-0.118092,"reserved":0,"last_update":"0001-01-01T00:00:00Z","name_a2s":"Uncletopia | London | 7 | Stopwatch","protocol":17,"map":"workshop/koth_bagel_rc6.ugc2514036946","folder":"tf","game":"Team Fortress","app_id":440,"player_count":0,"max_players":24,"Bots":0,"server_type":"Dedicated","server_os":"Linux","password":true,"vac":true,"version":"7961495","steam_id":85568392924964314,"keywords":["cp","nocrits","nodmgspread","uncletopia"],"game_id":440,"stv_port":27076,"stv_name":"Uncletopia | London | 7 | Stopwatch | STV","players":null},{"server_id":41,"name":"Uncletopia | London | 8 | Community","name_short":"lon-8","host":"lon-1.uk.uncletopia.com","port":27085,"enabled":true,"region":"eu","cc":"gb","latitude":51.509865,"longitude":-0.118092,"reserved":0,"last_update":"0001-01-01T00:00:00Z","name_a2s":"Uncletopia | London | 8 | Community","protocol":17,"map":"workshop/cp_alloy_rc3.ugc592805587","folder":"tf","game":"Team Fortress","app_id":440,"player_count":0,"max_players":24,"Bots":0,"server_type":"Dedicated","server_os":"Linux","password":true,"vac":true,"version":"7961495","steam_id":85568392924964315,"keywords":["cp","nocrits","nodmgspread","uncletopia"],"game_id":440,"stv_port":27086,"stv_name":"Uncletopia | London | 8 | Community | STV","players":null},{"server_id":300,"name":"Uncletopia | Montr√©al | 1 | All Maps","name_short":"mtl-1","host":"mtl-1.ca.uncletopia.com","port":27015,"enabled":true,"region":"us-east","cc":"ca","latitude":45.50889,"longitude":-73.56167,"reserved":0,"last_update":"0001-01-01T00:00:00Z","name_a2s":"","protocol":0,"map":"","folder":"","game":"","app_id":0,"player_count":0,"max_players":0,"Bots":0,"server_type":"","server_os":"","password":false,"vac":false,"version":"","steam_id":0,"keywords":null,"game_id":0,"stv_port":0,"stv_name":"","players":null},{"server_id":301,"name":"Uncletopia | Montr√©al | 2 | All Maps","name_short":"mtl-2","host":"mtl-1.ca.uncletopia.com","port":27025,"enabled":true,"region":"us-east","cc":"ca","latitude":45.50889,"longitude":-73.56167,"reserved":0,"last_update":"0001-01-01T00:00:00Z","name_a2s":"","protocol":0,"map":"","folder":"","game":"","app_id":0,"player_count":0,"max_players":0,"Bots":0,"server_type":"","server_os":"","password":false,"vac":false,"version":"","steam_id":0,"keywords":null,"game_id":0,"stv_port":0,"stv_name":"","players":null},{"server_id":302,"name":"Uncletopia | Montr√©al | 3 | All Maps","name_short":"mtl-3","host":"mtl-1.ca.uncletopia.com","port":27035,"enabled":true,"region":"us-east","cc":"ca","latitude":45.50889,"longitude":-73.56167,"reserved":0,"last_update":"0001-01-01T00:00:00Z","name_a2s":"","protocol":0,"map":"","folder":"","game":"","app_id":0,"player_count":0,"max_players":0,"Bots":0,"server_type":"","server_os":"","password":false,"vac":false,"version":"","steam_id":0,"keywords":null,"game_id":0,"stv_port":0,"stv_name":"","players":null},{"server_id":303,"name":"Uncletopia | Montr√©al | 4 | No Payload","name_short":"mtl-4","host":"mtl-1.ca.uncletopia.com","port":27045,"enabled":true,"region":"us-east","cc":"ca","latitude":45.50889,"longitude":-73.56167,"reserved":0,"last_update":"0001-01-01T00:00:00Z","name_a2s":"","protocol":0,"map":"","folder":"","game":"","app_id":0,"player_count":0,"max_players":0,"Bots":0,"server_type":"","server_os":"","password":false,"vac":false,"version":"","steam_id":0,"keywords":null,"game_id":0,"stv_port":0,"stv_name":"","players":null},{"server_id":13,"name":"Uncletopia | New York City | 1 | All Maps","name_short":"nyc-1","host":"nyc-1.us.uncletopia.com","port":27015,"enabled":true,"region":"us-east","cc":"us","latitude":40.73061,"longitude":-73.93524,"reserved":0,"last_update":"0001-01-01T00:00:00Z","name_a2s":"Uncletopia | New York City | 1 | All Maps","protocol":17,"map":"pl_badwater","folder":"tf","game":"Team Fortress","app_id":440,"player_count":24,"max_players":24,"Bots":0,"server_type":"Dedicated","server_os":"Linux","password":true,"vac":true,"version":"7961495","steam_id":85568392924469993,"keywords":["nocrits","nodmgspread","payload","uncletopia"],"game_id":440,"stv_port":27016,"stv_name":"Uncletopia | New York City | 1 | All Maps | STV","players":[{"user_id":199,"name":"Bother","steam_id":76561198336750909,"connected_time":359000000000,"state":"active","ping":42},{"user_id":150,"name":"TTV/kkoduh","steam_id":76561198142884645,"connected_time":4856000000000,"state":"active","ping":61},{"user_id":155,"name":"Rocco__","steam_id":76561197992824074,"connected_time":4256000000000,"state":"active","ping":65},{"user_id":200,"name":"big ol' buford","steam_id":76561198290675957,"connected_time":322000000000,"state":"active","ping":74},{"user_id":134,"name":"Domswish","steam_id":76561198331444240,"connected_time":5912000000000,"state":"active","ping":56},{"user_id":182,"name":"Slob and Sup","steam_id":76561198123441203,"connected_time":2118000000000,"state":"active","ping":72},{"user_id":184,"name":"Captain Bug","steam_id":76561198137763878,"connected_time":2091000000000,"state":"active","ping":67},{"user_id":157,"name":"Hertz","steam_id":76561198245322982,"connected_time":4174000000000,"state":"active","ping":60},{"user_id":149,"name":"20 miles for a Quaalude","steam_id":76561198042579477,"connected_time":4892000000000,"state":"active","ping":76},{"user_id":173,"name":"Chris Hansen, Kell of Kells","steam_id":76561198986775156,"connected_time":3035000000000,"state":"active","ping":66},{"user_id":187,"name":"6t26j","steam_id":76561198278282836,"connected_time":1782000000000,"state":"active","ping":56},{"user_id":179,"name":"McGruble","steam_id":76561198136317340,"connected_time":2155000000000,"state":"active","ping":76},{"user_id":171,"name":"turd ferguson","steam_id":76561198071620782,"connected_time":3119000000000,"state":"active","ping":69},{"user_id":195,"name":"manscaped lawnmower 2.0","steam_id":76561199052840531,"connected_time":1019000000000,"state":"active","ping":46},{"user_id":131,"name":"Big Time Bobby","steam_id":76561198935266162,"connected_time":6181000000000,"state":"active","ping":79},{"user_id":193,"name":"Sire Salty","steam_id":76561198079639072,"connected_time":1036000000000,"state":"active","ping":55},{"user_id":168,"name":"Joy","steam_id":76561198073690173,"connected_time":3367000000000,"state":"active","ping":55},{"user_id":192,"name":"Feared Gamer","steam_id":76561198350127514,"connected_time":1301000000000,"state":"active","ping":47},{"user_id":186,"name":"TopHatWearingKoala","steam_id":76561198068192599,"connected_time":1926000000000,"state":"active","ping":68},{"user_id":122,"name":"Bottom feeder","steam_id":76561198181298169,"connected_time":6954000000000,"state":"active","ping":74},{"user_id":165,"name":"Deck Gaming","steam_id":76561198159579919,"connected_time":3847000000000,"state":"active","ping":34},{"user_id":197,"name":"guh","steam_id":76561197972342286,"connected_time":977000000000,"state":"active","ping":55},{"user_id":196,"name":"Mobster Lobster","steam_id":76561198025376883,"connected_time":1015000000000,"state":"active","ping":74},{"user_id":147,"name":"jamzine","steam_id":76561198186168293,"connected_time":4918000000000,"state":"active","ping":76}]},{"server_id":14,"name":"Uncletopia | New York City | 2 | All Maps","name_short":"nyc-2","host":"nyc-1.us.uncletopia.com","port":27025,"enabled":true,"region":"us-east","cc":"us","latitude":40.73061,"longitude":-73.93524,"reserved":0,"last_update":"0001-01-01T00:00:00Z","name_a2s":"Uncletopia | New York City | 2 | All Maps","protocol":17,"map":"pl_borneo","folder":"tf","game":"Team Fortress","app_id":440,"player_count":24,"max_players":24,"Bots":0,"server_type":"Dedicated","server_os":"Linux","password":true,"vac":true,"version":"7961495","steam_id":85568392924469994,"keywords":["nocrits","nodmgspread","payload","uncletopia"],"game_id":440,"stv_port":27026,"stv_name":"Uncletopia | New York City | 2 | All Maps | STV","players":[{"user_id":53,"name":"_awsome_guy0259_","steam_id":76561198834301650,"connected_time":864000000000,"state":"active","ping":61},{"user_id":29,"name":"Keymaster","steam_id":76561198881514228,"connected_time":1466000000000,"state":"active","ping":60},{"user_id":23,"name":"Friedrich Nietzsche","steam_id":76561199087961952,"connected_time":1724000000000,"state":"active","ping":70},{"user_id":24,"name":"Hot Boy","steam_id":76561198235994316,"connected_time":1716000000000,"state":"active","ping":92},{"user_id":57,"name":"Bee","steam_id":76561198074681324,"connected_time":638000000000,"state":"active","ping":45},{"user_id":67,"name":"flare","steam_id":76561198048623485,"connected_time":130000000000,"state":"active","ping":45},{"user_id":31,"name":"dirtyella","steam_id":76561199016948161,"connected_time":1378000000000,"state":"active","ping":71},{"user_id":32,"name":"√áAFFIEND","steam_id":76561198062993241,"connected_time":1327000000000,"state":"active","ping":82},{"user_id":63,"name":"bouncyhousin","steam_id":76561198852902827,"connected_time":250000000000,"state":"active","ping":71},{"user_id":68,"name":"Preacher","steam_id":76561198022215764,"connected_time":102000000000,"state":"active","ping":65},{"user_id":35,"name":"INFINITE","steam_id":76561197971285557,"connected_time":1258000000000,"state":"active","ping":45},{"user_id":37,"name":"rawrski","steam_id":76561197972464020,"connected_time":1237000000000,"state":"active","ping":75},{"user_id":66,"name":"PageBoiSkull","steam_id":76561198237353578,"connected_time":140000000000,"state":"active","ping":118},{"user_id":39,"name":"Mediocre Gaming","steam_id":76561199230467980,"connected_time":1202000000000,"state":"active","ping":76},{"user_id":52,"name":"cactail","steam_id":76561198238898732,"connected_time":970000000000,"state":"active","ping":58},{"user_id":41,"name":"Johnny Lawrence #JohnnyMaxxing","steam_id":76561199367141671,"connected_time":1163000000000,"state":"active","ping":52},{"user_id":61,"name":"guac","steam_id":76561198407685013,"connected_time":482000000000,"state":"active","ping":60},{"user_id":64,"name":"vriska serket","steam_id":76561199345823430,"connected_time":163000000000,"state":"active","ping":54},{"user_id":65,"name":"mr poop","steam_id":76561199195196632,"connected_time":152000000000,"state":"active","ping":82},{"user_id":69,"name":"Rodrick Knee","steam_id":76561198283021062,"connected_time":92000000000,"state":"active","ping":72},{"user_id":60,"name":"breathingtrees","steam_id":76561198118931690,"connected_time":581000000000,"state":"active","ping":48},{"user_id":48,"name":"MrMinutia","steam_id":76561198043516714,"connected_time":1074000000000,"state":"active","ping":77},{"user_id":54,"name":"nhbiker","steam_id":76561198081277675,"connected_time":846000000000,"state":"active","ping":57},{"user_id":55,"name":"Tony hawks pro skater 2 dlc","steam_id":76561198243387974,"connected_time":843000000000,"state":"active","ping":58}]},{"server_id":15,"name":"Uncletopia | New York City | 3 | Stopwatch","name_short":"nyc-3","host":"nyc-1.us.uncletopia.com","port":27035,"enabled":true,"region":"us-east","cc":"us","latitude":40.73061,"longitude":-73.93524,"reserved":0,"last_update":"0001-01-01T00:00:00Z","name_a2s":"Uncletopia | New York City | 3 | Stopwatch","protocol":17,"map":"pl_snowycoast","folder":"tf","game":"Team Fortress","app_id":440,"player_count":0,"max_players":24,"Bots":0,"server_type":"Dedicated","server_os":"Linux","password":true,"vac":true,"version":"7961495","steam_id":85568392924742820,"keywords":["nocrits","nodmgspread","payload","uncletopia"],"game_id":440,"stv_port":27036,"stv_name":"Uncletopia | New York City | 3 | Stopwatch | STV","players":null},{"server_id":16,"name":"Uncletopia | New York City | 4 | Community","name_short":"nyc-4","host":"nyc-1.us.uncletopia.com","port":27045,"enabled":true,"region":"us-east","cc":"us","latitude":40.73061,"longitude":-73.93524,"reserved":0,"last_update":"0001-01-01T00:00:00Z","name_a2s":"Uncletopia | New York City | 4 | Community","protocol":17,"map":"workshop/pl_vigil_rc10.ugc1266210012","folder":"tf","game":"Team Fortress","app_id":440,"player_count":0,"max_players":24,"Bots":0,"server_type":"Dedicated","server_os":"Linux","password":true,"vac":true,"version":"7961495","steam_id":85568392924742821,"keywords":["nocrits","nodmgspread","payload","uncletopia"],"game_id":440,"stv_port":27046,"stv_name":"Uncletopia | New York City | 4 | Community | STV","players":null},{"server_id":142,"name":"Uncletopia | S√£o Paulo | 1 | All Maps","name_short":"sao-1","host":"sao-1.br.uncletopia.com","port":27015,"enabled":true,"region":"sa","cc":"br","latitude":-23.533773,"longitude":-46.62529,"reserved":0,"last_update":"0001-01-01T00:00:00Z","name_a2s":"Uncletopia | S√£o Paulo | 1 | All Maps","protocol":17,"map":"koth_viaduct","folder":"tf","game":"Team Fortress","app_id":440,"player_count":2,"max_players":24,"Bots":0,"server_type":"Dedicated","server_os":"Linux","password":true,"vac":true,"version":"7961495","steam_id":85568392924469996,"keywords":["cp","nocrits","nodmgspread","uncletopia"],"game_id":440,"stv_port":27016,"stv_name":"Uncletopia | S√£o Paulo | 1 | All Maps | STV","players":[{"user_id":10,"name":"agiota interestelar","steam_id":76561199110940098,"connected_time":923000000000,"state":"active","ping":60},{"user_id":11,"name":"Granemann","steam_id":76561198086827008,"connected_time":923000000000,"state":"active","ping":58}]},{"server_id":143,"name":"Uncletopia | S√£o Paulo | 2 | Community","name_short":"sao-2","host":"sao-2.br.uncletopia.com","port":27015,"enabled":true,"region":"sa","cc":"br","latitude":-23.533773,"longitude":-46.62529,"reserved":0,"last_update":"0001-01-01T00:00:00Z","name_a2s":"Uncletopia | S√£o Paulo | 2 | Community","protocol":17,"map":"workshop/cp_reckoner_rc6.ugc674719999","folder":"tf","game":"Team Fortress","app_id":440,"player_count":0,"max_players":24,"Bots":0,"server_type":"Dedicated","server_os":"Linux","password":true,"vac":true,"version":"7961495","steam_id":85568392924485349,"keywords":["cp","nocrits","nodmgspread","uncletopia"],"game_id":440,"stv_port":27016,"stv_name":"Uncletopia | S√£o Paulo | 2 | Community | STV","players":null},{"server_id":7,"name":"Uncletopia | Seattle | 1 | All Maps","name_short":"sea-1","host":"sea-1.us.uncletopia.com","port":27015,"enabled":true,"region":"us-west","cc":"us","latitude":47.608013,"longitude":-122.33517,"reserved":0,"last_update":"0001-01-01T00:00:00Z","name_a2s":"Uncletopia | Seattle | 1 | All Maps","protocol":17,"map":"pl_barnblitz","folder":"tf","game":"Team Fortress","app_id":440,"player_count":24,"max_players":24,"Bots":0,"server_type":"Dedicated","server_os":"Linux","password":true,"vac":true,"version":"7961495","steam_id":85568392924469997,"keywords":["nocrits","nodmgspread","payload","uncletopia"],"game_id":440,"stv_port":27016,"stv_name":"Uncletopia | Seattle | 1 | All Maps | STV","players":[{"user_id":222,"name":"McNamJam","steam_id":76561198028128686,"connected_time":2515000000000,"state":"active","ping":68},{"user_id":237,"name":"Lili W.","steam_id":76561199391478575,"connected_time":1598000000000,"state":"active","ping":69},{"user_id":228,"name":"Roasty my Toasty","steam_id":76561198090977444,"connected_time":2192000000000,"state":"active","ping":57},{"user_id":246,"name":"Larry","steam_id":76561198005056455,"connected_time":1011000000000,"state":"active","ping":75},{"user_id":247,"name":"Mr.Cool","steam_id":76561198132105194,"connected_time":957000000000,"state":"active","ping":118},{"user_id":227,"name":"Roken","steam_id":76561198037836282,"connected_time":2332000000000,"state":"active","ping":118},{"user_id":242,"name":"ktpocto","steam_id":76561198838951175,"connected_time":1050000000000,"state":"active","ping":104},{"user_id":243,"name":"my mom","steam_id":76561199225201569,"connected_time":1047000000000,"state":"active","ping":122},{"user_id":253,"name":"Saint Pablo","steam_id":76561198083300159,"connected_time":275000000000,"state":"active","ping":65},{"user_id":251,"name":"Dov-Ah-Bob","steam_id":76561198147798338,"connected_time":311000000000,"state":"active","ping":76},{"user_id":136,"name":"rat gets the cheese","steam_id":76561198031234032,"connected_time":10064000000000,"state":"active","ping":100},{"user_id":255,"name":"Nolan","steam_id":76561198169648081,"connected_time":262000000000,"state":"active","ping":103},{"user_id":233,"name":"Keamy","steam_id":76561199471434875,"connected_time":1935000000000,"state":"active","ping":45},{"user_id":244,"name":"SmallestApple","steam_id":76561198353403983,"connected_time":1038000000000,"state":"active","ping":119},{"user_id":235,"name":"peachy","steam_id":76561198028721790,"connected_time":1846000000000,"state":"active","ping":63},{"user_id":219,"name":"Training Arc","steam_id":76561198038832034,"connected_time":2893000000000,"state":"active","ping":59},{"user_id":193,"name":"dougrocks421","steam_id":76561198165063918,"connected_time":4873000000000,"state":"active","ping":38},{"user_id":249,"name":"Dan","steam_id":76561199236719411,"connected_time":420000000000,"state":"active","ping":136},{"user_id":236,"name":"Themasterman75","steam_id":76561199385573293,"connected_time":1610000000000,"state":"active","ping":75},{"user_id":254,"name":"Artillery Cannon | Ham Mafia |","steam_id":76561198840172740,"connected_time":268000000000,"state":"active","ping":156},{"user_id":250,"name":"jumpymonster","steam_id":76561198173296047,"connected_time":360000000000,"state":"active","ping":67},{"user_id":232,"name":"knatspray","steam_id":76561198832507482,"connected_time":2046000000000,"state":"active","ping":97},{"user_id":225,"name":"jayeskae","steam_id":76561198144220801,"connected_time":2468000000000,"state":"active","ping":45},{"user_id":239,"name":"Red-Raven","steam_id":76561197971130794,"connected_time":1542000000000,"state":"active","ping":74}]},{"server_id":119,"name":"Uncletopia | Seattle | 2 | All Maps","name_short":"sea-2","host":"sea-1.us.uncletopia.com","port":27025,"enabled":true,"region":"us-west","cc":"us","latitude":47.608013,"longitude":-122.33517,"reserved":0,"last_update":"0001-01-01T00:00:00Z","name_a2s":"Uncletopia | Seattle | 2 | All Maps","protocol":17,"map":"cp_powerhouse","folder":"tf","game":"Team Fortress","app_id":440,"player_count":23,"max_players":24,"Bots":0,"server_type":"Dedicated","server_os":"Linux","password":true,"vac":true,"version":"7961495","steam_id":85568392924469998,"keywords":["cp","nocrits","nodmgspread","uncletopia"],"game_id":440,"stv_port":27026,"stv_name":"Uncletopia | Seattle | 2 | All Maps | STV","players":[{"user_id":324,"name":"GIGAHAXX","steam_id":76561197993714726,"connected_time":1594000000000,"state":"active","ping":60},{"user_id":317,"name":"Jackrifleman","steam_id":76561198067764004,"connected_time":1949000000000,"state":"active","ping":47},{"user_id":331,"name":"dab","steam_id":76561197997990613,"connected_time":1256000000000,"state":"active","ping":70},{"user_id":320,"name":"Magic Sam","steam_id":76561198089426224,"connected_time":1921000000000,"state":"active","ping":57},{"user_id":327,"name":"n√∏bu","steam_id":76561198100614981,"connected_time":1366000000000,"state":"active","ping":48},{"user_id":269,"name":"Anon","steam_id":76561198109740776,"connected_time":4774000000000,"state":"active","ping":91},{"user_id":349,"name":"bcizzo","steam_id":76561197994399953,"connected_time":109000000000,"state":"active","ping":74},{"user_id":321,"name":"redrighthand","steam_id":76561198976934733,"connected_time":1878000000000,"state":"active","ping":93},{"user_id":330,"name":"imng","steam_id":76561198014988031,"connected_time":1266000000000,"state":"active","ping":119},{"user_id":329,"name":"Goose","steam_id":76561198036774894,"connected_time":1306000000000,"state":"active","ping":47},{"user_id":322,"name":"NitoT97","steam_id":76561199074443643,"connected_time":1870000000000,"state":"active","ping":49},{"user_id":336,"name":"The1douglas69","steam_id":76561199163489550,"connected_time":1096000000000,"state":"active","ping":132},{"user_id":337,"name":"Rhutebeer","steam_id":76561198018302761,"connected_time":1054000000000,"state":"active","ping":135},{"user_id":348,"name":"daydreamer","steam_id":76561198012156225,"connected_time":131000000000,"state":"active","ping":56},{"user_id":290,"name":"Glanderson booper","steam_id":76561198021223747,"connected_time":3654000000000,"state":"active","ping":54},{"user_id":344,"name":"Day Man","steam_id":76561198067154807,"connected_time":643000000000,"state":"active","ping":54},{"user_id":338,"name":"Salty","steam_id":76561198044750949,"connected_time":999000000000,"state":"active","ping":56},{"user_id":345,"name":"marty","steam_id":76561198032782746,"connected_time":501000000000,"state":"active","ping":35},{"user_id":283,"name":"rave killer","steam_id":76561199001918194,"connected_time":4171000000000,"state":"active","ping":87},{"user_id":342,"name":"O","steam_id":76561198450073779,"connected_time":835000000000,"state":"active","ping":43},{"user_id":282,"name":"Mr. DeLarge","steam_id":76561198336820066,"connected_time":4212000000000,"state":"active","ping":66},{"user_id":229,"name":"Soy King","steam_id":76561198263025614,"connected_time":8116000000000,"state":"active","ping":115},{"user_id":343,"name":"Lucide","steam_id":76561197998530400,"connected_time":768000000000,"state":"active","ping":74}]},{"server_id":406,"name":"Uncletopia | Seattle | 3 | Stopwatch","name_short":"sea-3","host":"sea-1.us.uncletopia.com","port":27035,"enabled":true,"region":"us-west","cc":"us","latitude":47.608013,"longitude":-122.33517,"reserved":0,"last_update":"0001-01-01T00:00:00Z","name_a2s":"Uncletopia | Seattle | 3 | Stopwatch","protocol":17,"map":"koth_highpass","folder":"tf","game":"Team Fortress","app_id":440,"player_count":0,"max_players":24,"Bots":0,"server_type":"Dedicated","server_os":"Linux","password":true,"vac":true,"version":"7961495","steam_id":85568392924515217,"keywords":["cp","nocrits","nodmgspread","uncletopia"],"game_id":440,"stv_port":27036,"stv_name":"Uncletopia | Seattle | 3 | Stopwatch | STV","players":null},{"server_id":17,"name":"Uncletopia | San Francisco | 1 | All Maps","name_short":"sfo-1","host":"sfo-1.us.uncletopia.com","port":27015,"enabled":true,"region":"us-west","cc":"us","latitude":37.77397,"longitude":-122.4313,"reserved":0,"last_update":"0001-01-01T00:00:00Z","name_a2s":"Uncletopia | San Francisco | 1 | All Maps","protocol":17,"map":"koth_cascade","folder":"tf","game":"Team Fortress","app_id":440,"player_count":0,"max_players":24,"Bots":0,"server_type":"Dedicated","server_os":"Linux","password":true,"vac":true,"version":"7961495","steam_id":85568392924469999,"keywords":["cp","nocrits","nodmgspread","uncletopia"],"game_id":440,"stv_port":27016,"stv_name":"Uncletopia | San Francisco | 1 | All Maps | STV","players":null},{"server_id":18,"name":"Uncletopia | San Francisco | 2 | All Maps","name_short":"sfo-2","host":"sfo-1.us.uncletopia.com","port":27025,"enabled":true,"region":"us-west","cc":"us","latitude":37.77397,"longitude":-122.4313,"reserved":0,"last_update":"0001-01-01T00:00:00Z","name_a2s":"Uncletopia | San Francisco | 2 | All Maps","protocol":17,"map":"koth_suijin","folder":"tf","game":"Team Fortress","app_id":440,"player_count":4,"max_players":24,"Bots":0,"server_type":"Dedicated","server_os":"Linux","password":true,"vac":true,"version":"7961495","steam_id":85568392924470000,"keywords":["cp","nocrits","nodmgspread","uncletopia"],"game_id":440,"stv_port":27026,"stv_name":"Uncletopia | San Francisco | 2 | All Maps | STV","players":[{"user_id":11,"name":"Borgor Boi","steam_id":76561199061388107,"connected_time":2311000000000,"state":"spawning","ping":48},{"user_id":12,"name":"Verily","steam_id":76561198200558318,"connected_time":1710000000000,"state":"spawning","ping":115},{"user_id":16,"name":"The Sandwich Man","steam_id":76561199235025489,"connected_time":612000000000,"state":"spawning","ping":80},{"user_id":17,"name":"reymundo","steam_id":76561197989412830,"connected_time":495000000000,"state":"spawning","ping":60}]},{"server_id":19,"name":"Uncletopia | San Francisco | 3 | Stopwatch","name_short":"sfo-3","host":"sfo-1.us.uncletopia.com","port":27035,"enabled":true,"region":"us-west","cc":"us","latitude":37.77397,"longitude":-122.4313,"reserved":0,"last_update":"0001-01-01T00:00:00Z","name_a2s":"Uncletopia | San Francisco | 3 | Stopwatch","protocol":17,"map":"pl_pier","folder":"tf","game":"Team Fortress","app_id":440,"player_count":0,"max_players":24,"Bots":0,"server_type":"Dedicated","server_os":"Linux","password":true,"vac":true,"version":"7961495","steam_id":85568392924742824,"keywords":["nocrits","nodmgspread","payload","uncletopia"],"game_id":440,"stv_port":27036,"stv_name":"Uncletopia | San Francisco | 3 | Stopwatch | STV","players":null},{"server_id":20,"name":"Uncletopia | San Francisco | 4 | Community","name_short":"sfo-4","host":"sfo-1.us.uncletopia.com","port":27045,"enabled":true,"region":"us-west","cc":"us","latitude":37.77397,"longitude":-122.4313,"reserved":0,"last_update":"0001-01-01T00:00:00Z","name_a2s":"Uncletopia | San Francisco | 4 | Community","protocol":17,"map":"workshop/pl_divulgence_b4b.ugc2884808746","folder":"tf","game":"Team Fortress","app_id":440,"player_count":1,"max_players":24,"Bots":0,"server_type":"Dedicated","server_os":"Linux","password":true,"vac":true,"version":"7961495","steam_id":85568392924742826,"keywords":["nocrits","nodmgspread","payload","uncletopia"],"game_id":440,"stv_port":27046,"stv_name":"Uncletopia | San Francisco | 4 | Community | STV","players":[{"user_id":7,"name":"The Notorious T.A.F.T.","steam_id":76561198073012352,"connected_time":27000000000,"state":"active","ping":93}]},{"server_id":141,"name":"Uncletopia | Sydney | 1 | All Maps","name_short":"syd-1","host":"syd-1.au.uncletopia.com","port":27015,"enabled":true,"region":"au","cc":"au","latitude":-33.865143,"longitude":151.2099,"reserved":0,"last_update":"0001-01-01T00:00:00Z","name_a2s":"Uncletopia | Sydney | 1 | All Maps","protocol":17,"map":"koth_viaduct","folder":"tf","game":"Team Fortress","app_id":440,"player_count":0,"max_players":24,"Bots":0,"server_type":"Dedicated","server_os":"Linux","password":true,"vac":true,"version":"7961495","steam_id":85568392924470001,"keywords":["cp","nocrits","nodmgspread","uncletopia"],"game_id":440,"stv_port":27016,"stv_name":"Uncletopia | Sydney | 1 | All Maps | STV","players":null},{"server_id":123,"name":"Uncletopia | Sydney | 2 | All Maps","name_short":"syd-2","host":"syd-1.au.uncletopia.com","port":27025,"enabled":true,"region":"au","cc":"au","latitude":-33.865143,"longitude":151.2099,"reserved":0,"last_update":"0001-01-01T00:00:00Z","name_a2s":"Uncletopia | Sydney | 2 | All Maps","protocol":17,"map":"koth_lakeside_final","folder":"tf","game":"Team Fortress","app_id":440,"player_count":1,"max_players":24,"Bots":0,"server_type":"Dedicated","server_os":"Linux","password":true,"vac":true,"version":"7961495","steam_id":85568392924470002,"keywords":["cp","nocrits","nodmgspread","uncletopia"],"game_id":440,"stv_port":27026,"stv_name":"Uncletopia | Sydney | 2 | All Maps | STV","players":[{"user_id":3,"name":"HJGuard","steam_id":76561199275636067,"connected_time":13000000000,"state":"spawning","ping":52}]},{"server_id":395,"name":"Uncletopia | Sydney | 3 | All Maps","name_short":"syd-3","host":"syd-1.au.uncletopia.com","port":27035,"enabled":true,"region":"au","cc":"au","latitude":-33.865143,"longitude":151.2099,"reserved":0,"last_update":"0001-01-01T00:00:00Z","name_a2s":"Uncletopia | Sydney | 3 | All Maps","protocol":17,"map":"pl_frontier_final","folder":"tf","game":"Team Fortress","app_id":440,"player_count":0,"max_players":24,"Bots":0,"server_type":"Dedicated","server_os":"Linux","password":true,"vac":true,"version":"7961495","steam_id":85568392925194467,"keywords":["nocrits","nodmgspread","payload","uncletopia"],"game_id":440,"stv_port":27036,"stv_name":"Uncletopia | Sydney | 3 | All Maps | STV","players":null},{"server_id":396,"name":"Uncletopia | Sydney | 4 | All Maps","name_short":"syd-4","host":"syd-1.au.uncletopia.com","port":27045,"enabled":true,"region":"au","cc":"au","latitude":-33.865143,"longitude":151.2099,"reserved":0,"last_update":"0001-01-01T00:00:00Z","name_a2s":"Uncletopia | Sydney | 4 | All Maps","protocol":17,"map":"cp_process_final","folder":"tf","game":"Team Fortress","app_id":440,"player_count":0,"max_players":24,"Bots":0,"server_type":"Dedicated","server_os":"Linux","password":true,"vac":true,"version":"7961495","steam_id":85568392925397958,"keywords":["cp","nocrits","nodmgspread","uncletopia"],"game_id":440,"stv_port":27046,"stv_name":"Uncletopia | Sydney | 4 | All Maps | STV","players":null},{"server_id":58,"name":"Uncletopia | Sydney | 5 | Stopwatch","name_short":"syd-5","host":"syd-1.au.uncletopia.com","port":27055,"enabled":true,"region":"au","cc":"au","latitude":-33.865143,"longitude":151.2099,"reserved":0,"last_update":"0001-01-01T00:00:00Z","name_a2s":"Uncletopia | Sydney | 5 | Stopwatch","protocol":17,"map":"workshop/koth_clearcut_b15.ugc2107050255","folder":"tf","game":"Team Fortress","app_id":440,"player_count":0,"max_players":24,"Bots":0,"server_type":"Dedicated","server_os":"Linux","password":true,"vac":true,"version":"7961495","steam_id":85568392925397959,"keywords":["cp","nocrits","nodmgspread","uncletopia"],"game_id":440,"stv_port":27056,"stv_name":"Uncletopia | Sydney | 5 | Stopwatch | STV","players":null},{"server_id":59,"name":"Uncletopia | Sydney | 6 | Community","name_short":"syd-6","host":"syd-1.au.uncletopia.com","port":27065,"enabled":true,"region":"au","cc":"au","latitude":-33.865143,"longitude":151.2099,"reserved":0,"last_update":"0001-01-01T00:00:00Z","name_a2s":"Uncletopia | Sydney | 6 | Community","protocol":17,"map":"cp_sunshine","folder":"tf","game":"Team Fortress","app_id":440,"player_count":0,"max_players":24,"Bots":0,"server_type":"Dedicated","server_os":"Linux","password":true,"vac":true,"version":"7961495","steam_id":85568392925397960,"keywords":["cp","nocrits","nodmgspread","uncletopia"],"game_id":440,"stv_port":27066,"stv_name":"Uncletopia | Sydney | 6 | Community | STV","players":null},{"server_id":49,"name":"Uncletopia | Warsaw | 1 | All Maps","name_short":"waw-1","host":"waw-1.pl.uncletopia.com","port":27015,"enabled":true,"region":"eu","cc":"pl","latitude":52.2297,"longitude":21.017532,"reserved":0,"last_update":"0001-01-01T00:00:00Z","name_a2s":"Uncletopia | Warsaw | 1 | All Maps","protocol":17,"map":"pl_badwater","folder":"tf","game":"Team Fortress","app_id":440,"player_count":0,"max_players":24,"Bots":0,"server_type":"Dedicated","server_os":"Linux","password":true,"vac":true,"version":"7961495","steam_id":85568392925397850,"keywords":["nocrits","nodmgspread","payload","uncletopia"],"game_id":440,"stv_port":27016,"stv_name":"Uncletopia | Warsaw | 1 | All Maps | STV","players":null},{"server_id":50,"name":"Uncletopia | Warsaw | 2 | All Maps","name_short":"waw-2","host":"waw-1.pl.uncletopia.com","port":27025,"enabled":true,"region":"eu","cc":"pl","latitude":52.2297,"longitude":21.017532,"reserved":0,"last_update":"0001-01-01T00:00:00Z","name_a2s":"Uncletopia | Warsaw | 2 | All Maps","protocol":17,"map":"cp_process_final","folder":"tf","game":"Team Fortress","app_id":440,"player_count":0,"max_players":24,"Bots":0,"server_type":"Dedicated","server_os":"Linux","password":true,"vac":true,"version":"7961495","steam_id":85568392925397851,"keywords":["cp","nocrits","nodmgspread","uncletopia"],"game_id":440,"stv_port":27026,"stv_name":"Uncletopia | Warsaw | 2 | All Maps | STV","players":null},{"server_id":51,"name":"Uncletopia | Warsaw | 3 | All Maps","name_short":"waw-3","host":"waw-1.pl.uncletopia.com","port":27035,"enabled":true,"region":"eu","cc":"pl","latitude":52.2297,"longitude":21.017532,"reserved":0,"last_update":"0001-01-01T00:00:00Z","name_a2s":"Uncletopia | Warsaw | 3 | All Maps","protocol":17,"map":"koth_cascade","folder":"tf","game":"Team Fortress","app_id":440,"player_count":0,"max_players":24,"Bots":0,"server_type":"Dedicated","server_os":"Linux","password":true,"vac":true,"version":"7961495","steam_id":85568392925397852,"keywords":["cp","nocrits","nodmgspread","uncletopia"],"game_id":440,"stv_port":27036,"stv_name":"Uncletopia | Warsaw | 3 | All Maps | STV","players":null},{"server_id":52,"name":"Uncletopia | Warsaw | 4 | All Maps","name_short":"waw-4","host":"waw-1.pl.uncletopia.com","port":27045,"enabled":true,"region":"eu","cc":"pl","latitude":52.2297,"longitude":21.017532,"reserved":0,"last_update":"0001-01-01T00:00:00Z","name_a2s":"Uncletopia | Warsaw | 4 | All Maps","protocol":17,"map":"cp_altitude","folder":"tf","game":"Team Fortress","app_id":440,"player_count":0,"max_players":24,"Bots":0,"server_type":"Dedicated","server_os":"Linux","password":true,"vac":true,"version":"7961495","steam_id":85568392925397853,"keywords":["cp","nocrits","nodmgspread","uncletopia"],"game_id":440,"stv_port":27046,"stv_name":"Uncletopia | Warsaw | 4 | All Maps | STV","players":null},{"server_id":53,"name":"Uncletopia | Warsaw | 5 | Stopwatch","name_short":"waw-5","host":"waw-1.pl.uncletopia.com","port":27055,"enabled":true,"region":"eu","cc":"pl","latitude":52.2297,"longitude":21.017532,"reserved":0,"last_update":"0001-01-01T00:00:00Z","name_a2s":"Uncletopia | Warsaw | 5 | Stopwatch","protocol":17,"map":"pl_barnblitz","folder":"tf","game":"Team Fortress","app_id":440,"player_count":0,"max_players":24,"Bots":0,"server_type":"Dedicated","server_os":"Linux","password":true,"vac":true,"version":"7961495","steam_id":85568392925397854,"keywords":["nocrits","nodmgspread","payload","uncletopia"],"game_id":440,"stv_port":27056,"stv_name":"Uncletopia | Warsaw | 5 | Stopwatch | STV","players":null},{"server_id":54,"name":"Uncletopia | Warsaw | 6 | Community","name_short":"waw-6","host":"waw-1.pl.uncletopia.com","port":27065,"enabled":true,"region":"eu","cc":"pl","latitude":52.2297,"longitude":21.017532,"reserved":0,"last_update":"0001-01-01T00:00:00Z","name_a2s":"Uncletopia | Warsaw | 6 | Community","protocol":17,"map":"workshop/pl_badwater_pro_v12.ugc2142942074","folder":"tf","game":"Team Fortress","app_id":440,"player_count":0,"max_players":24,"Bots":0,"server_type":"Dedicated","server_os":"Linux","password":true,"vac":true,"version":"7961495","steam_id":85568392925397856,"keywords":["nocrits","nodmgspread","payload","uncletopia"],"game_id":440,"stv_port":27066,"stv_name":"Uncletopia | Warsaw | 6 | Community | STV","players":null}]}