{"status":true,"message":"","result":[{"server_id":9,"name":"Uncletopia | Atlanta | 1 | All Maps","name_short":"atl-1","host":"atl-1.us.uncletopia.com","port":27015,"enabled":true,"region":"us-east","cc":"us","latitude":33.753746,"longitude":-84.38633,"reserved":0,"last_update":"0001-01-01T00:00:00Z","name_a2s":"Uncletopia | Atlanta | 1 | All Maps","protocol":17,"map":"pl_frontier_final","folder":"tf","game":"Team Fortress","app_id":440,"player_count":24,"max_players":24,"Bots":0,"server_type":"Dedicated","server_os":"Linux","password":true,"vac":true,"version":"7757534","steam_id":85568392924469982,"keywords":["nocrits","nodmgspread","payload","uncletopia"],"game_id":440,"stv_port":27016,"stv_name":"Uncletopia | Atlanta | 1 | All Maps | STV","players":[{"user_id":724,"name":"BigDMoney","steam_id":76561198034159624,"connected_time":3844000000000,"state":"active","ping":70},{"user_id":759,"name":"Mr_Main22","steam_id":76561198002916363,"connected_time":501000000000,"state":"active","ping":75},{"user_id":752,"name":"fart","steam_id":76561198046405072,"connected_time":1317000000000,"state":"active","ping":60},{"user_id":739,"name":"RED1 | ma0re","steam_id":76561199231971506,"connected_time":2928000000000,"state":"active","ping":62},{"user_id":756,"name":"FemboyNate","steam_id":76561198146636410,"connected_time":699000000000,"state":"active","ping":59},{"user_id":729,"name":"Im High","steam_id":76561198049954886,"connected_time":3546000000000,"state":"active","ping":71},{"user_id":674,"name":"Cool Shark Facts","steam_id":76561198402801140,"connected_time":9120000000000,"state":"active","ping":88},{"user_id":740,"name":"RED1 | p4ka","steam_id":76561198315291317,"connected_time":2921000000000,"state":"active","ping":70},{"user_id":748,"name":"harry gooch","steam_id":76561198024817457,"connected_time":1749000000000,"state":"active","ping":69},{"user_id":728,"name":"smile","steam_id":76561198166710027,"connected_time":3552000000000,"state":"active","ping":60},{"user_id":730,"name":"Gordon","steam_id":76561198273207829,"connected_time":3541000000000,"state":"active","ping":69},{"user_id":735,"name":"Do Moose go Moo?","steam_id":76561198073550620,"connected_time":3177000000000,"state":"active","ping":73},{"user_id":761,"name":"Re-Crix","steam_id":76561198351895601,"connected_time":382000000000,"state":"active","ping":121},{"user_id":732,"name":"lil hog","steam_id":76561199230929836,"connected_time":3383000000000,"state":"active","ping":78},{"user_id":758,"name":"BIG HOG","steam_id":76561198079923652,"connected_time":684000000000,"state":"active","ping":76},{"user_id":710,"name":"vesuvianrex","steam_id":76561198840311684,"connected_time":4501000000000,"state":"active","ping":111},{"user_id":651,"name":"Bottom Trans Cowgirl","steam_id":76561198304239680,"connected_time":11561000000000,"state":"active","ping":76},{"user_id":754,"name":"ATLS1 | SparkStorm","steam_id":76561198095817025,"connected_time":1085000000000,"state":"active","ping":42},{"user_id":725,"name":"Boop","steam_id":76561198376703875,"connected_time":3747000000000,"state":"active","ping":72},{"user_id":755,"name":"Admiral Catradora","steam_id":76561198017271944,"connected_time":711000000000,"state":"active","ping":94},{"user_id":676,"name":"shaderoses","steam_id":76561198070800500,"connected_time":9069000000000,"state":"active","ping":83},{"user_id":750,"name":"BLU1 l Epifiny","steam_id":76561198027958086,"connected_time":1410000000000,"state":"active","ping":89},{"user_id":720,"name":"Rat Bastard","steam_id":76561198153443658,"connected_time":4264000000000,"state":"active","ping":79},{"user_id":727,"name":"wife","steam_id":76561198141795632,"connected_time":3700000000000,"state":"active","ping":50}]},{"server_id":400,"name":"Uncletopia | Atlanta | 3 | Community","name_short":"atl-3","host":"atl-1.us.uncletopia.com","port":27035,"enabled":true,"region":"us-east","cc":"us","latitude":33.753746,"longitude":-84.38633,"reserved":0,"last_update":"0001-01-01T00:00:00Z","name_a2s":"Uncletopia | Atlanta | 3 | Community","protocol":17,"map":"workshop/cp_mannbase_rc2a.ugc1900737467","folder":"tf","game":"Team Fortress","app_id":440,"player_count":0,"max_players":32,"Bots":0,"server_type":"Dedicated","server_os":"Linux","password":true,"vac":true,"version":"7757534","steam_id":85568392924515187,"keywords":["cp","increased_maxplayers","nocrits","nodmgspread","uncletopia"],"game_id":440,"stv_port":27036,"stv_name":"Uncletopia | Atlanta | 3 | Community | STV","players":null},{"server_id":401,"name":"Uncletopia | Atlanta | 4 | No Payload","name_short":"atl-4","host":"atl-1.us.uncletopia.com","port":27045,"enabled":true,"region":"us-east","cc":"us","latitude":33.753746,"longitude":-84.38633,"reserved":0,"last_update":"0001-01-01T00:00:00Z","name_a2s":"","protocol":0,"map":"","folder":"","game":"","app_id":0,"player_count":0,"max_players":0,"Bots":0,"server_type":"","server_os":"","password":false,"vac":false,"version":"","steam_id":0,"keywords":null,"game_id":0,"stv_port":0,"stv_name":"","players":null},{"server_id":2,"name":"Uncletopia | Chicago | 1 | All Maps","name_short":"chi-1","host":"chi-1.us.uncletopia.com","port":27015,"enabled":true,"region":"us-central","cc":"us","latitude":41.881832,"longitude":-87.62318,"reserved":0,"last_update":"0001-01-01T00:00:00Z","name_a2s":"Uncletopia | Chicago | 1 | All Maps","protocol":17,"map":"cp_dustbowl","folder":"tf","game":"Team Fortress","app_id":440,"player_count":13,"max_players":24,"Bots":0,"server_type":"Dedicated","server_os":"Linux","password":true,"vac":true,"version":"7757534","steam_id":85568392924469984,"keywords":["cp","nocrits","nodmgspread","uncletopia"],"game_id":440,"stv_port":27016,"stv_name":"Uncletopia | Chicago | 1 | All Maps | STV","players":[{"user_id":663,"name":"chloe","steam_id":76561198369849908,"connected_time":9956000000000,"state":"active","ping":68},{"user_id":766,"name":"[g40] naysayer","steam_id":76561197991204445,"connected_time":1379000000000,"state":"active","ping":89},{"user_id":753,"name":"Poyo Boyo","steam_id":76561198010201227,"connected_time":2813000000000,"state":"active","ping":71},{"user_id":768,"name":"dustbowl","steam_id":76561198429161090,"connected_time":1127000000000,"state":"active","ping":55},{"user_id":790,"name":"Cinna","steam_id":76561198070151387,"connected_time":54000000000,"state":"active","ping":60},{"user_id":770,"name":"EPIX","steam_id":76561199110501659,"connected_time":1058000000000,"state":"active","ping":99},{"user_id":789,"name":"Adorable Cat","steam_id":76561198165453127,"connected_time":210000000000,"state":"active","ping":70},{"user_id":773,"name":"Javis","steam_id":76561198018712490,"connected_time":876000000000,"state":"active","ping":101},{"user_id":775,"name":"Siless","steam_id":76561198040803878,"connected_time":846000000000,"state":"active","ping":52},{"user_id":777,"name":"Cap","steam_id":76561198072870415,"connected_time":734000000000,"state":"active","ping":96},{"user_id":782,"name":"TheGreatCatsby","steam_id":76561198358757709,"connected_time":565000000000,"state":"active","ping":84},{"user_id":752,"name":"Morgster","steam_id":76561198131697761,"connected_time":2817000000000,"state":"active","ping":74},{"user_id":759,"name":"gasparmx","steam_id":76561197998611994,"connected_time":2466000000000,"state":"active","ping":104}]},{"server_id":106,"name":"Uncletopia | Chicago | 2 | All Maps","name_short":"chi-2","host":"chi-1.us.uncletopia.com","port":27025,"enabled":true,"region":"us-central","cc":"us","latitude":41.881832,"longitude":-87.62318,"reserved":0,"last_update":"0001-01-01T00:00:00Z","name_a2s":"Uncletopia | Chicago | 2 | All Maps","protocol":17,"map":"koth_lakeside_final","folder":"tf","game":"Team Fortress","app_id":440,"player_count":0,"max_players":24,"Bots":0,"server_type":"Dedicated","server_os":"Linux","password":true,"vac":true,"version":"7757534","steam_id":85568392924469985,"keywords":["cp","nocrits","nodmgspread","uncletopia"],"game_id":440,"stv_port":27026,"stv_name":"Uncletopia | Chicago | 2 | All Maps | STV","players":null},{"server_id":402,"name":"Uncletopia | Chicago | 3 | All Maps","name_short":"chi-3","host":"chi-1.us.uncletopia.com","port":27035,"enabled":true,"region":"us-central","cc":"us","latitude":41.881832,"longitude":-87.62318,"reserved":0,"last_update":"0001-01-01T00:00:00Z","name_a2s":"Uncletopia | Chicago | 3 | All Maps","protocol":17,"map":"pl_upward","folder":"tf","game":"Team Fortress","app_id":440,"player_count":23,"max_players":24,"Bots":0,"server_type":"Dedicated","server_os":"Linux","password":true,"vac":true,"version":"7757534","steam_id":85568392924515191,"keywords":["nocrits","nodmgspread","payload","uncletopia"],"game_id":440,"stv_port":27036,"stv_name":"Uncletopia | Chicago | 3 | All Maps | STV","players":[{"user_id":440,"name":"Yam Jazzy Jim","steam_id":76561198000788950,"connected_time":4462000000000,"state":"active","ping":65},{"user_id":488,"name":"Antifa Alligator","steam_id":76561197988170816,"connected_time":2010000000000,"state":"active","ping":84},{"user_id":509,"name":"Kuchio","steam_id":76561198161218914,"connected_time":447000000000,"state":"active","ping":92},{"user_id":518,"name":"AndrewTatesBugatti","steam_id":76561198036162718,"connected_time":212000000000,"state":"active","ping":60},{"user_id":522,"name":"Hindmost","steam_id":76561199081837220,"connected_time":58000000000,"state":"active","ping":76},{"user_id":469,"name":"kilo","steam_id":76561198128901451,"connected_time":2850000000000,"state":"active","ping":96},{"user_id":502,"name":"1-10 Beavers","steam_id":76561198010708247,"connected_time":702000000000,"state":"active","ping":68},{"user_id":511,"name":"Galactamarx","steam_id":76561198028065755,"connected_time":385000000000,"state":"active","ping":102},{"user_id":449,"name":"Dripless The Poor","steam_id":76561198090546454,"connected_time":3810000000000,"state":"active","ping":57},{"user_id":515,"name":"cold spaghetti","steam_id":76561198983037944,"connected_time":266000000000,"state":"active","ping":56},{"user_id":430,"name":"TOILET WATER","steam_id":76561198053621664,"connected_time":5407000000000,"state":"active","ping":58},{"user_id":461,"name":"Ye ( I Love Caulk ) West","steam_id":76561198068830312,"connected_time":3311000000000,"state":"active","ping":45},{"user_id":516,"name":"2L84U","steam_id":76561198079176017,"connected_time":264000000000,"state":"active","ping":89},{"user_id":436,"name":"RED1 | Lylith!!!","steam_id":76561198386687546,"connected_time":4764000000000,"state":"active","ping":68},{"user_id":466,"name":"pathways","steam_id":76561198054832333,"connected_time":3141000000000,"state":"active","ping":49},{"user_id":468,"name":"NOLSEY","steam_id":76561198108959504,"connected_time":3025000000000,"state":"active","ping":56},{"user_id":504,"name":"NeverAcedIt (Pinnacle -\u003e Pit)","steam_id":76561198406671743,"connected_time":675000000000,"state":"active","ping":90},{"user_id":476,"name":"Nintendo DSi XL","steam_id":76561198280682611,"connected_time":2723000000000,"state":"active","ping":96},{"user_id":519,"name":"Florentine","steam_id":76561198107230148,"connected_time":201000000000,"state":"active","ping":47},{"user_id":512,"name":"(my magic is strong)","steam_id":76561198046249467,"connected_time":354000000000,"state":"active","ping":51},{"user_id":517,"name":"sand","steam_id":76561198086193212,"connected_time":249000000000,"state":"active","ping":60},{"user_id":521,"name":"scriiible","steam_id":76561198117803411,"connected_time":145000000000,"state":"active","ping":67},{"user_id":444,"name":"Donnie Blasto","steam_id":76561198043432005,"connected_time":4428000000000,"state":"active","ping":57}]},{"server_id":403,"name":"Uncletopia | Chicago | 4 | All Maps","name_short":"chi-4","host":"chi-1.us.uncletopia.com","port":27045,"enabled":true,"region":"us-central","cc":"us","latitude":41.881832,"longitude":-87.62318,"reserved":0,"last_update":"0001-01-01T00:00:00Z","name_a2s":"Uncletopia | Chicago | 4 | All Maps","protocol":17,"map":"cp_process_final","folder":"tf","game":"Team Fortress","app_id":440,"player_count":4,"max_players":24,"Bots":0,"server_type":"Dedicated","server_os":"Linux","password":true,"vac":true,"version":"7757534","steam_id":85568392924515193,"keywords":["cp","nocrits","nodmgspread","uncletopia"],"game_id":440,"stv_port":27046,"stv_name":"Uncletopia | Chicago | 4 | All Maps | STV","players":[{"user_id":359,"name":"myo0mity","steam_id":76561199018184096,"connected_time":419000000000,"state":"active","ping":111},{"user_id":354,"name":"uncle 'ardboss","steam_id":76561198055490732,"connected_time":726000000000,"state":"active","ping":104},{"user_id":349,"name":"Jeddef","steam_id":76561198040012616,"connected_time":983000000000,"state":"active","ping":144},{"user_id":335,"name":"Rosemaryüåô ÂπΩÈúä [ 1 9 9 8 ","steam_id":76561198807726226,"connected_time":2051000000000,"state":"active","ping":75}]},{"server_id":36,"name":"Uncletopia | Chicago | 5 | All Maps","name_short":"chi-5","host":"chi-2.us.uncletopia.com","port":27015,"enabled":true,"region":"us-central","cc":"us","latitude":41.881832,"longitude":-87.62318,"reserved":0,"last_update":"0001-01-01T00:00:00Z","name_a2s":"Uncletopia | Chicago | 5 | All Maps","protocol":17,"map":"pl_badwater","folder":"tf","game":"Team Fortress","app_id":440,"player_count":24,"max_players":24,"Bots":0,"server_type":"Dedicated","server_os":"Linux","password":true,"vac":true,"version":"7757534","steam_id":85568392924866362,"keywords":["nocrits","nodmgspread","payload","uncletopia"],"game_id":440,"stv_port":27016,"stv_name":"Uncletopia | Chicago | 5 | All Maps | STV","players":[{"user_id":1041,"name":"Bento swagabeanie","steam_id":76561199047187302,"connected_time":121000000000,"state":"active","ping":46},{"user_id":1039,"name":"Rein","steam_id":76561198300340427,"connected_time":496000000000,"state":"active","ping":60},{"user_id":947,"name":"kris736","steam_id":76561198038208255,"connected_time":2289000000000,"state":"active","ping":60},{"user_id":1049,"name":"hud_saytext_time 0","steam_id":76561198010327228,"connected_time":30000000000,"state":"active","ping":161},{"user_id":1042,"name":"ENGINEER GRIDDY","steam_id":76561198059500571,"connected_time":115000000000,"state":"active","ping":33},{"user_id":1045,"name":"Final_MarioXD","steam_id":76561199184862419,"connected_time":101000000000,"state":"active","ping":96},{"user_id":1043,"name":"mata","steam_id":76561198083884120,"connected_time":112000000000,"state":"active","ping":41},{"user_id":1044,"name":"Spike Bones","steam_id":76561198234926120,"connected_time":110000000000,"state":"active","ping":92},{"user_id":912,"name":"uhooter","steam_id":76561198007829078,"connected_time":3444000000000,"state":"active","ping":49},{"user_id":1046,"name":"frizzle fried","steam_id":76561198062991744,"connected_time":98000000000,"state":"active","ping":62},{"user_id":931,"name":"Combustionaut","steam_id":76561198164877813,"connected_time":3020000000000,"state":"active","ping":85},{"user_id":1040,"name":"rice white","steam_id":76561198320732910,"connected_time":336000000000,"state":"active","ping":78},{"user_id":1047,"name":"Large Tom Raggins","steam_id":76561198040743777,"connected_time":63000000000,"state":"active","ping":63},{"user_id":946,"name":"That Guy","steam_id":76561198851266251,"connected_time":2305000000000,"state":"active","ping":105},{"user_id":1037,"name":"Michaelpc1","steam_id":76561198088365519,"connected_time":635000000000,"state":"active","ping":75},{"user_id":1038,"name":"Frank","steam_id":76561198428759980,"connected_time":542000000000,"state":"active","ping":90},{"user_id":967,"name":"chimp sauce","steam_id":76561198121757512,"connected_time":1893000000000,"state":"active","ping":113},{"user_id":1031,"name":"Thequirka","steam_id":76561198968058652,"connected_time":905000000000,"state":"active","ping":100},{"user_id":994,"name":"krug.kum","steam_id":76561198104521665,"connected_time":1534000000000,"state":"active","ping":115},{"user_id":1048,"name":"G.Flewit","steam_id":76561199214365392,"connected_time":57000000000,"state":"active","ping":61},{"user_id":1021,"name":"Guile (Not A Tree?)","steam_id":76561197995840607,"connected_time":1202000000000,"state":"active","ping":55},{"user_id":1050,"name":"I am a mooshroom","steam_id":76561198104198295,"connected_time":12000000000,"state":"spawning","ping":88},{"user_id":908,"name":"Jkbh1","steam_id":76561198093449670,"connected_time":3666000000000,"state":"active","ping":102},{"user_id":926,"name":"akirajimbo","steam_id":76561197979960008,"connected_time":3270000000000,"state":"active","ping":59}]},{"server_id":37,"name":"Uncletopia | Chicago | 6 | All Maps","name_short":"chi-6","host":"chi-2.us.uncletopia.com","port":27025,"enabled":true,"region":"us-central","cc":"us","latitude":41.881832,"longitude":-87.62318,"reserved":0,"last_update":"0001-01-01T00:00:00Z","name_a2s":"Uncletopia | Chicago | 6 | All Maps","protocol":17,"map":"pl_swiftwater_final1","folder":"tf","game":"Team Fortress","app_id":440,"player_count":0,"max_players":24,"Bots":0,"server_type":"Dedicated","server_os":"Linux","password":true,"vac":true,"version":"7757534","steam_id":85568392924866363,"keywords":["nocrits","nodmgspread","payload","uncletopia"],"game_id":440,"stv_port":27026,"stv_name":"Uncletopia | Chicago | 6 | All Maps | STV","players":null},{"server_id":38,"name":"Uncletopia | Chicago | 7 | Stopwatch Beta","name_short":"chi-7","host":"chi-2.us.uncletopia.com","port":27035,"enabled":true,"region":"us-central","cc":"us","latitude":41.881832,"longitude":-87.62318,"reserved":0,"last_update":"0001-01-01T00:00:00Z","name_a2s":"Uncletopia | Chicago | 7 | Stopwatch Beta","protocol":17,"map":"workshop/koth_ramjam_rc1.ugc459778887","folder":"tf","game":"Team Fortress","app_id":440,"player_count":0,"max_players":24,"Bots":0,"server_type":"Dedicated","server_os":"Linux","password":true,"vac":true,"version":"7757534","steam_id":85568392924866364,"keywords":["cp","nocrits","nodmgspread","uncletopia"],"game_id":440,"stv_port":27036,"stv_name":"Uncletopia | Chicago | 7 | Stopwatch Beta | STV","players":null},{"server_id":39,"name":"Uncletopia | Chicago | 8 | Community","name_short":"chi-8","host":"chi-2.us.uncletopia.com","port":27045,"enabled":true,"region":"us-central","cc":"us","latitude":41.881832,"longitude":-87.62318,"reserved":0,"last_update":"0001-01-01T00:00:00Z","name_a2s":"Uncletopia | Chicago | 8 | Community","protocol":17,"map":"workshop/rd_asteroid_redux_b1.ugc2154902912","folder":"tf","game":"Team Fortress","app_id":440,"player_count":0,"max_players":24,"Bots":0,"server_type":"Dedicated","server_os":"Linux","password":true,"vac":true,"version":"7757534","steam_id":85568392924866365,"keywords":["beta","nocrits","nodmgspread","rd","uncletopia"],"game_id":440,"stv_port":27046,"stv_name":"Uncletopia | Chicago | 8 | Community | STV","players":null},{"server_id":8,"name":"Uncletopia | Dallas | 1 | All Maps","name_short":"dal-1","host":"dal-1.us.uncletopia.com","port":27015,"enabled":true,"region":"us-central","cc":"us","latitude":32.779167,"longitude":-96.80889,"reserved":0,"last_update":"0001-01-01T00:00:00Z","name_a2s":"Uncletopia | Dallas | 1 | All Maps","protocol":17,"map":"cp_snakewater_final1","folder":"tf","game":"Team Fortress","app_id":440,"player_count":24,"max_players":24,"Bots":0,"server_type":"Dedicated","server_os":"Linux","password":true,"vac":true,"version":"7757534","steam_id":85568392924469986,"keywords":["cp","nocrits","nodmgspread","uncletopia"],"game_id":440,"stv_port":27016,"stv_name":"Uncletopia | Dallas | 1 | All Maps | STV","players":[{"user_id":548,"name":"Dr_FlapJack","steam_id":76561199075410469,"connected_time":895000000000,"state":"active","ping":80},{"user_id":533,"name":"Keeby Moment","steam_id":76561198172792271,"connected_time":1861000000000,"state":"active","ping":93},{"user_id":540,"name":"carpy","steam_id":76561198138184344,"connected_time":1778000000000,"state":"active","ping":84},{"user_id":551,"name":"JJ_80 TTV","steam_id":76561198195114443,"connected_time":769000000000,"state":"active","ping":69},{"user_id":523,"name":"WAKEUP!","steam_id":76561198254479725,"connected_time":2753000000000,"state":"active","ping":86},{"user_id":525,"name":"Passes the Bungus","steam_id":76561198040647717,"connected_time":2687000000000,"state":"active","ping":90},{"user_id":543,"name":"CCMicci","steam_id":76561198842373315,"connected_time":1295000000000,"state":"active","ping":115},{"user_id":527,"name":"nUwUb","steam_id":76561198164984099,"connected_time":2237000000000,"state":"active","ping":60},{"user_id":553,"name":"‚úåjayhyunpaefan","steam_id":76561198060052564,"connected_time":571000000000,"state":"active","ping":60},{"user_id":554,"name":"no vc no c","steam_id":76561197989503095,"connected_time":565000000000,"state":"active","ping":170},{"user_id":545,"name":"Grink \"V.F\" da Boy","steam_id":76561197985230768,"connected_time":990000000000,"state":"active","ping":102},{"user_id":534,"name":"Bogey","steam_id":76561198096227944,"connected_time":1857000000000,"state":"active","ping":45},{"user_id":555,"name":"HiddenEgg","steam_id":76561199045105518,"connected_time":556000000000,"state":"active","ping":84},{"user_id":556,"name":"tj3002rocks","steam_id":76561199017921546,"connected_time":537000000000,"state":"active","ping":56},{"user_id":557,"name":"MoonWolf","steam_id":76561198095735033,"connected_time":495000000000,"state":"active","ping":68},{"user_id":504,"name":"HOGGGG RIDAAAAHHHH","steam_id":76561198181870309,"connected_time":3583000000000,"state":"active","ping":81},{"user_id":559,"name":"NOTWALTER","steam_id":76561198125464744,"connected_time":124000000000,"state":"active","ping":103},{"user_id":546,"name":"cyal","steam_id":76561198080957000,"connected_time":983000000000,"state":"active","ping":94},{"user_id":550,"name":"aidenmc3","steam_id":76561198062209166,"connected_time":774000000000,"state":"active","ping":44},{"user_id":558,"name":"Lezabel","steam_id":76561198970753261,"connected_time":484000000000,"state":"active","ping":75},{"user_id":511,"name":"Mokaaaa","steam_id":76561198043659301,"connected_time":3196000000000,"state":"active","ping":57},{"user_id":467,"name":"Phyzisist","steam_id":76561197983915993,"connected_time":5986000000000,"state":"active","ping":79},{"user_id":519,"name":"Satori Komeiji","steam_id":76561198158211423,"connected_time":2916000000000,"state":"active","ping":78},{"user_id":521,"name":"The Juice","steam_id":76561198065307144,"connected_time":2906000000000,"state":"active","ping":89}]},{"server_id":108,"name":"Uncletopia | Dallas | 2 | All Maps","name_short":"dal-2","host":"dal-1.us.uncletopia.com","port":27025,"enabled":true,"region":"us-central","cc":"us","latitude":32.779167,"longitude":-96.80889,"reserved":0,"last_update":"0001-01-01T00:00:00Z","name_a2s":"Uncletopia | Dallas | 2 | All Maps","protocol":17,"map":"pl_upward","folder":"tf","game":"Team Fortress","app_id":440,"player_count":24,"max_players":24,"Bots":0,"server_type":"Dedicated","server_os":"Linux","password":true,"vac":true,"version":"7757534","steam_id":85568392924469988,"keywords":["nocrits","nodmgspread","payload","uncletopia"],"game_id":440,"stv_port":27026,"stv_name":"Uncletopia | Dallas | 2 | All Maps | STV","players":[{"user_id":581,"name":"ItsDifficultttt","steam_id":76561199402730529,"connected_time":405000000000,"state":"active","ping":73},{"user_id":585,"name":"MrLeftTurn","steam_id":76561198856743969,"connected_time":306000000000,"state":"active","ping":141},{"user_id":427,"name":"Kapreesi","steam_id":76561198163361200,"connected_time":4221000000000,"state":"active","ping":64},{"user_id":599,"name":"Resistance","steam_id":76561198146782074,"connected_time":80000000000,"state":"active","ping":88},{"user_id":528,"name":"Matisguy","steam_id":76561199020903681,"connected_time":1988000000000,"state":"active","ping":59},{"user_id":598,"name":"moe","steam_id":76561198929586245,"connected_time":97000000000,"state":"active","ping":91},{"user_id":465,"name":"Jovyel","steam_id":76561198118777065,"connected_time":3392000000000,"state":"active","ping":68},{"user_id":424,"name":"...","steam_id":76561198012823291,"connected_time":4319000000000,"state":"active","ping":65},{"user_id":583,"name":"Pykrim„ÉÑ","steam_id":76561198326578594,"connected_time":382000000000,"state":"active","ping":80},{"user_id":377,"name":"PaintMyMeow","steam_id":76561198056860387,"connected_time":7430000000000,"state":"active","ping":72},{"user_id":582,"name":"z0m813_456","steam_id":76561198177032619,"connected_time":391000000000,"state":"active","ping":58},{"user_id":586,"name":"Futa Lover","steam_id":76561198056775795,"connected_time":291000000000,"state":"active","ping":79},{"user_id":467,"name":"Golden Robot","steam_id":76561198149576075,"connected_time":3364000000000,"state":"active","ping":65},{"user_id":476,"name":"ROGUE-PLANET","steam_id":76561198116023052,"connected_time":3210000000000,"state":"active","ping":71},{"user_id":463,"name":"Can You Feel It Mr.Krabs","steam_id":76561198128302414,"connected_time":3416000000000,"state":"active","ping":60},{"user_id":468,"name":"Crafty","steam_id":76561199217624073,"connected_time":3346000000000,"state":"active","ping":79},{"user_id":587,"name":"Brendan","steam_id":76561198041079914,"connected_time":280000000000,"state":"active","ping":93},{"user_id":588,"name":"Onion Dent","steam_id":76561198303976037,"connected_time":276000000000,"state":"active","ping":88},{"user_id":601,"name":"JimboSlice","steam_id":76561199225336634,"connected_time":52000000000,"state":"active","ping":101},{"user_id":471,"name":"BroBama","steam_id":76561198203732587,"connected_time":3317000000000,"state":"active","ping":100},{"user_id":475,"name":"noelle","steam_id":76561198842577534,"connected_time":3226000000000,"state":"active","ping":104},{"user_id":596,"name":"AlienPossibilities","steam_id":76561198044020123,"connected_time":154000000000,"state":"active","ping":127},{"user_id":319,"name":"Knower","steam_id":76561198036213722,"connected_time":11587000000000,"state":"active","ping":77},{"user_id":591,"name":"Medic gaming","steam_id":76561199053687718,"connected_time":231000000000,"state":"active","ping":123}]},{"server_id":5,"name":"Uncletopia | Frankfurt | 1 | All Maps","name_short":"frk-1","host":"frk-1.de.uncletopia.com","port":27015,"enabled":true,"region":"eu","cc":"de","latitude":50.110924,"longitude":8.682127,"reserved":0,"last_update":"0001-01-01T00:00:00Z","name_a2s":"Uncletopia | Frankfurt | 1 | All Maps","protocol":17,"map":"pl_snowycoast","folder":"tf","game":"Team Fortress","app_id":440,"player_count":0,"max_players":24,"Bots":0,"server_type":"Dedicated","server_os":"Linux","password":true,"vac":true,"version":"7757534","steam_id":85568392924469989,"keywords":["nocrits","nodmgspread","payload","uncletopia"],"game_id":440,"stv_port":27016,"stv_name":"Uncletopia | Frankfurt | 1 | All Maps | STV","players":null},{"server_id":110,"name":"Uncletopia | Frankfurt | 2 | All Maps","name_short":"frk-2","host":"frk-1.de.uncletopia.com","port":27025,"enabled":true,"region":"eu","cc":"de","latitude":50.110924,"longitude":8.682127,"reserved":0,"last_update":"0001-01-01T00:00:00Z","name_a2s":"Uncletopia | Frankfurt | 2 | All Maps","protocol":17,"map":"pl_snowycoast","folder":"tf","game":"Team Fortress","app_id":440,"player_count":0,"max_players":24,"Bots":0,"server_type":"Dedicated","server_os":"Linux","password":true,"vac":true,"version":"7757534","steam_id":85568392924469990,"keywords":["nocrits","nodmgspread","payload","uncletopia"],"game_id":440,"stv_port":27026,"stv_name":"Uncletopia | Frankfurt | 2 | All Maps | STV","players":null},{"server_id":308,"name":"Uncletopia | Frankfurt | 3 | All Maps","name_short":"frk-3","host":"frk-1.de.uncletopia.com","port":27035,"enabled":true,"region":"eu","cc":"de","latitude":50.110924,"longitude":8.682127,"reserved":0,"last_update":"0001-01-01T00:00:00Z","name_a2s":"Uncletopia | Frankfurt | 3 | All Maps","protocol":17,"map":"cp_altitude","folder":"tf","game":"Team Fortress","app_id":440,"player_count":0,"max_players":24,"Bots":0,"server_type":"Dedicated","server_os":"Linux","password":true,"vac":true,"version":"7757534","steam_id":85568392924504274,"keywords":["cp","nocrits","nodmgspread","uncletopia"],"game_id":440,"stv_port":27036,"stv_name":"Uncletopia | Frankfurt | 3 | All Maps | STV","players":null},{"server_id":309,"name":"Uncletopia | Frankfurt | 4 | All Maps","name_short":"frk-4","host":"frk-1.de.uncletopia.com","port":27045,"enabled":true,"region":"eu","cc":"de","latitude":50.110924,"longitude":8.682127,"reserved":0,"last_update":"0001-01-01T00:00:00Z","name_a2s":"Uncletopia | Frankfurt | 4 | All Maps","protocol":17,"map":"cp_altitude","folder":"tf","game":"Team Fortress","app_id":440,"player_count":0,"max_players":24,"Bots":0,"server_type":"Dedicated","server_os":"Linux","password":true,"vac":true,"version":"7757534","steam_id":85568392924504275,"keywords":["cp","nocrits","nodmgspread","uncletopia"],"game_id":440,"stv_port":27046,"stv_name":"Uncletopia | Frankfurt | 4 | All Maps | STV","players":null},{"server_id":310,"name":"Uncletopia | Frankfurt | 5 | All Maps","name_short":"frk-5","host":"frk-1.de.uncletopia.com","port":27055,"enabled":true,"region":"eu","cc":"de","latitude":50.110924,"longitude":8.682127,"reserved":0,"last_update":"0001-01-01T00:00:00Z","name_a2s":"Uncletopia | Frankfurt | 5 | All Maps","protocol":17,"map":"cp_altitude","folder":"tf","game":"Team Fortress","app_id":440,"player_count":0,"max_players":24,"Bots":0,"server_type":"Dedicated","server_os":"Linux","password":true,"vac":true,"version":"7757534","steam_id":85568392924504277,"keywords":["cp","nocrits","nodmgspread","uncletopia"],"game_id":440,"stv_port":27056,"stv_name":"Uncletopia | Frankfurt | 5 | All Maps | STV","players":null},{"server_id":311,"name":"Uncletopia | Frankfurt | 6 | All Maps","name_short":"frk-6","host":"frk-1.de.uncletopia.com","port":27065,"enabled":true,"region":"eu","cc":"de","latitude":50.110924,"longitude":8.682127,"reserved":0,"last_update":"0001-01-01T00:00:00Z","name_a2s":"Uncletopia | Frankfurt | 6 | All Maps","protocol":17,"map":"koth_highpass","folder":"tf","game":"Team Fortress","app_id":440,"player_count":0,"max_players":24,"Bots":0,"server_type":"Dedicated","server_os":"Linux","password":true,"vac":true,"version":"7757534","steam_id":85568392924504278,"keywords":["cp","nocrits","nodmgspread","uncletopia"],"game_id":440,"stv_port":27066,"stv_name":"Uncletopia | Frankfurt | 6 | All Maps | STV","players":null},{"server_id":23,"name":"Uncletopia | Frankfurt | 7 | Stopwatch Beta","name_short":"frk-7","host":"frk-1.de.uncletopia.com","port":27075,"enabled":true,"region":"eu","cc":"de","latitude":50.110924,"longitude":8.682127,"reserved":0,"last_update":"0001-01-01T00:00:00Z","name_a2s":"Uncletopia | Frankfurt | 7 | Stopwatch Beta","protocol":17,"map":"pl_frontier_final","folder":"tf","game":"Team Fortress","app_id":440,"player_count":0,"max_players":24,"Bots":0,"server_type":"Dedicated","server_os":"Linux","password":true,"vac":true,"version":"7757534","steam_id":85568392924742827,"keywords":["nocrits","nodmgspread","payload","uncletopia"],"game_id":440,"stv_port":27076,"stv_name":"Uncletopia | Frankfurt | 7 | Stopwatch Beta | STV","players":null},{"server_id":24,"name":"Uncletopia | Frankfurt | 8 | Community","name_short":"frk-8","host":"frk-1.de.uncletopia.com","port":27085,"enabled":true,"region":"eu","cc":"de","latitude":50.110924,"longitude":8.682127,"reserved":0,"last_update":"0001-01-01T00:00:00Z","name_a2s":"Uncletopia | Frankfurt | 8 | Community","protocol":17,"map":"pl_badwater","folder":"tf","game":"Team Fortress","app_id":440,"player_count":0,"max_players":24,"Bots":0,"server_type":"Dedicated","server_os":"Linux","password":true,"vac":true,"version":"7757534","steam_id":85568392924742828,"keywords":["nocrits","nodmgspread","payload","uncletopia"],"game_id":440,"stv_port":27086,"stv_name":"Uncletopia | Frankfurt | 8 | Community | STV","players":null},{"server_id":202,"name":"Uncletopia | Hong Kong | 1 | All Maps","name_short":"hgk-1","host":"hgk-1.hk.uncletopia.com","port":27015,"enabled":true,"region":"asia","cc":"hk","latitude":22.302711,"longitude":114.177216,"reserved":0,"last_update":"0001-01-01T00:00:00Z","name_a2s":"Uncletopia | Hong Kong | 1 | All Maps","protocol":17,"map":"cp_mountainlab","folder":"tf","game":"Team Fortress","app_id":440,"player_count":4,"max_players":24,"Bots":0,"server_type":"Dedicated","server_os":"Linux","password":true,"vac":true,"version":"7757534","steam_id":85568392924494504,"keywords":["cp","nocrits","nodmgspread","uncletopia"],"game_id":440,"stv_port":27016,"stv_name":"Uncletopia | Hong Kong | 1 | All Maps | STV","players":[{"user_id":41,"name":"milk choco","steam_id":76561199138095456,"connected_time":211000000000,"state":"active","ping":111},{"user_id":42,"name":"yw","steam_id":76561199382726488,"connected_time":176000000000,"state":"active","ping":45},{"user_id":43,"name":"mgits32","steam_id":76561199246697158,"connected_time":127000000000,"state":"active","ping":101},{"user_id":44,"name":"ÊôöÈ£é","steam_id":76561199027829249,"connected_time":114000000000,"state":"active","ping":243}]},{"server_id":1,"name":"Uncletopia | Los Angeles | 1 | All Maps","name_short":"lax-1","host":"lax-1.us.uncletopia.com","port":27015,"enabled":true,"region":"us-west","cc":"us","latitude":33.94279,"longitude":-118.41004,"reserved":0,"last_update":"0001-01-01T00:00:00Z","name_a2s":"Uncletopia | Los Angeles | 1 | All Maps","protocol":17,"map":"pl_barnblitz","folder":"tf","game":"Team Fortress","app_id":440,"player_count":24,"max_players":24,"Bots":0,"server_type":"Dedicated","server_os":"Linux","password":true,"vac":true,"version":"7757534","steam_id":85568392924469991,"keywords":["nocrits","nodmgspread","payload","uncletopia"],"game_id":440,"stv_port":27016,"stv_name":"Uncletopia | Los Angeles | 1 | All Maps | STV","players":[{"user_id":564,"name":"Wind Fucker","steam_id":76561198275362375,"connected_time":3877000000000,"state":"active","ping":53},{"user_id":596,"name":"Neon","steam_id":76561198315452125,"connected_time":446000000000,"state":"active","ping":56},{"user_id":552,"name":"Lambchop","steam_id":76561198043900363,"connected_time":4664000000000,"state":"active","ping":67},{"user_id":527,"name":"Poladroid","steam_id":76561198032005291,"connected_time":6391000000000,"state":"active","ping":61},{"user_id":536,"name":"Yuhh","steam_id":76561199112894955,"connected_time":5936000000000,"state":"active","ping":92},{"user_id":591,"name":"White Lotus","steam_id":76561199472047496,"connected_time":832000000000,"state":"active","ping":117},{"user_id":586,"name":"eggplantgirl‚ô•","steam_id":76561198811515692,"connected_time":1974000000000,"state":"active","ping":49},{"user_id":587,"name":"snip snop snanpy","steam_id":76561198206922028,"connected_time":1634000000000,"state":"active","ping":49},{"user_id":582,"name":"Noob-a-tron","steam_id":76561197970555113,"connected_time":2102000000000,"state":"active","ping":48},{"user_id":571,"name":"Mr.Pan","steam_id":76561198069030613,"connected_time":3423000000000,"state":"active","ping":77},{"user_id":597,"name":"Ryplz","steam_id":76561199134146903,"connected_time":292000000000,"state":"active","ping":33},{"user_id":590,"name":"Sendesius","steam_id":76561198057349433,"connected_time":843000000000,"state":"active","ping":61},{"user_id":589,"name":"FROYO b4nny","steam_id":76561197970669109,"connected_time":1353000000000,"state":"active","ping":47},{"user_id":580,"name":"b10dragon","steam_id":76561198374314985,"connected_time":2532000000000,"state":"active","ping":101},{"user_id":567,"name":"Chalupa Jones","steam_id":76561198335855588,"connected_time":3461000000000,"state":"active","ping":53},{"user_id":541,"name":"M249 | Spectre","steam_id":76561198118334485,"connected_time":5854000000000,"state":"active","ping":127},{"user_id":568,"name":"Mitch McHoover","steam_id":76561198178827614,"connected_time":3448000000000,"state":"active","ping":95},{"user_id":576,"name":"CookieJuice200","steam_id":76561198120220280,"connected_time":2692000000000,"state":"active","ping":68},{"user_id":592,"name":"monsterkill4567","steam_id":76561198272986367,"connected_time":820000000000,"state":"active","ping":47},{"user_id":511,"name":"tie dye die guy","steam_id":76561198049845337,"connected_time":7208000000000,"state":"active","ping":64},{"user_id":593,"name":"KeepOnSluggin","steam_id":76561198347280079,"connected_time":689000000000,"state":"active","ping":43},{"user_id":584,"name":"lamadre07","steam_id":76561198067337453,"connected_time":2102000000000,"state":"active","ping":111},{"user_id":555,"name":"Drakon","steam_id":76561198078210822,"connected_time":4557000000000,"state":"active","ping":92},{"user_id":563,"name":"Shamrock Shake Oct.10.2020 @8pm","steam_id":76561198833313201,"connected_time":3920000000000,"state":"active","ping":54}]},{"server_id":112,"name":"Uncletopia | Los Angeles | 2 | All Maps","name_short":"lax-2","host":"lax-1.us.uncletopia.com","port":27025,"enabled":true,"region":"us-west","cc":"us","latitude":33.94279,"longitude":-118.41004,"reserved":0,"last_update":"0001-01-01T00:00:00Z","name_a2s":"Uncletopia | Los Angeles | 2 | All Maps","protocol":17,"map":"pl_borneo","folder":"tf","game":"Team Fortress","app_id":440,"player_count":25,"max_players":24,"Bots":0,"server_type":"Dedicated","server_os":"Linux","password":true,"vac":true,"version":"7757534","steam_id":85568392924469992,"keywords":["nocrits","nodmgspread","payload","uncletopia"],"game_id":440,"stv_port":27026,"stv_name":"Uncletopia | Los Angeles | 2 | All Maps | STV","players":[{"user_id":264,"name":"Ëá≠„ÅÑ„ÉÅ„Ç≠„É≥","steam_id":76561198106938500,"connected_time":86000000000,"state":"active","ping":45},{"user_id":183,"name":"Major","steam_id":76561198333358491,"connected_time":5480000000000,"state":"active","ping":60},{"user_id":265,"name":"One Horned Bitch Destroyer","steam_id":76561198045810191,"connected_time":82000000000,"state":"active","ping":74},{"user_id":257,"name":"Soph The Dark Elf","steam_id":76561198294426385,"connected_time":376000000000,"state":"active","ping":116},{"user_id":259,"name":"Cotton Ole Boi","steam_id":76561198373490702,"connected_time":288000000000,"state":"active","ping":58},{"user_id":231,"name":"sTAPler","steam_id":76561198394008714,"connected_time":1745000000000,"state":"active","ping":68},{"user_id":251,"name":"some random europeon","steam_id":76561198913057497,"connected_time":660000000000,"state":"active","ping":95},{"user_id":267,"name":"denim repair service","steam_id":76561198075666613,"connected_time":71000000000,"state":"active","ping":39},{"user_id":268,"name":"Trans Femtress 2","steam_id":76561198272676760,"connected_time":59000000000,"state":"active","ping":89},{"user_id":254,"name":"green dragon","steam_id":76561198308336837,"connected_time":461000000000,"state":"active","ping":61},{"user_id":224,"name":"DragonWing","steam_id":76561198353039415,"connected_time":2745000000000,"state":"active","ping":135},{"user_id":248,"name":"Excalibrine","steam_id":76561198129312118,"connected_time":1106000000000,"state":"active","ping":74},{"user_id":260,"name":"Anxiety","steam_id":76561198365627687,"connected_time":200000000000,"state":"active","ping":55},{"user_id":145,"name":"FriskyDemon","steam_id":76561198043684646,"connected_time":9397000000000,"state":"active","ping":70},{"user_id":225,"name":"UndeadZomboy","steam_id":76561198048425072,"connected_time":2739000000000,"state":"active","ping":59},{"user_id":261,"name":"HOG RIDER","steam_id":76561198298589502,"connected_time":155000000000,"state":"active","ping":70},{"user_id":204,"name":"Moth","steam_id":76561198170253694,"connected_time":4318000000000,"state":"active","ping":91},{"user_id":33,"name":"blatgotyahat","steam_id":76561198186630357,"connected_time":17021000000000,"state":"active","ping":57},{"user_id":269,"name":"grif","steam_id":76561198272333800,"connected_time":59000000000,"state":"active","ping":112},{"user_id":214,"name":"Buswolley","steam_id":76561197995205571,"connected_time":3699000000000,"state":"active","ping":60},{"user_id":270,"name":"bruh","steam_id":76561199095370765,"connected_time":14000000000,"state":"spawning","ping":70},{"user_id":250,"name":"Frank Accardi","steam_id":76561198017275707,"connected_time":1007000000000,"state":"active","ping":59},{"user_id":227,"name":"Nexus-6 Android","steam_id":76561198331023058,"connected_time":2710000000000,"state":"active","ping":77},{"user_id":228,"name":"Insanity_Book","steam_id":76561198282715309,"connected_time":2710000000000,"state":"active","ping":78},{"user_id":271,"name":"Sticky","steam_id":76561199389054520,"connected_time":10000000000,"state":"spawning","ping":73}]},{"server_id":324,"name":"Uncletopia | Los Angeles | 3 | All Maps","name_short":"lax-3","host":"lax-1.us.uncletopia.com","port":27035,"enabled":true,"region":"us-west","cc":"us","latitude":33.94279,"longitude":-118.41004,"reserved":0,"last_update":"0001-01-01T00:00:00Z","name_a2s":"Uncletopia | Los Angeles | 3 | All Maps","protocol":17,"map":"cp_process_final","folder":"tf","game":"Team Fortress","app_id":440,"player_count":0,"max_players":24,"Bots":0,"server_type":"Dedicated","server_os":"Linux","password":true,"vac":true,"version":"7757534","steam_id":85568392924510198,"keywords":["cp","nocrits","nodmgspread","uncletopia"],"game_id":440,"stv_port":27036,"stv_name":"Uncletopia | Los Angeles | 3 | All Maps | STV","players":null},{"server_id":25,"name":"Uncletopia | Los Angeles | 4 | Stopwatch Beta","name_short":"lax-4","host":"lax-1.us.uncletopia.com","port":27045,"enabled":true,"region":"us-west","cc":"us","latitude":33.94279,"longitude":-118.41004,"reserved":0,"last_update":"0001-01-01T00:00:00Z","name_a2s":"Uncletopia | Los Angeles | 4 | Stopwatch Beta","protocol":17,"map":"pl_frontier_final","folder":"tf","game":"Team Fortress","app_id":440,"player_count":0,"max_players":24,"Bots":0,"server_type":"Dedicated","server_os":"Linux","password":true,"vac":true,"version":"7757534","steam_id":85568392924510199,"keywords":["nocrits","nodmgspread","payload","uncletopia"],"game_id":440,"stv_port":27046,"stv_name":"Uncletopia | Los Angeles | 4 | Stopwatch Beta | STV","players":null},{"server_id":11,"name":"Uncletopia | London | 1 | All Maps","name_short":"lon-1","host":"lon-1.uk.uncletopia.com","port":27015,"enabled":true,"region":"eu","cc":"gb","latitude":51.509865,"longitude":-0.118092,"reserved":0,"last_update":"0001-01-01T00:00:00Z","name_a2s":"Uncletopia | London | 1 | All Maps","protocol":17,"map":"koth_viaduct","folder":"tf","game":"Team Fortress","app_id":440,"player_count":0,"max_players":24,"Bots":0,"server_type":"Dedicated","server_os":"Linux","password":true,"vac":true,"version":"7757534","steam_id":85568392924367362,"keywords":["cp","nocrits","nodmgspread","uncletopia"],"game_id":440,"stv_port":27016,"stv_name":"Uncletopia | London | 1 | All Maps | STV","players":null},{"server_id":114,"name":"Uncletopia | London | 2 | All Maps","name_short":"lon-2","host":"lon-1.uk.uncletopia.com","port":27025,"enabled":true,"region":"eu","cc":"gb","latitude":51.509865,"longitude":-0.118092,"reserved":0,"last_update":"0001-01-01T00:00:00Z","name_a2s":"Uncletopia | London | 2 | All Maps","protocol":17,"map":"cp_dustbowl","folder":"tf","game":"Team Fortress","app_id":440,"player_count":0,"max_players":24,"Bots":0,"server_type":"Dedicated","server_os":"Linux","password":true,"vac":true,"version":"7757534","steam_id":85568392924470941,"keywords":["cp","nocrits","nodmgspread","uncletopia"],"game_id":440,"stv_port":27026,"stv_name":"Uncletopia | London | 2 | All Maps | STV","players":null},{"server_id":320,"name":"Uncletopia | London | 3 | All Maps","name_short":"lon-3","host":"lon-1.uk.uncletopia.com","port":27035,"enabled":true,"region":"eu","cc":"gb","latitude":51.509865,"longitude":-0.118092,"reserved":0,"last_update":"0001-01-01T00:00:00Z","name_a2s":"Uncletopia | London | 3 | All Maps","protocol":17,"map":"pl_badwater","folder":"tf","game":"Team Fortress","app_id":440,"player_count":4,"max_players":24,"Bots":0,"server_type":"Dedicated","server_os":"Linux","password":true,"vac":true,"version":"7757534","steam_id":85568392924510192,"keywords":["nocrits","nodmgspread","payload","uncletopia"],"game_id":440,"stv_port":27036,"stv_name":"Uncletopia | London | 3 | All Maps | STV","players":[{"user_id":3,"name":"bachusa1657","steam_id":76561198202175911,"connected_time":973000000000,"state":"active","ping":74},{"user_id":4,"name":"MarkBV","steam_id":76561198427014506,"connected_time":829000000000,"state":"active","ping":149},{"user_id":7,"name":"Drdarlekzzz","steam_id":76561198160141785,"connected_time":227000000000,"state":"active","ping":43},{"user_id":6,"name":"kbbq","steam_id":76561198346638308,"connected_time":286000000000,"state":"active","ping":56}]},{"server_id":321,"name":"Uncletopia | London | 4 | All Maps","name_short":"lon-4","host":"lon-1.uk.uncletopia.com","port":27045,"enabled":true,"region":"eu","cc":"gb","latitude":51.509865,"longitude":-0.118092,"reserved":0,"last_update":"0001-01-01T00:00:00Z","name_a2s":"Uncletopia | London | 4 | All Maps","protocol":17,"map":"koth_viaduct","folder":"tf","game":"Team Fortress","app_id":440,"player_count":0,"max_players":24,"Bots":0,"server_type":"Dedicated","server_os":"Linux","password":true,"vac":true,"version":"7757534","steam_id":85568392924510193,"keywords":["cp","nocrits","nodmgspread","uncletopia"],"game_id":440,"stv_port":27046,"stv_name":"Uncletopia | London | 4 | All Maps | STV","players":null},{"server_id":21,"name":"Uncletopia | London | 5 | All Maps","name_short":"lon-5","host":"lon-1.uk.uncletopia.com","port":27055,"enabled":true,"region":"eu","cc":"gb","latitude":51.509865,"longitude":-0.118092,"reserved":0,"last_update":"0001-01-01T00:00:00Z","name_a2s":"Uncletopia | London | 5 | All Maps","protocol":17,"map":"cp_snakewater_final1","folder":"tf","game":"Team Fortress","app_id":440,"player_count":0,"max_players":24,"Bots":0,"server_type":"Dedicated","server_os":"Linux","password":true,"vac":true,"version":"7757534","steam_id":85568392924742829,"keywords":["cp","nocrits","nodmgspread","uncletopia"],"game_id":440,"stv_port":27056,"stv_name":"Uncletopia | London | 5 | All Maps | STV","players":null},{"server_id":22,"name":"Uncletopia | London | 6 | All Maps","name_short":"lon-6","host":"lon-1.uk.uncletopia.com","port":27065,"enabled":true,"region":"eu","cc":"gb","latitude":51.509865,"longitude":-0.118092,"reserved":0,"last_update":"0001-01-01T00:00:00Z","name_a2s":"Uncletopia | London | 6 | All Maps","protocol":17,"map":"koth_cascade","folder":"tf","game":"Team Fortress","app_id":440,"player_count":0,"max_players":24,"Bots":0,"server_type":"Dedicated","server_os":"Linux","password":true,"vac":true,"version":"7757534","steam_id":85568392924742830,"keywords":["cp","nocrits","nodmgspread","uncletopia"],"game_id":440,"stv_port":27066,"stv_name":"Uncletopia | London | 6 | All Maps | STV","players":null},{"server_id":40,"name":"Uncletopia | London | 7 | No Payload","name_short":"lon-7","host":"lon-1.uk.uncletopia.com","port":27075,"enabled":true,"region":"eu","cc":"gb","latitude":51.509865,"longitude":-0.118092,"reserved":0,"last_update":"0001-01-01T00:00:00Z","name_a2s":"Uncletopia | London | 7 | No Payload","protocol":17,"map":"cp_process_final","folder":"tf","game":"Team Fortress","app_id":440,"player_count":0,"max_players":24,"Bots":0,"server_type":"Dedicated","server_os":"Linux","password":true,"vac":true,"version":"7757534","steam_id":85568392924964314,"keywords":["cp","nocrits","nodmgspread","uncletopia"],"game_id":440,"stv_port":27076,"stv_name":"Uncletopia | London | 7 | No Payload | STV","players":null},{"server_id":41,"name":"Uncletopia | London | 8 | Community","name_short":"lon-8","host":"lon-1.uk.uncletopia.com","port":27085,"enabled":true,"region":"eu","cc":"gb","latitude":51.509865,"longitude":-0.118092,"reserved":0,"last_update":"0001-01-01T00:00:00Z","name_a2s":"Uncletopia | London | 8 | Community","protocol":17,"map":"pl_upward","folder":"tf","game":"Team Fortress","app_id":440,"player_count":0,"max_players":24,"Bots":0,"server_type":"Dedicated","server_os":"Linux","password":true,"vac":true,"version":"7757534","steam_id":85568392924964315,"keywords":["nocrits","nodmgspread","payload","uncletopia"],"game_id":440,"stv_port":27086,"stv_name":"Uncletopia | London | 8 | Community | STV","players":null},{"server_id":300,"name":"Uncletopia | Montr√©al | 1 | All Maps","name_short":"mtl-1","host":"mtl-1.ca.uncletopia.com","port":27015,"enabled":true,"region":"us-east","cc":"ca","latitude":45.50889,"longitude":-73.56167,"reserved":0,"last_update":"0001-01-01T00:00:00Z","name_a2s":"Uncletopia | Montr√©al | 1 | All Maps","protocol":17,"map":"pl_swiftwater_final1","folder":"tf","game":"Team Fortress","app_id":440,"player_count":0,"max_players":24,"Bots":0,"server_type":"Dedicated","server_os":"Linux","password":true,"vac":true,"version":"7757534","steam_id":85568392924500087,"keywords":["nocrits","nodmgspread","payload","uncletopia"],"game_id":440,"stv_port":27016,"stv_name":"Uncletopia | Montr√©al | 1 | All Maps | STV","players":null},{"server_id":301,"name":"Uncletopia | Montr√©al | 2 | All Maps","name_short":"mtl-2","host":"mtl-1.ca.uncletopia.com","port":27025,"enabled":true,"region":"us-east","cc":"ca","latitude":45.50889,"longitude":-73.56167,"reserved":0,"last_update":"0001-01-01T00:00:00Z","name_a2s":"Uncletopia | Montr√©al | 2 | All Maps","protocol":17,"map":"koth_viaduct","folder":"tf","game":"Team Fortress","app_id":440,"player_count":0,"max_players":24,"Bots":0,"server_type":"Dedicated","server_os":"Linux","password":true,"vac":true,"version":"7757534","steam_id":85568392924500088,"keywords":["cp","nocrits","nodmgspread","uncletopia"],"game_id":440,"stv_port":27026,"stv_name":"Uncletopia | Montr√©al | 2 | All Maps | STV","players":null},{"server_id":302,"name":"Uncletopia | Montr√©al | 3 | All Maps","name_short":"mtl-3","host":"mtl-1.ca.uncletopia.com","port":27035,"enabled":true,"region":"us-east","cc":"ca","latitude":45.50889,"longitude":-73.56167,"reserved":0,"last_update":"0001-01-01T00:00:00Z","name_a2s":"Uncletopia | Montr√©al | 3 | All Maps","protocol":17,"map":"koth_viaduct","folder":"tf","game":"Team Fortress","app_id":440,"player_count":0,"max_players":24,"Bots":0,"server_type":"Dedicated","server_os":"Linux","password":true,"vac":true,"version":"7757534","steam_id":85568392924500089,"keywords":["cp","nocrits","nodmgspread","uncletopia"],"game_id":440,"stv_port":27036,"stv_name":"Uncletopia | Montr√©al | 3 | All Maps | STV","players":null},{"server_id":303,"name":"Uncletopia | Montr√©al | 4 | No Payload","name_short":"mtl-4","host":"mtl-1.ca.uncletopia.com","port":27045,"enabled":true,"region":"us-east","cc":"ca","latitude":45.50889,"longitude":-73.56167,"reserved":0,"last_update":"0001-01-01T00:00:00Z","name_a2s":"Uncletopia | Montr√©al | 4 | No Payload","protocol":17,"map":"cp_coldfront","folder":"tf","game":"Team Fortress","app_id":440,"player_count":0,"max_players":24,"Bots":0,"server_type":"Dedicated","server_os":"Linux","password":true,"vac":true,"version":"7757534","steam_id":85568392924500090,"keywords":["cp","nocrits","nodmgspread","uncletopia"],"game_id":440,"stv_port":27046,"stv_name":"Uncletopia | Montr√©al | 4 | No Payload | STV","players":null},{"server_id":13,"name":"Uncletopia | New York City | 1 | All Maps","name_short":"nyc-1","host":"nyc-1.us.uncletopia.com","port":27015,"enabled":true,"region":"us-east","cc":"us","latitude":40.73061,"longitude":-73.93524,"reserved":0,"last_update":"0001-01-01T00:00:00Z","name_a2s":"Uncletopia | New York City | 1 | All Maps","protocol":17,"map":"pl_borneo","folder":"tf","game":"Team Fortress","app_id":440,"player_count":4,"max_players":24,"Bots":0,"server_type":"Dedicated","server_os":"Linux","password":true,"vac":true,"version":"7757534","steam_id":85568392924469993,"keywords":["nocrits","nodmgspread","payload","uncletopia"],"game_id":440,"stv_port":27016,"stv_name":"Uncletopia | New York City | 1 | All Maps | STV","players":[{"user_id":901,"name":"xd Clover","steam_id":76561198038905361,"connected_time":2538000000000,"state":"active","ping":45},{"user_id":929,"name":"themagicbirdie","steam_id":76561198067516930,"connected_time":706000000000,"state":"active","ping":81},{"user_id":925,"name":"Heavy Sentry","steam_id":76561198928954416,"connected_time":923000000000,"state":"active","ping":118},{"user_id":927,"name":"THE stupid idiot","steam_id":76561199366682904,"connected_time":905000000000,"state":"active","ping":127}]},{"server_id":14,"name":"Uncletopia | New York City | 2 | All Maps","name_short":"nyc-2","host":"nyc-1.us.uncletopia.com","port":27025,"enabled":true,"region":"us-east","cc":"us","latitude":40.73061,"longitude":-73.93524,"reserved":0,"last_update":"0001-01-01T00:00:00Z","name_a2s":"Uncletopia | New York City | 2 | All Maps","protocol":17,"map":"cp_dustbowl","folder":"tf","game":"Team Fortress","app_id":440,"player_count":22,"max_players":24,"Bots":0,"server_type":"Dedicated","server_os":"Linux","password":true,"vac":true,"version":"7757534","steam_id":85568392924469994,"keywords":["cp","nocrits","nodmgspread","uncletopia"],"game_id":440,"stv_port":27026,"stv_name":"Uncletopia | New York City | 2 | All Maps | STV","players":[{"user_id":641,"name":"Red Man","steam_id":76561198293333566,"connected_time":9369000000000,"state":"active","ping":92},{"user_id":761,"name":"avant","steam_id":76561198104921055,"connected_time":1416000000000,"state":"active","ping":80},{"user_id":759,"name":"last_apoc","steam_id":76561197974910911,"connected_time":1752000000000,"state":"active","ping":63},{"user_id":762,"name":"Sydney Blazey","steam_id":76561198931658649,"connected_time":1381000000000,"state":"active","ping":173},{"user_id":763,"name":"i are steve","steam_id":76561198867457465,"connected_time":1347000000000,"state":"active","ping":80},{"user_id":785,"name":"OMG!!!!","steam_id":76561198069600113,"connected_time":89000000000,"state":"active","ping":54},{"user_id":778,"name":"-=X8X=- https://www.twitch.tv/b","steam_id":76561198032141246,"connected_time":736000000000,"state":"active","ping":72},{"user_id":782,"name":"Shaunhan","steam_id":76561198386596938,"connected_time":574000000000,"state":"active","ping":50},{"user_id":747,"name":"Fuzzama","steam_id":76561198253369815,"connected_time":2880000000000,"state":"active","ping":78},{"user_id":784,"name":"Stinkly","steam_id":76561198045010846,"connected_time":127000000000,"state":"active","ping":67},{"user_id":765,"name":"WitheringLeo","steam_id":76561198046722918,"connected_time":1299000000000,"state":"active","ping":53},{"user_id":741,"name":"rudy","steam_id":76561198088712799,"connected_time":3260000000000,"state":"active","ping":85},{"user_id":693,"name":"Biznickel","steam_id":76561199422511230,"connected_time":6014000000000,"state":"active","ping":115},{"user_id":754,"name":"BlackholeJ_Media","steam_id":76561199031406531,"connected_time":2254000000000,"state":"active","ping":133},{"user_id":781,"name":"Average Engineer Main","steam_id":76561197999657118,"connected_time":675000000000,"state":"active","ping":67},{"user_id":766,"name":"Rizz Ayanami","steam_id":76561198211306308,"connected_time":1292000000000,"state":"active","ping":43},{"user_id":769,"name":"red gatorade","steam_id":76561198413125750,"connected_time":1284000000000,"state":"active","ping":48},{"user_id":775,"name":"pm_h","steam_id":76561198245025912,"connected_time":1023000000000,"state":"active","ping":56},{"user_id":770,"name":"Smuggley","steam_id":76561198078130271,"connected_time":1276000000000,"state":"active","ping":104},{"user_id":786,"name":"1777","steam_id":76561199473015151,"connected_time":66000000000,"state":"active","ping":47},{"user_id":760,"name":"Blank_Sicon","steam_id":76561198887041407,"connected_time":1515000000000,"state":"active","ping":164},{"user_id":783,"name":"DelŒªyed (FamOuZ)üòª","steam_id":76561198290147935,"connected_time":545000000000,"state":"active","ping":98}]},{"server_id":15,"name":"Uncletopia | New York City | 3 | Stopwatch Beta","name_short":"nyc-3","host":"nyc-1.us.uncletopia.com","port":27035,"enabled":true,"region":"us-east","cc":"us","latitude":40.73061,"longitude":-73.93524,"reserved":0,"last_update":"0001-01-01T00:00:00Z","name_a2s":"Uncletopia | New York City | 3 | Stopwatch Beta","protocol":17,"map":"workshop/koth_ramjam_rc1.ugc459778887","folder":"tf","game":"Team Fortress","app_id":440,"player_count":0,"max_players":24,"Bots":0,"server_type":"Dedicated","server_os":"Linux","password":true,"vac":true,"version":"7757534","steam_id":85568392924742820,"keywords":["cp","nocrits","nodmgspread","uncletopia"],"game_id":440,"stv_port":27036,"stv_name":"Uncletopia | New York City | 3 | Stopwatch Beta | STV","players":null},{"server_id":16,"name":"Uncletopia | New York City | 4 | Community","name_short":"nyc-4","host":"nyc-1.us.uncletopia.com","port":27045,"enabled":true,"region":"us-east","cc":"us","latitude":40.73061,"longitude":-73.93524,"reserved":0,"last_update":"0001-01-01T00:00:00Z","name_a2s":"Uncletopia | New York City | 4 | Community","protocol":17,"map":"workshop/rd_asteroid_redux_b1.ugc2154902912","folder":"tf","game":"Team Fortress","app_id":440,"player_count":0,"max_players":24,"Bots":0,"server_type":"Dedicated","server_os":"Linux","password":true,"vac":true,"version":"7757534","steam_id":85568392924742821,"keywords":["beta","nocrits","nodmgspread","rd","uncletopia"],"game_id":440,"stv_port":27046,"stv_name":"Uncletopia | New York City | 4 | Community | STV","players":null},{"server_id":142,"name":"Uncletopia | S√£o Paulo | 1 | All Maps","name_short":"sao-1","host":"sao-1.br.uncletopia.com","port":27015,"enabled":true,"region":"sa","cc":"br","latitude":-23.533773,"longitude":-46.62529,"reserved":0,"last_update":"0001-01-01T00:00:00Z","name_a2s":"Uncletopia | S√£o Paulo | 1 | All Maps","protocol":17,"map":"koth_lakeside_final","folder":"tf","game":"Team Fortress","app_id":440,"player_count":0,"max_players":24,"Bots":0,"server_type":"Dedicated","server_os":"Linux","password":true,"vac":true,"version":"7757534","steam_id":85568392924469996,"keywords":["cp","nocrits","nodmgspread","uncletopia"],"game_id":440,"stv_port":27016,"stv_name":"Uncletopia | S√£o Paulo | 1 | All Maps | STV","players":null},{"server_id":143,"name":"Uncletopia | S√£o Paulo | 2 | All Maps","name_short":"sao-2","host":"sao-2.br.uncletopia.com","port":27015,"enabled":true,"region":"sa","cc":"br","latitude":-23.533773,"longitude":-46.62529,"reserved":0,"last_update":"0001-01-01T00:00:00Z","name_a2s":"Uncletopia | S√£o Paulo | 2 | All Maps","protocol":17,"map":"koth_viaduct","folder":"tf","game":"Team Fortress","app_id":440,"player_count":0,"max_players":24,"Bots":0,"server_type":"Dedicated","server_os":"Linux","password":true,"vac":true,"version":"7757534","steam_id":85568392924485349,"keywords":["cp","nocrits","nodmgspread","uncletopia"],"game_id":440,"stv_port":27016,"stv_name":"Uncletopia | S√£o Paulo | 2 | All Maps | STV","players":null},{"server_id":7,"name":"Uncletopia | Seattle | 1 | All Maps","name_short":"sea-1","host":"sea-1.us.uncletopia.com","port":27015,"enabled":true,"region":"us-west","cc":"us","latitude":47.608013,"longitude":-122.33517,"reserved":0,"last_update":"0001-01-01T00:00:00Z","name_a2s":"Uncletopia | Seattle | 1 | All Maps","protocol":17,"map":"pl_swiftwater_final1","folder":"tf","game":"Team Fortress","app_id":440,"player_count":23,"max_players":24,"Bots":0,"server_type":"Dedicated","server_os":"Linux","password":true,"vac":true,"version":"7757534","steam_id":85568392924469997,"keywords":["nocrits","nodmgspread","payload","uncletopia"],"game_id":440,"stv_port":27016,"stv_name":"Uncletopia | Seattle | 1 | All Maps | STV","players":[{"user_id":521,"name":"eldin","steam_id":76561198292352586,"connected_time":990000000000,"state":"active","ping":57},{"user_id":455,"name":"goldhed","steam_id":76561198051751133,"connected_time":8614000000000,"state":"active","ping":54},{"user_id":463,"name":"[TrC] Dackstrus","steam_id":76561197973518509,"connected_time":7769000000000,"state":"active","ping":54},{"user_id":526,"name":"brobtlcehc","steam_id":76561198043558709,"connected_time":103000000000,"state":"active","ping":46},{"user_id":487,"name":"Attrition","steam_id":76561197969881916,"connected_time":4865000000000,"state":"active","ping":44},{"user_id":508,"name":"so-and-so","steam_id":76561198325306660,"connected_time":2522000000000,"state":"active","ping":48},{"user_id":523,"name":"resh","steam_id":76561198239598834,"connected_time":936000000000,"state":"active","ping":133},{"user_id":516,"name":"Dr. Karl, the AUS Science Guy","steam_id":76561198031278747,"connected_time":1452000000000,"state":"active","ping":46},{"user_id":515,"name":"resting neutral face","steam_id":76561197999259502,"connected_time":1464000000000,"state":"active","ping":58},{"user_id":514,"name":"Res Ipsa","steam_id":76561198041349210,"connected_time":1899000000000,"state":"active","ping":75},{"user_id":518,"name":"5 Soundboard Fart Effects","steam_id":76561198866629645,"connected_time":1437000000000,"state":"active","ping":105},{"user_id":524,"name":"gerg","steam_id":76561197997127387,"connected_time":935000000000,"state":"active","ping":66},{"user_id":506,"name":"HammerHead","steam_id":76561197975668646,"connected_time":3090000000000,"state":"active","ping":98},{"user_id":525,"name":"The Scatman","steam_id":76561198071693469,"connected_time":788000000000,"state":"active","ping":53},{"user_id":519,"name":"Budgerigar","steam_id":76561198271939793,"connected_time":1436000000000,"state":"active","ping":46},{"user_id":507,"name":"rat gets the cheese","steam_id":76561198031234032,"connected_time":2953000000000,"state":"active","ping":100},{"user_id":504,"name":"i have teeth","steam_id":76561198014008520,"connected_time":3157000000000,"state":"active","ping":65},{"user_id":528,"name":"social distance warrior","steam_id":76561198128992994,"connected_time":70000000000,"state":"active","ping":47},{"user_id":471,"name":"[TrC] Nosy","steam_id":76561197978859310,"connected_time":7684000000000,"state":"active","ping":57},{"user_id":512,"name":"twink in pastry flops","steam_id":76561198340646012,"connected_time":2267000000000,"state":"active","ping":44},{"user_id":462,"name":"jesie","steam_id":76561198074938913,"connected_time":7926000000000,"state":"active","ping":103},{"user_id":513,"name":"That Guy","steam_id":76561198120788964,"connected_time":1905000000000,"state":"active","ping":59},{"user_id":531,"name":"strange","steam_id":76561198396870470,"connected_time":51000000000,"state":"active","ping":66}]},{"server_id":119,"name":"Uncletopia | Seattle | 2 | All Maps","name_short":"sea-2","host":"sea-1.us.uncletopia.com","port":27025,"enabled":true,"region":"us-west","cc":"us","latitude":47.608013,"longitude":-122.33517,"reserved":0,"last_update":"0001-01-01T00:00:00Z","name_a2s":"Uncletopia | Seattle | 2 | All Maps","protocol":17,"map":"pl_badwater","folder":"tf","game":"Team Fortress","app_id":440,"player_count":24,"max_players":24,"Bots":0,"server_type":"Dedicated","server_os":"Linux","password":true,"vac":true,"version":"7757534","steam_id":85568392924469998,"keywords":["nocrits","nodmgspread","payload","uncletopia"],"game_id":440,"stv_port":27026,"stv_name":"Uncletopia | Seattle | 2 | All Maps | STV","players":[{"user_id":621,"name":"blockland.fan 4","steam_id":76561198173706067,"connected_time":820000000000,"state":"active","ping":60},{"user_id":602,"name":"A crow","steam_id":76561198320293423,"connected_time":2256000000000,"state":"active","ping":55},{"user_id":529,"name":"shiftshock01","steam_id":76561199049488870,"connected_time":7173000000000,"state":"active","ping":52},{"user_id":625,"name":"Sweatpants","steam_id":76561198097188001,"connected_time":277000000000,"state":"active","ping":60},{"user_id":571,"name":"MyMonkeyBaby","steam_id":76561198046896670,"connected_time":4395000000000,"state":"active","ping":59},{"user_id":583,"name":"Yogurt Male","steam_id":76561199001748822,"connected_time":3209000000000,"state":"active","ping":45},{"user_id":511,"name":"ChuChu","steam_id":76561199443647976,"connected_time":8486000000000,"state":"active","ping":108},{"user_id":609,"name":"Quickxdeathx02","steam_id":76561198396771470,"connected_time":1934000000000,"state":"active","ping":62},{"user_id":581,"name":"uwu","steam_id":76561199003985688,"connected_time":3238000000000,"state":"active","ping":97},{"user_id":532,"name":"General Fisticuffs","steam_id":76561198255721392,"connected_time":6890000000000,"state":"active","ping":113},{"user_id":543,"name":"Grammaring","steam_id":76561198867366139,"connected_time":6256000000000,"state":"active","ping":84},{"user_id":595,"name":"PunishedCrab","steam_id":76561198079650017,"connected_time":2925000000000,"state":"active","ping":92},{"user_id":614,"name":"Cloudy","steam_id":76561198081673117,"connected_time":1390000000000,"state":"active","ping":69},{"user_id":616,"name":"Jorge_dude_2008","steam_id":76561198870649125,"connected_time":1179000000000,"state":"active","ping":72},{"user_id":580,"name":"Lonestar827","steam_id":76561198035533639,"connected_time":3262000000000,"state":"active","ping":57},{"user_id":598,"name":"AngryTexin","steam_id":76561198378566331,"connected_time":2631000000000,"state":"active","ping":67},{"user_id":596,"name":"SvicidalBug","steam_id":76561198221390504,"connected_time":2917000000000,"state":"active","ping":66},{"user_id":627,"name":"Samiho","steam_id":76561198984374561,"connected_time":85000000000,"state":"active","ping":61},{"user_id":626,"name":"Bubbamanme","steam_id":76561198119778504,"connected_time":110000000000,"state":"active","ping":60},{"user_id":613,"name":"A lost cow.","steam_id":76561198047673765,"connected_time":1474000000000,"state":"active","ping":103},{"user_id":615,"name":"SweatyBalls","steam_id":76561198862785691,"connected_time":1231000000000,"state":"active","ping":129},{"user_id":628,"name":"Naffers","steam_id":76561198195957335,"connected_time":85000000000,"state":"active","ping":47},{"user_id":600,"name":"bad spy player","steam_id":76561198873699671,"connected_time":2356000000000,"state":"active","ping":54},{"user_id":619,"name":"Tohubohu","steam_id":76561198077838448,"connected_time":1148000000000,"state":"active","ping":87}]},{"server_id":406,"name":"Uncletopia | Seattle | 3 | Stopwatch Beta","name_short":"sea-3","host":"sea-1.us.uncletopia.com","port":27035,"enabled":true,"region":"us-west","cc":"us","latitude":47.608013,"longitude":-122.33517,"reserved":0,"last_update":"0001-01-01T00:00:00Z","name_a2s":"Uncletopia | Seattle | 3 | Stopwatch Beta","protocol":17,"map":"cp_sunshine","folder":"tf","game":"Team Fortress","app_id":440,"player_count":4,"max_players":24,"Bots":0,"server_type":"Dedicated","server_os":"Linux","password":true,"vac":true,"version":"7757534","steam_id":85568392924515217,"keywords":["cp","nocrits","nodmgspread","uncletopia"],"game_id":440,"stv_port":27036,"stv_name":"Uncletopia | Seattle | 3 | Stopwatch Beta | STV","players":[{"user_id":24,"name":"Villchip","steam_id":76561198198599982,"connected_time":404000000000,"state":"active","ping":48},{"user_id":23,"name":"Morp","steam_id":76561198377532936,"connected_time":513000000000,"state":"active","ping":82},{"user_id":25,"name":"Ddot","steam_id":76561198082846392,"connected_time":150000000000,"state":"active","ping":44},{"user_id":27,"name":"cozmo","steam_id":76561198043167542,"connected_time":94000000000,"state":"active","ping":42}]},{"server_id":17,"name":"Uncletopia | San Francisco | 1 | All Maps","name_short":"sfo-1","host":"sfo-1.us.uncletopia.com","port":27015,"enabled":true,"region":"us-west","cc":"us","latitude":37.77397,"longitude":-122.4313,"reserved":0,"last_update":"0001-01-01T00:00:00Z","name_a2s":"Uncletopia | San Francisco | 1 | All Maps","protocol":17,"map":"pl_upward","folder":"tf","game":"Team Fortress","app_id":440,"player_count":24,"max_players":24,"Bots":0,"server_type":"Dedicated","server_os":"Linux","password":true,"vac":true,"version":"7757534","steam_id":85568392924469999,"keywords":["nocrits","nodmgspread","payload","uncletopia"],"game_id":440,"stv_port":27016,"stv_name":"Uncletopia | San Francisco | 1 | All Maps | STV","players":[{"user_id":422,"name":"ScoutBox","steam_id":76561198111539895,"connected_time":5767000000000,"state":"active","ping":58},{"user_id":489,"name":"John Wick's puppy","steam_id":76561198064662875,"connected_time":897000000000,"state":"active","ping":45},{"user_id":453,"name":"FiddyFoMike","steam_id":76561198057072581,"connected_time":3458000000000,"state":"active","ping":45},{"user_id":473,"name":"Steve Jobs' cousin Hand Jobs","steam_id":76561198282766831,"connected_time":2378000000000,"state":"active","ping":99},{"user_id":466,"name":"Isaac","steam_id":76561198015727013,"connected_time":2694000000000,"state":"active","ping":87},{"user_id":478,"name":"huiei","steam_id":76561198073763735,"connected_time":2011000000000,"state":"active","ping":58},{"user_id":464,"name":"Mint Jelly","steam_id":76561197991286751,"connected_time":2776000000000,"state":"active","ping":61},{"user_id":487,"name":"Fenteale","steam_id":76561198008559945,"connected_time":963000000000,"state":"active","ping":60},{"user_id":482,"name":"Igrium","steam_id":76561198119549811,"connected_time":1317000000000,"state":"active","ping":57},{"user_id":484,"name":"SpringIvan","steam_id":76561199133179509,"connected_time":1080000000000,"state":"active","ping":44},{"user_id":474,"name":"hersheybargame","steam_id":76561199162003623,"connected_time":2348000000000,"state":"active","ping":56},{"user_id":490,"name":"benjamin","steam_id":76561198084679502,"connected_time":834000000000,"state":"active","ping":102},{"user_id":499,"name":"I Am Alpharius","steam_id":76561198033100226,"connected_time":109000000000,"state":"active","ping":130},{"user_id":483,"name":"Squigzy_","steam_id":76561198061696667,"connected_time":1086000000000,"state":"active","ping":105},{"user_id":488,"name":"Freddie Benson","steam_id":76561198012741266,"connected_time":915000000000,"state":"active","ping":74},{"user_id":486,"name":"MED","steam_id":76561198389670774,"connected_time":993000000000,"state":"active","ping":85},{"user_id":491,"name":"Corn Shucker","steam_id":76561198117057283,"connected_time":829000000000,"state":"active","ping":106},{"user_id":492,"name":"wepeat","steam_id":76561198085943550,"connected_time":821000000000,"state":"active","ping":110},{"user_id":493,"name":"Maid 'n' China","steam_id":76561198423392976,"connected_time":745000000000,"state":"active","ping":55},{"user_id":443,"name":"Zabud'","steam_id":76561198192804709,"connected_time":4010000000000,"state":"active","ping":61},{"user_id":497,"name":"Adawnby","steam_id":76561198103057295,"connected_time":469000000000,"state":"active","ping":87},{"user_id":496,"name":"SHADOW (he/him)","steam_id":76561198207768148,"connected_time":509000000000,"state":"active","ping":62},{"user_id":498,"name":"Swigs","steam_id":76561198392239212,"connected_time":280000000000,"state":"active","ping":57},{"user_id":419,"name":"Lumen","steam_id":76561197985372319,"connected_time":6085000000000,"state":"active","ping":120}]},{"server_id":18,"name":"Uncletopia | San Francisco | 2 | All Maps","name_short":"sfo-2","host":"sfo-1.us.uncletopia.com","port":27025,"enabled":true,"region":"us-west","cc":"us","latitude":37.77397,"longitude":-122.4313,"reserved":0,"last_update":"0001-01-01T00:00:00Z","name_a2s":"Uncletopia | San Francisco | 2 | All Maps","protocol":17,"map":"pl_pier","folder":"tf","game":"Team Fortress","app_id":440,"player_count":24,"max_players":24,"Bots":0,"server_type":"Dedicated","server_os":"Linux","password":true,"vac":true,"version":"7757534","steam_id":85568392924470000,"keywords":["nocrits","nodmgspread","payload","uncletopia"],"game_id":440,"stv_port":27026,"stv_name":"Uncletopia | San Francisco | 2 | All Maps | STV","players":[{"user_id":323,"name":"Disc0","steam_id":76561198067337267,"connected_time":89000000000,"state":"active","ping":61},{"user_id":310,"name":"Optimore","steam_id":76561198047662990,"connected_time":350000000000,"state":"active","ping":52},{"user_id":299,"name":"hedahman","steam_id":76561198052398134,"connected_time":1268000000000,"state":"active","ping":70},{"user_id":274,"name":"Arrythmia","steam_id":76561198093748123,"connected_time":1887000000000,"state":"active","ping":76},{"user_id":273,"name":"Lily Thorn","steam_id":76561198305488625,"connected_time":1894000000000,"state":"active","ping":86},{"user_id":301,"name":"okay buddy","steam_id":76561198185643511,"connected_time":1180000000000,"state":"active","ping":65},{"user_id":321,"name":"Largelad","steam_id":76561198024042970,"connected_time":109000000000,"state":"active","ping":97},{"user_id":275,"name":"ayaya?","steam_id":76561199000188109,"connected_time":1880000000000,"state":"active","ping":58},{"user_id":298,"name":"Mr. Dr. Gamer 420","steam_id":76561198118222083,"connected_time":1278000000000,"state":"active","ping":57},{"user_id":325,"name":"Barack Obama Gaming","steam_id":76561198129242016,"connected_time":1000000000,"state":"spawning","ping":72},{"user_id":199,"name":"Anthid","steam_id":76561198074493797,"connected_time":4533000000000,"state":"active","ping":73},{"user_id":318,"name":"ku4g ttv","steam_id":76561198282967617,"connected_time":126000000000,"state":"active","ping":123},{"user_id":276,"name":"mechanicvirus","steam_id":76561198038161480,"connected_time":1880000000000,"state":"active","ping":70},{"user_id":307,"name":"Arsonist Goose (Luckiest Goose)","steam_id":76561198147441830,"connected_time":793000000000,"state":"active","ping":48},{"user_id":190,"name":"Antzen","steam_id":76561198041343470,"connected_time":4700000000000,"state":"active","ping":54},{"user_id":314,"name":"Johnson, Navin R.","steam_id":76561197961107982,"connected_time":213000000000,"state":"active","ping":117},{"user_id":308,"name":"Stripes","steam_id":76561198200638189,"connected_time":699000000000,"state":"active","ping":231},{"user_id":317,"name":"„ÄêCrime„Äë","steam_id":76561198319631200,"connected_time":144000000000,"state":"active","ping":57},{"user_id":247,"name":"Shredded Dobby","steam_id":76561198097475709,"connected_time":2448000000000,"state":"active","ping":61},{"user_id":277,"name":"Moshi Man","steam_id":76561198038249762,"connected_time":1860000000000,"state":"active","ping":108},{"user_id":319,"name":"IntravenusDeMilo","steam_id":76561197970629020,"connected_time":126000000000,"state":"active","ping":67},{"user_id":305,"name":"Joking Janitor","steam_id":76561199082274065,"connected_time":881000000000,"state":"active","ping":54},{"user_id":320,"name":"dubba (‚Ä¢ÃÄ_‚Ä¢ÃÅ )","steam_id":76561199428471192,"connected_time":115000000000,"state":"active","ping":87},{"user_id":322,"name":"Jarryl97","steam_id":76561198055451373,"connected_time":106000000000,"state":"active","ping":110}]},{"server_id":19,"name":"Uncletopia | San Francisco | 3 | Stopwatch Beta","name_short":"sfo-3","host":"sfo-1.us.uncletopia.com","port":27035,"enabled":true,"region":"us-west","cc":"us","latitude":37.77397,"longitude":-122.4313,"reserved":0,"last_update":"0001-01-01T00:00:00Z","name_a2s":"Uncletopia | San Francisco | 3 | Stopwatch Beta","protocol":17,"map":"pl_borneo","folder":"tf","game":"Team Fortress","app_id":440,"player_count":0,"max_players":24,"Bots":0,"server_type":"Dedicated","server_os":"Linux","password":true,"vac":true,"version":"7757534","steam_id":85568392924742824,"keywords":["nocrits","nodmgspread","payload","uncletopia"],"game_id":440,"stv_port":27036,"stv_name":"Uncletopia | San Francisco | 3 | Stopwatch Beta | STV","players":null},{"server_id":20,"name":"Uncletopia | San Francisco | 4 | Community","name_short":"sfo-4","host":"sfo-1.us.uncletopia.com","port":27045,"enabled":true,"region":"us-west","cc":"us","latitude":37.77397,"longitude":-122.4313,"reserved":0,"last_update":"0001-01-01T00:00:00Z","name_a2s":"Uncletopia | San Francisco | 4 | Community","protocol":17,"map":"koth_highpass","folder":"tf","game":"Team Fortress","app_id":440,"player_count":0,"max_players":24,"Bots":0,"server_type":"Dedicated","server_os":"Linux","password":true,"vac":true,"version":"7757534","steam_id":85568392924742826,"keywords":["cp","nocrits","nodmgspread","uncletopia"],"game_id":440,"stv_port":27046,"stv_name":"Uncletopia | San Francisco | 4 | Community | STV","players":null},{"server_id":141,"name":"Uncletopia | Sydney | 1 | All Maps","name_short":"syd-1","host":"syd-1.au.uncletopia.com","port":27015,"enabled":true,"region":"au","cc":"au","latitude":-33.865143,"longitude":151.2099,"reserved":0,"last_update":"0001-01-01T00:00:00Z","name_a2s":"Uncletopia | Sydney | 1 | All Maps","protocol":17,"map":"pl_pier","folder":"tf","game":"Team Fortress","app_id":440,"player_count":18,"max_players":24,"Bots":0,"server_type":"Dedicated","server_os":"Linux","password":true,"vac":true,"version":"7757534","steam_id":85568392924470001,"keywords":["nocrits","nodmgspread","payload","uncletopia"],"game_id":440,"stv_port":27016,"stv_name":"Uncletopia | Sydney | 1 | All Maps | STV","players":[{"user_id":299,"name":"Bamooxa","steam_id":76561198067160709,"connected_time":1293000000000,"state":"active","ping":86},{"user_id":308,"name":"‚ÇÆ…Ü‚Ç¥‚ÇÆ≈Ç‚Çµ…Ñ‚±†√ò‚±§…Ñ‚Ç•","steam_id":76561199349964541,"connected_time":344000000000,"state":"active","ping":92},{"user_id":311,"name":"Meme_Man","steam_id":76561198148195559,"connected_time":122000000000,"state":"active","ping":69},{"user_id":309,"name":"bleacj","steam_id":76561198854614195,"connected_time":300000000000,"state":"active","ping":91},{"user_id":310,"name":"L'Baguette","steam_id":76561199208625933,"connected_time":204000000000,"state":"active","ping":69},{"user_id":312,"name":"Star Butterfly","steam_id":76561198329099977,"connected_time":99000000000,"state":"active","ping":59},{"user_id":274,"name":"Oysenberry","steam_id":76561198125443335,"connected_time":2768000000000,"state":"active","ping":31},{"user_id":306,"name":"Balsamic Vinegar","steam_id":76561198260148888,"connected_time":634000000000,"state":"active","ping":67},{"user_id":307,"name":"the only eat","steam_id":76561198310550094,"connected_time":548000000000,"state":"active","ping":53},{"user_id":258,"name":"Dr Barry Mundy PhD","steam_id":76561198034512686,"connected_time":3770000000000,"state":"active","ping":69},{"user_id":296,"name":"loid forgor","steam_id":76561198811532659,"connected_time":1586000000000,"state":"active","ping":169},{"user_id":301,"name":"sombro","steam_id":76561198165559675,"connected_time":1263000000000,"state":"active","ping":64},{"user_id":187,"name":"Tricka ‚Ä¢","steam_id":76561197968440123,"connected_time":8378000000000,"state":"active","ping":45},{"user_id":276,"name":"dude man","steam_id":76561198133490050,"connected_time":2734000000000,"state":"active","ping":112},{"user_id":305,"name":"soupy","steam_id":76561198073734936,"connected_time":944000000000,"state":"active","ping":85},{"user_id":297,"name":"Lincoln2603","steam_id":76561198170236666,"connected_time":1323000000000,"state":"active","ping":45},{"user_id":291,"name":"zzzzzzz","steam_id":76561198066726621,"connected_time":1905000000000,"state":"active","ping":45},{"user_id":304,"name":"Blazey ‰ºäÈÅî ÊîøÂÆó","steam_id":76561197971082275,"connected_time":979000000000,"state":"active","ping":114}]},{"server_id":123,"name":"Uncletopia | Sydney | 2 | All Maps","name_short":"syd-2","host":"syd-1.au.uncletopia.com","port":27025,"enabled":true,"region":"au","cc":"au","latitude":-33.865143,"longitude":151.2099,"reserved":0,"last_update":"0001-01-01T00:00:00Z","name_a2s":"Uncletopia | Sydney | 2 | All Maps","protocol":17,"map":"pl_snowycoast","folder":"tf","game":"Team Fortress","app_id":440,"player_count":7,"max_players":24,"Bots":0,"server_type":"Dedicated","server_os":"Linux","password":true,"vac":true,"version":"7757534","steam_id":85568392924470002,"keywords":["nocrits","nodmgspread","payload","uncletopia"],"game_id":440,"stv_port":27026,"stv_name":"Uncletopia | Sydney | 2 | All Maps | STV","players":[{"user_id":103,"name":"Lord Oink","steam_id":76561198125237921,"connected_time":4725000000000,"state":"active","ping":43},{"user_id":128,"name":"Glockenspe (She/Her)","steam_id":76561199184115241,"connected_time":952000000000,"state":"active","ping":51},{"user_id":126,"name":"Winky","steam_id":76561199059450243,"connected_time":1408000000000,"state":"active","ping":52},{"user_id":131,"name":"SpEnZeR","steam_id":76561199470854321,"connected_time":419000000000,"state":"active","ping":77},{"user_id":133,"name":"Mr.Deathclaw","steam_id":76561198025419320,"connected_time":403000000000,"state":"active","ping":42},{"user_id":134,"name":"Dad","steam_id":76561198190255859,"connected_time":342000000000,"state":"active","ping":56},{"user_id":123,"name":"ChairMonster26","steam_id":76561198959787682,"connected_time":2173000000000,"state":"active","ping":66}]},{"server_id":395,"name":"Uncletopia | Sydney | 3 | All Maps","name_short":"syd-3","host":"syd-1.au.uncletopia.com","port":27035,"enabled":true,"region":"au","cc":"au","latitude":-33.865143,"longitude":151.2099,"reserved":0,"last_update":"0001-01-01T00:00:00Z","name_a2s":"Uncletopia | Sydney | 3 | All Maps","protocol":17,"map":"koth_lakeside_final","folder":"tf","game":"Team Fortress","app_id":440,"player_count":0,"max_players":24,"Bots":0,"server_type":"Dedicated","server_os":"Linux","password":true,"vac":true,"version":"7757534","steam_id":85568392925194467,"keywords":["cp","nocrits","nodmgspread","uncletopia"],"game_id":440,"stv_port":27036,"stv_name":"Uncletopia | Sydney | 3 | All Maps | STV","players":null},{"server_id":396,"name":"Uncletopia | Sydney | 4 | All Maps","name_short":"syd-4","host":"syd-1.au.uncletopia.com","port":27045,"enabled":true,"region":"au","cc":"au","latitude":-33.865143,"longitude":151.2099,"reserved":0,"last_update":"0001-01-01T00:00:00Z","name_a2s":"Uncletopia | Sydney | 4 | All Maps","protocol":17,"map":"koth_lakeside_final","folder":"tf","game":"Team Fortress","app_id":440,"player_count":0,"max_players":24,"Bots":0,"server_type":"Dedicated","server_os":"Linux","password":true,"vac":true,"version":"7757534","steam_id":85568392925397958,"keywords":["cp","nocrits","nodmgspread","uncletopia"],"game_id":440,"stv_port":27046,"stv_name":"Uncletopia | Sydney | 4 | All Maps | STV","players":null},{"server_id":58,"name":"Uncletopia | Sydney | 5 | Stopwatch Beta","name_short":"syd-5","host":"syd-1.au.uncletopia.com","port":27055,"enabled":true,"region":"au","cc":"au","latitude":-33.865143,"longitude":151.2099,"reserved":0,"last_update":"0001-01-01T00:00:00Z","name_a2s":"Uncletopia | Sydney | 5 | Stopwatch Beta","protocol":17,"map":"koth_highpass","folder":"tf","game":"Team Fortress","app_id":440,"player_count":0,"max_players":24,"Bots":0,"server_type":"Dedicated","server_os":"Linux","password":true,"vac":true,"version":"7757534","steam_id":85568392925397959,"keywords":["cp","nocrits","nodmgspread","uncletopia"],"game_id":440,"stv_port":27056,"stv_name":"Uncletopia | Sydney | 5 | Stopwatch Beta | STV","players":null},{"server_id":59,"name":"Uncletopia | Sydney | 6 | Community","name_short":"syd-6","host":"syd-1.au.uncletopia.com","port":27065,"enabled":true,"region":"au","cc":"au","latitude":-33.865143,"longitude":151.2099,"reserved":0,"last_update":"0001-01-01T00:00:00Z","name_a2s":"Uncletopia | Sydney | 6 | Community","protocol":17,"map":"workshop/rd_asteroid_redux_b1.ugc2154902912","folder":"tf","game":"Team Fortress","app_id":440,"player_count":0,"max_players":24,"Bots":0,"server_type":"Dedicated","server_os":"Linux","password":true,"vac":true,"version":"7757534","steam_id":85568392925397960,"keywords":["beta","nocrits","nodmgspread","rd","uncletopia"],"game_id":440,"stv_port":27066,"stv_name":"Uncletopia | Sydney | 6 | Community | STV","players":null},{"server_id":49,"name":"Uncletopia | Warsaw | 1 | All Maps","name_short":"waw-1","host":"waw-1.pl.uncletopia.com","port":27015,"enabled":true,"region":"eu","cc":"pl","latitude":52.2297,"longitude":21.017532,"reserved":0,"last_update":"0001-01-01T00:00:00Z","name_a2s":"","protocol":0,"map":"","folder":"","game":"","app_id":0,"player_count":0,"max_players":0,"Bots":0,"server_type":"","server_os":"","password":false,"vac":false,"version":"","steam_id":0,"keywords":null,"game_id":0,"stv_port":0,"stv_name":"","players":null},{"server_id":50,"name":"Uncletopia | Warsaw | 2 | All Maps","name_short":"waw-2","host":"waw-1.pl.uncletopia.com","port":27025,"enabled":true,"region":"eu","cc":"pl","latitude":52.2297,"longitude":21.017532,"reserved":0,"last_update":"0001-01-01T00:00:00Z","name_a2s":"Uncletopia | Warsaw | 2 | All Maps","protocol":17,"map":"cp_process_final","folder":"tf","game":"Team Fortress","app_id":440,"player_count":0,"max_players":24,"Bots":0,"server_type":"Dedicated","server_os":"Linux","password":true,"vac":true,"version":"7757534","steam_id":85568392925397851,"keywords":["cp","nocrits","nodmgspread","uncletopia"],"game_id":440,"stv_port":27026,"stv_name":"Uncletopia | Warsaw | 2 | All Maps | STV","players":null},{"server_id":51,"name":"Uncletopia | Warsaw | 3 | All Maps","name_short":"waw-3","host":"waw-1.pl.uncletopia.com","port":27035,"enabled":true,"region":"eu","cc":"pl","latitude":52.2297,"longitude":21.017532,"reserved":0,"last_update":"0001-01-01T00:00:00Z","name_a2s":"Uncletopia | Warsaw | 3 | All Maps","protocol":17,"map":"pl_barnblitz","folder":"tf","game":"Team Fortress","app_id":440,"player_count":0,"max_players":24,"Bots":0,"server_type":"Dedicated","server_os":"Linux","password":true,"vac":true,"version":"7757534","steam_id":85568392925397852,"keywords":["nocrits","nodmgspread","payload","uncletopia"],"game_id":440,"stv_port":27036,"stv_name":"Uncletopia | Warsaw | 3 | All Maps | STV","players":null},{"server_id":52,"name":"Uncletopia | Warsaw | 4 | All Maps","name_short":"waw-4","host":"waw-1.pl.uncletopia.com","port":27045,"enabled":true,"region":"eu","cc":"pl","latitude":52.2297,"longitude":21.017532,"reserved":0,"last_update":"0001-01-01T00:00:00Z","name_a2s":"Uncletopia | Warsaw | 4 | All Maps","protocol":17,"map":"pl_snowycoast","folder":"tf","game":"Team Fortress","app_id":440,"player_count":0,"max_players":24,"Bots":0,"server_type":"Dedicated","server_os":"Linux","password":true,"vac":true,"version":"7757534","steam_id":85568392925397853,"keywords":["nocrits","nodmgspread","payload","uncletopia"],"game_id":440,"stv_port":27046,"stv_name":"Uncletopia | Warsaw | 4 | All Maps | STV","players":null},{"server_id":53,"name":"Uncletopia | Warsaw | 5 | Stopwatch Beta","name_short":"waw-5","host":"waw-1.pl.uncletopia.com","port":27055,"enabled":true,"region":"eu","cc":"pl","latitude":52.2297,"longitude":21.017532,"reserved":0,"last_update":"0001-01-01T00:00:00Z","name_a2s":"Uncletopia | Warsaw | 5 | Stopwatch Beta","protocol":17,"map":"pl_barnblitz","folder":"tf","game":"Team Fortress","app_id":440,"player_count":0,"max_players":24,"Bots":0,"server_type":"Dedicated","server_os":"Linux","password":true,"vac":true,"version":"7757534","steam_id":85568392925397854,"keywords":["nocrits","nodmgspread","payload","uncletopia"],"game_id":440,"stv_port":27056,"stv_name":"Uncletopia | Warsaw | 5 | Stopwatch Beta | STV","players":null},{"server_id":54,"name":"Uncletopia | Warsaw | 6 | Community","name_short":"waw-6","host":"waw-1.pl.uncletopia.com","port":27065,"enabled":true,"region":"eu","cc":"pl","latitude":52.2297,"longitude":21.017532,"reserved":0,"last_update":"0001-01-01T00:00:00Z","name_a2s":"Uncletopia | Warsaw | 6 | Community","protocol":17,"map":"pl_swiftwater_final1","folder":"tf","game":"Team Fortress","app_id":440,"player_count":0,"max_players":24,"Bots":0,"server_type":"Dedicated","server_os":"Linux","password":true,"vac":true,"version":"7757534","steam_id":85568392925397856,"keywords":["nocrits","nodmgspread","payload","uncletopia"],"game_id":440,"stv_port":27066,"stv_name":"Uncletopia | Warsaw | 6 | Community | STV","players":null}]}