{"status":true,"message":"","result":[{"server_id":9,"name":"Uncletopia | Atlanta | 1 | All Maps","name_short":"atl-1","host":"atl-1.us.uncletopia.com","port":27015,"enabled":true,"region":"us-east","cc":"us","latitude":33.753746,"longitude":-84.38633,"reserved":0,"last_update":"0001-01-01T00:00:00Z","name_a2s":"Uncletopia | Atlanta | 1 | All Maps","protocol":17,"map":"ctf_doublecross","folder":"tf","game":"Team Fortress","app_id":440,"player_count":21,"max_players":24,"Bots":0,"server_type":"Dedicated","server_os":"Linux","password":true,"vac":true,"version":"7961495","steam_id":85568392924469982,"keywords":["ctf","nocrits","nodmgspread","uncletopia"],"game_id":440,"stv_port":27016,"stv_name":"Uncletopia | Atlanta | 1 | All Maps | STV","players":[{"user_id":621,"name":"SpiderString (She/She++)","steam_id":76561198092409181,"connected_time":110000000000,"state":"active","ping":96},{"user_id":615,"name":"chexo4","steam_id":76561198150532531,"connected_time":961000000000,"state":"active","ping":48},{"user_id":620,"name":"rexelfhcir","steam_id":76561199018207049,"connected_time":211000000000,"state":"active","ping":92},{"user_id":622,"name":"Katto","steam_id":76561197976002174,"connected_time":70000000000,"state":"active","ping":60},{"user_id":585,"name":"Squanchy","steam_id":76561198036319676,"connected_time":3489000000000,"state":"active","ping":40},{"user_id":599,"name":"AKK0","steam_id":76561199063194145,"connected_time":2815000000000,"state":"active","ping":81},{"user_id":536,"name":"Tommy Provolone","steam_id":76561198170062377,"connected_time":6884000000000,"state":"active","ping":88},{"user_id":619,"name":"S-pin","steam_id":76561198195599518,"connected_time":325000000000,"state":"active","ping":78},{"user_id":611,"name":"the voices are winning","steam_id":76561199007483227,"connected_time":1371000000000,"state":"active","ping":86},{"user_id":604,"name":"Hallowedspoon","steam_id":76561199141350399,"connected_time":2206000000000,"state":"active","ping":89},{"user_id":589,"name":"IZISOO","steam_id":76561198970380577,"connected_time":3344000000000,"state":"active","ping":79},{"user_id":623,"name":"Orn Free taa","steam_id":76561198128077944,"connected_time":66000000000,"state":"active","ping":68},{"user_id":602,"name":"menonamed","steam_id":76561198199564382,"connected_time":2362000000000,"state":"active","ping":69},{"user_id":600,"name":"Notsocreative","steam_id":76561198236372202,"connected_time":2666000000000,"state":"active","ping":70},{"user_id":624,"name":"iceetee","steam_id":76561198156275931,"connected_time":27000000000,"state":"active","ping":84},{"user_id":593,"name":"HAT-WEARING‚Ñ¢ Maggot Gamer Cat","steam_id":76561197973992705,"connected_time":3212000000000,"state":"active","ping":116},{"user_id":601,"name":"Spiceitwithred","steam_id":76561198313150295,"connected_time":2595000000000,"state":"active","ping":121},{"user_id":625,"name":"The Lunar Barista","steam_id":76561198180602091,"connected_time":20000000000,"state":"active","ping":46},{"user_id":613,"name":"Coffee Instant Type 2","steam_id":76561198307845869,"connected_time":1127000000000,"state":"active","ping":78},{"user_id":576,"name":"LaChancla","steam_id":76561198971528917,"connected_time":4573000000000,"state":"active","ping":75},{"user_id":616,"name":"GTFU","steam_id":76561198397009880,"connected_time":947000000000,"state":"active","ping":44}]},{"server_id":104,"name":"Uncletopia | Atlanta | 2 | All Maps","name_short":"atl-2","host":"atl-1.us.uncletopia.com","port":27025,"enabled":true,"region":"us-east","cc":"us","latitude":33.753746,"longitude":-84.38633,"reserved":0,"last_update":"0001-01-01T00:00:00Z","name_a2s":"Uncletopia | Atlanta | 2 | All Maps","protocol":17,"map":"cp_mountainlab","folder":"tf","game":"Team Fortress","app_id":440,"player_count":24,"max_players":24,"Bots":0,"server_type":"Dedicated","server_os":"Linux","password":true,"vac":true,"version":"7961495","steam_id":85568392924469983,"keywords":["cp","nocrits","nodmgspread","uncletopia"],"game_id":440,"stv_port":27026,"stv_name":"Uncletopia | Atlanta | 2 | All Maps | STV","players":[{"user_id":428,"name":"Lincs","steam_id":76561198049851872,"connected_time":3560000000000,"state":"active","ping":70},{"user_id":475,"name":"Spazmatic Dingus","steam_id":76561198117514263,"connected_time":650000000000,"state":"active","ping":99},{"user_id":476,"name":"Count Ejacula","steam_id":76561198058400387,"connected_time":634000000000,"state":"active","ping":111},{"user_id":453,"name":"Rare High Moments","steam_id":76561198053465042,"connected_time":1893000000000,"state":"active","ping":72},{"user_id":451,"name":"Smooth, Refreshing Bleach‚Ñ¢","steam_id":76561197981060504,"connected_time":2036000000000,"state":"active","ping":63},{"user_id":400,"name":"G4Vi","steam_id":76561197998117895,"connected_time":7245000000000,"state":"active","ping":69},{"user_id":477,"name":"BitPieStudios","steam_id":76561198059216393,"connected_time":545000000000,"state":"active","ping":97},{"user_id":478,"name":"El Gato Paranoico","steam_id":76561198116567116,"connected_time":473000000000,"state":"active","ping":85},{"user_id":479,"name":"Mithrildo","steam_id":76561198000564263,"connected_time":303000000000,"state":"active","ping":58},{"user_id":462,"name":"xavier","steam_id":76561198210294852,"connected_time":1524000000000,"state":"active","ping":54},{"user_id":480,"name":"lanoc","steam_id":76561198055415367,"connected_time":297000000000,"state":"active","ping":45},{"user_id":472,"name":"ƒê√Ø…ê»ê…π…¶…Üa","steam_id":76561198981411945,"connected_time":1105000000000,"state":"active","ping":93},{"user_id":481,"name":"java","steam_id":76561198030276792,"connected_time":286000000000,"state":"active","ping":45},{"user_id":474,"name":"Yoshimelon","steam_id":76561198253054325,"connected_time":705000000000,"state":"active","ping":62},{"user_id":482,"name":"RoyalKaiser RBMK -Mex-","steam_id":76561198886933897,"connected_time":230000000000,"state":"active","ping":122},{"user_id":483,"name":"Drilly22","steam_id":76561198068838338,"connected_time":228000000000,"state":"active","ping":87},{"user_id":439,"name":"Fred Ott","steam_id":76561198099088693,"connected_time":3188000000000,"state":"active","ping":73},{"user_id":466,"name":"Average JoJo Fan","steam_id":76561198863432523,"connected_time":1330000000000,"state":"active","ping":106},{"user_id":471,"name":"Mox Nix","steam_id":76561198978778718,"connected_time":1201000000000,"state":"active","ping":120},{"user_id":484,"name":"Shrebbie","steam_id":76561198875230824,"connected_time":180000000000,"state":"active","ping":93},{"user_id":452,"name":"Bippums","steam_id":76561198366406729,"connected_time":1913000000000,"state":"active","ping":86},{"user_id":485,"name":"sonylea10","steam_id":76561198080723679,"connected_time":162000000000,"state":"active","ping":85},{"user_id":445,"name":"YouR dad","steam_id":76561198044013623,"connected_time":2824000000000,"state":"active","ping":58},{"user_id":486,"name":"Yongle","steam_id":76561198068591156,"connected_time":147000000000,"state":"active","ping":66}]},{"server_id":400,"name":"Uncletopia | Atlanta | 3 | Stopwatch","name_short":"atl-3","host":"atl-1.us.uncletopia.com","port":27035,"enabled":true,"region":"us-east","cc":"us","latitude":33.753746,"longitude":-84.38633,"reserved":0,"last_update":"0001-01-01T00:00:00Z","name_a2s":"Uncletopia | Atlanta | 3 | Stopwatch","protocol":17,"map":"workshop/koth_ramjam_rc1.ugc459778887","folder":"tf","game":"Team Fortress","app_id":440,"player_count":0,"max_players":24,"Bots":0,"server_type":"Dedicated","server_os":"Linux","password":true,"vac":true,"version":"7961495","steam_id":85568392924515187,"keywords":["cp","nocrits","nodmgspread","uncletopia"],"game_id":440,"stv_port":27036,"stv_name":"Uncletopia | Atlanta | 3 | Stopwatch | STV","players":null},{"server_id":401,"name":"Uncletopia | Atlanta | 4 | Community","name_short":"atl-4","host":"atl-1.us.uncletopia.com","port":27045,"enabled":true,"region":"us-east","cc":"us","latitude":33.753746,"longitude":-84.38633,"reserved":0,"last_update":"0001-01-01T00:00:00Z","name_a2s":"Uncletopia | Atlanta | 4 | Community","protocol":17,"map":"workshop/pl_badwater_pro_v12.ugc2142942074","folder":"tf","game":"Team Fortress","app_id":440,"player_count":7,"max_players":24,"Bots":0,"server_type":"Dedicated","server_os":"Linux","password":true,"vac":true,"version":"7961495","steam_id":85568392924515188,"keywords":["nocrits","nodmgspread","payload","uncletopia"],"game_id":440,"stv_port":27046,"stv_name":"Uncletopia | Atlanta | 4 | Community | STV","players":[{"user_id":129,"name":"YAGO","steam_id":76561198982411308,"connected_time":1781000000000,"state":"active","ping":240},{"user_id":133,"name":"Zul1t","steam_id":76561199085942424,"connected_time":1317000000000,"state":"active","ping":87},{"user_id":124,"name":"eloressa","steam_id":76561198120330867,"connected_time":3754000000000,"state":"active","ping":82},{"user_id":125,"name":"H4N-TYUM1","steam_id":76561198069387999,"connected_time":3751000000000,"state":"active","ping":83},{"user_id":134,"name":"lauT-","steam_id":76561199108136447,"connected_time":1230000000000,"state":"active","ping":231},{"user_id":127,"name":"Phenix","steam_id":76561198362616975,"connected_time":3730000000000,"state":"active","ping":69},{"user_id":130,"name":"Santurron777","steam_id":76561199501150984,"connected_time":1689000000000,"state":"active","ping":220}]},{"server_id":2,"name":"Uncletopia | Chicago | 1 | All Maps","name_short":"chi-1","host":"chi-1.us.uncletopia.com","port":27015,"enabled":true,"region":"us-central","cc":"us","latitude":41.881832,"longitude":-87.62318,"reserved":0,"last_update":"0001-01-01T00:00:00Z","name_a2s":"Uncletopia | Chicago | 1 | All Maps","protocol":17,"map":"pl_badwater","folder":"tf","game":"Team Fortress","app_id":440,"player_count":24,"max_players":24,"Bots":0,"server_type":"Dedicated","server_os":"Linux","password":true,"vac":true,"version":"7961495","steam_id":85568392924469984,"keywords":["nocrits","nodmgspread","payload","uncletopia"],"game_id":440,"stv_port":27016,"stv_name":"Uncletopia | Chicago | 1 | All Maps | STV","players":[{"user_id":691,"name":"Oli B\u003eQS/BP/Bulk w/ 1.5k+ keys","steam_id":76561198140316312,"connected_time":1623000000000,"state":"active","ping":55},{"user_id":711,"name":"k8o","steam_id":76561198042481882,"connected_time":513000000000,"state":"active","ping":49},{"user_id":706,"name":"bird enthusiast","steam_id":76561198087661713,"connected_time":1003000000000,"state":"active","ping":60},{"user_id":692,"name":"Femboy Medic Main","steam_id":76561198268225109,"connected_time":1618000000000,"state":"active","ping":69},{"user_id":688,"name":"Spyfall","steam_id":76561198081729993,"connected_time":2159000000000,"state":"active","ping":70},{"user_id":723,"name":"·πΩ‚ßâ Lyndon Johnson","steam_id":76561198000173889,"connected_time":134000000000,"state":"active","ping":60},{"user_id":713,"name":"oppenheimer style","steam_id":76561198026664629,"connected_time":418000000000,"state":"active","ping":48},{"user_id":673,"name":"Seakeal","steam_id":76561198069388472,"connected_time":3604000000000,"state":"active","ping":52},{"user_id":714,"name":"Howard Hamlin","steam_id":76561198881039861,"connected_time":407000000000,"state":"active","ping":48},{"user_id":722,"name":"Milkmur","steam_id":76561198210043821,"connected_time":171000000000,"state":"active","ping":64},{"user_id":716,"name":"The Notorious T.A.F.T.","steam_id":76561198073012352,"connected_time":350000000000,"state":"active","ping":85},{"user_id":717,"name":"YaBoyUlyssesG","steam_id":76561198042482742,"connected_time":339000000000,"state":"active","ping":83},{"user_id":718,"name":"ark","steam_id":76561198041066271,"connected_time":337000000000,"state":"active","ping":77},{"user_id":704,"name":"Oh wow.","steam_id":76561199039754846,"connected_time":1195000000000,"state":"active","ping":118},{"user_id":695,"name":"badboy6996 #TRUMP2024","steam_id":76561197969386201,"connected_time":1575000000000,"state":"active","ping":52},{"user_id":696,"name":"LVL","steam_id":76561198334403617,"connected_time":1570000000000,"state":"active","ping":56},{"user_id":719,"name":"TF2C | fac -AA-","steam_id":76561198009818412,"connected_time":328000000000,"state":"active","ping":72},{"user_id":376,"name":"Rode hard, put away wet","steam_id":76561198062764039,"connected_time":24307000000000,"state":"active","ping":45},{"user_id":697,"name":"Nortel Network Telephone T7316","steam_id":76561198399261089,"connected_time":1545000000000,"state":"active","ping":90},{"user_id":700,"name":"Dokkibai","steam_id":76561198355935693,"connected_time":1484000000000,"state":"active","ping":47},{"user_id":705,"name":"Benji","steam_id":76561198239015880,"connected_time":1045000000000,"state":"active","ping":118},{"user_id":684,"name":"Spy Gaming","steam_id":76561198453295613,"connected_time":2973000000000,"state":"active","ping":110},{"user_id":686,"name":"Praise_to_the_Flashlight!","steam_id":76561199001728789,"connected_time":2664000000000,"state":"active","ping":61},{"user_id":720,"name":"T√ñZI","steam_id":76561198045268695,"connected_time":295000000000,"state":"active","ping":91}]},{"server_id":106,"name":"Uncletopia | Chicago | 2 | All Maps","name_short":"chi-2","host":"chi-1.us.uncletopia.com","port":27025,"enabled":true,"region":"us-central","cc":"us","latitude":41.881832,"longitude":-87.62318,"reserved":0,"last_update":"0001-01-01T00:00:00Z","name_a2s":"Uncletopia | Chicago | 2 | All Maps","protocol":17,"map":"pl_hoodoo_final","folder":"tf","game":"Team Fortress","app_id":440,"player_count":25,"max_players":24,"Bots":0,"server_type":"Dedicated","server_os":"Linux","password":true,"vac":true,"version":"7961495","steam_id":85568392924469985,"keywords":["nocrits","nodmgspread","payload","uncletopia"],"game_id":440,"stv_port":27026,"stv_name":"Uncletopia | Chicago | 2 | All Maps | STV","players":[{"user_id":858,"name":"Larry T.G","steam_id":76561198140157079,"connected_time":1605000000000,"state":"active","ping":65},{"user_id":889,"name":"Zeebop","steam_id":76561198148332988,"connected_time":164000000000,"state":"active","ping":50},{"user_id":885,"name":"8bean","steam_id":76561198239138132,"connected_time":283000000000,"state":"active","ping":60},{"user_id":867,"name":"Chicago Shoplifter","steam_id":76561197986530028,"connected_time":1262000000000,"state":"active","ping":110},{"user_id":861,"name":"Snoman","steam_id":76561197969248675,"connected_time":1420000000000,"state":"active","ping":68},{"user_id":888,"name":"moron","steam_id":76561198979187983,"connected_time":229000000000,"state":"active","ping":117},{"user_id":886,"name":"‚ÜêNumKeys‚Üí","steam_id":76561198047174338,"connected_time":240000000000,"state":"active","ping":60},{"user_id":890,"name":"Rusty Shackleford","steam_id":76561198040225113,"connected_time":115000000000,"state":"active","ping":65},{"user_id":870,"name":"Wheat","steam_id":76561198106270789,"connected_time":1205000000000,"state":"active","ping":58},{"user_id":852,"name":"gaming gerald","steam_id":76561198011707083,"connected_time":2304000000000,"state":"active","ping":56},{"user_id":827,"name":"Amoxicilina","steam_id":76561198168486429,"connected_time":5199000000000,"state":"active","ping":126},{"user_id":891,"name":"Carpet enthusiast","steam_id":76561198024040142,"connected_time":86000000000,"state":"active","ping":94},{"user_id":887,"name":"This game is hard","steam_id":76561199476029852,"connected_time":240000000000,"state":"active","ping":84},{"user_id":797,"name":"anni","steam_id":76561198017686306,"connected_time":6759000000000,"state":"active","ping":153},{"user_id":787,"name":"RusticCarp42989","steam_id":76561198361151865,"connected_time":6919000000000,"state":"active","ping":125},{"user_id":892,"name":"Jose Papacito Piernas Largas Ma","steam_id":76561198040299217,"connected_time":74000000000,"state":"active","ping":284},{"user_id":893,"name":"Tonedeft","steam_id":76561198145220502,"connected_time":61000000000,"state":"active","ping":87},{"user_id":789,"name":"SiltyStar85","steam_id":76561198309175923,"connected_time":6897000000000,"state":"active","ping":77},{"user_id":869,"name":"playguy carter","steam_id":76561198080679337,"connected_time":1239000000000,"state":"active","ping":59},{"user_id":894,"name":"Allan_","steam_id":76561198975597174,"connected_time":48000000000,"state":"spawning","ping":78},{"user_id":791,"name":"exa*‚ú©‚Äß‚ÇäÀö","steam_id":76561198044511912,"connected_time":6888000000000,"state":"active","ping":96},{"user_id":895,"name":"Madrox Who?","steam_id":76561197988859134,"connected_time":45000000000,"state":"active","ping":73},{"user_id":896,"name":"Gardangle","steam_id":76561198394173831,"connected_time":23000000000,"state":"active","ping":108},{"user_id":884,"name":"enhanced with disney's FastPlay","steam_id":76561198164134387,"connected_time":477000000000,"state":"active","ping":107},{"user_id":897,"name":"Mr Struggle","steam_id":76561198320434551,"connected_time":10000000000,"state":"spawning","ping":81}]},{"server_id":402,"name":"Uncletopia | Chicago | 3 | All Maps","name_short":"chi-3","host":"chi-1.us.uncletopia.com","port":27035,"enabled":true,"region":"us-central","cc":"us","latitude":41.881832,"longitude":-87.62318,"reserved":0,"last_update":"0001-01-01T00:00:00Z","name_a2s":"Uncletopia | Chicago | 3 | All Maps","protocol":17,"map":"koth_sawmill","folder":"tf","game":"Team Fortress","app_id":440,"player_count":19,"max_players":24,"Bots":0,"server_type":"Dedicated","server_os":"Linux","password":true,"vac":true,"version":"7961495","steam_id":85568392924515191,"keywords":["cp","nocrits","nodmgspread","uncletopia"],"game_id":440,"stv_port":27036,"stv_name":"Uncletopia | Chicago | 3 | All Maps | STV","players":[{"user_id":617,"name":"wizmage12","steam_id":76561198021054641,"connected_time":1059000000000,"state":"active","ping":167},{"user_id":563,"name":"Rein","steam_id":76561198300340427,"connected_time":4698000000000,"state":"active","ping":59},{"user_id":619,"name":"disco zombi","steam_id":76561198262595909,"connected_time":1007000000000,"state":"active","ping":76},{"user_id":608,"name":"thecal","steam_id":76561198307893384,"connected_time":1754000000000,"state":"active","ping":46},{"user_id":620,"name":"Obama Gaming 2023","steam_id":76561199006905645,"connected_time":962000000000,"state":"active","ping":94},{"user_id":588,"name":"Mr. Luggy","steam_id":76561198072723392,"connected_time":4091000000000,"state":"active","ping":90},{"user_id":628,"name":"Garbo","steam_id":76561198192120869,"connected_time":104000000000,"state":"active","ping":54},{"user_id":609,"name":"Dad","steam_id":76561198009425458,"connected_time":1748000000000,"state":"active","ping":87},{"user_id":629,"name":"Dave","steam_id":76561198295272309,"connected_time":82000000000,"state":"active","ping":141},{"user_id":573,"name":"Forevershooting","steam_id":76561198124213574,"connected_time":4528000000000,"state":"active","ping":57},{"user_id":630,"name":"feeter griffin","steam_id":76561198326367459,"connected_time":40000000000,"state":"active","ping":289},{"user_id":613,"name":"skrill issue","steam_id":76561198104086771,"connected_time":1698000000000,"state":"active","ping":93},{"user_id":610,"name":"yesoko","steam_id":76561198072917024,"connected_time":1744000000000,"state":"active","ping":55},{"user_id":557,"name":"Vaudeville Villain","steam_id":76561199212093339,"connected_time":5891000000000,"state":"active","ping":68},{"user_id":626,"name":"Ghost \"With the Most\" Toastee","steam_id":76561198085410969,"connected_time":452000000000,"state":"active","ping":41},{"user_id":623,"name":"Remixer","steam_id":76561198014220611,"connected_time":845000000000,"state":"active","ping":84},{"user_id":615,"name":"gyat","steam_id":76561198043684960,"connected_time":1140000000000,"state":"active","ping":73},{"user_id":625,"name":"Dece1ve_","steam_id":76561198179566378,"connected_time":745000000000,"state":"active","ping":57},{"user_id":612,"name":"Peepster","steam_id":76561198297854733,"connected_time":1734000000000,"state":"active","ping":65}]},{"server_id":403,"name":"Uncletopia | Chicago | 4 | All Maps","name_short":"chi-4","host":"chi-1.us.uncletopia.com","port":27045,"enabled":true,"region":"us-central","cc":"us","latitude":41.881832,"longitude":-87.62318,"reserved":0,"last_update":"0001-01-01T00:00:00Z","name_a2s":"Uncletopia | Chicago | 4 | All Maps","protocol":17,"map":"pl_badwater","folder":"tf","game":"Team Fortress","app_id":440,"player_count":3,"max_players":24,"Bots":0,"server_type":"Dedicated","server_os":"Linux","password":true,"vac":true,"version":"7961495","steam_id":85568392924515193,"keywords":["nocrits","nodmgspread","payload","uncletopia"],"game_id":440,"stv_port":27046,"stv_name":"Uncletopia | Chicago | 4 | All Maps | STV","players":[{"user_id":454,"name":"lowtierspecs","steam_id":76561198206051051,"connected_time":1839000000000,"state":"active","ping":44},{"user_id":464,"name":"username_id","steam_id":76561198103759716,"connected_time":506000000000,"state":"active","ping":59},{"user_id":317,"name":"Six Piece Chicken McNobody","steam_id":76561198129848222,"connected_time":12186000000000,"state":"active","ping":62}]},{"server_id":36,"name":"Uncletopia | Chicago | 5 | All Maps","name_short":"chi-5","host":"chi-2.us.uncletopia.com","port":27015,"enabled":true,"region":"us-central","cc":"us","latitude":41.881832,"longitude":-87.62318,"reserved":0,"last_update":"0001-01-01T00:00:00Z","name_a2s":"Uncletopia | Chicago | 5 | All Maps","protocol":17,"map":"pl_swiftwater_final1","folder":"tf","game":"Team Fortress","app_id":440,"player_count":18,"max_players":24,"Bots":0,"server_type":"Dedicated","server_os":"Linux","password":true,"vac":true,"version":"7961495","steam_id":85568392924866362,"keywords":["nocrits","nodmgspread","payload","uncletopia"],"game_id":440,"stv_port":27016,"stv_name":"Uncletopia | Chicago | 5 | All Maps | STV","players":[{"user_id":516,"name":"Joebobio","steam_id":76561198024442760,"connected_time":15000000000,"state":"active","ping":59},{"user_id":504,"name":"God's Yoinkiest Sploinker","steam_id":76561198131631865,"connected_time":1417000000000,"state":"active","ping":70},{"user_id":418,"name":"deljoe13","steam_id":76561198091686996,"connected_time":7138000000000,"state":"active","ping":81},{"user_id":514,"name":"slep.py","steam_id":76561197988287144,"connected_time":360000000000,"state":"active","ping":44},{"user_id":417,"name":"Brawns","steam_id":76561198045190199,"connected_time":7171000000000,"state":"active","ping":76},{"user_id":505,"name":"bad spy player","steam_id":76561198873699671,"connected_time":1413000000000,"state":"active","ping":101},{"user_id":495,"name":"RealStanzy","steam_id":76561199060261003,"connected_time":2502000000000,"state":"active","ping":85},{"user_id":459,"name":"kim wexler","steam_id":76561199199795741,"connected_time":4464000000000,"state":"active","ping":68},{"user_id":515,"name":"Person","steam_id":76561198093244204,"connected_time":352000000000,"state":"active","ping":75},{"user_id":478,"name":"c64guy","steam_id":76561198023022744,"connected_time":3076000000000,"state":"active","ping":59},{"user_id":506,"name":"krarv","steam_id":76561199037042318,"connected_time":1408000000000,"state":"active","ping":96},{"user_id":512,"name":"onion","steam_id":76561198242311084,"connected_time":907000000000,"state":"active","ping":57},{"user_id":500,"name":"Hurb","steam_id":76561198746677086,"connected_time":1925000000000,"state":"active","ping":70},{"user_id":509,"name":"Car Insurance","steam_id":76561198379549507,"connected_time":1355000000000,"state":"active","ping":115},{"user_id":438,"name":"Manny Heffley","steam_id":76561198135137213,"connected_time":6319000000000,"state":"active","ping":57},{"user_id":503,"name":"meow","steam_id":76561198046948758,"connected_time":1755000000000,"state":"active","ping":60},{"user_id":465,"name":"A_Malebolgia","steam_id":76561198097722818,"connected_time":4136000000000,"state":"active","ping":103},{"user_id":510,"name":"lytewerk","steam_id":76561198002819791,"connected_time":1007000000000,"state":"active","ping":75}]},{"server_id":37,"name":"Uncletopia | Chicago | 6 | All Maps","name_short":"chi-6","host":"chi-2.us.uncletopia.com","port":27025,"enabled":true,"region":"us-central","cc":"us","latitude":41.881832,"longitude":-87.62318,"reserved":0,"last_update":"0001-01-01T00:00:00Z","name_a2s":"Uncletopia | Chicago | 6 | All Maps","protocol":17,"map":"koth_suijin","folder":"tf","game":"Team Fortress","app_id":440,"player_count":15,"max_players":24,"Bots":0,"server_type":"Dedicated","server_os":"Linux","password":true,"vac":true,"version":"7961495","steam_id":85568392924866363,"keywords":["cp","nocrits","nodmgspread","uncletopia"],"game_id":440,"stv_port":27026,"stv_name":"Uncletopia | Chicago | 6 | All Maps | STV","players":[{"user_id":382,"name":"Azure","steam_id":76561198260328183,"connected_time":78000000000,"state":"active","ping":61},{"user_id":339,"name":"Zelumie","steam_id":76561198147335801,"connected_time":5380000000000,"state":"active","ping":57},{"user_id":365,"name":"whitr","steam_id":76561198043981478,"connected_time":3235000000000,"state":"active","ping":100},{"user_id":381,"name":"H0ovy","steam_id":76561198996230924,"connected_time":81000000000,"state":"active","ping":55},{"user_id":385,"name":"Mint Jelly","steam_id":76561197991286751,"connected_time":55000000000,"state":"active","ping":43},{"user_id":357,"name":"GreekGoat_Coffee","steam_id":76561198129331088,"connected_time":3418000000000,"state":"active","ping":38},{"user_id":350,"name":"cirno","steam_id":76561198166081596,"connected_time":3998000000000,"state":"active","ping":90},{"user_id":311,"name":"Arhkma_MuddyKipz","steam_id":76561198027180678,"connected_time":6507000000000,"state":"active","ping":86},{"user_id":384,"name":"123","steam_id":76561198040375911,"connected_time":67000000000,"state":"active","ping":62},{"user_id":369,"name":"shoobs","steam_id":76561198042507255,"connected_time":2423000000000,"state":"active","ping":84},{"user_id":362,"name":"Lois I'm hardstuck iron","steam_id":76561198113364714,"connected_time":3286000000000,"state":"active","ping":70},{"user_id":315,"name":"Mercy!Avatar","steam_id":76561199113870006,"connected_time":6366000000000,"state":"active","ping":58},{"user_id":363,"name":"Hey Lois I'm Malding","steam_id":76561198043256782,"connected_time":3266000000000,"state":"active","ping":75},{"user_id":343,"name":"Muselk","steam_id":76561199289676387,"connected_time":5190000000000,"state":"active","ping":87},{"user_id":370,"name":"76561198213435803","steam_id":76561198213435803,"connected_time":2414000000000,"state":"active","ping":53}]},{"server_id":38,"name":"Uncletopia | Chicago | 7 | Stopwatch","name_short":"chi-7","host":"chi-2.us.uncletopia.com","port":27035,"enabled":true,"region":"us-central","cc":"us","latitude":41.881832,"longitude":-87.62318,"reserved":0,"last_update":"0001-01-01T00:00:00Z","name_a2s":"Uncletopia | Chicago | 7 | Stopwatch","protocol":17,"map":"cp_granary","folder":"tf","game":"Team Fortress","app_id":440,"player_count":0,"max_players":24,"Bots":0,"server_type":"Dedicated","server_os":"Linux","password":true,"vac":true,"version":"7961495","steam_id":85568392924866364,"keywords":["cp","nocrits","nodmgspread","uncletopia"],"game_id":440,"stv_port":27036,"stv_name":"Uncletopia | Chicago | 7 | Stopwatch | STV","players":null},{"server_id":39,"name":"Uncletopia | Chicago | 8 | Community","name_short":"chi-8","host":"chi-2.us.uncletopia.com","port":27045,"enabled":true,"region":"us-central","cc":"us","latitude":41.881832,"longitude":-87.62318,"reserved":0,"last_update":"0001-01-01T00:00:00Z","name_a2s":"Uncletopia | Chicago | 8 | Community","protocol":17,"map":"workshop/pl_vigil_rc10.ugc1266210012","folder":"tf","game":"Team Fortress","app_id":440,"player_count":0,"max_players":24,"Bots":0,"server_type":"Dedicated","server_os":"Linux","password":true,"vac":true,"version":"7961495","steam_id":85568392924866365,"keywords":["nocrits","nodmgspread","payload","uncletopia"],"game_id":440,"stv_port":27046,"stv_name":"Uncletopia | Chicago | 8 | Community | STV","players":null},{"server_id":8,"name":"Uncletopia | Dallas | 1 | All Maps","name_short":"dal-1","host":"dal-1.us.uncletopia.com","port":27015,"enabled":true,"region":"us-central","cc":"us","latitude":32.779167,"longitude":-96.80889,"reserved":0,"last_update":"0001-01-01T00:00:00Z","name_a2s":"Uncletopia | Dallas | 1 | All Maps","protocol":17,"map":"pl_pier","folder":"tf","game":"Team Fortress","app_id":440,"player_count":24,"max_players":24,"Bots":0,"server_type":"Dedicated","server_os":"Linux","password":true,"vac":true,"version":"7961495","steam_id":85568392924469986,"keywords":["nocrits","nodmgspread","payload","uncletopia"],"game_id":440,"stv_port":27016,"stv_name":"Uncletopia | Dallas | 1 | All Maps | STV","players":[{"user_id":434,"name":"Ricky Dicky Doo Dah Grimes","steam_id":76561198143221900,"connected_time":954000000000,"state":"active","ping":82},{"user_id":424,"name":"Blue Eyes Ace Dragon.","steam_id":76561198048214237,"connected_time":2384000000000,"state":"active","ping":76},{"user_id":401,"name":"laboriouslobster36","steam_id":76561198871003321,"connected_time":5266000000000,"state":"active","ping":47},{"user_id":328,"name":"Cat in a fedora","steam_id":76561198187502875,"connected_time":11449000000000,"state":"active","ping":69},{"user_id":367,"name":"Silverstar","steam_id":76561198399525329,"connected_time":7399000000000,"state":"active","ping":106},{"user_id":411,"name":"bog003","steam_id":76561197987243470,"connected_time":4193000000000,"state":"active","ping":75},{"user_id":427,"name":"Big Manny","steam_id":76561198999284997,"connected_time":1990000000000,"state":"active","ping":97},{"user_id":369,"name":"The Winter Medic","steam_id":76561198197112922,"connected_time":7375000000000,"state":"active","ping":96},{"user_id":409,"name":"muck","steam_id":76561198120437909,"connected_time":4205000000000,"state":"active","ping":44},{"user_id":402,"name":"Woody","steam_id":76561198020308956,"connected_time":5263000000000,"state":"active","ping":60},{"user_id":429,"name":"himbo destroyer","steam_id":76561198268006443,"connected_time":1913000000000,"state":"active","ping":97},{"user_id":413,"name":"CeLeb144","steam_id":76561199089907740,"connected_time":4152000000000,"state":"active","ping":67},{"user_id":432,"name":"FanaticSalt","steam_id":76561199380123059,"connected_time":1174000000000,"state":"active","ping":45},{"user_id":418,"name":"+","steam_id":76561198262422184,"connected_time":3176000000000,"state":"active","ping":53},{"user_id":435,"name":"Greg Boberton 2012","steam_id":76561198983566026,"connected_time":664000000000,"state":"active","ping":85},{"user_id":407,"name":"kopatta","steam_id":76561198064773037,"connected_time":4849000000000,"state":"active","ping":39},{"user_id":410,"name":"ZombieSlayer77","steam_id":76561199023974356,"connected_time":4196000000000,"state":"active","ping":85},{"user_id":419,"name":"oyasumi","steam_id":76561198128614882,"connected_time":3106000000000,"state":"active","ping":84},{"user_id":430,"name":"FunTard","steam_id":76561199102758190,"connected_time":1876000000000,"state":"active","ping":142},{"user_id":374,"name":"skegeton","steam_id":76561198095581099,"connected_time":7258000000000,"state":"active","ping":62},{"user_id":420,"name":"Caught a Thundah","steam_id":76561198054495572,"connected_time":3045000000000,"state":"active","ping":56},{"user_id":415,"name":"FRANKY!!!","steam_id":76561199211305343,"connected_time":4144000000000,"state":"active","ping":93},{"user_id":423,"name":"Lain","steam_id":76561198029303534,"connected_time":2567000000000,"state":"active","ping":68},{"user_id":433,"name":"moe","steam_id":76561198929586245,"connected_time":1166000000000,"state":"active","ping":73}]},{"server_id":108,"name":"Uncletopia | Dallas | 2 | All Maps","name_short":"dal-2","host":"dal-1.us.uncletopia.com","port":27025,"enabled":true,"region":"us-central","cc":"us","latitude":32.779167,"longitude":-96.80889,"reserved":0,"last_update":"0001-01-01T00:00:00Z","name_a2s":"Uncletopia | Dallas | 2 | All Maps","protocol":17,"map":"koth_highpass","folder":"tf","game":"Team Fortress","app_id":440,"player_count":24,"max_players":24,"Bots":0,"server_type":"Dedicated","server_os":"Linux","password":true,"vac":true,"version":"7961495","steam_id":85568392924469988,"keywords":["cp","nocrits","nodmgspread","uncletopia"],"game_id":440,"stv_port":27026,"stv_name":"Uncletopia | Dallas | 2 | All Maps | STV","players":[{"user_id":386,"name":"story","steam_id":76561199088496817,"connected_time":1637000000000,"state":"active","ping":59},{"user_id":395,"name":"TrashPanda (she/her)","steam_id":76561198447864095,"connected_time":887000000000,"state":"active","ping":62},{"user_id":385,"name":"munching charcoal","steam_id":76561198150803812,"connected_time":1663000000000,"state":"active","ping":83},{"user_id":387,"name":"glue","steam_id":76561198382076026,"connected_time":1632000000000,"state":"active","ping":84},{"user_id":365,"name":"Transgender Guy Fieri","steam_id":76561198801467075,"connected_time":3853000000000,"state":"active","ping":56},{"user_id":406,"name":"KevilPo","steam_id":76561199244507267,"connected_time":240000000000,"state":"active","ping":93},{"user_id":398,"name":"Fyr","steam_id":76561198048507556,"connected_time":544000000000,"state":"active","ping":47},{"user_id":388,"name":"big boy bobert","steam_id":76561198801207748,"connected_time":1287000000000,"state":"active","ping":67},{"user_id":399,"name":"nugit74","steam_id":76561198325736178,"connected_time":529000000000,"state":"active","ping":60},{"user_id":400,"name":"joyeuxnoelle","steam_id":76561198062423120,"connected_time":517000000000,"state":"active","ping":92},{"user_id":381,"name":"Tyth","steam_id":76561198062543298,"connected_time":2104000000000,"state":"active","ping":96},{"user_id":408,"name":"BrownMemeSter","steam_id":76561198113745020,"connected_time":220000000000,"state":"active","ping":85},{"user_id":402,"name":"Squiliam","steam_id":76561198025278006,"connected_time":441000000000,"state":"active","ping":47},{"user_id":367,"name":"Tang","steam_id":76561198121340574,"connected_time":3835000000000,"state":"active","ping":77},{"user_id":403,"name":"potato pat üü†„ÉÑ","steam_id":76561198025489194,"connected_time":411000000000,"state":"active","ping":56},{"user_id":341,"name":"stuffedidiot","steam_id":76561199181513019,"connected_time":7504000000000,"state":"active","ping":118},{"user_id":342,"name":"Rat Smacker","steam_id":76561198043629646,"connected_time":7500000000000,"state":"active","ping":58},{"user_id":354,"name":"anonEDM","steam_id":76561197976560316,"connected_time":5499000000000,"state":"active","ping":99},{"user_id":409,"name":"Kirbothebrony","steam_id":76561198971911330,"connected_time":215000000000,"state":"active","ping":62},{"user_id":407,"name":"poggerchamp","steam_id":76561199145124973,"connected_time":234000000000,"state":"active","ping":56},{"user_id":370,"name":"NormalManPerson","steam_id":76561198007436312,"connected_time":3704000000000,"state":"active","ping":105},{"user_id":410,"name":"Clear Sights","steam_id":76561198006215683,"connected_time":204000000000,"state":"active","ping":86},{"user_id":411,"name":"hi","steam_id":76561198809577048,"connected_time":191000000000,"state":"active","ping":102},{"user_id":348,"name":"Gelisor","steam_id":76561198001581101,"connected_time":7385000000000,"state":"active","ping":104}]},{"server_id":404,"name":"Uncletopia | Dallas | 3 | All Maps","name_short":"dal-3","host":"dal-1.us.uncletopia.com","port":27035,"enabled":true,"region":"us-central","cc":"us","latitude":32.779167,"longitude":-96.80889,"reserved":0,"last_update":"0001-01-01T00:00:00Z","name_a2s":"Uncletopia | Dallas | 3 | All Maps","protocol":17,"map":"cp_steel","folder":"tf","game":"Team Fortress","app_id":440,"player_count":21,"max_players":24,"Bots":0,"server_type":"Dedicated","server_os":"Linux","password":true,"vac":true,"version":"7961495","steam_id":85568392924515219,"keywords":["cp","nocrits","nodmgspread","uncletopia"],"game_id":440,"stv_port":27036,"stv_name":"Uncletopia | Dallas | 3 | All Maps | STV","players":[{"user_id":260,"name":"The Assistant Regional Manager","steam_id":76561199221484936,"connected_time":2485000000000,"state":"active","ping":90},{"user_id":248,"name":"Ballistic Chicken Nugget","steam_id":76561198840241322,"connected_time":4612000000000,"state":"active","ping":76},{"user_id":277,"name":"Minecraft","steam_id":76561198409907417,"connected_time":1770000000000,"state":"active","ping":92},{"user_id":268,"name":"Nixhalis","steam_id":76561198289151385,"connected_time":2168000000000,"state":"active","ping":126},{"user_id":264,"name":"laughs bigman","steam_id":76561198067714032,"connected_time":2349000000000,"state":"active","ping":92},{"user_id":269,"name":"Holp","steam_id":76561199019186848,"connected_time":2107000000000,"state":"active","ping":103},{"user_id":278,"name":"| Lesser |","steam_id":76561198141832239,"connected_time":1759000000000,"state":"active","ping":76},{"user_id":280,"name":"Dougiebuggie","steam_id":76561198987895080,"connected_time":1669000000000,"state":"active","ping":74},{"user_id":288,"name":"Galactamarx","steam_id":76561198028065755,"connected_time":1388000000000,"state":"active","ping":75},{"user_id":297,"name":"hb","steam_id":76561198185980055,"connected_time":49000000000,"state":"active","ping":75},{"user_id":298,"name":"Azosion","steam_id":76561198861267703,"connected_time":46000000000,"state":"active","ping":84},{"user_id":292,"name":"zpalmtree","steam_id":76561198134307620,"connected_time":711000000000,"state":"active","ping":83},{"user_id":291,"name":"Ace","steam_id":76561198806699742,"connected_time":815000000000,"state":"active","ping":98},{"user_id":299,"name":"novi.mip","steam_id":76561199171543580,"connected_time":45000000000,"state":"active","ping":343},{"user_id":293,"name":"Lane","steam_id":76561197965828506,"connected_time":675000000000,"state":"active","ping":62},{"user_id":283,"name":"bashdzy","steam_id":76561199006087600,"connected_time":1561000000000,"state":"active","ping":60},{"user_id":256,"name":"Pinetree w/ apples.","steam_id":76561198105411709,"connected_time":3193000000000,"state":"active","ping":112},{"user_id":275,"name":"Erodplayer","steam_id":76561198183840185,"connected_time":2014000000000,"state":"active","ping":49},{"user_id":207,"name":"penis atomizer 9000 üè≥Ô∏è?","steam_id":76561198864841966,"connected_time":7170000000000,"state":"active","ping":85},{"user_id":295,"name":"Mufalito","steam_id":76561198951889482,"connected_time":81000000000,"state":"active","ping":144},{"user_id":286,"name":"Klip","steam_id":76561198316254429,"connected_time":1504000000000,"state":"active","ping":64}]},{"server_id":405,"name":"Uncletopia | Dallas | 4 | Community","name_short":"dal-4","host":"dal-1.us.uncletopia.com","port":27045,"enabled":true,"region":"us-central","cc":"us","latitude":32.779167,"longitude":-96.80889,"reserved":0,"last_update":"0001-01-01T00:00:00Z","name_a2s":"Uncletopia | Dallas | 4 | Community","protocol":17,"map":"workshop/pl_cashworks_final1.ugc2904065412","folder":"tf","game":"Team Fortress","app_id":440,"player_count":0,"max_players":24,"Bots":0,"server_type":"Dedicated","server_os":"Linux","password":true,"vac":true,"version":"7961495","steam_id":85568392924515220,"keywords":["nocrits","nodmgspread","payload","uncletopia"],"game_id":440,"stv_port":27046,"stv_name":"Uncletopia | Dallas | 4 | Community | STV","players":null},{"server_id":5,"name":"Uncletopia | Frankfurt | 1 | All Maps","name_short":"frk-1","host":"frk-1.de.uncletopia.com","port":27015,"enabled":true,"region":"eu","cc":"de","latitude":50.110924,"longitude":8.682127,"reserved":0,"last_update":"0001-01-01T00:00:00Z","name_a2s":"Uncletopia | Frankfurt | 1 | All Maps","protocol":17,"map":"koth_highpass","folder":"tf","game":"Team Fortress","app_id":440,"player_count":0,"max_players":24,"Bots":0,"server_type":"Dedicated","server_os":"Linux","password":true,"vac":true,"version":"7961495","steam_id":85568392924469989,"keywords":["cp","nocrits","nodmgspread","uncletopia"],"game_id":440,"stv_port":27016,"stv_name":"Uncletopia | Frankfurt | 1 | All Maps | STV","players":null},{"server_id":110,"name":"Uncletopia | Frankfurt | 2 | All Maps","name_short":"frk-2","host":"frk-1.de.uncletopia.com","port":27025,"enabled":true,"region":"eu","cc":"de","latitude":50.110924,"longitude":8.682127,"reserved":0,"last_update":"0001-01-01T00:00:00Z","name_a2s":"Uncletopia | Frankfurt | 2 | All Maps","protocol":17,"map":"cp_dustbowl","folder":"tf","game":"Team Fortress","app_id":440,"player_count":0,"max_players":24,"Bots":0,"server_type":"Dedicated","server_os":"Linux","password":true,"vac":true,"version":"7961495","steam_id":85568392924469990,"keywords":["cp","nocrits","nodmgspread","uncletopia"],"game_id":440,"stv_port":27026,"stv_name":"Uncletopia | Frankfurt | 2 | All Maps | STV","players":null},{"server_id":308,"name":"Uncletopia | Frankfurt | 3 | All Maps","name_short":"frk-3","host":"frk-1.de.uncletopia.com","port":27035,"enabled":true,"region":"eu","cc":"de","latitude":50.110924,"longitude":8.682127,"reserved":0,"last_update":"0001-01-01T00:00:00Z","name_a2s":"Uncletopia | Frankfurt | 3 | All Maps","protocol":17,"map":"pl_barnblitz","folder":"tf","game":"Team Fortress","app_id":440,"player_count":0,"max_players":24,"Bots":0,"server_type":"Dedicated","server_os":"Linux","password":true,"vac":true,"version":"7961495","steam_id":85568392924504274,"keywords":["nocrits","nodmgspread","payload","uncletopia"],"game_id":440,"stv_port":27036,"stv_name":"Uncletopia | Frankfurt | 3 | All Maps | STV","players":null},{"server_id":309,"name":"Uncletopia | Frankfurt | 4 | All Maps","name_short":"frk-4","host":"frk-1.de.uncletopia.com","port":27045,"enabled":true,"region":"eu","cc":"de","latitude":50.110924,"longitude":8.682127,"reserved":0,"last_update":"0001-01-01T00:00:00Z","name_a2s":"Uncletopia | Frankfurt | 4 | All Maps","protocol":17,"map":"koth_highpass","folder":"tf","game":"Team Fortress","app_id":440,"player_count":0,"max_players":24,"Bots":0,"server_type":"Dedicated","server_os":"Linux","password":true,"vac":true,"version":"7961495","steam_id":85568392924504275,"keywords":["cp","nocrits","nodmgspread","uncletopia"],"game_id":440,"stv_port":27046,"stv_name":"Uncletopia | Frankfurt | 4 | All Maps | STV","players":null},{"server_id":310,"name":"Uncletopia | Frankfurt | 5 | All Maps","name_short":"frk-5","host":"frk-1.de.uncletopia.com","port":27055,"enabled":true,"region":"eu","cc":"de","latitude":50.110924,"longitude":8.682127,"reserved":0,"last_update":"0001-01-01T00:00:00Z","name_a2s":"Uncletopia | Frankfurt | 5 | All Maps","protocol":17,"map":"pl_badwater","folder":"tf","game":"Team Fortress","app_id":440,"player_count":0,"max_players":24,"Bots":0,"server_type":"Dedicated","server_os":"Linux","password":true,"vac":true,"version":"7961495","steam_id":85568392924504277,"keywords":["nocrits","nodmgspread","payload","uncletopia"],"game_id":440,"stv_port":27056,"stv_name":"Uncletopia | Frankfurt | 5 | All Maps | STV","players":null},{"server_id":311,"name":"Uncletopia | Frankfurt | 6 | All Maps","name_short":"frk-6","host":"frk-1.de.uncletopia.com","port":27065,"enabled":true,"region":"eu","cc":"de","latitude":50.110924,"longitude":8.682127,"reserved":0,"last_update":"0001-01-01T00:00:00Z","name_a2s":"Uncletopia | Frankfurt | 6 | All Maps","protocol":17,"map":"cp_altitude","folder":"tf","game":"Team Fortress","app_id":440,"player_count":0,"max_players":24,"Bots":0,"server_type":"Dedicated","server_os":"Linux","password":true,"vac":true,"version":"7961495","steam_id":85568392924504278,"keywords":["cp","nocrits","nodmgspread","uncletopia"],"game_id":440,"stv_port":27066,"stv_name":"Uncletopia | Frankfurt | 6 | All Maps | STV","players":null},{"server_id":23,"name":"Uncletopia | Frankfurt | 7 | Stopwatch","name_short":"frk-7","host":"frk-1.de.uncletopia.com","port":27075,"enabled":true,"region":"eu","cc":"de","latitude":50.110924,"longitude":8.682127,"reserved":0,"last_update":"0001-01-01T00:00:00Z","name_a2s":"Uncletopia | Frankfurt | 7 | Stopwatch","protocol":17,"map":"pl_frontier_final","folder":"tf","game":"Team Fortress","app_id":440,"player_count":0,"max_players":24,"Bots":0,"server_type":"Dedicated","server_os":"Linux","password":true,"vac":true,"version":"7961495","steam_id":85568392924742827,"keywords":["nocrits","nodmgspread","payload","uncletopia"],"game_id":440,"stv_port":27076,"stv_name":"Uncletopia | Frankfurt | 7 | Stopwatch | STV","players":null},{"server_id":24,"name":"Uncletopia | Frankfurt | 8 | Community","name_short":"frk-8","host":"frk-1.de.uncletopia.com","port":27085,"enabled":true,"region":"eu","cc":"de","latitude":50.110924,"longitude":8.682127,"reserved":0,"last_update":"0001-01-01T00:00:00Z","name_a2s":"Uncletopia | Frankfurt | 8 | Community","protocol":17,"map":"cp_mountainlab","folder":"tf","game":"Team Fortress","app_id":440,"player_count":0,"max_players":24,"Bots":0,"server_type":"Dedicated","server_os":"Linux","password":true,"vac":true,"version":"7961495","steam_id":85568392924742828,"keywords":["cp","nocrits","nodmgspread","uncletopia"],"game_id":440,"stv_port":27086,"stv_name":"Uncletopia | Frankfurt | 8 | Community | STV","players":null},{"server_id":202,"name":"Uncletopia | Hong Kong | 1 | All Maps","name_short":"hgk-1","host":"hgk-1.hk.uncletopia.com","port":27015,"enabled":true,"region":"asia","cc":"hk","latitude":22.302711,"longitude":114.177216,"reserved":0,"last_update":"0001-01-01T00:00:00Z","name_a2s":"Uncletopia | Hong Kong | 1 | All Maps","protocol":17,"map":"pl_borneo","folder":"tf","game":"Team Fortress","app_id":440,"player_count":24,"max_players":24,"Bots":0,"server_type":"Dedicated","server_os":"Linux","password":true,"vac":true,"version":"7961495","steam_id":85568392924494504,"keywords":["nocrits","nodmgspread","payload","uncletopia"],"game_id":440,"stv_port":27016,"stv_name":"Uncletopia | Hong Kong | 1 | All Maps | STV","players":[{"user_id":23,"name":"MS PowerPoint","steam_id":76561198369523192,"connected_time":6084000000000,"state":"active","ping":65},{"user_id":82,"name":"sett.","steam_id":76561199010718657,"connected_time":1981000000000,"state":"active","ping":77},{"user_id":98,"name":"JDSFE","steam_id":76561198975490851,"connected_time":133000000000,"state":"active","ping":148},{"user_id":80,"name":"BAzooKA","steam_id":76561198061628689,"connected_time":2227000000000,"state":"active","ping":50},{"user_id":92,"name":"I'm going to eat your ass","steam_id":76561198313605970,"connected_time":1455000000000,"state":"active","ping":153},{"user_id":47,"name":"ihavenomouthandimustscream","steam_id":76561198172874097,"connected_time":4593000000000,"state":"active","ping":74},{"user_id":97,"name":"corpse_cadaver","steam_id":76561199225360457,"connected_time":454000000000,"state":"active","ping":73},{"user_id":96,"name":"Alice (artificial)","steam_id":76561198052410860,"connected_time":1074000000000,"state":"active","ping":118},{"user_id":36,"name":"marisaloses","steam_id":76561199033032870,"connected_time":5210000000000,"state":"active","ping":114},{"user_id":87,"name":"Popolor","steam_id":76561198134861914,"connected_time":1760000000000,"state":"active","ping":87},{"user_id":42,"name":"Hay","steam_id":76561199438952901,"connected_time":5015000000000,"state":"active","ping":54},{"user_id":67,"name":"Lu","steam_id":76561198320532821,"connected_time":3036000000000,"state":"active","ping":72},{"user_id":88,"name":"vnc","steam_id":76561199075775384,"connected_time":1723000000000,"state":"active","ping":81},{"user_id":73,"name":"Saffron","steam_id":76561199025320247,"connected_time":2661000000000,"state":"active","ping":74},{"user_id":79,"name":"karnolyth","steam_id":76561198965473654,"connected_time":2242000000000,"state":"active","ping":76},{"user_id":72,"name":"screaming sniper","steam_id":76561199085568674,"connected_time":2675000000000,"state":"active","ping":66},{"user_id":54,"name":"fred \\ need premium","steam_id":76561199496222946,"connected_time":4280000000000,"state":"active","ping":90},{"user_id":65,"name":"the NYN mass producer","steam_id":76561198214192048,"connected_time":3428000000000,"state":"active","ping":104},{"user_id":81,"name":"sugma","steam_id":76561199009556495,"connected_time":2071000000000,"state":"active","ping":107},{"user_id":93,"name":"Sir.Apple","steam_id":76561198065612995,"connected_time":1248000000000,"state":"active","ping":91},{"user_id":77,"name":"vintage","steam_id":76561198230213828,"connected_time":2284000000000,"state":"active","ping":66},{"user_id":59,"name":"rotundotund","steam_id":76561198057691986,"connected_time":4001000000000,"state":"active","ping":79},{"user_id":90,"name":"spinach (old mouse)","steam_id":76561198042539541,"connected_time":1632000000000,"state":"active","ping":78},{"user_id":99,"name":"Wx","steam_id":76561199217780897,"connected_time":51000000000,"state":"active","ping":117}]},{"server_id":1,"name":"Uncletopia | Los Angeles | 1 | All Maps","name_short":"lax-1","host":"lax-1.us.uncletopia.com","port":27015,"enabled":true,"region":"us-west","cc":"us","latitude":33.94279,"longitude":-118.41004,"reserved":0,"last_update":"0001-01-01T00:00:00Z","name_a2s":"Uncletopia | Los Angeles | 1 | All Maps","protocol":17,"map":"pl_badwater","folder":"tf","game":"Team Fortress","app_id":440,"player_count":24,"max_players":24,"Bots":0,"server_type":"Dedicated","server_os":"Linux","password":true,"vac":true,"version":"7961495","steam_id":85568392924469991,"keywords":["nocrits","nodmgspread","payload","uncletopia"],"game_id":440,"stv_port":27016,"stv_name":"Uncletopia | Los Angeles | 1 | All Maps | STV","players":[{"user_id":487,"name":"Maid 'n' China","steam_id":76561198423392976,"connected_time":1005000000000,"state":"active","ping":59},{"user_id":498,"name":"Gut125","steam_id":76561198101787225,"connected_time":170000000000,"state":"active","ping":44},{"user_id":492,"name":"lol","steam_id":76561198026491738,"connected_time":889000000000,"state":"active","ping":63},{"user_id":499,"name":"uufyfuu","steam_id":76561198142787212,"connected_time":130000000000,"state":"active","ping":94},{"user_id":497,"name":"A class hero","steam_id":76561198066091050,"connected_time":518000000000,"state":"active","ping":67},{"user_id":493,"name":"T√ºCold","steam_id":76561198111278197,"connected_time":881000000000,"state":"active","ping":60},{"user_id":467,"name":"Strange Festive Femboy","steam_id":76561198050385093,"connected_time":3609000000000,"state":"active","ping":131},{"user_id":446,"name":"filtered by cp_steel","steam_id":76561198031409921,"connected_time":5232000000000,"state":"active","ping":46},{"user_id":472,"name":"STUPID DUMBASS BABY","steam_id":76561199112576615,"connected_time":2590000000000,"state":"active","ping":64},{"user_id":494,"name":"meph","steam_id":76561198149683030,"connected_time":858000000000,"state":"active","ping":73},{"user_id":432,"name":"Phrog","steam_id":76561198072975322,"connected_time":6693000000000,"state":"active","ping":85},{"user_id":484,"name":"sirFrost","steam_id":76561198072267177,"connected_time":1851000000000,"state":"active","ping":80},{"user_id":485,"name":"Bodhisattva","steam_id":76561198085228896,"connected_time":1374000000000,"state":"active","ping":49},{"user_id":480,"name":"kx","steam_id":76561198088952425,"connected_time":2142000000000,"state":"active","ping":52},{"user_id":470,"name":"shreklover69","steam_id":76561198054070811,"connected_time":3476000000000,"state":"active","ping":60},{"user_id":427,"name":"Keth","steam_id":76561198155903648,"connected_time":6767000000000,"state":"active","ping":78},{"user_id":478,"name":"duncaidan","steam_id":76561199013510313,"connected_time":2376000000000,"state":"active","ping":52},{"user_id":496,"name":"gagobears","steam_id":76561198086008437,"connected_time":707000000000,"state":"active","ping":75},{"user_id":394,"name":"aldwych","steam_id":76561198318126190,"connected_time":9096000000000,"state":"active","ping":155},{"user_id":426,"name":"Robotguy9","steam_id":76561198147429617,"connected_time":6821000000000,"state":"active","ping":97},{"user_id":481,"name":"Lock'd","steam_id":76561198170108230,"connected_time":2142000000000,"state":"active","ping":74},{"user_id":495,"name":"pyrotechnic","steam_id":76561198043558709,"connected_time":818000000000,"state":"active","ping":75},{"user_id":429,"name":"Vrita","steam_id":76561198059483641,"connected_time":6733000000000,"state":"active","ping":62},{"user_id":473,"name":"Mr. Noodle","steam_id":76561198025280658,"connected_time":2585000000000,"state":"active","ping":55}]},{"server_id":112,"name":"Uncletopia | Los Angeles | 2 | All Maps","name_short":"lax-2","host":"lax-1.us.uncletopia.com","port":27025,"enabled":true,"region":"us-west","cc":"us","latitude":33.94279,"longitude":-118.41004,"reserved":0,"last_update":"0001-01-01T00:00:00Z","name_a2s":"Uncletopia | Los Angeles | 2 | All Maps","protocol":17,"map":"cp_egypt_final","folder":"tf","game":"Team Fortress","app_id":440,"player_count":23,"max_players":24,"Bots":0,"server_type":"Dedicated","server_os":"Linux","password":true,"vac":true,"version":"7961495","steam_id":85568392924469992,"keywords":["cp","nocrits","nodmgspread","uncletopia"],"game_id":440,"stv_port":27026,"stv_name":"Uncletopia | Los Angeles | 2 | All Maps | STV","players":[{"user_id":197,"name":"DaddyGalaxy","steam_id":76561198139697796,"connected_time":612000000000,"state":"active","ping":74},{"user_id":174,"name":"Alejandro","steam_id":76561197970051493,"connected_time":2753000000000,"state":"active","ping":148},{"user_id":139,"name":"Hectic_Puppy (bday in 3 DAYS)","steam_id":76561198111645213,"connected_time":7139000000000,"state":"active","ping":50},{"user_id":202,"name":"FOOL","steam_id":76561198370866973,"connected_time":289000000000,"state":"active","ping":66},{"user_id":188,"name":"pan","steam_id":76561198093968095,"connected_time":826000000000,"state":"active","ping":54},{"user_id":160,"name":"Talented","steam_id":76561198800259660,"connected_time":6209000000000,"state":"active","ping":91},{"user_id":172,"name":"Stealthguy724","steam_id":76561198195961430,"connected_time":3254000000000,"state":"active","ping":127},{"user_id":123,"name":"Context","steam_id":76561197972634187,"connected_time":9570000000000,"state":"active","ping":47},{"user_id":205,"name":"jimmy outlaw","steam_id":76561198070380402,"connected_time":60000000000,"state":"active","ping":361},{"user_id":206,"name":"happer","steam_id":76561198018252253,"connected_time":56000000000,"state":"active","ping":57},{"user_id":207,"name":"checkswing","steam_id":76561198999816132,"connected_time":14000000000,"state":"active","ping":129},{"user_id":203,"name":"Tockbird","steam_id":76561199437964594,"connected_time":210000000000,"state":"active","ping":62},{"user_id":192,"name":"Silly-Brained Sh3ba","steam_id":76561198047412394,"connected_time":717000000000,"state":"active","ping":102},{"user_id":187,"name":"Ethanol Buttchugger","steam_id":76561199127590316,"connected_time":930000000000,"state":"active","ping":58},{"user_id":180,"name":"hart","steam_id":76561198046073848,"connected_time":1353000000000,"state":"active","ping":75},{"user_id":176,"name":"Enstabanger","steam_id":76561198140736928,"connected_time":2122000000000,"state":"active","ping":63},{"user_id":201,"name":"Rusty","steam_id":76561198055585129,"connected_time":358000000000,"state":"active","ping":75},{"user_id":178,"name":"Squatter1","steam_id":76561198078987734,"connected_time":1386000000000,"state":"active","ping":83},{"user_id":183,"name":"Tideflat","steam_id":76561198179850851,"connected_time":1195000000000,"state":"active","ping":84},{"user_id":193,"name":"Jesus Epstein","steam_id":76561198203047891,"connected_time":712000000000,"state":"active","ping":48},{"user_id":155,"name":"CadenLCheese","steam_id":76561199105517435,"connected_time":6399000000000,"state":"active","ping":75},{"user_id":194,"name":"ninety9dragonfly","steam_id":76561198363406983,"connected_time":710000000000,"state":"active","ping":70},{"user_id":196,"name":"Shang","steam_id":76561198298637817,"connected_time":626000000000,"state":"active","ping":98}]},{"server_id":324,"name":"Uncletopia | Los Angeles | 3 | All Maps","name_short":"lax-3","host":"lax-1.us.uncletopia.com","port":27035,"enabled":true,"region":"us-west","cc":"us","latitude":33.94279,"longitude":-118.41004,"reserved":0,"last_update":"0001-01-01T00:00:00Z","name_a2s":"Uncletopia | Los Angeles | 3 | All Maps","protocol":17,"map":"pl_pier","folder":"tf","game":"Team Fortress","app_id":440,"player_count":20,"max_players":24,"Bots":0,"server_type":"Dedicated","server_os":"Linux","password":true,"vac":true,"version":"7961495","steam_id":85568392924510198,"keywords":["nocrits","nodmgspread","payload","uncletopia"],"game_id":440,"stv_port":27036,"stv_name":"Uncletopia | Los Angeles | 3 | All Maps | STV","players":[{"user_id":103,"name":"Ricochet Pro","steam_id":76561198005328215,"connected_time":855000000000,"state":"active","ping":63},{"user_id":87,"name":"nao","steam_id":76561198073982533,"connected_time":1915000000000,"state":"active","ping":91},{"user_id":110,"name":"Smoothpolishness","steam_id":76561198029084002,"connected_time":109000000000,"state":"active","ping":59},{"user_id":96,"name":"Igrium","steam_id":76561198119549811,"connected_time":1164000000000,"state":"active","ping":55},{"user_id":111,"name":"Vladimir Chirgin","steam_id":76561198170035235,"connected_time":94000000000,"state":"active","ping":90},{"user_id":105,"name":"Mocha Josie","steam_id":76561198066452726,"connected_time":631000000000,"state":"active","ping":83},{"user_id":97,"name":"Holo Jumpscare","steam_id":76561198153908250,"connected_time":1157000000000,"state":"active","ping":65},{"user_id":33,"name":"tomandjerry085","steam_id":76561198800789071,"connected_time":5200000000000,"state":"active","ping":54},{"user_id":73,"name":"Oops","steam_id":76561198015032646,"connected_time":2842000000000,"state":"active","ping":51},{"user_id":34,"name":"Harry Rage!!","steam_id":76561198873895549,"connected_time":5194000000000,"state":"active","ping":68},{"user_id":112,"name":"shirt","steam_id":76561198081014760,"connected_time":66000000000,"state":"active","ping":48},{"user_id":113,"name":"Hunter","steam_id":76561198041932384,"connected_time":13000000000,"state":"spawning","ping":160},{"user_id":76,"name":"Bullwinkle J. Moose","steam_id":76561198075977196,"connected_time":2718000000000,"state":"active","ping":88},{"user_id":102,"name":"üëäCrockettMannüëä","steam_id":76561198286581911,"connected_time":930000000000,"state":"active","ping":78},{"user_id":99,"name":"Ya_Boi_Clapitao","steam_id":76561198274969584,"connected_time":1130000000000,"state":"active","ping":57},{"user_id":77,"name":"Eden","steam_id":76561198081284664,"connected_time":2695000000000,"state":"active","ping":46},{"user_id":78,"name":"TacoMan4Life","steam_id":76561198832562728,"connected_time":2657000000000,"state":"active","ping":59},{"user_id":100,"name":"Spread Joy, Not Hate","steam_id":76561198053117503,"connected_time":1126000000000,"state":"active","ping":93},{"user_id":64,"name":"Incredible Donk","steam_id":76561198427360423,"connected_time":3518000000000,"state":"active","ping":99},{"user_id":81,"name":"MistaRattle","steam_id":76561199144406643,"connected_time":2501000000000,"state":"active","ping":71}]},{"server_id":25,"name":"Uncletopia | Los Angeles | 4 | Stopwatch","name_short":"lax-4","host":"lax-1.us.uncletopia.com","port":27045,"enabled":true,"region":"us-west","cc":"us","latitude":33.94279,"longitude":-118.41004,"reserved":0,"last_update":"0001-01-01T00:00:00Z","name_a2s":"Uncletopia | Los Angeles | 4 | Stopwatch","protocol":17,"map":"workshop/cp_process_f12.ugc2302948105","folder":"tf","game":"Team Fortress","app_id":440,"player_count":0,"max_players":24,"Bots":0,"server_type":"Dedicated","server_os":"Linux","password":true,"vac":true,"version":"7961495","steam_id":85568392924510199,"keywords":["cp","nocrits","nodmgspread","uncletopia"],"game_id":440,"stv_port":27046,"stv_name":"Uncletopia | Los Angeles | 4 | Stopwatch | STV","players":null},{"server_id":11,"name":"Uncletopia | London | 1 | All Maps","name_short":"lon-1","host":"lon-1.uk.uncletopia.com","port":27015,"enabled":true,"region":"eu","cc":"gb","latitude":51.509865,"longitude":-0.118092,"reserved":0,"last_update":"0001-01-01T00:00:00Z","name_a2s":"Uncletopia | London | 1 | All Maps","protocol":17,"map":"ctf_2fort","folder":"tf","game":"Team Fortress","app_id":440,"player_count":2,"max_players":24,"Bots":0,"server_type":"Dedicated","server_os":"Linux","password":true,"vac":true,"version":"7961495","steam_id":85568392924367362,"keywords":["ctf","nocrits","nodmgspread","uncletopia"],"game_id":440,"stv_port":27016,"stv_name":"Uncletopia | London | 1 | All Maps | STV","players":[{"user_id":3,"name":"yuno appreciator","steam_id":76561198083286511,"connected_time":1732000000000,"state":"active","ping":45},{"user_id":5,"name":"Sergeant Reilly","steam_id":76561198051361872,"connected_time":1248000000000,"state":"active","ping":45}]},{"server_id":114,"name":"Uncletopia | London | 2 | All Maps","name_short":"lon-2","host":"lon-1.uk.uncletopia.com","port":27025,"enabled":true,"region":"eu","cc":"gb","latitude":51.509865,"longitude":-0.118092,"reserved":0,"last_update":"0001-01-01T00:00:00Z","name_a2s":"Uncletopia | London | 2 | All Maps","protocol":17,"map":"koth_lakeside_final","folder":"tf","game":"Team Fortress","app_id":440,"player_count":0,"max_players":24,"Bots":0,"server_type":"Dedicated","server_os":"Linux","password":true,"vac":true,"version":"7961495","steam_id":85568392924470941,"keywords":["cp","nocrits","nodmgspread","uncletopia"],"game_id":440,"stv_port":27026,"stv_name":"Uncletopia | London | 2 | All Maps | STV","players":null},{"server_id":320,"name":"Uncletopia | London | 3 | All Maps","name_short":"lon-3","host":"lon-1.uk.uncletopia.com","port":27035,"enabled":true,"region":"eu","cc":"gb","latitude":51.509865,"longitude":-0.118092,"reserved":0,"last_update":"0001-01-01T00:00:00Z","name_a2s":"Uncletopia | London | 3 | All Maps","protocol":17,"map":"cp_process_final","folder":"tf","game":"Team Fortress","app_id":440,"player_count":0,"max_players":24,"Bots":0,"server_type":"Dedicated","server_os":"Linux","password":true,"vac":true,"version":"7961495","steam_id":85568392924510192,"keywords":["cp","nocrits","nodmgspread","uncletopia"],"game_id":440,"stv_port":27036,"stv_name":"Uncletopia | London | 3 | All Maps | STV","players":null},{"server_id":321,"name":"Uncletopia | London | 4 | All Maps","name_short":"lon-4","host":"lon-1.uk.uncletopia.com","port":27045,"enabled":true,"region":"eu","cc":"gb","latitude":51.509865,"longitude":-0.118092,"reserved":0,"last_update":"0001-01-01T00:00:00Z","name_a2s":"Uncletopia | London | 4 | All Maps","protocol":17,"map":"koth_cascade","folder":"tf","game":"Team Fortress","app_id":440,"player_count":0,"max_players":24,"Bots":0,"server_type":"Dedicated","server_os":"Linux","password":true,"vac":true,"version":"7961495","steam_id":85568392924510193,"keywords":["cp","nocrits","nodmgspread","uncletopia"],"game_id":440,"stv_port":27046,"stv_name":"Uncletopia | London | 4 | All Maps | STV","players":null},{"server_id":21,"name":"Uncletopia | London | 5 | All Maps","name_short":"lon-5","host":"lon-1.uk.uncletopia.com","port":27055,"enabled":true,"region":"eu","cc":"gb","latitude":51.509865,"longitude":-0.118092,"reserved":0,"last_update":"0001-01-01T00:00:00Z","name_a2s":"Uncletopia | London | 5 | All Maps","protocol":17,"map":"koth_lakeside_final","folder":"tf","game":"Team Fortress","app_id":440,"player_count":0,"max_players":24,"Bots":0,"server_type":"Dedicated","server_os":"Linux","password":true,"vac":true,"version":"7961495","steam_id":85568392924742829,"keywords":["cp","nocrits","nodmgspread","uncletopia"],"game_id":440,"stv_port":27056,"stv_name":"Uncletopia | London | 5 | All Maps | STV","players":null},{"server_id":22,"name":"Uncletopia | London | 6 | All Maps","name_short":"lon-6","host":"lon-1.uk.uncletopia.com","port":27065,"enabled":true,"region":"eu","cc":"gb","latitude":51.509865,"longitude":-0.118092,"reserved":0,"last_update":"0001-01-01T00:00:00Z","name_a2s":"Uncletopia | London | 6 | All Maps","protocol":17,"map":"cp_dustbowl","folder":"tf","game":"Team Fortress","app_id":440,"player_count":0,"max_players":24,"Bots":0,"server_type":"Dedicated","server_os":"Linux","password":true,"vac":true,"version":"7961495","steam_id":85568392924742830,"keywords":["cp","nocrits","nodmgspread","uncletopia"],"game_id":440,"stv_port":27066,"stv_name":"Uncletopia | London | 6 | All Maps | STV","players":null},{"server_id":40,"name":"Uncletopia | London | 7 | Stopwatch","name_short":"lon-7","host":"lon-1.uk.uncletopia.com","port":27075,"enabled":true,"region":"eu","cc":"gb","latitude":51.509865,"longitude":-0.118092,"reserved":0,"last_update":"0001-01-01T00:00:00Z","name_a2s":"Uncletopia | London | 7 | Stopwatch","protocol":17,"map":"koth_lakeside_final","folder":"tf","game":"Team Fortress","app_id":440,"player_count":0,"max_players":24,"Bots":0,"server_type":"Dedicated","server_os":"Linux","password":true,"vac":true,"version":"7961495","steam_id":85568392924964314,"keywords":["cp","nocrits","nodmgspread","uncletopia"],"game_id":440,"stv_port":27076,"stv_name":"Uncletopia | London | 7 | Stopwatch | STV","players":null},{"server_id":41,"name":"Uncletopia | London | 8 | Community","name_short":"lon-8","host":"lon-1.uk.uncletopia.com","port":27085,"enabled":true,"region":"eu","cc":"gb","latitude":51.509865,"longitude":-0.118092,"reserved":0,"last_update":"0001-01-01T00:00:00Z","name_a2s":"Uncletopia | London | 8 | Community","protocol":17,"map":"cp_snakewater_final1","folder":"tf","game":"Team Fortress","app_id":440,"player_count":0,"max_players":24,"Bots":0,"server_type":"Dedicated","server_os":"Linux","password":true,"vac":true,"version":"7961495","steam_id":85568392924964315,"keywords":["cp","nocrits","nodmgspread","uncletopia"],"game_id":440,"stv_port":27086,"stv_name":"Uncletopia | London | 8 | Community | STV","players":null},{"server_id":300,"name":"Uncletopia | Montr√©al | 1 | One Thousand Uncles","name_short":"mtl-1","host":"mtl-1.ca.uncletopia.com","port":27015,"enabled":true,"region":"us-east","cc":"ca","latitude":45.50889,"longitude":-73.56167,"reserved":0,"last_update":"0001-01-01T00:00:00Z","name_a2s":"","protocol":0,"map":"","folder":"","game":"","app_id":0,"player_count":0,"max_players":0,"Bots":0,"server_type":"","server_os":"","password":false,"vac":false,"version":"","steam_id":0,"keywords":null,"game_id":0,"stv_port":0,"stv_name":"","players":null},{"server_id":301,"name":"Uncletopia | Montr√©al | 2 | One Thousand Uncles","name_short":"mtl-2","host":"mtl-1.ca.uncletopia.com","port":27025,"enabled":true,"region":"us-east","cc":"ca","latitude":45.50889,"longitude":-73.56167,"reserved":0,"last_update":"0001-01-01T00:00:00Z","name_a2s":"","protocol":0,"map":"","folder":"","game":"","app_id":0,"player_count":1,"max_players":0,"Bots":0,"server_type":"","server_os":"","password":false,"vac":false,"version":"","steam_id":0,"keywords":null,"game_id":0,"stv_port":0,"stv_name":"","players":[{"user_id":255,"name":"Lots0","steam_id":76561198043143145,"connected_time":322000000000,"state":"active","ping":89}]},{"server_id":302,"name":"Uncletopia | Montr√©al | 3 | One Thousand Uncles","name_short":"mtl-3","host":"mtl-1.ca.uncletopia.com","port":27035,"enabled":true,"region":"us-east","cc":"ca","latitude":45.50889,"longitude":-73.56167,"reserved":0,"last_update":"0001-01-01T00:00:00Z","name_a2s":"","protocol":0,"map":"","folder":"","game":"","app_id":0,"player_count":0,"max_players":0,"Bots":0,"server_type":"","server_os":"","password":false,"vac":false,"version":"","steam_id":0,"keywords":null,"game_id":0,"stv_port":0,"stv_name":"","players":null},{"server_id":13,"name":"Uncletopia | New York City | 1 | All Maps","name_short":"nyc-1","host":"nyc-1.us.uncletopia.com","port":27015,"enabled":true,"region":"us-east","cc":"us","latitude":40.73061,"longitude":-73.93524,"reserved":0,"last_update":"0001-01-01T00:00:00Z","name_a2s":"Uncletopia | New York City | 1 | All Maps","protocol":17,"map":"pl_badwater","folder":"tf","game":"Team Fortress","app_id":440,"player_count":24,"max_players":24,"Bots":0,"server_type":"Dedicated","server_os":"Linux","password":true,"vac":true,"version":"7961495","steam_id":85568392924469993,"keywords":["nocrits","nodmgspread","payload","uncletopia"],"game_id":440,"stv_port":27016,"stv_name":"Uncletopia | New York City | 1 | All Maps | STV","players":[{"user_id":761,"name":"Bert.","steam_id":76561198140666346,"connected_time":1650000000000,"state":"active","ping":45},{"user_id":786,"name":"raisedbybirds","steam_id":76561198131531646,"connected_time":331000000000,"state":"active","ping":58},{"user_id":773,"name":"eldritch","steam_id":76561199009135766,"connected_time":626000000000,"state":"active","ping":70},{"user_id":754,"name":"incredirocks","steam_id":76561198061079993,"connected_time":1917000000000,"state":"active","ping":60},{"user_id":750,"name":"Goredude","steam_id":76561198041048764,"connected_time":2382000000000,"state":"active","ping":44},{"user_id":774,"name":"Zippy","steam_id":76561198279229422,"connected_time":615000000000,"state":"active","ping":73},{"user_id":771,"name":"Chicken Burger","steam_id":76561198358529311,"connected_time":692000000000,"state":"active","ping":92},{"user_id":752,"name":"Pluto","steam_id":76561198012630802,"connected_time":1948000000000,"state":"active","ping":119},{"user_id":776,"name":"Mrbobz :^)","steam_id":76561198038681120,"connected_time":557000000000,"state":"active","ping":147},{"user_id":764,"name":"rattlin' bog","steam_id":76561198224551028,"connected_time":1600000000000,"state":"active","ping":55},{"user_id":777,"name":"Snoopist","steam_id":76561198144023761,"connected_time":545000000000,"state":"active","ping":59},{"user_id":778,"name":"Deedestroyer","steam_id":76561197996072506,"connected_time":545000000000,"state":"active","ping":138},{"user_id":770,"name":"mardi gras beads","steam_id":76561198200922599,"connected_time":1036000000000,"state":"active","ping":58},{"user_id":779,"name":"JACK BRUNO","steam_id":76561198027957690,"connected_time":509000000000,"state":"active","ping":130},{"user_id":746,"name":"ROGUE-PLANET","steam_id":76561198116023052,"connected_time":3504000000000,"state":"active","ping":91},{"user_id":780,"name":"Buterbrod","steam_id":76561198829880730,"connected_time":461000000000,"state":"active","ping":176},{"user_id":767,"name":"DYGIILYIAHSPJTOS (She/Her)","steam_id":76561198042177809,"connected_time":1257000000000,"state":"active","ping":73},{"user_id":787,"name":"SoldMyKidneyForCollege","steam_id":76561198096329559,"connected_time":219000000000,"state":"active","ping":115},{"user_id":734,"name":"quack","steam_id":76561198138783216,"connected_time":3996000000000,"state":"active","ping":39},{"user_id":766,"name":"tacofever","steam_id":76561198010966507,"connected_time":1448000000000,"state":"active","ping":116},{"user_id":739,"name":"Filthy Hobo","steam_id":76561198174373015,"connected_time":3914000000000,"state":"active","ping":131},{"user_id":745,"name":"Ben Shapiro Gaming","steam_id":76561198113651011,"connected_time":3529000000000,"state":"active","ping":50},{"user_id":768,"name":"Lemoncurry","steam_id":76561198045356414,"connected_time":1226000000000,"state":"active","ping":92},{"user_id":760,"name":"Vordt","steam_id":76561198040942866,"connected_time":1765000000000,"state":"active","ping":49}]},{"server_id":14,"name":"Uncletopia | New York City | 2 | All Maps","name_short":"nyc-2","host":"nyc-1.us.uncletopia.com","port":27025,"enabled":true,"region":"us-east","cc":"us","latitude":40.73061,"longitude":-73.93524,"reserved":0,"last_update":"0001-01-01T00:00:00Z","name_a2s":"Uncletopia | New York City | 2 | All Maps","protocol":17,"map":"pl_upward","folder":"tf","game":"Team Fortress","app_id":440,"player_count":1,"max_players":24,"Bots":0,"server_type":"Dedicated","server_os":"Linux","password":true,"vac":true,"version":"7961495","steam_id":85568392924469994,"keywords":["nocrits","nodmgspread","payload","uncletopia"],"game_id":440,"stv_port":27026,"stv_name":"Uncletopia | New York City | 2 | All Maps | STV","players":[{"user_id":609,"name":"Weebmcgee","steam_id":76561198081231557,"connected_time":43000000000,"state":"active","ping":46}]},{"server_id":15,"name":"Uncletopia | New York City | 3 | Stopwatch","name_short":"nyc-3","host":"nyc-1.us.uncletopia.com","port":27035,"enabled":true,"region":"us-east","cc":"us","latitude":40.73061,"longitude":-73.93524,"reserved":0,"last_update":"0001-01-01T00:00:00Z","name_a2s":"Uncletopia | New York City | 3 | Stopwatch","protocol":17,"map":"workshop/koth_ashville_final.ugc2130459942","folder":"tf","game":"Team Fortress","app_id":440,"player_count":0,"max_players":24,"Bots":0,"server_type":"Dedicated","server_os":"Linux","password":true,"vac":true,"version":"7961495","steam_id":85568392924742820,"keywords":["cp","nocrits","nodmgspread","uncletopia"],"game_id":440,"stv_port":27036,"stv_name":"Uncletopia | New York City | 3 | Stopwatch | STV","players":null},{"server_id":16,"name":"Uncletopia | New York City | 4 | Community","name_short":"nyc-4","host":"nyc-1.us.uncletopia.com","port":27045,"enabled":true,"region":"us-east","cc":"us","latitude":40.73061,"longitude":-73.93524,"reserved":0,"last_update":"0001-01-01T00:00:00Z","name_a2s":"Uncletopia | New York City | 4 | Community","protocol":17,"map":"workshop/pl_vigil_rc10.ugc1266210012","folder":"tf","game":"Team Fortress","app_id":440,"player_count":2,"max_players":24,"Bots":0,"server_type":"Dedicated","server_os":"Linux","password":true,"vac":true,"version":"7961495","steam_id":85568392924742821,"keywords":["nocrits","nodmgspread","payload","uncletopia"],"game_id":440,"stv_port":27046,"stv_name":"Uncletopia | New York City | 4 | Community | STV","players":[{"user_id":213,"name":"Roald","steam_id":76561198143182772,"connected_time":2172000000000,"state":"active","ping":70},{"user_id":216,"name":"Orko","steam_id":76561198162232131,"connected_time":521000000000,"state":"active","ping":65}]},{"server_id":142,"name":"Uncletopia | S√£o Paulo | 1 | All Maps","name_short":"sao-1","host":"sao-1.br.uncletopia.com","port":27015,"enabled":true,"region":"sa","cc":"br","latitude":-23.533773,"longitude":-46.62529,"reserved":0,"last_update":"0001-01-01T00:00:00Z","name_a2s":"Uncletopia | S√£o Paulo | 1 | All Maps","protocol":17,"map":"cp_altitude","folder":"tf","game":"Team Fortress","app_id":440,"player_count":0,"max_players":24,"Bots":0,"server_type":"Dedicated","server_os":"Linux","password":true,"vac":true,"version":"7961495","steam_id":85568392924469996,"keywords":["cp","nocrits","nodmgspread","uncletopia"],"game_id":440,"stv_port":27016,"stv_name":"Uncletopia | S√£o Paulo | 1 | All Maps | STV","players":null},{"server_id":143,"name":"Uncletopia | S√£o Paulo | 2 | Community","name_short":"sao-2","host":"sao-2.br.uncletopia.com","port":27015,"enabled":true,"region":"sa","cc":"br","latitude":-23.533773,"longitude":-46.62529,"reserved":0,"last_update":"0001-01-01T00:00:00Z","name_a2s":"Uncletopia | S√£o Paulo | 2 | Community","protocol":17,"map":"workshop/cp_coilblaze_rc7.ugc1272700588","folder":"tf","game":"Team Fortress","app_id":440,"player_count":0,"max_players":24,"Bots":0,"server_type":"Dedicated","server_os":"Linux","password":true,"vac":true,"version":"7961495","steam_id":85568392924485349,"keywords":["cp","nocrits","nodmgspread","uncletopia"],"game_id":440,"stv_port":27016,"stv_name":"Uncletopia | S√£o Paulo | 2 | Community | STV","players":null},{"server_id":7,"name":"Uncletopia | Seattle | 1 | All Maps","name_short":"sea-1","host":"sea-1.us.uncletopia.com","port":27015,"enabled":true,"region":"us-west","cc":"us","latitude":47.608013,"longitude":-122.33517,"reserved":0,"last_update":"0001-01-01T00:00:00Z","name_a2s":"Uncletopia | Seattle | 1 | All Maps","protocol":17,"map":"pl_upward","folder":"tf","game":"Team Fortress","app_id":440,"player_count":24,"max_players":24,"Bots":0,"server_type":"Dedicated","server_os":"Linux","password":true,"vac":true,"version":"7961495","steam_id":85568392924469997,"keywords":["alltalk","nocrits","nodmgspread","payload","uncletopia"],"game_id":440,"stv_port":27016,"stv_name":"Uncletopia | Seattle | 1 | All Maps | STV","players":[{"user_id":671,"name":"Spectre","steam_id":76561198037535169,"connected_time":1865000000000,"state":"active","ping":72},{"user_id":678,"name":"[TrC] Nosy","steam_id":76561197978859310,"connected_time":425000000000,"state":"active","ping":60},{"user_id":646,"name":"NEBULA","steam_id":76561198086878595,"connected_time":5838000000000,"state":"active","ping":71},{"user_id":640,"name":"Daz","steam_id":76561198041431938,"connected_time":6537000000000,"state":"active","ping":52},{"user_id":668,"name":"theslayert4","steam_id":76561199258578780,"connected_time":2822000000000,"state":"active","ping":47},{"user_id":663,"name":"soup","steam_id":76561198043209046,"connected_time":3917000000000,"state":"active","ping":68},{"user_id":656,"name":"evilOlive","steam_id":76561198106222025,"connected_time":4834000000000,"state":"active","ping":82},{"user_id":660,"name":"Attrition","steam_id":76561197969881916,"connected_time":4001000000000,"state":"active","ping":54},{"user_id":591,"name":"‚ô¶‚ô£Quadric‚ô•‚ô†","steam_id":76561198061003853,"connected_time":11361000000000,"state":"active","ping":108},{"user_id":653,"name":"blinkerton city","steam_id":76561198054270410,"connected_time":4865000000000,"state":"active","ping":56},{"user_id":675,"name":"Salazar9","steam_id":76561198049903973,"connected_time":1842000000000,"state":"active","ping":60},{"user_id":672,"name":"UltraLemon","steam_id":76561198353134617,"connected_time":1864000000000,"state":"active","ping":52},{"user_id":666,"name":"Sniff","steam_id":76561198010270922,"connected_time":3525000000000,"state":"active","ping":73},{"user_id":679,"name":"St. Baddie d'Arc","steam_id":76561198206752128,"connected_time":425000000000,"state":"active","ping":157},{"user_id":673,"name":"Nom Skirrett","steam_id":76561198014600788,"connected_time":1863000000000,"state":"active","ping":66},{"user_id":680,"name":"jorts","steam_id":76561199041179985,"connected_time":369000000000,"state":"active","ping":57},{"user_id":674,"name":"tophawkyy","steam_id":76561199075934685,"connected_time":1863000000000,"state":"active","ping":78},{"user_id":676,"name":"roryistheburfdaygorl :))","steam_id":76561198065825165,"connected_time":1627000000000,"state":"active","ping":51},{"user_id":641,"name":"Dog","steam_id":76561198041841128,"connected_time":6518000000000,"state":"active","ping":84},{"user_id":601,"name":"Aardappel","steam_id":76561198030894676,"connected_time":9981000000000,"state":"active","ping":61},{"user_id":597,"name":"Sweets","steam_id":76561198998446307,"connected_time":10287000000000,"state":"active","ping":72},{"user_id":588,"name":"Gm_Sweet","steam_id":76561199445091548,"connected_time":11507000000000,"state":"active","ping":61},{"user_id":638,"name":"Cheezbeargur","steam_id":76561198164702899,"connected_time":6822000000000,"state":"active","ping":69},{"user_id":670,"name":"John Calibur","steam_id":76561197999986606,"connected_time":2376000000000,"state":"active","ping":76}]},{"server_id":119,"name":"Uncletopia | Seattle | 2 | All Maps","name_short":"sea-2","host":"sea-1.us.uncletopia.com","port":27025,"enabled":true,"region":"us-west","cc":"us","latitude":47.608013,"longitude":-122.33517,"reserved":0,"last_update":"0001-01-01T00:00:00Z","name_a2s":"Uncletopia | Seattle | 2 | All Maps","protocol":17,"map":"pl_snowycoast","folder":"tf","game":"Team Fortress","app_id":440,"player_count":24,"max_players":24,"Bots":0,"server_type":"Dedicated","server_os":"Linux","password":true,"vac":true,"version":"7961495","steam_id":85568392924469998,"keywords":["nocrits","nodmgspread","payload","uncletopia"],"game_id":440,"stv_port":27026,"stv_name":"Uncletopia | Seattle | 2 | All Maps | STV","players":[{"user_id":305,"name":"EnragedWaters","steam_id":76561198317135757,"connected_time":1779000000000,"state":"active","ping":60},{"user_id":296,"name":"Type Three Dabeetus","steam_id":76561198062710038,"connected_time":2473000000000,"state":"active","ping":77},{"user_id":311,"name":"Banette","steam_id":76561198215458333,"connected_time":976000000000,"state":"active","ping":45},{"user_id":283,"name":"\u0026Femboy Friday (they/them)","steam_id":76561198027321950,"connected_time":3840000000000,"state":"active","ping":46},{"user_id":312,"name":"adapt","steam_id":76561198156181017,"connected_time":971000000000,"state":"active","ping":76},{"user_id":324,"name":"Dongus","steam_id":76561197979056451,"connected_time":179000000000,"state":"active","ping":49},{"user_id":288,"name":"AWGER","steam_id":76561198284683624,"connected_time":2727000000000,"state":"active","ping":79},{"user_id":309,"name":"FidelGuevara","steam_id":76561198368296171,"connected_time":990000000000,"state":"active","ping":381},{"user_id":291,"name":"Tibetan Pop Star","steam_id":76561198844903984,"connected_time":2623000000000,"state":"active","ping":74},{"user_id":322,"name":"‚ô•CharaÂñúÁîüÂ≠ê‚ô•","steam_id":76561198080500920,"connected_time":285000000000,"state":"active","ping":75},{"user_id":323,"name":"Neb","steam_id":76561198883473473,"connected_time":214000000000,"state":"active","ping":45},{"user_id":313,"name":"warren","steam_id":76561198136331136,"connected_time":944000000000,"state":"active","ping":133},{"user_id":320,"name":"top 10 sidewalks","steam_id":76561198844273999,"connected_time":433000000000,"state":"active","ping":45},{"user_id":292,"name":"Day Man","steam_id":76561198067154807,"connected_time":2623000000000,"state":"active","ping":47},{"user_id":316,"name":"Chris P. Wiener","steam_id":76561198168808551,"connected_time":847000000000,"state":"active","ping":46},{"user_id":318,"name":"GreenApples","steam_id":76561198120559543,"connected_time":781000000000,"state":"active","ping":65},{"user_id":317,"name":"Dullahan","steam_id":76561198119668908,"connected_time":842000000000,"state":"active","ping":66},{"user_id":304,"name":"slowdance","steam_id":76561198097427947,"connected_time":1835000000000,"state":"active","ping":120},{"user_id":319,"name":"UV","steam_id":76561198083936918,"connected_time":456000000000,"state":"active","ping":44},{"user_id":321,"name":"Seriously Bruh","steam_id":76561198070408485,"connected_time":428000000000,"state":"active","ping":49},{"user_id":325,"name":"NightmareOhm","steam_id":76561198338853664,"connected_time":119000000000,"state":"active","ping":45},{"user_id":280,"name":"Klone","steam_id":76561198854485605,"connected_time":4202000000000,"state":"active","ping":119},{"user_id":326,"name":"fragadelphia","steam_id":76561198066116363,"connected_time":13000000000,"state":"spawning","ping":43},{"user_id":278,"name":"gender fluid IV","steam_id":76561198065662025,"connected_time":4463000000000,"state":"active","ping":69}]},{"server_id":406,"name":"Uncletopia | Seattle | 3 | Stopwatch","name_short":"sea-3","host":"sea-1.us.uncletopia.com","port":27035,"enabled":true,"region":"us-west","cc":"us","latitude":47.608013,"longitude":-122.33517,"reserved":0,"last_update":"0001-01-01T00:00:00Z","name_a2s":"Uncletopia | Seattle | 3 | Stopwatch","protocol":17,"map":"cp_sunshine","folder":"tf","game":"Team Fortress","app_id":440,"player_count":0,"max_players":24,"Bots":0,"server_type":"Dedicated","server_os":"Linux","password":true,"vac":true,"version":"7961495","steam_id":85568392924515217,"keywords":["cp","nocrits","nodmgspread","uncletopia"],"game_id":440,"stv_port":27036,"stv_name":"Uncletopia | Seattle | 3 | Stopwatch | STV","players":null},{"server_id":17,"name":"Uncletopia | San Francisco | 1 | All Maps","name_short":"sfo-1","host":"sfo-1.us.uncletopia.com","port":27015,"enabled":true,"region":"us-west","cc":"us","latitude":37.77397,"longitude":-122.4313,"reserved":0,"last_update":"0001-01-01T00:00:00Z","name_a2s":"Uncletopia | San Francisco | 1 | All Maps","protocol":17,"map":"koth_king","folder":"tf","game":"Team Fortress","app_id":440,"player_count":24,"max_players":24,"Bots":0,"server_type":"Dedicated","server_os":"Linux","password":true,"vac":true,"version":"7961495","steam_id":85568392924469999,"keywords":["cp","nocrits","nodmgspread","uncletopia"],"game_id":440,"stv_port":27016,"stv_name":"Uncletopia | San Francisco | 1 | All Maps | STV","players":[{"user_id":303,"name":"Seanvich","steam_id":76561198065805500,"connected_time":2464000000000,"state":"active","ping":91},{"user_id":280,"name":"Grungus","steam_id":76561198047700230,"connected_time":4215000000000,"state":"active","ping":51},{"user_id":277,"name":"remanedur","steam_id":76561198059459507,"connected_time":4472000000000,"state":"active","ping":129},{"user_id":301,"name":"Battle Bug","steam_id":76561198005793034,"connected_time":2541000000000,"state":"active","ping":72},{"user_id":314,"name":"Quibits","steam_id":76561198032944405,"connected_time":1975000000000,"state":"active","ping":41},{"user_id":307,"name":"shakoiwa","steam_id":76561199059441773,"connected_time":2252000000000,"state":"active","ping":62},{"user_id":296,"name":"8","steam_id":76561199206177858,"connected_time":2837000000000,"state":"active","ping":67},{"user_id":304,"name":"experiment 149","steam_id":76561198189540306,"connected_time":2415000000000,"state":"active","ping":105},{"user_id":326,"name":"Fray","steam_id":76561198030141282,"connected_time":80000000000,"state":"active","ping":103},{"user_id":305,"name":"Mix56374","steam_id":76561199093717909,"connected_time":2369000000000,"state":"active","ping":71},{"user_id":187,"name":"buccellb","steam_id":76561198344975466,"connected_time":11093000000000,"state":"active","ping":143},{"user_id":324,"name":"Desert Cross Tortoise Fox","steam_id":76561198030736326,"connected_time":411000000000,"state":"active","ping":72},{"user_id":306,"name":"9","steam_id":76561198208996573,"connected_time":2322000000000,"state":"active","ping":69},{"user_id":325,"name":"knatspray","steam_id":76561198832507482,"connected_time":349000000000,"state":"active","ping":85},{"user_id":319,"name":"Borris","steam_id":76561198011136886,"connected_time":1373000000000,"state":"active","ping":63},{"user_id":273,"name":"Starkiller","steam_id":76561198101643120,"connected_time":4790000000000,"state":"active","ping":72},{"user_id":302,"name":"FastCo. Piglet","steam_id":76561198001877571,"connected_time":2528000000000,"state":"active","ping":110},{"user_id":316,"name":"Shabooyaroll-call","steam_id":76561198112306237,"connected_time":1772000000000,"state":"active","ping":68},{"user_id":257,"name":"Username","steam_id":76561198198918781,"connected_time":5897000000000,"state":"active","ping":73},{"user_id":309,"name":"Wren","steam_id":76561198012067451,"connected_time":2204000000000,"state":"active","ping":105},{"user_id":321,"name":"azureglxy","steam_id":76561198861388315,"connected_time":1037000000000,"state":"active","ping":49},{"user_id":311,"name":"Conrad Murray","steam_id":76561198141682876,"connected_time":2158000000000,"state":"active","ping":105},{"user_id":322,"name":"Buswolley","steam_id":76561197995205571,"connected_time":570000000000,"state":"active","ping":47},{"user_id":313,"name":"The_RainbowTrout","steam_id":76561199309554436,"connected_time":2109000000000,"state":"active","ping":63}]},{"server_id":18,"name":"Uncletopia | San Francisco | 2 | All Maps","name_short":"sfo-2","host":"sfo-1.us.uncletopia.com","port":27025,"enabled":true,"region":"us-west","cc":"us","latitude":37.77397,"longitude":-122.4313,"reserved":0,"last_update":"0001-01-01T00:00:00Z","name_a2s":"Uncletopia | San Francisco | 2 | All Maps","protocol":17,"map":"koth_highpass","folder":"tf","game":"Team Fortress","app_id":440,"player_count":5,"max_players":24,"Bots":0,"server_type":"Dedicated","server_os":"Linux","password":true,"vac":true,"version":"7961495","steam_id":85568392924470000,"keywords":["cp","nocrits","nodmgspread","uncletopia"],"game_id":440,"stv_port":27026,"stv_name":"Uncletopia | San Francisco | 2 | All Maps | STV","players":[{"user_id":172,"name":"Flappy Fiveskin","steam_id":76561199013107272,"connected_time":1316000000000,"state":"active","ping":74},{"user_id":175,"name":"Penis Music","steam_id":76561198089647760,"connected_time":999000000000,"state":"active","ping":93},{"user_id":177,"name":"Mom","steam_id":76561198207936000,"connected_time":647000000000,"state":"active","ping":30},{"user_id":179,"name":"Fehr","steam_id":76561198037749723,"connected_time":259000000000,"state":"active","ping":68},{"user_id":180,"name":"Mr. Mystical Perfection","steam_id":76561198036444997,"connected_time":70000000000,"state":"active","ping":52}]},{"server_id":19,"name":"Uncletopia | San Francisco | 3 | Stopwatch","name_short":"sfo-3","host":"sfo-1.us.uncletopia.com","port":27035,"enabled":true,"region":"us-west","cc":"us","latitude":37.77397,"longitude":-122.4313,"reserved":0,"last_update":"0001-01-01T00:00:00Z","name_a2s":"Uncletopia | San Francisco | 3 | Stopwatch","protocol":17,"map":"koth_highpass","folder":"tf","game":"Team Fortress","app_id":440,"player_count":0,"max_players":24,"Bots":0,"server_type":"Dedicated","server_os":"Linux","password":true,"vac":true,"version":"7961495","steam_id":85568392924742824,"keywords":["cp","nocrits","nodmgspread","uncletopia"],"game_id":440,"stv_port":27036,"stv_name":"Uncletopia | San Francisco | 3 | Stopwatch | STV","players":null},{"server_id":20,"name":"Uncletopia | San Francisco | 4 | Community","name_short":"sfo-4","host":"sfo-1.us.uncletopia.com","port":27045,"enabled":true,"region":"us-west","cc":"us","latitude":37.77397,"longitude":-122.4313,"reserved":0,"last_update":"0001-01-01T00:00:00Z","name_a2s":"Uncletopia | San Francisco | 4 | Community","protocol":17,"map":"workshop/koth_ashville_final.ugc2130459942","folder":"tf","game":"Team Fortress","app_id":440,"player_count":0,"max_players":24,"Bots":0,"server_type":"Dedicated","server_os":"Linux","password":true,"vac":true,"version":"7961495","steam_id":85568392924742826,"keywords":["cp","nocrits","nodmgspread","uncletopia"],"game_id":440,"stv_port":27046,"stv_name":"Uncletopia | San Francisco | 4 | Community | STV","players":null},{"server_id":141,"name":"Uncletopia | Sydney | 1 | All Maps","name_short":"syd-1","host":"syd-1.au.uncletopia.com","port":27015,"enabled":true,"region":"au","cc":"au","latitude":-33.865143,"longitude":151.2099,"reserved":0,"last_update":"0001-01-01T00:00:00Z","name_a2s":"Uncletopia | Sydney | 1 | All Maps","protocol":17,"map":"pl_borneo","folder":"tf","game":"Team Fortress","app_id":440,"player_count":24,"max_players":24,"Bots":0,"server_type":"Dedicated","server_os":"Linux","password":true,"vac":true,"version":"7961495","steam_id":85568392924470001,"keywords":["nocrits","nodmgspread","payload","uncletopia"],"game_id":440,"stv_port":27016,"stv_name":"Uncletopia | Sydney | 1 | All Maps | STV","players":[{"user_id":137,"name":"edwardo","steam_id":76561198268861226,"connected_time":1620000000000,"state":"active","ping":63},{"user_id":124,"name":"positivity","steam_id":76561198261629665,"connected_time":2907000000000,"state":"active","ping":62},{"user_id":143,"name":"No Scrubs","steam_id":76561197969619053,"connected_time":267000000000,"state":"active","ping":68},{"user_id":101,"name":"FizzySpoon","steam_id":76561198071464721,"connected_time":5444000000000,"state":"active","ping":55},{"user_id":102,"name":"negan.feels","steam_id":76561198075745774,"connected_time":5281000000000,"state":"active","ping":53},{"user_id":115,"name":"saturation","steam_id":76561199457046392,"connected_time":3976000000000,"state":"active","ping":98},{"user_id":142,"name":"Barnsey","steam_id":76561198036305283,"connected_time":364000000000,"state":"active","ping":74},{"user_id":23,"name":"voxii","steam_id":76561198099698281,"connected_time":12325000000000,"state":"active","ping":70},{"user_id":133,"name":"diamond","steam_id":76561198206754736,"connected_time":1923000000000,"state":"active","ping":54},{"user_id":146,"name":"Pompadouraus","steam_id":76561198327530525,"connected_time":30000000000,"state":"active","ping":76},{"user_id":138,"name":"Warren","steam_id":76561198120350917,"connected_time":1429000000000,"state":"active","ping":45},{"user_id":135,"name":"soupy","steam_id":76561198073734936,"connected_time":1625000000000,"state":"active","ping":90},{"user_id":125,"name":"Sentry Gun (EpicGuy4227)","steam_id":76561198094132328,"connected_time":2488000000000,"state":"active","ping":53},{"user_id":139,"name":"Malphas","steam_id":76561198011425371,"connected_time":1411000000000,"state":"active","ping":59},{"user_id":128,"name":"Astro Samurai","steam_id":76561198328252260,"connected_time":2263000000000,"state":"active","ping":56},{"user_id":132,"name":"Snuky","steam_id":76561198117902338,"connected_time":2241000000000,"state":"active","ping":45},{"user_id":103,"name":"Senator_Armstron","steam_id":76561198078987455,"connected_time":5226000000000,"state":"active","ping":73},{"user_id":140,"name":"P. Ness","steam_id":76561198037664265,"connected_time":1110000000000,"state":"active","ping":60},{"user_id":109,"name":"Teamfighting","steam_id":76561198160135508,"connected_time":4709000000000,"state":"active","ping":46},{"user_id":129,"name":"‚Ä† Reeve","steam_id":76561197969102326,"connected_time":2258000000000,"state":"active","ping":76},{"user_id":119,"name":"sarah.nintendogs","steam_id":76561198035811678,"connected_time":3899000000000,"state":"active","ping":38},{"user_id":144,"name":"no teles 4 u","steam_id":76561198018478297,"connected_time":140000000000,"state":"active","ping":76},{"user_id":145,"name":"monnickev","steam_id":76561198252587162,"connected_time":136000000000,"state":"active","ping":38},{"user_id":131,"name":"eyj","steam_id":76561198049039374,"connected_time":2253000000000,"state":"active","ping":43}]},{"server_id":123,"name":"Uncletopia | Sydney | 2 | All Maps","name_short":"syd-2","host":"syd-1.au.uncletopia.com","port":27025,"enabled":true,"region":"au","cc":"au","latitude":-33.865143,"longitude":151.2099,"reserved":0,"last_update":"0001-01-01T00:00:00Z","name_a2s":"Uncletopia | Sydney | 2 | All Maps","protocol":17,"map":"pl_barnblitz","folder":"tf","game":"Team Fortress","app_id":440,"player_count":24,"max_players":24,"Bots":0,"server_type":"Dedicated","server_os":"Linux","password":true,"vac":true,"version":"7961495","steam_id":85568392924470002,"keywords":["nocrits","nodmgspread","payload","uncletopia"],"game_id":440,"stv_port":27026,"stv_name":"Uncletopia | Sydney | 2 | All Maps | STV","players":[{"user_id":24,"name":"KingPayment","steam_id":76561198795451039,"connected_time":2521000000000,"state":"active","ping":75},{"user_id":37,"name":"Alpha Furry","steam_id":76561198253080474,"connected_time":1689000000000,"state":"active","ping":68},{"user_id":35,"name":"Dadszoo","steam_id":76561198296611122,"connected_time":1830000000000,"state":"active","ping":66},{"user_id":49,"name":"fovai","steam_id":76561198223471072,"connected_time":1411000000000,"state":"active","ping":60},{"user_id":59,"name":"\u003e:FrozenDragon:\u003c","steam_id":76561198227960928,"connected_time":708000000000,"state":"active","ping":101},{"user_id":12,"name":"Spiffing","steam_id":76561199020105540,"connected_time":2909000000000,"state":"active","ping":83},{"user_id":13,"name":"zog","steam_id":76561198330464664,"connected_time":2898000000000,"state":"active","ping":49},{"user_id":14,"name":"Sebby V","steam_id":76561199104964949,"connected_time":2856000000000,"state":"active","ping":58},{"user_id":15,"name":"Otoh Gunga","steam_id":76561199130693703,"connected_time":2853000000000,"state":"active","ping":66},{"user_id":48,"name":"yaero","steam_id":76561198047462865,"connected_time":1428000000000,"state":"active","ping":51},{"user_id":51,"name":"FascismSalad","steam_id":76561198262410973,"connected_time":1263000000000,"state":"active","ping":51},{"user_id":25,"name":"tf2 dung eater","steam_id":76561198274740718,"connected_time":2424000000000,"state":"active","ping":56},{"user_id":62,"name":"User","steam_id":76561198119416510,"connected_time":512000000000,"state":"active","ping":39},{"user_id":66,"name":"james16","steam_id":76561198362678073,"connected_time":256000000000,"state":"active","ping":28},{"user_id":22,"name":"JunkKnight","steam_id":76561198050917553,"connected_time":2590000000000,"state":"active","ping":59},{"user_id":47,"name":"Fresh Produce Gaming","steam_id":76561198358483352,"connected_time":1448000000000,"state":"active","ping":64},{"user_id":64,"name":"jamaz","steam_id":76561198031941434,"connected_time":457000000000,"state":"active","ping":65},{"user_id":50,"name":"Lovres","steam_id":76561198058740774,"connected_time":1394000000000,"state":"active","ping":70},{"user_id":57,"name":"seizure man (real)","steam_id":76561199025045265,"connected_time":860000000000,"state":"active","ping":73},{"user_id":55,"name":"El","steam_id":76561198095659550,"connected_time":936000000000,"state":"active","ping":93},{"user_id":67,"name":"ANML","steam_id":76561198260039591,"connected_time":206000000000,"state":"active","ping":56},{"user_id":45,"name":"stroob","steam_id":76561198045320644,"connected_time":1523000000000,"state":"active","ping":55},{"user_id":53,"name":"Giant Rat","steam_id":76561198110170714,"connected_time":1122000000000,"state":"active","ping":59},{"user_id":54,"name":"Hetjar","steam_id":76561198108655278,"connected_time":1085000000000,"state":"active","ping":64}]},{"server_id":395,"name":"Uncletopia | Sydney | 3 | All Maps","name_short":"syd-3","host":"syd-1.au.uncletopia.com","port":27035,"enabled":true,"region":"au","cc":"au","latitude":-33.865143,"longitude":151.2099,"reserved":0,"last_update":"0001-01-01T00:00:00Z","name_a2s":"Uncletopia | Sydney | 3 | All Maps","protocol":17,"map":"pl_swiftwater_final1","folder":"tf","game":"Team Fortress","app_id":440,"player_count":0,"max_players":24,"Bots":0,"server_type":"Dedicated","server_os":"Linux","password":true,"vac":true,"version":"7961495","steam_id":85568392925194467,"keywords":["nocrits","nodmgspread","payload","uncletopia"],"game_id":440,"stv_port":27036,"stv_name":"Uncletopia | Sydney | 3 | All Maps | STV","players":null},{"server_id":396,"name":"Uncletopia | Sydney | 4 | All Maps","name_short":"syd-4","host":"syd-1.au.uncletopia.com","port":27045,"enabled":true,"region":"au","cc":"au","latitude":-33.865143,"longitude":151.2099,"reserved":0,"last_update":"0001-01-01T00:00:00Z","name_a2s":"Uncletopia | Sydney | 4 | All Maps","protocol":17,"map":"cp_process_final","folder":"tf","game":"Team Fortress","app_id":440,"player_count":0,"max_players":24,"Bots":0,"server_type":"Dedicated","server_os":"Linux","password":true,"vac":true,"version":"7961495","steam_id":85568392925397958,"keywords":["cp","nocrits","nodmgspread","uncletopia"],"game_id":440,"stv_port":27046,"stv_name":"Uncletopia | Sydney | 4 | All Maps | STV","players":null},{"server_id":58,"name":"Uncletopia | Sydney | 5 | Stopwatch","name_short":"syd-5","host":"syd-1.au.uncletopia.com","port":27055,"enabled":true,"region":"au","cc":"au","latitude":-33.865143,"longitude":151.2099,"reserved":0,"last_update":"0001-01-01T00:00:00Z","name_a2s":"Uncletopia | Sydney | 5 | Stopwatch","protocol":17,"map":"pl_frontier_final","folder":"tf","game":"Team Fortress","app_id":440,"player_count":0,"max_players":24,"Bots":0,"server_type":"Dedicated","server_os":"Linux","password":true,"vac":true,"version":"7961495","steam_id":85568392925397959,"keywords":["nocrits","nodmgspread","payload","uncletopia"],"game_id":440,"stv_port":27056,"stv_name":"Uncletopia | Sydney | 5 | Stopwatch | STV","players":null},{"server_id":59,"name":"Uncletopia | Sydney | 6 | Community","name_short":"syd-6","host":"syd-1.au.uncletopia.com","port":27065,"enabled":true,"region":"au","cc":"au","latitude":-33.865143,"longitude":151.2099,"reserved":0,"last_update":"0001-01-01T00:00:00Z","name_a2s":"Uncletopia | Sydney | 6 | Community","protocol":17,"map":"cp_sunshine","folder":"tf","game":"Team Fortress","app_id":440,"player_count":0,"max_players":24,"Bots":0,"server_type":"Dedicated","server_os":"Linux","password":true,"vac":true,"version":"7961495","steam_id":85568392925397960,"keywords":["cp","nocrits","nodmgspread","uncletopia"],"game_id":440,"stv_port":27066,"stv_name":"Uncletopia | Sydney | 6 | Community | STV","players":null},{"server_id":49,"name":"Uncletopia | Warsaw | 1 | One Thousand Uncles","name_short":"waw-1","host":"waw-1.pl.uncletopia.com","port":27015,"enabled":true,"region":"eu","cc":"pl","latitude":52.2297,"longitude":21.017532,"reserved":0,"last_update":"0001-01-01T00:00:00Z","name_a2s":"Uncletopia | Warsaw | 1 | One Thousand Uncles","protocol":17,"map":"koth_highpass","folder":"tf","game":"Team Fortress","app_id":440,"player_count":0,"max_players":32,"Bots":0,"server_type":"Dedicated","server_os":"Linux","password":true,"vac":true,"version":"7961495","steam_id":85568392925397850,"keywords":["alltalk","cp","danepve","increased_maxplayers","nocrits","norespawntime","uncletopia"],"game_id":440,"stv_port":0,"stv_name":"","players":null},{"server_id":50,"name":"Uncletopia | Warsaw | 2 | One Thousand Uncles","name_short":"waw-2","host":"waw-1.pl.uncletopia.com","port":27025,"enabled":true,"region":"eu","cc":"pl","latitude":52.2297,"longitude":21.017532,"reserved":0,"last_update":"0001-01-01T00:00:00Z","name_a2s":"Uncletopia | Warsaw | 2 | One Thousand Uncles","protocol":17,"map":"pl_goldrush","folder":"tf","game":"Team Fortress","app_id":440,"player_count":0,"max_players":32,"Bots":0,"server_type":"Dedicated","server_os":"Linux","password":true,"vac":true,"version":"7961495","steam_id":85568392925397851,"keywords":["alltalk","danepve","increased_maxplayers","nocrits","norespawntime","payload","uncletopia"],"game_id":440,"stv_port":0,"stv_name":"","players":null},{"server_id":51,"name":"Uncletopia | Warsaw | 3 | All Maps","name_short":"waw-3","host":"waw-1.pl.uncletopia.com","port":27035,"enabled":true,"region":"eu","cc":"pl","latitude":52.2297,"longitude":21.017532,"reserved":0,"last_update":"0001-01-01T00:00:00Z","name_a2s":"Uncletopia | Warsaw | 3 | All Maps","protocol":17,"map":"plr_pipeline","folder":"tf","game":"Team Fortress","app_id":440,"player_count":0,"max_players":24,"Bots":0,"server_type":"Dedicated","server_os":"Linux","password":true,"vac":true,"version":"7961495","steam_id":85568392925397852,"keywords":["nocrits","nodmgspread","payload","uncletopia"],"game_id":440,"stv_port":27036,"stv_name":"Uncletopia | Warsaw | 3 | All Maps | STV","players":null},{"server_id":52,"name":"Uncletopia | Warsaw | 4 | All Maps","name_short":"waw-4","host":"waw-1.pl.uncletopia.com","port":27045,"enabled":true,"region":"eu","cc":"pl","latitude":52.2297,"longitude":21.017532,"reserved":0,"last_update":"0001-01-01T00:00:00Z","name_a2s":"Uncletopia | Warsaw | 4 | All Maps","protocol":17,"map":"cp_coldfront","folder":"tf","game":"Team Fortress","app_id":440,"player_count":0,"max_players":24,"Bots":0,"server_type":"Dedicated","server_os":"Linux","password":true,"vac":true,"version":"7961495","steam_id":85568392925397853,"keywords":["cp","nocrits","nodmgspread","uncletopia"],"game_id":440,"stv_port":27046,"stv_name":"Uncletopia | Warsaw | 4 | All Maps | STV","players":null},{"server_id":53,"name":"Uncletopia | Warsaw | 5 | Stopwatch","name_short":"waw-5","host":"waw-1.pl.uncletopia.com","port":27055,"enabled":true,"region":"eu","cc":"pl","latitude":52.2297,"longitude":21.017532,"reserved":0,"last_update":"0001-01-01T00:00:00Z","name_a2s":"Uncletopia | Warsaw | 5 | Stopwatch","protocol":17,"map":"workshop/koth_bagel_rc6.ugc2514036946","folder":"tf","game":"Team Fortress","app_id":440,"player_count":0,"max_players":24,"Bots":0,"server_type":"Dedicated","server_os":"Linux","password":true,"vac":true,"version":"7961495","steam_id":85568392925397854,"keywords":["cp","nocrits","nodmgspread","uncletopia"],"game_id":440,"stv_port":27056,"stv_name":"Uncletopia | Warsaw | 5 | Stopwatch | STV","players":null},{"server_id":54,"name":"Uncletopia | Warsaw | 6 | Community","name_short":"waw-6","host":"waw-1.pl.uncletopia.com","port":27065,"enabled":true,"region":"eu","cc":"pl","latitude":52.2297,"longitude":21.017532,"reserved":0,"last_update":"0001-01-01T00:00:00Z","name_a2s":"Uncletopia | Warsaw | 6 | Community","protocol":17,"map":"workshop/pl_badwater_pro_v12.ugc2142942074","folder":"tf","game":"Team Fortress","app_id":440,"player_count":0,"max_players":24,"Bots":0,"server_type":"Dedicated","server_os":"Linux","password":true,"vac":true,"version":"7961495","steam_id":85568392925397856,"keywords":["nocrits","nodmgspread","payload","uncletopia"],"game_id":440,"stv_port":27066,"stv_name":"Uncletopia | Warsaw | 6 | Community | STV","players":null}]}