{"status":true,"message":"","result":[{"server_id":9,"name":"Uncletopia | Atlanta | 1 | All Maps","name_short":"atl-1","host":"atl-1.us.uncletopia.com","port":27015,"enabled":true,"region":"us-east","cc":"us","latitude":33.753746,"longitude":-84.38633,"reserved":0,"last_update":"0001-01-01T00:00:00Z","name_a2s":"Uncletopia | Atlanta | 1 | All Maps","protocol":17,"map":"pl_pier","folder":"tf","game":"Team Fortress","app_id":440,"player_count":24,"max_players":24,"Bots":0,"server_type":"Dedicated","server_os":"Linux","password":true,"vac":true,"version":"7961495","steam_id":85568392924469982,"keywords":["nocrits","nodmgspread","payload","uncletopia"],"game_id":440,"stv_port":27016,"stv_name":"Uncletopia | Atlanta | 1 | All Maps | STV","players":[{"user_id":458,"name":"Lord Shmeck","steam_id":76561198023851456,"connected_time":413000000000,"state":"active","ping":109},{"user_id":445,"name":"z #based","steam_id":76561198377478982,"connected_time":2386000000000,"state":"active","ping":70},{"user_id":456,"name":"Jared","steam_id":76561198027210228,"connected_time":711000000000,"state":"active","ping":80},{"user_id":429,"name":"Herman Bavinck","steam_id":76561197993190216,"connected_time":4374000000000,"state":"active","ping":63},{"user_id":439,"name":"Conniving Charlatan","steam_id":76561198393228572,"connected_time":3245000000000,"state":"active","ping":60},{"user_id":271,"name":"Heathcliff","steam_id":76561198044288534,"connected_time":15477000000000,"state":"active","ping":62},{"user_id":428,"name":"Pango","steam_id":76561198069811545,"connected_time":4397000000000,"state":"active","ping":42},{"user_id":436,"name":"GG.Karrot","steam_id":76561198991848337,"connected_time":3342000000000,"state":"active","ping":102},{"user_id":450,"name":"BIG HOG","steam_id":76561198079923652,"connected_time":1629000000000,"state":"active","ping":74},{"user_id":440,"name":"Hans","steam_id":76561199153433318,"connected_time":3139000000000,"state":"active","ping":58},{"user_id":420,"name":"Kirby","steam_id":76561199161858008,"connected_time":4694000000000,"state":"active","ping":57},{"user_id":444,"name":"rose","steam_id":76561198048882285,"connected_time":2687000000000,"state":"active","ping":74},{"user_id":459,"name":"lilscot","steam_id":76561198099212453,"connected_time":282000000000,"state":"active","ping":77},{"user_id":433,"name":"Intro Bonito","steam_id":76561198119478838,"connected_time":3364000000000,"state":"active","ping":49},{"user_id":457,"name":"Le4n!!!","steam_id":76561198045522596,"connected_time":453000000000,"state":"active","ping":74},{"user_id":422,"name":"lil hog","steam_id":76561199230929836,"connected_time":4687000000000,"state":"active","ping":139},{"user_id":432,"name":"ATL1 | Uganda (Steel enjoyer)","steam_id":76561199121276474,"connected_time":4095000000000,"state":"active","ping":75},{"user_id":424,"name":"ICBMonkey","steam_id":76561198033351821,"connected_time":4667000000000,"state":"active","ping":62},{"user_id":452,"name":"Vava","steam_id":76561199061877557,"connected_time":1525000000000,"state":"active","ping":83},{"user_id":455,"name":"frog from pond AT","steam_id":76561198184900753,"connected_time":1105000000000,"state":"active","ping":75},{"user_id":441,"name":"GG.KexruTv","steam_id":76561198374399876,"connected_time":3082000000000,"state":"active","ping":58},{"user_id":449,"name":"lurid","steam_id":76561199134999203,"connected_time":1644000000000,"state":"active","ping":61},{"user_id":376,"name":"freyja","steam_id":76561198249206656,"connected_time":8671000000000,"state":"active","ping":90},{"user_id":396,"name":"mio","steam_id":76561198239286750,"connected_time":7027000000000,"state":"active","ping":63}]},{"server_id":104,"name":"Uncletopia | Atlanta | 2 | All Maps","name_short":"atl-2","host":"atl-1.us.uncletopia.com","port":27025,"enabled":true,"region":"us-east","cc":"us","latitude":33.753746,"longitude":-84.38633,"reserved":0,"last_update":"0001-01-01T00:00:00Z","name_a2s":"Uncletopia | Atlanta | 2 | All Maps","protocol":17,"map":"cp_altitude","folder":"tf","game":"Team Fortress","app_id":440,"player_count":19,"max_players":24,"Bots":0,"server_type":"Dedicated","server_os":"Linux","password":true,"vac":true,"version":"7961495","steam_id":85568392924469983,"keywords":["cp","nocrits","nodmgspread","uncletopia"],"game_id":440,"stv_port":27026,"stv_name":"Uncletopia | Atlanta | 2 | All Maps | STV","players":[{"user_id":504,"name":"[RЯ] ShibesGoneWow","steam_id":76561198036090516,"connected_time":11000000000,"state":"active","ping":47},{"user_id":424,"name":"vinster7","steam_id":76561198071966963,"connected_time":3758000000000,"state":"active","ping":64},{"user_id":502,"name":"Beep","steam_id":76561198034747727,"connected_time":78000000000,"state":"active","ping":60},{"user_id":367,"name":"gasoline covered fawn","steam_id":76561198043684960,"connected_time":7789000000000,"state":"active","ping":60},{"user_id":452,"name":"Madrox Who?","steam_id":76561197988859134,"connected_time":2267000000000,"state":"active","ping":85},{"user_id":465,"name":"TURTLEPOOL21","steam_id":76561198278212264,"connected_time":702000000000,"state":"active","ping":39},{"user_id":466,"name":"Draco6257","steam_id":76561199147322448,"connected_time":699000000000,"state":"active","ping":49},{"user_id":456,"name":"John","steam_id":76561198070700732,"connected_time":1455000000000,"state":"active","ping":65},{"user_id":503,"name":"Bean","steam_id":76561198056064279,"connected_time":75000000000,"state":"active","ping":54},{"user_id":451,"name":"Liver stealer","steam_id":76561199029954287,"connected_time":2333000000000,"state":"active","ping":109},{"user_id":397,"name":"Drinker of Water","steam_id":76561198284647525,"connected_time":5518000000000,"state":"active","ping":59},{"user_id":372,"name":"eBay","steam_id":76561198061214569,"connected_time":7400000000000,"state":"active","ping":81},{"user_id":498,"name":"Canadian Beb","steam_id":76561198055462395,"connected_time":139000000000,"state":"active","ping":64},{"user_id":430,"name":"Rhutebeer","steam_id":76561198018302761,"connected_time":3587000000000,"state":"active","ping":65},{"user_id":469,"name":"Sous-Chef","steam_id":76561198075705827,"connected_time":607000000000,"state":"active","ping":59},{"user_id":441,"name":"Pixeled","steam_id":76561198088917077,"connected_time":2870000000000,"state":"active","ping":60},{"user_id":442,"name":"Blue","steam_id":76561199093604072,"connected_time":2867000000000,"state":"active","ping":61},{"user_id":461,"name":"Thotimus Begonimus","steam_id":76561197970275938,"connected_time":1199000000000,"state":"active","ping":44},{"user_id":368,"name":"Mr. Sex Jr","steam_id":76561199219852129,"connected_time":7738000000000,"state":"active","ping":151}]},{"server_id":400,"name":"Uncletopia | Atlanta | 3 | Stopwatch","name_short":"atl-3","host":"atl-1.us.uncletopia.com","port":27035,"enabled":true,"region":"us-east","cc":"us","latitude":33.753746,"longitude":-84.38633,"reserved":0,"last_update":"0001-01-01T00:00:00Z","name_a2s":"Uncletopia | Atlanta | 3 | Stopwatch","protocol":17,"map":"koth_highpass","folder":"tf","game":"Team Fortress","app_id":440,"player_count":0,"max_players":24,"Bots":0,"server_type":"Dedicated","server_os":"Linux","password":true,"vac":true,"version":"7961495","steam_id":85568392924515187,"keywords":["cp","nocrits","nodmgspread","uncletopia"],"game_id":440,"stv_port":27036,"stv_name":"Uncletopia | Atlanta | 3 | Stopwatch | STV","players":null},{"server_id":401,"name":"Uncletopia | Atlanta | 4 | Community","name_short":"atl-4","host":"atl-1.us.uncletopia.com","port":27045,"enabled":true,"region":"us-east","cc":"us","latitude":33.753746,"longitude":-84.38633,"reserved":0,"last_update":"0001-01-01T00:00:00Z","name_a2s":"Uncletopia | Atlanta | 4 | Community","protocol":17,"map":"workshop/cp_glassworks_rc7a.ugc454118349","folder":"tf","game":"Team Fortress","app_id":440,"player_count":0,"max_players":24,"Bots":0,"server_type":"Dedicated","server_os":"Linux","password":true,"vac":true,"version":"7961495","steam_id":85568392924515188,"keywords":["cp","nocrits","nodmgspread","uncletopia"],"game_id":440,"stv_port":27046,"stv_name":"Uncletopia | Atlanta | 4 | Community | STV","players":null},{"server_id":2,"name":"Uncletopia | Chicago | 1 | All Maps","name_short":"chi-1","host":"chi-1.us.uncletopia.com","port":27015,"enabled":true,"region":"us-central","cc":"us","latitude":41.881832,"longitude":-87.62318,"reserved":0,"last_update":"0001-01-01T00:00:00Z","name_a2s":"Uncletopia | Chicago | 1 | All Maps","protocol":17,"map":"pl_swiftwater_final1","folder":"tf","game":"Team Fortress","app_id":440,"player_count":24,"max_players":24,"Bots":0,"server_type":"Dedicated","server_os":"Linux","password":true,"vac":true,"version":"7961495","steam_id":85568392924469984,"keywords":["nocrits","nodmgspread","payload","uncletopia"],"game_id":440,"stv_port":27016,"stv_name":"Uncletopia | Chicago | 1 | All Maps | STV","players":[{"user_id":781,"name":"Mega_Man23","steam_id":76561198138341391,"connected_time":3034000000000,"state":"active","ping":67},{"user_id":806,"name":"ECCO","steam_id":76561198002821513,"connected_time":1956000000000,"state":"active","ping":54},{"user_id":814,"name":"oxy","steam_id":76561198089770351,"connected_time":1902000000000,"state":"active","ping":63},{"user_id":750,"name":"rude boi","steam_id":76561198006783260,"connected_time":6320000000000,"state":"active","ping":64},{"user_id":838,"name":"moopmop","steam_id":76561198065224965,"connected_time":98000000000,"state":"active","ping":98},{"user_id":839,"name":"Jimmy","steam_id":76561198208935045,"connected_time":15000000000,"state":"active","ping":58},{"user_id":820,"name":"Orb","steam_id":76561198353963523,"connected_time":1323000000000,"state":"active","ping":73},{"user_id":835,"name":"FinnaBust","steam_id":76561198397669078,"connected_time":186000000000,"state":"active","ping":59},{"user_id":598,"name":"shut the fuck up and listen","steam_id":76561198018093835,"connected_time":16476000000000,"state":"active","ping":60},{"user_id":829,"name":"lag","steam_id":76561198117898839,"connected_time":773000000000,"state":"active","ping":106},{"user_id":827,"name":"KATSURB","steam_id":76561199172118456,"connected_time":900000000000,"state":"active","ping":60},{"user_id":802,"name":"Siz","steam_id":76561198072962154,"connected_time":2020000000000,"state":"active","ping":64},{"user_id":807,"name":"cess183","steam_id":76561198953972459,"connected_time":1947000000000,"state":"active","ping":62},{"user_id":836,"name":"Skyline","steam_id":76561198018382060,"connected_time":169000000000,"state":"active","ping":59},{"user_id":817,"name":"Junk","steam_id":76561198024382753,"connected_time":1758000000000,"state":"active","ping":49},{"user_id":782,"name":"PickleHater13","steam_id":76561198259380127,"connected_time":3021000000000,"state":"active","ping":57},{"user_id":818,"name":"๓Ҽѻω","steam_id":76561198226795780,"connected_time":1738000000000,"state":"active","ping":121},{"user_id":825,"name":"Ave, Christe Rex","steam_id":76561198845860800,"connected_time":1010000000000,"state":"active","ping":79},{"user_id":821,"name":"jb","steam_id":76561198038607085,"connected_time":1270000000000,"state":"active","ping":75},{"user_id":837,"name":"craneoperator39","steam_id":76561199237601540,"connected_time":150000000000,"state":"active","ping":47},{"user_id":811,"name":"awwawa","steam_id":76561198048139966,"connected_time":1932000000000,"state":"active","ping":61},{"user_id":813,"name":"waluigi fortnite balls","steam_id":76561198083060760,"connected_time":1915000000000,"state":"active","ping":68},{"user_id":831,"name":"Sharkwark","steam_id":76561199218566982,"connected_time":701000000000,"state":"active","ping":64},{"user_id":833,"name":"steven","steam_id":76561198173047169,"connected_time":239000000000,"state":"active","ping":67}]},{"server_id":106,"name":"Uncletopia | Chicago | 2 | All Maps","name_short":"chi-2","host":"chi-1.us.uncletopia.com","port":27025,"enabled":true,"region":"us-central","cc":"us","latitude":41.881832,"longitude":-87.62318,"reserved":0,"last_update":"0001-01-01T00:00:00Z","name_a2s":"Uncletopia | Chicago | 2 | All Maps","protocol":17,"map":"pl_goldrush","folder":"tf","game":"Team Fortress","app_id":440,"player_count":23,"max_players":24,"Bots":0,"server_type":"Dedicated","server_os":"Linux","password":true,"vac":true,"version":"7961495","steam_id":85568392924469985,"keywords":["nocrits","nodmgspread","payload","uncletopia"],"game_id":440,"stv_port":27026,"stv_name":"Uncletopia | Chicago | 2 | All Maps | STV","players":[{"user_id":318,"name":"Deary","steam_id":76561198868580370,"connected_time":2816000000000,"state":"active","ping":48},{"user_id":304,"name":"mellowhype","steam_id":76561198040675606,"connected_time":4000000000000,"state":"active","ping":72},{"user_id":337,"name":"cyclops","steam_id":76561197970370198,"connected_time":1518000000000,"state":"active","ping":58},{"user_id":359,"name":"don tomas","steam_id":76561199050423086,"connected_time":173000000000,"state":"spawning","ping":167},{"user_id":260,"name":"Iron Fox (Update-sized)","steam_id":76561198326520372,"connected_time":6599000000000,"state":"active","ping":46},{"user_id":344,"name":"stivvy","steam_id":76561199509212901,"connected_time":764000000000,"state":"active","ping":81},{"user_id":352,"name":"GreekGoat_Coffee","steam_id":76561198129331088,"connected_time":506000000000,"state":"active","ping":46},{"user_id":292,"name":"Hankel Tom (The Hankeler)","steam_id":76561199446367874,"connected_time":4614000000000,"state":"active","ping":50},{"user_id":357,"name":"juice drainer","steam_id":76561198361999761,"connected_time":234000000000,"state":"active","ping":102},{"user_id":348,"name":"newnuma.com | arkei","steam_id":76561198013113138,"connected_time":713000000000,"state":"active","ping":96},{"user_id":341,"name":"the one who trolls","steam_id":76561198882986104,"connected_time":1307000000000,"state":"active","ping":78},{"user_id":361,"name":"Grop Noise","steam_id":76561198145445403,"connected_time":137000000000,"state":"active","ping":45},{"user_id":293,"name":"Dr. Dick","steam_id":76561198138011922,"connected_time":4547000000000,"state":"active","ping":61},{"user_id":277,"name":"Soppu","steam_id":76561199324961605,"connected_time":6257000000000,"state":"active","ping":48},{"user_id":329,"name":"Garrosh","steam_id":76561198155953325,"connected_time":2647000000000,"state":"active","ping":60},{"user_id":308,"name":"ਹੁੱਡ ਕਾਉਬੌਏ","steam_id":76561198021308963,"connected_time":3892000000000,"state":"active","ping":75},{"user_id":358,"name":"honked off the bobo","steam_id":76561198123287268,"connected_time":192000000000,"state":"active","ping":46},{"user_id":347,"name":"Rode hard, put away wet","steam_id":76561198062764039,"connected_time":737000000000,"state":"active","ping":60},{"user_id":349,"name":"Lots0","steam_id":76561198043143145,"connected_time":693000000000,"state":"active","ping":77},{"user_id":345,"name":"Camero","steam_id":76561198119070238,"connected_time":748000000000,"state":"active","ping":65},{"user_id":315,"name":"Miner2495","steam_id":76561198445904523,"connected_time":3093000000000,"state":"active","ping":73},{"user_id":316,"name":"Dukino [drunk]","steam_id":76561198008455368,"connected_time":3089000000000,"state":"active","ping":59},{"user_id":355,"name":"dicksnip","steam_id":76561198356515396,"connected_time":347000000000,"state":"active","ping":85}]},{"server_id":402,"name":"Uncletopia | Chicago | 3 | All Maps","name_short":"chi-3","host":"chi-1.us.uncletopia.com","port":27035,"enabled":true,"region":"us-central","cc":"us","latitude":41.881832,"longitude":-87.62318,"reserved":0,"last_update":"0001-01-01T00:00:00Z","name_a2s":"Uncletopia | Chicago | 3 | All Maps","protocol":17,"map":"pl_hoodoo_final","folder":"tf","game":"Team Fortress","app_id":440,"player_count":24,"max_players":24,"Bots":0,"server_type":"Dedicated","server_os":"Linux","password":true,"vac":true,"version":"7961495","steam_id":85568392924515191,"keywords":["nocrits","nodmgspread","payload","uncletopia"],"game_id":440,"stv_port":27036,"stv_name":"Uncletopia | Chicago | 3 | All Maps | STV","players":[{"user_id":252,"name":"Lyfull (Rip Rick May)","steam_id":76561198273398361,"connected_time":3619000000000,"state":"active","ping":49},{"user_id":302,"name":"mudspaw","steam_id":76561198101327448,"connected_time":64000000000,"state":"active","ping":47},{"user_id":203,"name":"pooja","steam_id":76561198136642793,"connected_time":7904000000000,"state":"active","ping":66},{"user_id":299,"name":"Dullahan","steam_id":76561198119668908,"connected_time":85000000000,"state":"active","ping":107},{"user_id":291,"name":"bunit876","steam_id":76561198029172914,"connected_time":955000000000,"state":"active","ping":77},{"user_id":254,"name":"⛧ AlphaSatanOmega ⛧","steam_id":76561198035125511,"connected_time":3579000000000,"state":"active","ping":45},{"user_id":276,"name":"LVL","steam_id":76561198334403617,"connected_time":2034000000000,"state":"active","ping":60},{"user_id":193,"name":"J. Zolo","steam_id":76561198072112494,"connected_time":8875000000000,"state":"active","ping":101},{"user_id":29,"name":"Noobert McGlitchington the 3st","steam_id":76561198073176682,"connected_time":18090000000000,"state":"active","ping":61},{"user_id":298,"name":"Rein","steam_id":76561198300340427,"connected_time":136000000000,"state":"active","ping":61},{"user_id":260,"name":"Jesse Bear","steam_id":76561198217075305,"connected_time":3342000000000,"state":"active","ping":74},{"user_id":297,"name":"Raz","steam_id":76561198002426150,"connected_time":661000000000,"state":"active","ping":74},{"user_id":277,"name":"bacon :D","steam_id":76561199121940464,"connected_time":1878000000000,"state":"active","ping":81},{"user_id":283,"name":"Lukki","steam_id":76561198089026981,"connected_time":1177000000000,"state":"active","ping":64},{"user_id":288,"name":"kairOs.fk","steam_id":76561197972421260,"connected_time":1014000000000,"state":"active","ping":63},{"user_id":270,"name":"NyanPigz","steam_id":76561198124136007,"connected_time":2360000000000,"state":"active","ping":60},{"user_id":289,"name":"ZENT","steam_id":76561198028501854,"connected_time":1005000000000,"state":"active","ping":75},{"user_id":258,"name":"for the king","steam_id":76561197973488858,"connected_time":3531000000000,"state":"active","ping":60},{"user_id":290,"name":"RNG","steam_id":76561198156413369,"connected_time":978000000000,"state":"active","ping":61},{"user_id":292,"name":"jellyfishy","steam_id":76561199100686574,"connected_time":951000000000,"state":"active","ping":56},{"user_id":205,"name":"Vin Diesel","steam_id":76561197969386201,"connected_time":7853000000000,"state":"active","ping":59},{"user_id":300,"name":"GreenApples","steam_id":76561198120559543,"connected_time":82000000000,"state":"active","ping":109},{"user_id":303,"name":"free palestine #4guyehh","steam_id":76561198044219900,"connected_time":35000000000,"state":"active","ping":75},{"user_id":207,"name":"a wee bit chungy","steam_id":76561198144766439,"connected_time":7837000000000,"state":"active","ping":48}]},{"server_id":403,"name":"Uncletopia | Chicago | 4 | All Maps","name_short":"chi-4","host":"chi-1.us.uncletopia.com","port":27045,"enabled":true,"region":"us-central","cc":"us","latitude":41.881832,"longitude":-87.62318,"reserved":0,"last_update":"0001-01-01T00:00:00Z","name_a2s":"Uncletopia | Chicago | 4 | All Maps","protocol":17,"map":"cp_dustbowl","folder":"tf","game":"Team Fortress","app_id":440,"player_count":24,"max_players":24,"Bots":0,"server_type":"Dedicated","server_os":"Linux","password":true,"vac":true,"version":"7961495","steam_id":85568392924515193,"keywords":["cp","nocrits","nodmgspread","uncletopia"],"game_id":440,"stv_port":27046,"stv_name":"Uncletopia | Chicago | 4 | All Maps | STV","players":[{"user_id":649,"name":"Alfonso Molestro","steam_id":76561197998677099,"connected_time":1673000000000,"state":"active","ping":75},{"user_id":642,"name":"Kage","steam_id":76561198862690091,"connected_time":2151000000000,"state":"active","ping":68},{"user_id":657,"name":"Uncle Pain","steam_id":76561198179466237,"connected_time":714000000000,"state":"active","ping":79},{"user_id":634,"name":"Owen","steam_id":76561198025446908,"connected_time":2212000000000,"state":"active","ping":70},{"user_id":608,"name":"Kitchen Sink Gaming","steam_id":76561198930293420,"connected_time":4637000000000,"state":"active","ping":65},{"user_id":656,"name":"Ninjoth","steam_id":76561198038611753,"connected_time":920000000000,"state":"active","ping":61},{"user_id":635,"name":"Bookmark","steam_id":76561198210918443,"connected_time":2211000000000,"state":"active","ping":104},{"user_id":639,"name":"Zodyxajon","steam_id":76561198165561581,"connected_time":2189000000000,"state":"active","ping":74},{"user_id":651,"name":"Mom","steam_id":76561198207936000,"connected_time":1535000000000,"state":"active","ping":90},{"user_id":658,"name":"Michaelpc1","steam_id":76561198088365519,"connected_time":502000000000,"state":"active","ping":82},{"user_id":660,"name":"Cheesecurd","steam_id":76561199198254897,"connected_time":467000000000,"state":"active","ping":71},{"user_id":624,"name":"Firecrotch Fredo","steam_id":76561198099658220,"connected_time":3281000000000,"state":"active","ping":78},{"user_id":636,"name":"Little Guns","steam_id":76561199118818507,"connected_time":2210000000000,"state":"active","ping":60},{"user_id":654,"name":"Uber","steam_id":76561198060564605,"connected_time":1200000000000,"state":"active","ping":63},{"user_id":644,"name":"Eiss","steam_id":76561198343183806,"connected_time":2112000000000,"state":"active","ping":72},{"user_id":645,"name":"Isles","steam_id":76561198036162511,"connected_time":2029000000000,"state":"active","ping":50},{"user_id":653,"name":"Nightlite","steam_id":76561198263636679,"connected_time":1525000000000,"state":"active","ping":72},{"user_id":621,"name":"Kwol-o Tingba","steam_id":76561198067653291,"connected_time":3551000000000,"state":"active","ping":51},{"user_id":662,"name":"Amoxicilina","steam_id":76561198168486429,"connected_time":376000000000,"state":"active","ping":111},{"user_id":655,"name":"DethSQRL","steam_id":76561199149628610,"connected_time":1195000000000,"state":"active","ping":75},{"user_id":611,"name":"Sone","steam_id":76561198069601032,"connected_time":3771000000000,"state":"active","ping":78},{"user_id":648,"name":"HEE HOO DUSTBOWL!","steam_id":76561199389985063,"connected_time":1683000000000,"state":"active","ping":103},{"user_id":661,"name":"Bestmaster202","steam_id":76561198235282680,"connected_time":455000000000,"state":"active","ping":101},{"user_id":647,"name":"hoos","steam_id":76561198045985910,"connected_time":1942000000000,"state":"active","ping":69}]},{"server_id":36,"name":"Uncletopia | Chicago | 5 | All Maps","name_short":"chi-5","host":"chi-2.us.uncletopia.com","port":27015,"enabled":true,"region":"us-central","cc":"us","latitude":41.881832,"longitude":-87.62318,"reserved":0,"last_update":"0001-01-01T00:00:00Z","name_a2s":"Uncletopia | Chicago | 5 | All Maps","protocol":17,"map":"koth_lakeside_final","folder":"tf","game":"Team Fortress","app_id":440,"player_count":24,"max_players":24,"Bots":0,"server_type":"Dedicated","server_os":"Linux","password":true,"vac":true,"version":"7961495","steam_id":85568392924866362,"keywords":["cp","nocrits","nodmgspread","uncletopia"],"game_id":440,"stv_port":27016,"stv_name":"Uncletopia | Chicago | 5 | All Maps | STV","players":[{"user_id":442,"name":"Yahomes","steam_id":76561199478391681,"connected_time":558000000000,"state":"active","ping":89},{"user_id":443,"name":"SiltyStar85","steam_id":76561198309175923,"connected_time":555000000000,"state":"active","ping":76},{"user_id":461,"name":"Post nut clarity","steam_id":76561198060246831,"connected_time":47000000000,"state":"active","ping":111},{"user_id":436,"name":"Ssmerff","steam_id":76561198130365619,"connected_time":1168000000000,"state":"active","ping":60},{"user_id":393,"name":"BREAD MANN","steam_id":76561198949379945,"connected_time":4216000000000,"state":"active","ping":69},{"user_id":444,"name":"TOBY!!!","steam_id":76561199380822531,"connected_time":541000000000,"state":"active","ping":42},{"user_id":460,"name":"poopybutt420","steam_id":76561199000805315,"connected_time":122000000000,"state":"active","ping":73},{"user_id":440,"name":"A_Malebolgia","steam_id":76561198097722818,"connected_time":833000000000,"state":"active","ping":76},{"user_id":453,"name":"Taskrabbits","steam_id":76561198366682546,"connected_time":357000000000,"state":"active","ping":79},{"user_id":459,"name":"Big McThankies From McSpankies","steam_id":76561198020516880,"connected_time":263000000000,"state":"active","ping":81},{"user_id":449,"name":"RusticCarp42989","steam_id":76561198361151865,"connected_time":443000000000,"state":"active","ping":108},{"user_id":438,"name":"No, this is Patrick","steam_id":76561198058776774,"connected_time":990000000000,"state":"active","ping":53},{"user_id":450,"name":"Big Chungus Gaming","steam_id":76561198068794194,"connected_time":433000000000,"state":"active","ping":57},{"user_id":463,"name":"Grimprr","steam_id":76561198275816797,"connected_time":18000000000,"state":"active","ping":69},{"user_id":374,"name":"a highly probable flip","steam_id":76561198045964573,"connected_time":6551000000000,"state":"active","ping":105},{"user_id":452,"name":"nick","steam_id":76561198041362771,"connected_time":394000000000,"state":"active","ping":82},{"user_id":428,"name":"otwtomarsoffdabars(spacecore)","steam_id":76561199085974120,"connected_time":1948000000000,"state":"active","ping":71},{"user_id":454,"name":"Passionate Map Researcher","steam_id":76561199490508357,"connected_time":342000000000,"state":"active","ping":64},{"user_id":455,"name":"Hawkborne","steam_id":76561198107249245,"connected_time":313000000000,"state":"active","ping":71},{"user_id":456,"name":"Dr Oshawott","steam_id":76561198042021629,"connected_time":313000000000,"state":"active","ping":51},{"user_id":392,"name":"Snoogs","steam_id":76561198444880931,"connected_time":4239000000000,"state":"active","ping":69},{"user_id":457,"name":"Madgabadaba","steam_id":76561198041435754,"connected_time":306000000000,"state":"active","ping":72},{"user_id":429,"name":"Russell","steam_id":76561198024159373,"connected_time":1889000000000,"state":"active","ping":77},{"user_id":458,"name":"mEch114","steam_id":76561198236936060,"connected_time":299000000000,"state":"active","ping":55}]},{"server_id":37,"name":"Uncletopia | Chicago | 6 | All Maps","name_short":"chi-6","host":"chi-2.us.uncletopia.com","port":27025,"enabled":true,"region":"us-central","cc":"us","latitude":41.881832,"longitude":-87.62318,"reserved":0,"last_update":"0001-01-01T00:00:00Z","name_a2s":"Uncletopia | Chicago | 6 | All Maps","protocol":17,"map":"pl_borneo","folder":"tf","game":"Team Fortress","app_id":440,"player_count":23,"max_players":24,"Bots":0,"server_type":"Dedicated","server_os":"Linux","password":true,"vac":true,"version":"7961495","steam_id":85568392924866363,"keywords":["nocrits","nodmgspread","payload","uncletopia"],"game_id":440,"stv_port":27026,"stv_name":"Uncletopia | Chicago | 6 | All Maps | STV","players":[{"user_id":361,"name":"Acuzik","steam_id":76561198045453400,"connected_time":2381000000000,"state":"active","ping":44},{"user_id":395,"name":"greasy raccoon","steam_id":76561199475145723,"connected_time":184000000000,"state":"active","ping":73},{"user_id":377,"name":"Shmig","steam_id":76561199039358883,"connected_time":1616000000000,"state":"active","ping":50},{"user_id":360,"name":"Uwu Micster","steam_id":76561198843890616,"connected_time":2410000000000,"state":"active","ping":81},{"user_id":385,"name":"cheetaz","steam_id":76561198224614084,"connected_time":1105000000000,"state":"active","ping":65},{"user_id":394,"name":"astrobob911","steam_id":76561199099110654,"connected_time":537000000000,"state":"active","ping":66},{"user_id":354,"name":"crazyabe111","steam_id":76561198407686352,"connected_time":2511000000000,"state":"active","ping":73},{"user_id":389,"name":"Malarkey","steam_id":76561198844473584,"connected_time":874000000000,"state":"active","ping":62},{"user_id":375,"name":"Phillips 66","steam_id":76561198026875868,"connected_time":1724000000000,"state":"active","ping":57},{"user_id":335,"name":"jetllamachicken","steam_id":76561199055365143,"connected_time":3688000000000,"state":"active","ping":91},{"user_id":357,"name":"Spinerx7","steam_id":76561198987597383,"connected_time":2421000000000,"state":"active","ping":50},{"user_id":362,"name":"Braingoo Hex","steam_id":76561198083094783,"connected_time":2377000000000,"state":"active","ping":90},{"user_id":384,"name":"Person","steam_id":76561198093244204,"connected_time":1310000000000,"state":"active","ping":74},{"user_id":209,"name":"Lee?","steam_id":76561199060892634,"connected_time":9766000000000,"state":"active","ping":75},{"user_id":390,"name":"rin","steam_id":76561198155841915,"connected_time":859000000000,"state":"active","ping":70},{"user_id":393,"name":"rf","steam_id":76561198195359229,"connected_time":606000000000,"state":"active","ping":90},{"user_id":319,"name":"xxxsinpadres","steam_id":76561198366873419,"connected_time":4099000000000,"state":"active","ping":60},{"user_id":391,"name":"professional twelve year old","steam_id":76561198858796870,"connected_time":859000000000,"state":"active","ping":91},{"user_id":342,"name":"AkimboAoki","steam_id":76561198158323058,"connected_time":3374000000000,"state":"active","ping":95},{"user_id":397,"name":"DoctorDrew","steam_id":76561197962400538,"connected_time":81000000000,"state":"active","ping":75},{"user_id":386,"name":"Dwanor","steam_id":76561198039571887,"connected_time":1031000000000,"state":"active","ping":74},{"user_id":383,"name":"ZombieSlayer77","steam_id":76561199023974356,"connected_time":1406000000000,"state":"active","ping":82},{"user_id":392,"name":"duneblaster0","steam_id":76561198040364680,"connected_time":853000000000,"state":"active","ping":50}]},{"server_id":38,"name":"Uncletopia | Chicago | 7 | Stopwatch","name_short":"chi-7","host":"chi-2.us.uncletopia.com","port":27035,"enabled":true,"region":"us-central","cc":"us","latitude":41.881832,"longitude":-87.62318,"reserved":0,"last_update":"0001-01-01T00:00:00Z","name_a2s":"Uncletopia | Chicago | 7 | Stopwatch","protocol":17,"map":"workshop/koth_clearcut_b15.ugc2107050255","folder":"tf","game":"Team Fortress","app_id":440,"player_count":0,"max_players":24,"Bots":0,"server_type":"Dedicated","server_os":"Linux","password":true,"vac":true,"version":"7961495","steam_id":85568392924866364,"keywords":["cp","nocrits","nodmgspread","uncletopia"],"game_id":440,"stv_port":27036,"stv_name":"Uncletopia | Chicago | 7 | Stopwatch | STV","players":null},{"server_id":39,"name":"Uncletopia | Chicago | 8 | Community","name_short":"chi-8","host":"chi-2.us.uncletopia.com","port":27045,"enabled":true,"region":"us-central","cc":"us","latitude":41.881832,"longitude":-87.62318,"reserved":0,"last_update":"0001-01-01T00:00:00Z","name_a2s":"Uncletopia | Chicago | 8 | Community","protocol":17,"map":"workshop/koth_slaughter_rc1.ugc1712845210","folder":"tf","game":"Team Fortress","app_id":440,"player_count":0,"max_players":24,"Bots":0,"server_type":"Dedicated","server_os":"Linux","password":true,"vac":true,"version":"7961495","steam_id":85568392924866365,"keywords":["cp","nocrits","nodmgspread","uncletopia"],"game_id":440,"stv_port":27046,"stv_name":"Uncletopia | Chicago | 8 | Community | STV","players":null},{"server_id":8,"name":"Uncletopia | Dallas | 1 | All Maps","name_short":"dal-1","host":"dal-1.us.uncletopia.com","port":27015,"enabled":true,"region":"us-central","cc":"us","latitude":32.779167,"longitude":-96.80889,"reserved":0,"last_update":"0001-01-01T00:00:00Z","name_a2s":"Uncletopia | Dallas | 1 | All Maps","protocol":17,"map":"pl_frontier_final","folder":"tf","game":"Team Fortress","app_id":440,"player_count":21,"max_players":24,"Bots":0,"server_type":"Dedicated","server_os":"Linux","password":true,"vac":true,"version":"7961495","steam_id":85568392924469986,"keywords":["nocrits","nodmgspread","payload","uncletopia"],"game_id":440,"stv_port":27016,"stv_name":"Uncletopia | Dallas | 1 | All Maps | STV","players":[{"user_id":850,"name":"vulcan nightclub pon farr night","steam_id":76561197974283797,"connected_time":36000000000,"state":"active","ping":61},{"user_id":763,"name":"Proud Swift City Resident","steam_id":76561198036283992,"connected_time":3400000000000,"state":"active","ping":75},{"user_id":844,"name":"Dent","steam_id":76561198304978514,"connected_time":318000000000,"state":"active","ping":90},{"user_id":839,"name":"Cat doin laundry","steam_id":76561198063895852,"connected_time":430000000000,"state":"active","ping":48},{"user_id":732,"name":"emerge","steam_id":76561198186882891,"connected_time":4899000000000,"state":"active","ping":79},{"user_id":845,"name":"Tuvok Shakur","steam_id":76561198018875334,"connected_time":292000000000,"state":"active","ping":62},{"user_id":851,"name":"Pop Pop","steam_id":76561198211396781,"connected_time":35000000000,"state":"active","ping":83},{"user_id":782,"name":"Wake Up","steam_id":76561199364352461,"connected_time":1859000000000,"state":"active","ping":56},{"user_id":852,"name":"Queuetimeevent","steam_id":76561198079438423,"connected_time":32000000000,"state":"spawning","ping":57},{"user_id":799,"name":"0","steam_id":76561198046065237,"connected_time":1590000000000,"state":"active","ping":86},{"user_id":838,"name":"Username","steam_id":76561198198918781,"connected_time":439000000000,"state":"active","ping":94},{"user_id":791,"name":"GripenFan39","steam_id":76561198279213116,"connected_time":1827000000000,"state":"active","ping":60},{"user_id":792,"name":"Pvt. Dimitri Petrenko","steam_id":76561198078040091,"connected_time":1806000000000,"state":"active","ping":44},{"user_id":813,"name":"S̴͎͑y̵͓̏d̴͇͠n̷e̴͕̽","steam_id":76561198154268346,"connected_time":1078000000000,"state":"active","ping":39},{"user_id":794,"name":"Bass","steam_id":76561198108792927,"connected_time":1712000000000,"state":"active","ping":42},{"user_id":853,"name":"wincel hampton","steam_id":76561198083095146,"connected_time":20000000000,"state":"active","ping":89},{"user_id":819,"name":"Transgender Guy Fieri","steam_id":76561198801467075,"connected_time":801000000000,"state":"active","ping":49},{"user_id":756,"name":"Soy King","steam_id":76561198263025614,"connected_time":4089000000000,"state":"active","ping":125},{"user_id":812,"name":"Shipmunk","steam_id":76561198063062670,"connected_time":1156000000000,"state":"active","ping":70},{"user_id":805,"name":"Genderneutron","steam_id":76561199022773775,"connected_time":1360000000000,"state":"active","ping":61},{"user_id":817,"name":"AttackCommander","steam_id":76561198111522679,"connected_time":901000000000,"state":"active","ping":46}]},{"server_id":108,"name":"Uncletopia | Dallas | 2 | All Maps","name_short":"dal-2","host":"dal-1.us.uncletopia.com","port":27025,"enabled":true,"region":"us-central","cc":"us","latitude":32.779167,"longitude":-96.80889,"reserved":0,"last_update":"0001-01-01T00:00:00Z","name_a2s":"Uncletopia | Dallas | 2 | All Maps","protocol":17,"map":"pl_rumford_event","folder":"tf","game":"Team Fortress","app_id":440,"player_count":24,"max_players":24,"Bots":0,"server_type":"Dedicated","server_os":"Linux","password":true,"vac":true,"version":"7961495","steam_id":85568392924469988,"keywords":["nocrits","nodmgspread","payload","uncletopia"],"game_id":440,"stv_port":27026,"stv_name":"Uncletopia | Dallas | 2 | All Maps | STV","players":[{"user_id":561,"name":"Fumpo","steam_id":76561198206873365,"connected_time":264000000000,"state":"active","ping":94},{"user_id":564,"name":"Wild Meep","steam_id":76561198199271438,"connected_time":199000000000,"state":"active","ping":94},{"user_id":524,"name":"Dagoth Ur","steam_id":76561199088369444,"connected_time":2440000000000,"state":"active","ping":150},{"user_id":565,"name":"Blubman7","steam_id":76561198254718283,"connected_time":195000000000,"state":"active","ping":94},{"user_id":558,"name":"Frogmeister","steam_id":76561198276954381,"connected_time":394000000000,"state":"active","ping":59},{"user_id":476,"name":"Mocha Josie","steam_id":76561198066452726,"connected_time":5563000000000,"state":"active","ping":82},{"user_id":523,"name":"Battletiger","steam_id":76561199081397084,"connected_time":2455000000000,"state":"active","ping":85},{"user_id":566,"name":"Just washed","steam_id":76561199030160932,"connected_time":170000000000,"state":"active","ping":100},{"user_id":554,"name":"snorg","steam_id":76561199103766971,"connected_time":698000000000,"state":"active","ping":97},{"user_id":562,"name":"lorient","steam_id":76561198150831438,"connected_time":248000000000,"state":"active","ping":76},{"user_id":546,"name":"The Caretaker","steam_id":76561198125241411,"connected_time":875000000000,"state":"active","ping":104},{"user_id":538,"name":"doubleshare","steam_id":76561198024472046,"connected_time":1579000000000,"state":"active","ping":93},{"user_id":559,"name":"green bean","steam_id":76561198113099204,"connected_time":380000000000,"state":"active","ping":76},{"user_id":542,"name":"ack.awesome676","steam_id":76561199109415958,"connected_time":1465000000000,"state":"active","ping":74},{"user_id":549,"name":"An Engineer","steam_id":76561198110381643,"connected_time":789000000000,"state":"active","ping":59},{"user_id":563,"name":"Action_Quacktion","steam_id":76561198407062426,"connected_time":241000000000,"state":"active","ping":81},{"user_id":560,"name":"undersea cucumber enjoyer","steam_id":76561199161546139,"connected_time":273000000000,"state":"active","ping":106},{"user_id":567,"name":"Communist Killing Candy Cactus\ufffd","steam_id":76561198074980635,"connected_time":164000000000,"state":"active","ping":99},{"user_id":570,"name":"bengineer","steam_id":76561198171912174,"connected_time":110000000000,"state":"active","ping":103},{"user_id":568,"name":"momus","steam_id":76561198966979196,"connected_time":161000000000,"state":"active","ping":84},{"user_id":551,"name":"The Demoman from Team Fortress ","steam_id":76561199031241776,"connected_time":770000000000,"state":"active","ping":59},{"user_id":571,"name":"ERR://23¤Y/","steam_id":76561197991015780,"connected_time":58000000000,"state":"active","ping":66},{"user_id":569,"name":"Girl btw UwU","steam_id":76561198303096886,"connected_time":159000000000,"state":"active","ping":98},{"user_id":557,"name":"Francis from L4D","steam_id":76561199070877046,"connected_time":596000000000,"state":"active","ping":95}]},{"server_id":404,"name":"Uncletopia | Dallas | 3 | All Maps","name_short":"dal-3","host":"dal-1.us.uncletopia.com","port":27035,"enabled":true,"region":"us-central","cc":"us","latitude":32.779167,"longitude":-96.80889,"reserved":0,"last_update":"0001-01-01T00:00:00Z","name_a2s":"Uncletopia | Dallas | 3 | All Maps","protocol":17,"map":"pl_frontier_final","folder":"tf","game":"Team Fortress","app_id":440,"player_count":23,"max_players":24,"Bots":0,"server_type":"Dedicated","server_os":"Linux","password":true,"vac":true,"version":"7961495","steam_id":85568392924515219,"keywords":["nocrits","nodmgspread","payload","uncletopia"],"game_id":440,"stv_port":27036,"stv_name":"Uncletopia | Dallas | 3 | All Maps | STV","players":[{"user_id":309,"name":"ham salmontizer","steam_id":76561198168840293,"connected_time":381000000000,"state":"active","ping":64},{"user_id":308,"name":"Waesel","steam_id":76561198069188177,"connected_time":386000000000,"state":"active","ping":70},{"user_id":306,"name":"Kung fu MUNGUS","steam_id":76561198069281556,"connected_time":430000000000,"state":"active","ping":70},{"user_id":287,"name":"Evan","steam_id":76561198822242810,"connected_time":3264000000000,"state":"active","ping":73},{"user_id":235,"name":"GLG.Liz","steam_id":76561198021957956,"connected_time":7428000000000,"state":"active","ping":51},{"user_id":310,"name":"Cherubi","steam_id":76561199015772917,"connected_time":373000000000,"state":"active","ping":90},{"user_id":254,"name":"Reyloko","steam_id":76561198172480913,"connected_time":6238000000000,"state":"active","ping":66},{"user_id":281,"name":"Snow Squid","steam_id":76561198201565674,"connected_time":3487000000000,"state":"active","ping":97},{"user_id":299,"name":"Satori Komeiji","steam_id":76561198158211423,"connected_time":1714000000000,"state":"active","ping":68},{"user_id":294,"name":"Civokat","steam_id":76561198389885427,"connected_time":2529000000000,"state":"active","ping":80},{"user_id":176,"name":"cumgoblin","steam_id":76561198113270138,"connected_time":12275000000000,"state":"active","ping":40},{"user_id":236,"name":"GLG MUTT","steam_id":76561198147785541,"connected_time":7395000000000,"state":"active","ping":55},{"user_id":300,"name":"Certified Hood Classic","steam_id":76561199086159354,"connected_time":1703000000000,"state":"active","ping":47},{"user_id":174,"name":"♥ Tomboy ♥","steam_id":76561198069881436,"connected_time":12567000000000,"state":"active","ping":75},{"user_id":301,"name":"bikerkid207","steam_id":76561198390782783,"connected_time":1701000000000,"state":"active","ping":75},{"user_id":228,"name":"SanitysEdge","steam_id":76561198130732813,"connected_time":8197000000000,"state":"active","ping":76},{"user_id":221,"name":"runescape legend","steam_id":76561198077791373,"connected_time":8865000000000,"state":"active","ping":75},{"user_id":302,"name":"Captain Malarkey","steam_id":76561198869924281,"connected_time":1683000000000,"state":"active","ping":49},{"user_id":284,"name":"HUMBY","steam_id":76561198065045867,"connected_time":3450000000000,"state":"active","ping":72},{"user_id":215,"name":"russames","steam_id":76561198007535911,"connected_time":9047000000000,"state":"active","ping":104},{"user_id":257,"name":"dantheman","steam_id":76561199486390813,"connected_time":6209000000000,"state":"active","ping":84},{"user_id":270,"name":"Marc Antony","steam_id":76561198011366517,"connected_time":4784000000000,"state":"active","ping":77},{"user_id":307,"name":"elcarlos1010","steam_id":76561198201986832,"connected_time":430000000000,"state":"active","ping":42}]},{"server_id":405,"name":"Uncletopia | Dallas | 4 | Community","name_short":"dal-4","host":"dal-1.us.uncletopia.com","port":27045,"enabled":true,"region":"us-central","cc":"us","latitude":32.779167,"longitude":-96.80889,"reserved":0,"last_update":"0001-01-01T00:00:00Z","name_a2s":"Uncletopia | Dallas | 4 | Community","protocol":17,"map":"workshop/cp_glassworks_rc7a.ugc454118349","folder":"tf","game":"Team Fortress","app_id":440,"player_count":24,"max_players":24,"Bots":0,"server_type":"Dedicated","server_os":"Linux","password":true,"vac":true,"version":"7961495","steam_id":85568392924515220,"keywords":["cp","nocrits","nodmgspread","uncletopia"],"game_id":440,"stv_port":27046,"stv_name":"Uncletopia | Dallas | 4 | Community | STV","players":[{"user_id":117,"name":"BB Lorexav","steam_id":76561198207565988,"connected_time":1455000000000,"state":"active","ping":74},{"user_id":111,"name":"9/11 Airlines","steam_id":76561198096306325,"connected_time":1733000000000,"state":"active","ping":76},{"user_id":118,"name":"\u003e:3 Muiramme εїз","steam_id":76561197994458543,"connected_time":1430000000000,"state":"active","ping":105},{"user_id":139,"name":"ThatGuyNamedWil","steam_id":76561198400336801,"connected_time":114000000000,"state":"active","ping":99},{"user_id":137,"name":"short bus enthusiast","steam_id":76561198069380992,"connected_time":380000000000,"state":"active","ping":56},{"user_id":112,"name":"c 7 i l l y","steam_id":76561198044786959,"connected_time":1675000000000,"state":"active","ping":80},{"user_id":122,"name":"nelly modelo","steam_id":76561198044875206,"connected_time":1315000000000,"state":"active","ping":89},{"user_id":113,"name":"S T R I K E R","steam_id":76561198900774006,"connected_time":1672000000000,"state":"active","ping":45},{"user_id":120,"name":"Munky","steam_id":76561197993491054,"connected_time":1398000000000,"state":"active","ping":74},{"user_id":114,"name":"Armpit!","steam_id":76561197978095727,"connected_time":1641000000000,"state":"active","ping":111},{"user_id":123,"name":"toolem","steam_id":76561198075312872,"connected_time":1301000000000,"state":"active","ping":59},{"user_id":128,"name":"perezpro214","steam_id":76561199507124097,"connected_time":1142000000000,"state":"active","ping":42},{"user_id":124,"name":"Stupidity","steam_id":76561199195880093,"connected_time":1255000000000,"state":"active","ping":79},{"user_id":79,"name":"Moonflower ✦","steam_id":76561198191782483,"connected_time":5308000000000,"state":"active","ping":40},{"user_id":138,"name":"Hatsune Miku IRL","steam_id":76561198023770512,"connected_time":373000000000,"state":"active","ping":68},{"user_id":130,"name":"Power","steam_id":76561197978508626,"connected_time":982000000000,"state":"active","ping":75},{"user_id":69,"name":"Whompert","steam_id":76561198042939624,"connected_time":5743000000000,"state":"active","ping":80},{"user_id":125,"name":"Equinox","steam_id":76561198274279754,"connected_time":1198000000000,"state":"active","ping":114},{"user_id":126,"name":"Zyjem","steam_id":76561198071588380,"connected_time":1182000000000,"state":"active","ping":63},{"user_id":131,"name":"ms. capgras [troutsupply.net]","steam_id":76561199080209996,"connected_time":838000000000,"state":"active","ping":62},{"user_id":135,"name":"mr. nice guy","steam_id":76561198209333517,"connected_time":746000000000,"state":"active","ping":88},{"user_id":127,"name":"Big Money Alex","steam_id":76561198160225334,"connected_time":1177000000000,"state":"active","ping":92},{"user_id":134,"name":"LPenne","steam_id":76561198072972471,"connected_time":753000000000,"state":"active","ping":74},{"user_id":136,"name":"Gumball","steam_id":76561198051152458,"connected_time":736000000000,"state":"active","ping":173}]},{"server_id":5,"name":"Uncletopia | Frankfurt | 1 | All Maps","name_short":"frk-1","host":"frk-1.de.uncletopia.com","port":27015,"enabled":true,"region":"eu","cc":"de","latitude":50.110924,"longitude":8.682127,"reserved":0,"last_update":"0001-01-01T00:00:00Z","name_a2s":"Uncletopia | Frankfurt | 1 | All Maps","protocol":17,"map":"pl_pier","folder":"tf","game":"Team Fortress","app_id":440,"player_count":0,"max_players":24,"Bots":0,"server_type":"Dedicated","server_os":"Linux","password":true,"vac":true,"version":"7961495","steam_id":85568392924469989,"keywords":["nocrits","nodmgspread","payload","uncletopia"],"game_id":440,"stv_port":27016,"stv_name":"Uncletopia | Frankfurt | 1 | All Maps | STV","players":null},{"server_id":110,"name":"Uncletopia | Frankfurt | 2 | All Maps","name_short":"frk-2","host":"frk-1.de.uncletopia.com","port":27025,"enabled":true,"region":"eu","cc":"de","latitude":50.110924,"longitude":8.682127,"reserved":0,"last_update":"0001-01-01T00:00:00Z","name_a2s":"Uncletopia | Frankfurt | 2 | All Maps","protocol":17,"map":"pl_upward","folder":"tf","game":"Team Fortress","app_id":440,"player_count":0,"max_players":24,"Bots":0,"server_type":"Dedicated","server_os":"Linux","password":true,"vac":true,"version":"7961495","steam_id":85568392924469990,"keywords":["nocrits","nodmgspread","payload","uncletopia"],"game_id":440,"stv_port":27026,"stv_name":"Uncletopia | Frankfurt | 2 | All Maps | STV","players":null},{"server_id":308,"name":"Uncletopia | Frankfurt | 3 | All Maps","name_short":"frk-3","host":"frk-1.de.uncletopia.com","port":27035,"enabled":true,"region":"eu","cc":"de","latitude":50.110924,"longitude":8.682127,"reserved":0,"last_update":"0001-01-01T00:00:00Z","name_a2s":"Uncletopia | Frankfurt | 3 | All Maps","protocol":17,"map":"koth_viaduct","folder":"tf","game":"Team Fortress","app_id":440,"player_count":0,"max_players":24,"Bots":0,"server_type":"Dedicated","server_os":"Linux","password":true,"vac":true,"version":"7961495","steam_id":85568392924504274,"keywords":["cp","nocrits","nodmgspread","uncletopia"],"game_id":440,"stv_port":27036,"stv_name":"Uncletopia | Frankfurt | 3 | All Maps | STV","players":null},{"server_id":309,"name":"Uncletopia | Frankfurt | 4 | All Maps","name_short":"frk-4","host":"frk-1.de.uncletopia.com","port":27045,"enabled":true,"region":"eu","cc":"de","latitude":50.110924,"longitude":8.682127,"reserved":0,"last_update":"0001-01-01T00:00:00Z","name_a2s":"Uncletopia | Frankfurt | 4 | All Maps","protocol":17,"map":"koth_viaduct","folder":"tf","game":"Team Fortress","app_id":440,"player_count":0,"max_players":24,"Bots":0,"server_type":"Dedicated","server_os":"Linux","password":true,"vac":true,"version":"7961495","steam_id":85568392924504275,"keywords":["cp","nocrits","nodmgspread","uncletopia"],"game_id":440,"stv_port":27046,"stv_name":"Uncletopia | Frankfurt | 4 | All Maps | STV","players":null},{"server_id":310,"name":"Uncletopia | Frankfurt | 5 | All Maps","name_short":"frk-5","host":"frk-1.de.uncletopia.com","port":27055,"enabled":true,"region":"eu","cc":"de","latitude":50.110924,"longitude":8.682127,"reserved":0,"last_update":"0001-01-01T00:00:00Z","name_a2s":"Uncletopia | Frankfurt | 5 | All Maps","protocol":17,"map":"pl_swiftwater_final1","folder":"tf","game":"Team Fortress","app_id":440,"player_count":0,"max_players":24,"Bots":0,"server_type":"Dedicated","server_os":"Linux","password":true,"vac":true,"version":"7961495","steam_id":85568392924504277,"keywords":["nocrits","nodmgspread","payload","uncletopia"],"game_id":440,"stv_port":27056,"stv_name":"Uncletopia | Frankfurt | 5 | All Maps | STV","players":null},{"server_id":311,"name":"Uncletopia | Frankfurt | 6 | All Maps","name_short":"frk-6","host":"frk-1.de.uncletopia.com","port":27065,"enabled":true,"region":"eu","cc":"de","latitude":50.110924,"longitude":8.682127,"reserved":0,"last_update":"0001-01-01T00:00:00Z","name_a2s":"Uncletopia | Frankfurt | 6 | All Maps","protocol":17,"map":"koth_highpass","folder":"tf","game":"Team Fortress","app_id":440,"player_count":0,"max_players":24,"Bots":0,"server_type":"Dedicated","server_os":"Linux","password":true,"vac":true,"version":"7961495","steam_id":85568392924504278,"keywords":["cp","nocrits","nodmgspread","uncletopia"],"game_id":440,"stv_port":27066,"stv_name":"Uncletopia | Frankfurt | 6 | All Maps | STV","players":null},{"server_id":23,"name":"Uncletopia | Frankfurt | 7 | Stopwatch","name_short":"frk-7","host":"frk-1.de.uncletopia.com","port":27075,"enabled":true,"region":"eu","cc":"de","latitude":50.110924,"longitude":8.682127,"reserved":0,"last_update":"0001-01-01T00:00:00Z","name_a2s":"Uncletopia | Frankfurt | 7 | Stopwatch","protocol":17,"map":"koth_highpass","folder":"tf","game":"Team Fortress","app_id":440,"player_count":0,"max_players":24,"Bots":0,"server_type":"Dedicated","server_os":"Linux","password":true,"vac":true,"version":"7961495","steam_id":85568392924742827,"keywords":["cp","nocrits","nodmgspread","uncletopia"],"game_id":440,"stv_port":27076,"stv_name":"Uncletopia | Frankfurt | 7 | Stopwatch | STV","players":null},{"server_id":24,"name":"Uncletopia | Frankfurt | 8 | Community","name_short":"frk-8","host":"frk-1.de.uncletopia.com","port":27085,"enabled":true,"region":"eu","cc":"de","latitude":50.110924,"longitude":8.682127,"reserved":0,"last_update":"0001-01-01T00:00:00Z","name_a2s":"Uncletopia | Frankfurt | 8 | Community","protocol":17,"map":"workshop/pl_fifthcurve_rc1.ugc648227046","folder":"tf","game":"Team Fortress","app_id":440,"player_count":0,"max_players":24,"Bots":0,"server_type":"Dedicated","server_os":"Linux","password":true,"vac":true,"version":"7961495","steam_id":85568392924742828,"keywords":["nocrits","nodmgspread","payload","uncletopia"],"game_id":440,"stv_port":27086,"stv_name":"Uncletopia | Frankfurt | 8 | Community | STV","players":null},{"server_id":202,"name":"Uncletopia | Hong Kong | 1 | All Maps","name_short":"hgk-1","host":"hgk-1.hk.uncletopia.com","port":27015,"enabled":true,"region":"asia","cc":"hk","latitude":22.302711,"longitude":114.177216,"reserved":0,"last_update":"0001-01-01T00:00:00Z","name_a2s":"Uncletopia | Hong Kong | 1 | All Maps","protocol":17,"map":"pl_frontier_final","folder":"tf","game":"Team Fortress","app_id":440,"player_count":12,"max_players":24,"Bots":0,"server_type":"Dedicated","server_os":"Linux","password":true,"vac":true,"version":"7961495","steam_id":85568392924494504,"keywords":["nocrits","nodmgspread","payload","uncletopia"],"game_id":440,"stv_port":27016,"stv_name":"Uncletopia | Hong Kong | 1 | All Maps | STV","players":[{"user_id":34,"name":"Sir,Apple","steam_id":76561198065612995,"connected_time":1705000000000,"state":"active","ping":69},{"user_id":41,"name":"chicks75","steam_id":76561197999863634,"connected_time":1413000000000,"state":"active","ping":178},{"user_id":53,"name":"Sover blw.tf","steam_id":76561198136347837,"connected_time":337000000000,"state":"active","ping":75},{"user_id":51,"name":"hodio","steam_id":76561198204747977,"connected_time":618000000000,"state":"active","ping":59},{"user_id":31,"name":"ryder","steam_id":76561198797699056,"connected_time":2334000000000,"state":"active","ping":92},{"user_id":54,"name":"PaintDrinker","steam_id":76561198129879688,"connected_time":212000000000,"state":"active","ping":75},{"user_id":37,"name":"MongGoyo63","steam_id":76561198349540834,"connected_time":1537000000000,"state":"active","ping":66},{"user_id":48,"name":"Mahoxen","steam_id":76561199121861959,"connected_time":760000000000,"state":"active","ping":85},{"user_id":55,"name":"thugrocker","steam_id":76561198367981056,"connected_time":166000000000,"state":"active","ping":37},{"user_id":46,"name":"KyuuTipz","steam_id":76561199002436839,"connected_time":815000000000,"state":"active","ping":98},{"user_id":47,"name":"Minos Prime Reaction","steam_id":76561199475974790,"connected_time":787000000000,"state":"active","ping":63},{"user_id":56,"name":"p1st0n","steam_id":76561198992723983,"connected_time":0,"state":"connecting","ping":0}]},{"server_id":1,"name":"Uncletopia | Los Angeles | 1 | All Maps","name_short":"lax-1","host":"lax-1.us.uncletopia.com","port":27015,"enabled":true,"region":"us-west","cc":"us","latitude":33.94279,"longitude":-118.41004,"reserved":0,"last_update":"0001-01-01T00:00:00Z","name_a2s":"Uncletopia | Los Angeles | 1 | All Maps","protocol":17,"map":"pl_pier","folder":"tf","game":"Team Fortress","app_id":440,"player_count":24,"max_players":24,"Bots":0,"server_type":"Dedicated","server_os":"Linux","password":true,"vac":true,"version":"7961495","steam_id":85568392924469991,"keywords":["nocrits","nodmgspread","payload","uncletopia"],"game_id":440,"stv_port":27016,"stv_name":"Uncletopia | Los Angeles | 1 | All Maps | STV","players":[{"user_id":92,"name":"spacey_","steam_id":76561197970406614,"connected_time":1914000000000,"state":"active","ping":65},{"user_id":64,"name":"Anyar","steam_id":76561198160174097,"connected_time":3301000000000,"state":"active","ping":86},{"user_id":82,"name":"The Grungler","steam_id":76561198126561438,"connected_time":2260000000000,"state":"active","ping":45},{"user_id":107,"name":"An00bis","steam_id":76561198044084508,"connected_time":399000000000,"state":"active","ping":53},{"user_id":113,"name":"dAiLyGrInD","steam_id":76561198163531915,"connected_time":122000000000,"state":"active","ping":92},{"user_id":44,"name":"darren","steam_id":76561199050155136,"connected_time":4363000000000,"state":"active","ping":49},{"user_id":90,"name":"ocky","steam_id":76561198313049944,"connected_time":1953000000000,"state":"active","ping":59},{"user_id":98,"name":"coco","steam_id":76561198252066462,"connected_time":1295000000000,"state":"active","ping":27},{"user_id":99,"name":"L-","steam_id":76561198046074220,"connected_time":1275000000000,"state":"active","ping":43},{"user_id":109,"name":"Swaggy Cheeks","steam_id":76561198104027367,"connected_time":384000000000,"state":"active","ping":75},{"user_id":66,"name":"Poser01","steam_id":76561197999257332,"connected_time":3287000000000,"state":"active","ping":110},{"user_id":65,"name":"dog.","steam_id":76561198170332855,"connected_time":3295000000000,"state":"active","ping":83},{"user_id":112,"name":"Atrix","steam_id":76561198084930312,"connected_time":268000000000,"state":"active","ping":51},{"user_id":88,"name":"flo rida","steam_id":76561198226169704,"connected_time":2050000000000,"state":"active","ping":55},{"user_id":114,"name":"SauceProphet","steam_id":76561198093794383,"connected_time":51000000000,"state":"active","ping":59},{"user_id":97,"name":"Darc","steam_id":76561198155821459,"connected_time":1635000000000,"state":"active","ping":117},{"user_id":105,"name":"CUM GUZZLER","steam_id":76561198984762462,"connected_time":551000000000,"state":"active","ping":61},{"user_id":101,"name":"Giantbob","steam_id":76561199043760220,"connected_time":1211000000000,"state":"active","ping":60},{"user_id":75,"name":"crankshaft","steam_id":76561197992798282,"connected_time":2917000000000,"state":"active","ping":50},{"user_id":100,"name":"MDEEEEE","steam_id":76561198058460585,"connected_time":1258000000000,"state":"active","ping":55},{"user_id":94,"name":"Gaming G Gaming","steam_id":76561198101746587,"connected_time":1894000000000,"state":"active","ping":61},{"user_id":103,"name":"Sasuri","steam_id":76561198404769732,"connected_time":1131000000000,"state":"active","ping":60},{"user_id":106,"name":"Pann","steam_id":76561198086683667,"connected_time":551000000000,"state":"active","ping":64},{"user_id":104,"name":"Goomba gaming","steam_id":76561199470354045,"connected_time":901000000000,"state":"active","ping":108}]},{"server_id":112,"name":"Uncletopia | Los Angeles | 2 | All Maps","name_short":"lax-2","host":"lax-1.us.uncletopia.com","port":27025,"enabled":true,"region":"us-west","cc":"us","latitude":33.94279,"longitude":-118.41004,"reserved":0,"last_update":"0001-01-01T00:00:00Z","name_a2s":"Uncletopia | Los Angeles | 2 | All Maps","protocol":17,"map":"koth_viaduct","folder":"tf","game":"Team Fortress","app_id":440,"player_count":0,"max_players":24,"Bots":0,"server_type":"Dedicated","server_os":"Linux","password":true,"vac":true,"version":"7961495","steam_id":85568392924469992,"keywords":["cp","nocrits","nodmgspread","uncletopia"],"game_id":440,"stv_port":27026,"stv_name":"Uncletopia | Los Angeles | 2 | All Maps | STV","players":null},{"server_id":324,"name":"Uncletopia | Los Angeles | 3 | All Maps","name_short":"lax-3","host":"lax-1.us.uncletopia.com","port":27035,"enabled":true,"region":"us-west","cc":"us","latitude":33.94279,"longitude":-118.41004,"reserved":0,"last_update":"0001-01-01T00:00:00Z","name_a2s":"Uncletopia | Los Angeles | 3 | All Maps","protocol":17,"map":"pl_snowycoast","folder":"tf","game":"Team Fortress","app_id":440,"player_count":0,"max_players":24,"Bots":0,"server_type":"Dedicated","server_os":"Linux","password":true,"vac":true,"version":"7961495","steam_id":85568392924510198,"keywords":["nocrits","nodmgspread","payload","uncletopia"],"game_id":440,"stv_port":27036,"stv_name":"Uncletopia | Los Angeles | 3 | All Maps | STV","players":null},{"server_id":25,"name":"Uncletopia | Los Angeles | 4 | Stopwatch","name_short":"lax-4","host":"lax-1.us.uncletopia.com","port":27045,"enabled":true,"region":"us-west","cc":"us","latitude":33.94279,"longitude":-118.41004,"reserved":0,"last_update":"0001-01-01T00:00:00Z","name_a2s":"Uncletopia | Los Angeles | 4 | Stopwatch","protocol":17,"map":"workshop/koth_product_final.ugc454272353","folder":"tf","game":"Team Fortress","app_id":440,"player_count":6,"max_players":24,"Bots":0,"server_type":"Dedicated","server_os":"Linux","password":true,"vac":true,"version":"7961495","steam_id":85568392924510199,"keywords":["cp","nocrits","nodmgspread","uncletopia"],"game_id":440,"stv_port":27046,"stv_name":"Uncletopia | Los Angeles | 4 | Stopwatch | STV","players":[{"user_id":14,"name":"Nintendude3","steam_id":76561198980427325,"connected_time":1628000000000,"state":"active","ping":52},{"user_id":15,"name":"plucky6d9","steam_id":76561199075946842,"connected_time":1527000000000,"state":"active","ping":60},{"user_id":22,"name":"Officer_Party","steam_id":76561199013077337,"connected_time":34000000000,"state":"active","ping":45},{"user_id":18,"name":"Lily Bottom","steam_id":76561198138315462,"connected_time":982000000000,"state":"active","ping":73},{"user_id":19,"name":"Crimson^Set","steam_id":76561199437563678,"connected_time":913000000000,"state":"active","ping":43},{"user_id":21,"name":"silly billy","steam_id":76561199377204742,"connected_time":150000000000,"state":"active","ping":55}]},{"server_id":11,"name":"Uncletopia | London | 1 | All Maps","name_short":"lon-1","host":"lon-1.uk.uncletopia.com","port":27015,"enabled":true,"region":"eu","cc":"gb","latitude":51.509865,"longitude":-0.118092,"reserved":0,"last_update":"0001-01-01T00:00:00Z","name_a2s":"Uncletopia | London | 1 | All Maps","protocol":17,"map":"koth_harvest_final","folder":"tf","game":"Team Fortress","app_id":440,"player_count":15,"max_players":24,"Bots":0,"server_type":"Dedicated","server_os":"Linux","password":true,"vac":true,"version":"7961495","steam_id":85568392924367362,"keywords":["cp","nocrits","nodmgspread","uncletopia"],"game_id":440,"stv_port":27016,"stv_name":"Uncletopia | London | 1 | All Maps | STV","players":[{"user_id":820,"name":"thong mong","steam_id":76561198210296520,"connected_time":1348000000000,"state":"active","ping":42},{"user_id":772,"name":"Boxyt","steam_id":76561198068347541,"connected_time":4822000000000,"state":"active","ping":56},{"user_id":815,"name":"Bman253","steam_id":76561198089945659,"connected_time":1718000000000,"state":"active","ping":130},{"user_id":823,"name":"Rustyunderscore","steam_id":76561198277177996,"connected_time":988000000000,"state":"active","ping":38},{"user_id":819,"name":"Sniper-Combine","steam_id":76561198003426532,"connected_time":1378000000000,"state":"active","ping":148},{"user_id":693,"name":"CumbustiblePunda","steam_id":76561197974274677,"connected_time":11437000000000,"state":"active","ping":60},{"user_id":717,"name":"dopamine overdose","steam_id":76561199032511302,"connected_time":9484000000000,"state":"active","ping":102},{"user_id":824,"name":"Red Mimi Sentry","steam_id":76561197967502407,"connected_time":879000000000,"state":"active","ping":45},{"user_id":825,"name":"yuck","steam_id":76561197987249568,"connected_time":672000000000,"state":"active","ping":104},{"user_id":794,"name":"Slowdive w/ EATEOF","steam_id":76561198047856328,"connected_time":3202000000000,"state":"active","ping":58},{"user_id":827,"name":"_ALZGAMER420_","steam_id":76561198069530746,"connected_time":600000000000,"state":"active","ping":161},{"user_id":829,"name":"Marcel","steam_id":76561198348686648,"connected_time":417000000000,"state":"active","ping":44},{"user_id":809,"name":"Alpha","steam_id":76561199482290132,"connected_time":2170000000000,"state":"active","ping":118},{"user_id":725,"name":"taffer","steam_id":76561199480942903,"connected_time":9115000000000,"state":"active","ping":74},{"user_id":800,"name":"swagmeester","steam_id":76561198045828392,"connected_time":2994000000000,"state":"active","ping":52}]},{"server_id":114,"name":"Uncletopia | London | 2 | All Maps","name_short":"lon-2","host":"lon-1.uk.uncletopia.com","port":27025,"enabled":true,"region":"eu","cc":"gb","latitude":51.509865,"longitude":-0.118092,"reserved":0,"last_update":"0001-01-01T00:00:00Z","name_a2s":"Uncletopia | London | 2 | All Maps","protocol":17,"map":"cp_dustbowl","folder":"tf","game":"Team Fortress","app_id":440,"player_count":0,"max_players":24,"Bots":0,"server_type":"Dedicated","server_os":"Linux","password":true,"vac":true,"version":"7961495","steam_id":85568392924470941,"keywords":["cp","nocrits","nodmgspread","uncletopia"],"game_id":440,"stv_port":27026,"stv_name":"Uncletopia | London | 2 | All Maps | STV","players":null},{"server_id":320,"name":"Uncletopia | London | 3 | All Maps","name_short":"lon-3","host":"lon-1.uk.uncletopia.com","port":27035,"enabled":true,"region":"eu","cc":"gb","latitude":51.509865,"longitude":-0.118092,"reserved":0,"last_update":"0001-01-01T00:00:00Z","name_a2s":"Uncletopia | London | 3 | All Maps","protocol":17,"map":"koth_lakeside_final","folder":"tf","game":"Team Fortress","app_id":440,"player_count":0,"max_players":24,"Bots":0,"server_type":"Dedicated","server_os":"Linux","password":true,"vac":true,"version":"7961495","steam_id":85568392924510192,"keywords":["cp","nocrits","nodmgspread","uncletopia"],"game_id":440,"stv_port":27036,"stv_name":"Uncletopia | London | 3 | All Maps | STV","players":null},{"server_id":321,"name":"Uncletopia | London | 4 | All Maps","name_short":"lon-4","host":"lon-1.uk.uncletopia.com","port":27045,"enabled":true,"region":"eu","cc":"gb","latitude":51.509865,"longitude":-0.118092,"reserved":0,"last_update":"0001-01-01T00:00:00Z","name_a2s":"Uncletopia | London | 4 | All Maps","protocol":17,"map":"koth_highpass","folder":"tf","game":"Team Fortress","app_id":440,"player_count":0,"max_players":24,"Bots":0,"server_type":"Dedicated","server_os":"Linux","password":true,"vac":true,"version":"7961495","steam_id":85568392924510193,"keywords":["cp","nocrits","nodmgspread","uncletopia"],"game_id":440,"stv_port":27046,"stv_name":"Uncletopia | London | 4 | All Maps | STV","players":null},{"server_id":21,"name":"Uncletopia | London | 5 | All Maps","name_short":"lon-5","host":"lon-1.uk.uncletopia.com","port":27055,"enabled":true,"region":"eu","cc":"gb","latitude":51.509865,"longitude":-0.118092,"reserved":0,"last_update":"0001-01-01T00:00:00Z","name_a2s":"Uncletopia | London | 5 | All Maps","protocol":17,"map":"koth_cascade","folder":"tf","game":"Team Fortress","app_id":440,"player_count":0,"max_players":24,"Bots":0,"server_type":"Dedicated","server_os":"Linux","password":true,"vac":true,"version":"7961495","steam_id":85568392924742829,"keywords":["cp","nocrits","nodmgspread","uncletopia"],"game_id":440,"stv_port":27056,"stv_name":"Uncletopia | London | 5 | All Maps | STV","players":null},{"server_id":22,"name":"Uncletopia | London | 6 | All Maps","name_short":"lon-6","host":"lon-1.uk.uncletopia.com","port":27065,"enabled":true,"region":"eu","cc":"gb","latitude":51.509865,"longitude":-0.118092,"reserved":0,"last_update":"0001-01-01T00:00:00Z","name_a2s":"Uncletopia | London | 6 | All Maps","protocol":17,"map":"koth_viaduct","folder":"tf","game":"Team Fortress","app_id":440,"player_count":0,"max_players":24,"Bots":0,"server_type":"Dedicated","server_os":"Linux","password":true,"vac":true,"version":"7961495","steam_id":85568392924742830,"keywords":["cp","nocrits","nodmgspread","uncletopia"],"game_id":440,"stv_port":27066,"stv_name":"Uncletopia | London | 6 | All Maps | STV","players":null},{"server_id":40,"name":"Uncletopia | London | 7 | Stopwatch","name_short":"lon-7","host":"lon-1.uk.uncletopia.com","port":27075,"enabled":true,"region":"eu","cc":"gb","latitude":51.509865,"longitude":-0.118092,"reserved":0,"last_update":"0001-01-01T00:00:00Z","name_a2s":"Uncletopia | London | 7 | Stopwatch","protocol":17,"map":"workshop/koth_ashville_final.ugc2130459942","folder":"tf","game":"Team Fortress","app_id":440,"player_count":0,"max_players":24,"Bots":0,"server_type":"Dedicated","server_os":"Linux","password":true,"vac":true,"version":"7961495","steam_id":85568392924964314,"keywords":["cp","nocrits","nodmgspread","uncletopia"],"game_id":440,"stv_port":27076,"stv_name":"Uncletopia | London | 7 | Stopwatch | STV","players":null},{"server_id":41,"name":"Uncletopia | London | 8 | Community","name_short":"lon-8","host":"lon-1.uk.uncletopia.com","port":27085,"enabled":true,"region":"eu","cc":"gb","latitude":51.509865,"longitude":-0.118092,"reserved":0,"last_update":"0001-01-01T00:00:00Z","name_a2s":"Uncletopia | London | 8 | Community","protocol":17,"map":"workshop/pl_boundary_final1.ugc456799153","folder":"tf","game":"Team Fortress","app_id":440,"player_count":0,"max_players":24,"Bots":0,"server_type":"Dedicated","server_os":"Linux","password":true,"vac":true,"version":"7961495","steam_id":85568392924964315,"keywords":["nocrits","nodmgspread","payload","uncletopia"],"game_id":440,"stv_port":27086,"stv_name":"Uncletopia | London | 8 | Community | STV","players":null},{"server_id":300,"name":"Uncletopia | Montréal | 1 | One Thousand Uncles","name_short":"mtl-1","host":"mtl-1.ca.uncletopia.com","port":27015,"enabled":true,"region":"us-east","cc":"ca","latitude":45.50889,"longitude":-73.56167,"reserved":0,"last_update":"0001-01-01T00:00:00Z","name_a2s":"Uncletopia | Montréal | 1 | One Thousand Uncles","protocol":17,"map":"pl_hoodoo_final","folder":"tf","game":"Team Fortress","app_id":440,"player_count":0,"max_players":32,"Bots":0,"server_type":"Dedicated","server_os":"Linux","password":true,"vac":true,"version":"7961495","steam_id":85568392924500087,"keywords":["alltalk","danepve","increased_maxplayers","norespawntime","payload","uncletopia"],"game_id":440,"stv_port":0,"stv_name":"","players":null},{"server_id":301,"name":"Uncletopia | Montréal | 2 | One Thousand Uncles","name_short":"mtl-2","host":"mtl-1.ca.uncletopia.com","port":27025,"enabled":true,"region":"us-east","cc":"ca","latitude":45.50889,"longitude":-73.56167,"reserved":0,"last_update":"0001-01-01T00:00:00Z","name_a2s":"Uncletopia | Montréal | 2 | One Thousand Uncles","protocol":17,"map":"pl_snowycoast","folder":"tf","game":"Team Fortress","app_id":440,"player_count":0,"max_players":32,"Bots":0,"server_type":"Dedicated","server_os":"Linux","password":true,"vac":true,"version":"7961495","steam_id":85568392924500088,"keywords":["alltalk","danepve","increased_maxplayers","norespawntime","payload","uncletopia"],"game_id":440,"stv_port":0,"stv_name":"","players":null},{"server_id":302,"name":"Uncletopia | Montréal | 3 | One Thousand Uncles","name_short":"mtl-3","host":"mtl-1.ca.uncletopia.com","port":27035,"enabled":true,"region":"us-east","cc":"ca","latitude":45.50889,"longitude":-73.56167,"reserved":0,"last_update":"0001-01-01T00:00:00Z","name_a2s":"Uncletopia | Montréal | 3 | One Thousand Uncles","protocol":17,"map":"cp_dustbowl","folder":"tf","game":"Team Fortress","app_id":440,"player_count":20,"max_players":32,"Bots":16,"server_type":"Dedicated","server_os":"Linux","password":true,"vac":true,"version":"7961495","steam_id":85568392924500089,"keywords":["alltalk","bots","cp","danepve","increased_maxplayers","norespawntime","uncletopia"],"game_id":440,"stv_port":0,"stv_name":"","players":[{"user_id":304,"name":"Final","steam_id":76561198989154975,"connected_time":1303000000000,"state":"active","ping":74},{"user_id":297,"name":"Grillanous","steam_id":76561198084040844,"connected_time":3272000000000,"state":"active","ping":86},{"user_id":296,"name":"eggmed","steam_id":76561198798511564,"connected_time":3565000000000,"state":"active","ping":76},{"user_id":305,"name":"donaldronningii","steam_id":76561198324570722,"connected_time":1158000000000,"state":"active","ping":87}]},{"server_id":13,"name":"Uncletopia | New York City | 1 | All Maps","name_short":"nyc-1","host":"nyc-1.us.uncletopia.com","port":27015,"enabled":true,"region":"us-east","cc":"us","latitude":40.73061,"longitude":-73.93524,"reserved":0,"last_update":"0001-01-01T00:00:00Z","name_a2s":"Uncletopia | New York City | 1 | All Maps","protocol":17,"map":"cp_dustbowl","folder":"tf","game":"Team Fortress","app_id":440,"player_count":24,"max_players":24,"Bots":0,"server_type":"Dedicated","server_os":"Linux","password":true,"vac":true,"version":"7961495","steam_id":85568392924469993,"keywords":["cp","nocrits","nodmgspread","uncletopia"],"game_id":440,"stv_port":27016,"stv_name":"Uncletopia | New York City | 1 | All Maps | STV","players":[{"user_id":480,"name":"craccmoney_1way","steam_id":76561198121871878,"connected_time":4311000000000,"state":"active","ping":58},{"user_id":473,"name":"Yuzu","steam_id":76561198417913035,"connected_time":5437000000000,"state":"active","ping":55},{"user_id":509,"name":"MONKEY | videogamer1002","steam_id":76561198157110599,"connected_time":2587000000000,"state":"active","ping":121},{"user_id":536,"name":"mashed potatoes \u0026 rice","steam_id":76561198103646311,"connected_time":1514000000000,"state":"active","ping":56},{"user_id":521,"name":"TheQuickerPickerUpper","steam_id":76561199078324894,"connected_time":2268000000000,"state":"active","ping":51},{"user_id":504,"name":"hcpeful","steam_id":76561198989505188,"connected_time":2683000000000,"state":"active","ping":60},{"user_id":527,"name":"Fishman_200","steam_id":76561198152455167,"connected_time":1916000000000,"state":"active","ping":48},{"user_id":514,"name":"Reflector","steam_id":76561198078999855,"connected_time":2413000000000,"state":"active","ping":84},{"user_id":552,"name":"Chicken Burger","steam_id":76561198358529311,"connected_time":47000000000,"state":"active","ping":45},{"user_id":545,"name":"Herdez Hot Salsa","steam_id":76561197991740906,"connected_time":439000000000,"state":"active","ping":57},{"user_id":542,"name":"Koishi","steam_id":76561198054541054,"connected_time":468000000000,"state":"active","ping":45},{"user_id":550,"name":"only a spoonful","steam_id":76561198113180616,"connected_time":326000000000,"state":"active","ping":59},{"user_id":549,"name":"Sammich","steam_id":76561198010543087,"connected_time":422000000000,"state":"active","ping":61},{"user_id":546,"name":"Sheev Palpatine","steam_id":76561198252332430,"connected_time":439000000000,"state":"active","ping":108},{"user_id":532,"name":"Rambly Dambly","steam_id":76561198844496567,"connected_time":1683000000000,"state":"active","ping":45},{"user_id":476,"name":"shadow wizard money gang","steam_id":76561198067487745,"connected_time":4844000000000,"state":"active","ping":60},{"user_id":537,"name":"British Rage","steam_id":76561198009585209,"connected_time":1499000000000,"state":"active","ping":107},{"user_id":477,"name":"papa","steam_id":76561198109308860,"connected_time":4320000000000,"state":"active","ping":60},{"user_id":540,"name":"fart rizz","steam_id":76561198044034546,"connected_time":1103000000000,"state":"active","ping":57},{"user_id":538,"name":"Hexatil","steam_id":76561198204177252,"connected_time":1416000000000,"state":"active","ping":79},{"user_id":518,"name":"Nova Inferno","steam_id":76561197999305424,"connected_time":2340000000000,"state":"active","ping":82},{"user_id":547,"name":"The Assistant Regional Manager","steam_id":76561199221484936,"connected_time":430000000000,"state":"active","ping":116},{"user_id":551,"name":"Bacchus","steam_id":76561198113244990,"connected_time":67000000000,"state":"active","ping":70}]},{"server_id":14,"name":"Uncletopia | New York City | 2 | All Maps","name_short":"nyc-2","host":"nyc-1.us.uncletopia.com","port":27025,"enabled":true,"region":"us-east","cc":"us","latitude":40.73061,"longitude":-73.93524,"reserved":0,"last_update":"0001-01-01T00:00:00Z","name_a2s":"Uncletopia | New York City | 2 | All Maps","protocol":17,"map":"pl_borneo","folder":"tf","game":"Team Fortress","app_id":440,"player_count":18,"max_players":24,"Bots":0,"server_type":"Dedicated","server_os":"Linux","password":true,"vac":true,"version":"7961495","steam_id":85568392924469994,"keywords":["nocrits","nodmgspread","payload","uncletopia"],"game_id":440,"stv_port":27026,"stv_name":"Uncletopia | New York City | 2 | All Maps | STV","players":[{"user_id":662,"name":"vyx","steam_id":76561198037205391,"connected_time":2203000000000,"state":"active","ping":63},{"user_id":676,"name":"totally nuts","steam_id":76561198072856511,"connected_time":1063000000000,"state":"active","ping":48},{"user_id":669,"name":"Sove67","steam_id":76561198069919807,"connected_time":1739000000000,"state":"active","ping":105},{"user_id":673,"name":"Ballistic","steam_id":76561197992355477,"connected_time":1517000000000,"state":"active","ping":51},{"user_id":684,"name":"Scum Knight | T.I.D.K.","steam_id":76561198282444763,"connected_time":677000000000,"state":"active","ping":53},{"user_id":687,"name":"Johnny Lawrence #JohnnyMaxxing","steam_id":76561199367141671,"connected_time":111000000000,"state":"active","ping":52},{"user_id":661,"name":"blandaflamma","steam_id":76561199084260728,"connected_time":2277000000000,"state":"active","ping":51},{"user_id":685,"name":"silvr :3","steam_id":76561198069368377,"connected_time":220000000000,"state":"active","ping":69},{"user_id":689,"name":"ya ya breathe","steam_id":76561198075858067,"connected_time":100000000000,"state":"active","ping":44},{"user_id":688,"name":"ExtaviteTTV","steam_id":76561198836919458,"connected_time":104000000000,"state":"active","ping":73},{"user_id":674,"name":"SPYCHECK ME","steam_id":76561198980994364,"connected_time":1508000000000,"state":"active","ping":82},{"user_id":690,"name":"aidonz","steam_id":76561198066395960,"connected_time":39000000000,"state":"spawning","ping":34},{"user_id":647,"name":"[Redacted]","steam_id":76561199262579270,"connected_time":3331000000000,"state":"active","ping":54},{"user_id":665,"name":"Moody","steam_id":76561199013442105,"connected_time":1873000000000,"state":"active","ping":67},{"user_id":633,"name":"Wique","steam_id":76561198071217597,"connected_time":4499000000000,"state":"active","ping":55},{"user_id":679,"name":"Kraftlos","steam_id":76561198074350350,"connected_time":1035000000000,"state":"active","ping":45},{"user_id":675,"name":"Amauri","steam_id":76561198130809137,"connected_time":1453000000000,"state":"active","ping":67},{"user_id":682,"name":"Scrux","steam_id":76561198129763115,"connected_time":785000000000,"state":"active","ping":106}]},{"server_id":15,"name":"Uncletopia | New York City | 3 | Stopwatch","name_short":"nyc-3","host":"nyc-1.us.uncletopia.com","port":27035,"enabled":true,"region":"us-east","cc":"us","latitude":40.73061,"longitude":-73.93524,"reserved":0,"last_update":"0001-01-01T00:00:00Z","name_a2s":"Uncletopia | New York City | 3 | Stopwatch","protocol":17,"map":"cp_metalworks","folder":"tf","game":"Team Fortress","app_id":440,"player_count":11,"max_players":24,"Bots":0,"server_type":"Dedicated","server_os":"Linux","password":true,"vac":true,"version":"7961495","steam_id":85568392924742820,"keywords":["cp","nocrits","nodmgspread","uncletopia"],"game_id":440,"stv_port":27036,"stv_name":"Uncletopia | New York City | 3 | Stopwatch | STV","players":[{"user_id":31,"name":"BigBubble42","steam_id":76561198136286123,"connected_time":130000000000,"state":"active","ping":76},{"user_id":9,"name":"forest kitsune","steam_id":76561199104189950,"connected_time":5581000000000,"state":"active","ping":63},{"user_id":18,"name":"oooommmg","steam_id":76561198840343076,"connected_time":2583000000000,"state":"active","ping":106},{"user_id":20,"name":"GoroMajimaIsHot","steam_id":76561198365713042,"connected_time":2101000000000,"state":"active","ping":124},{"user_id":21,"name":"barry steakfries","steam_id":76561199472218520,"connected_time":1970000000000,"state":"active","ping":51},{"user_id":22,"name":"AntixerLSS","steam_id":76561198105329568,"connected_time":1399000000000,"state":"active","ping":53},{"user_id":23,"name":"BEEEEEEEEEEEEEEEES","steam_id":76561199431280503,"connected_time":1290000000000,"state":"active","ping":51},{"user_id":28,"name":"Joe Biden","steam_id":76561198151426128,"connected_time":205000000000,"state":"active","ping":104},{"user_id":26,"name":"pancat","steam_id":76561198844027460,"connected_time":335000000000,"state":"active","ping":68},{"user_id":27,"name":"African","steam_id":76561198362872929,"connected_time":322000000000,"state":"active","ping":74},{"user_id":30,"name":"The Worms Answer My Call","steam_id":76561197998434936,"connected_time":155000000000,"state":"active","ping":34}]},{"server_id":16,"name":"Uncletopia | New York City | 4 | Community","name_short":"nyc-4","host":"nyc-1.us.uncletopia.com","port":27045,"enabled":true,"region":"us-east","cc":"us","latitude":40.73061,"longitude":-73.93524,"reserved":0,"last_update":"0001-01-01T00:00:00Z","name_a2s":"Uncletopia | New York City | 4 | Community","protocol":17,"map":"workshop/koth_ashville_final.ugc2130459942","folder":"tf","game":"Team Fortress","app_id":440,"player_count":0,"max_players":24,"Bots":0,"server_type":"Dedicated","server_os":"Linux","password":true,"vac":true,"version":"7961495","steam_id":85568392924742821,"keywords":["cp","nocrits","nodmgspread","uncletopia"],"game_id":440,"stv_port":27046,"stv_name":"Uncletopia | New York City | 4 | Community | STV","players":null},{"server_id":142,"name":"Uncletopia | São Paulo | 1 | All Maps","name_short":"sao-1","host":"sao-1.br.uncletopia.com","port":27015,"enabled":true,"region":"sa","cc":"br","latitude":-23.533773,"longitude":-46.62529,"reserved":0,"last_update":"0001-01-01T00:00:00Z","name_a2s":"Uncletopia | São Paulo | 1 | All Maps","protocol":17,"map":"koth_highpass","folder":"tf","game":"Team Fortress","app_id":440,"player_count":0,"max_players":24,"Bots":0,"server_type":"Dedicated","server_os":"Linux","password":true,"vac":true,"version":"7961495","steam_id":85568392924469996,"keywords":["cp","nocrits","nodmgspread","uncletopia"],"game_id":440,"stv_port":27016,"stv_name":"Uncletopia | São Paulo | 1 | All Maps | STV","players":null},{"server_id":143,"name":"Uncletopia | São Paulo | 2 | Community","name_short":"sao-2","host":"sao-2.br.uncletopia.com","port":27015,"enabled":true,"region":"sa","cc":"br","latitude":-23.533773,"longitude":-46.62529,"reserved":0,"last_update":"0001-01-01T00:00:00Z","name_a2s":"Uncletopia | São Paulo | 2 | Community","protocol":17,"map":"workshop/koth_jamram_rc1a.ugc2964065613","folder":"tf","game":"Team Fortress","app_id":440,"player_count":1,"max_players":24,"Bots":0,"server_type":"Dedicated","server_os":"Linux","password":true,"vac":true,"version":"7961495","steam_id":85568392924485349,"keywords":["cp","nocrits","nodmgspread","uncletopia"],"game_id":440,"stv_port":27016,"stv_name":"Uncletopia | São Paulo | 2 | Community | STV","players":[{"user_id":13,"name":"W","steam_id":76561198451981015,"connected_time":1000000000,"state":"spawning","ping":51}]},{"server_id":7,"name":"Uncletopia | Seattle | 1 | All Maps","name_short":"sea-1","host":"sea-1.us.uncletopia.com","port":27015,"enabled":true,"region":"us-west","cc":"us","latitude":47.608013,"longitude":-122.33517,"reserved":0,"last_update":"0001-01-01T00:00:00Z","name_a2s":"Uncletopia | Seattle | 1 | All Maps","protocol":17,"map":"pl_goldrush","folder":"tf","game":"Team Fortress","app_id":440,"player_count":23,"max_players":24,"Bots":0,"server_type":"Dedicated","server_os":"Linux","password":true,"vac":true,"version":"7961495","steam_id":85568392924469997,"keywords":["nocrits","nodmgspread","payload","uncletopia"],"game_id":440,"stv_port":27016,"stv_name":"Uncletopia | Seattle | 1 | All Maps | STV","players":[{"user_id":405,"name":"Mitsuba","steam_id":76561198034175095,"connected_time":310000000000,"state":"active","ping":130},{"user_id":361,"name":"Level 99 Mudcrab","steam_id":76561198077452771,"connected_time":4566000000000,"state":"active","ping":67},{"user_id":324,"name":"The Shaq Attack","steam_id":76561198075285534,"connected_time":7855000000000,"state":"active","ping":38},{"user_id":410,"name":"Skabbety","steam_id":76561198168044257,"connected_time":108000000000,"state":"active","ping":35},{"user_id":112,"name":"Banana Man","steam_id":76561199012105803,"connected_time":21936000000000,"state":"active","ping":45},{"user_id":339,"name":"Revolverheld","steam_id":76561199186726297,"connected_time":6848000000000,"state":"active","ping":45},{"user_id":398,"name":"Doctor Dick","steam_id":76561198001913735,"connected_time":1122000000000,"state":"active","ping":67},{"user_id":399,"name":"Cheezbeargur","steam_id":76561198164702899,"connected_time":1065000000000,"state":"active","ping":72},{"user_id":401,"name":"BasedGod","steam_id":76561198061177973,"connected_time":1024000000000,"state":"active","ping":61},{"user_id":394,"name":"MrYadaization","steam_id":76561198050770818,"connected_time":1740000000000,"state":"active","ping":52},{"user_id":404,"name":"mega","steam_id":76561198089520959,"connected_time":540000000000,"state":"active","ping":74},{"user_id":411,"name":"fwoov","steam_id":76561198129166260,"connected_time":60000000000,"state":"active","ping":78},{"user_id":407,"name":"spenca","steam_id":76561198025371154,"connected_time":277000000000,"state":"active","ping":58},{"user_id":390,"name":"Thanks Ants","steam_id":76561197966221018,"connected_time":2353000000000,"state":"active","ping":39},{"user_id":391,"name":"Lil B (Tha Based/God)","steam_id":76561198133195238,"connected_time":2087000000000,"state":"active","ping":84},{"user_id":369,"name":"CommodoreEvac","steam_id":76561198035694806,"connected_time":4348000000000,"state":"active","ping":109},{"user_id":373,"name":"Lucky","steam_id":76561198124910662,"connected_time":3354000000000,"state":"active","ping":66},{"user_id":396,"name":"William P. Ennis","steam_id":76561198073464877,"connected_time":1535000000000,"state":"active","ping":95},{"user_id":392,"name":"perfectemu","steam_id":76561199147866624,"connected_time":1889000000000,"state":"active","ping":108},{"user_id":335,"name":"TROY","steam_id":76561197983852176,"connected_time":6980000000000,"state":"active","ping":77},{"user_id":393,"name":"blinkerton city","steam_id":76561198054270410,"connected_time":1888000000000,"state":"active","ping":57},{"user_id":397,"name":"Dr. Juvenal","steam_id":76561198114553453,"connected_time":1535000000000,"state":"active","ping":59},{"user_id":348,"name":"PopcornBucketGames","steam_id":76561199089562026,"connected_time":6027000000000,"state":"active","ping":44}]},{"server_id":119,"name":"Uncletopia | Seattle | 2 | All Maps","name_short":"sea-2","host":"sea-1.us.uncletopia.com","port":27025,"enabled":true,"region":"us-west","cc":"us","latitude":47.608013,"longitude":-122.33517,"reserved":0,"last_update":"0001-01-01T00:00:00Z","name_a2s":"Uncletopia | Seattle | 2 | All Maps","protocol":17,"map":"pl_frontier_final","folder":"tf","game":"Team Fortress","app_id":440,"player_count":24,"max_players":24,"Bots":0,"server_type":"Dedicated","server_os":"Linux","password":true,"vac":true,"version":"7961495","steam_id":85568392924469998,"keywords":["nocrits","nodmgspread","payload","uncletopia"],"game_id":440,"stv_port":27026,"stv_name":"Uncletopia | Seattle | 2 | All Maps | STV","players":[{"user_id":244,"name":"SCROWEN","steam_id":76561198150382695,"connected_time":4314000000000,"state":"active","ping":72},{"user_id":261,"name":"PorgyPork","steam_id":76561198824399078,"connected_time":1971000000000,"state":"active","ping":64},{"user_id":273,"name":"goofy goober","steam_id":76561199024079388,"connected_time":1359000000000,"state":"active","ping":45},{"user_id":248,"name":"Neb","steam_id":76561198883473473,"connected_time":4036000000000,"state":"active","ping":44},{"user_id":195,"name":"Dosario","steam_id":76561198298095535,"connected_time":6649000000000,"state":"active","ping":45},{"user_id":258,"name":"Copy","steam_id":76561198025031590,"connected_time":2183000000000,"state":"active","ping":52},{"user_id":291,"name":"dearender the burger fan","steam_id":76561199427644498,"connected_time":492000000000,"state":"active","ping":53},{"user_id":290,"name":"Dan","steam_id":76561198205054883,"connected_time":589000000000,"state":"active","ping":43},{"user_id":292,"name":"mayoman","steam_id":76561198399205495,"connected_time":302000000000,"state":"active","ping":130},{"user_id":271,"name":"Randle of John","steam_id":76561198328210524,"connected_time":1380000000000,"state":"active","ping":84},{"user_id":288,"name":"Um, cool!","steam_id":76561198129870038,"connected_time":672000000000,"state":"active","ping":87},{"user_id":282,"name":"Lav (She/They)","steam_id":76561198289106015,"connected_time":1047000000000,"state":"active","ping":45},{"user_id":272,"name":"bare butt balls and back","steam_id":76561199122075275,"connected_time":1379000000000,"state":"active","ping":38},{"user_id":294,"name":"samantha","steam_id":76561198049258493,"connected_time":286000000000,"state":"active","ping":57},{"user_id":280,"name":"Chad the Sex Haver","steam_id":76561198058236528,"connected_time":1153000000000,"state":"active","ping":78},{"user_id":293,"name":"sierra","steam_id":76561197969873415,"connected_time":288000000000,"state":"active","ping":150},{"user_id":275,"name":"Kawaiiestboi","steam_id":76561198182178703,"connected_time":1344000000000,"state":"active","ping":49},{"user_id":296,"name":"StockLlama","steam_id":76561199155283653,"connected_time":48000000000,"state":"active","ping":58},{"user_id":287,"name":"Watdahec","steam_id":76561199068976874,"connected_time":680000000000,"state":"active","ping":86},{"user_id":276,"name":"Stev the Hypergamous Pebble","steam_id":76561197999442625,"connected_time":1339000000000,"state":"active","ping":59},{"user_id":260,"name":"Perfume Department","steam_id":76561198128299594,"connected_time":2078000000000,"state":"active","ping":80},{"user_id":283,"name":"Tom Buckle","steam_id":76561198870649125,"connected_time":903000000000,"state":"active","ping":73},{"user_id":295,"name":"Keamy","steam_id":76561199471434875,"connected_time":271000000000,"state":"active","ping":44},{"user_id":284,"name":"doopsies","steam_id":76561198083000867,"connected_time":786000000000,"state":"active","ping":54}]},{"server_id":406,"name":"Uncletopia | Seattle | 3 | Stopwatch","name_short":"sea-3","host":"sea-1.us.uncletopia.com","port":27035,"enabled":true,"region":"us-west","cc":"us","latitude":47.608013,"longitude":-122.33517,"reserved":0,"last_update":"0001-01-01T00:00:00Z","name_a2s":"Uncletopia | Seattle | 3 | Stopwatch","protocol":17,"map":"workshop/koth_bagel_rc6.ugc2514036946","folder":"tf","game":"Team Fortress","app_id":440,"player_count":0,"max_players":24,"Bots":0,"server_type":"Dedicated","server_os":"Linux","password":true,"vac":true,"version":"7961495","steam_id":85568392924515217,"keywords":["cp","nocrits","nodmgspread","uncletopia"],"game_id":440,"stv_port":27036,"stv_name":"Uncletopia | Seattle | 3 | Stopwatch | STV","players":null},{"server_id":17,"name":"Uncletopia | San Francisco | 1 | All Maps","name_short":"sfo-1","host":"sfo-1.us.uncletopia.com","port":27015,"enabled":true,"region":"us-west","cc":"us","latitude":37.77397,"longitude":-122.4313,"reserved":0,"last_update":"0001-01-01T00:00:00Z","name_a2s":"Uncletopia | San Francisco | 1 | All Maps","protocol":17,"map":"pl_swiftwater_final1","folder":"tf","game":"Team Fortress","app_id":440,"player_count":24,"max_players":24,"Bots":0,"server_type":"Dedicated","server_os":"Linux","password":true,"vac":true,"version":"7961495","steam_id":85568392924469999,"keywords":["nocrits","nodmgspread","payload","uncletopia"],"game_id":440,"stv_port":27016,"stv_name":"Uncletopia | San Francisco | 1 | All Maps | STV","players":[{"user_id":617,"name":"Ulysses","steam_id":76561199274171088,"connected_time":2643000000000,"state":"active","ping":124},{"user_id":631,"name":"Anon","steam_id":76561198109740776,"connected_time":1135000000000,"state":"active","ping":63},{"user_id":632,"name":"Kataoka","steam_id":76561198162169852,"connected_time":1105000000000,"state":"active","ping":59},{"user_id":619,"name":"yamme","steam_id":76561198117849124,"connected_time":2352000000000,"state":"active","ping":61},{"user_id":589,"name":"squid","steam_id":76561198070236972,"connected_time":4663000000000,"state":"active","ping":72},{"user_id":633,"name":"esoobac","steam_id":76561198010370396,"connected_time":1051000000000,"state":"active","ping":67},{"user_id":587,"name":"cringy","steam_id":76561198323000455,"connected_time":4783000000000,"state":"active","ping":58},{"user_id":630,"name":"Hotdoggiest","steam_id":76561198049420141,"connected_time":1452000000000,"state":"active","ping":56},{"user_id":640,"name":"there are 26 episodes of planet","steam_id":76561198116765135,"connected_time":148000000000,"state":"active","ping":69},{"user_id":530,"name":"lordstinkdemon666","steam_id":76561198073914311,"connected_time":8152000000000,"state":"active","ping":51},{"user_id":600,"name":"Mitchlel","steam_id":76561198168210903,"connected_time":3673000000000,"state":"active","ping":102},{"user_id":639,"name":"Gaige","steam_id":76561198063462825,"connected_time":560000000000,"state":"active","ping":58},{"user_id":614,"name":"NagitoTheLucky","steam_id":76561198065096327,"connected_time":2852000000000,"state":"active","ping":81},{"user_id":638,"name":"Arrythmia","steam_id":76561198093748123,"connected_time":759000000000,"state":"active","ping":77},{"user_id":622,"name":"Dovid65","steam_id":76561199277530814,"connected_time":2138000000000,"state":"active","ping":106},{"user_id":618,"name":"Rodrick Knee","steam_id":76561198283021062,"connected_time":2531000000000,"state":"active","ping":127},{"user_id":641,"name":"Barnie Sandlers","steam_id":76561198153295482,"connected_time":145000000000,"state":"active","ping":50},{"user_id":645,"name":"i need u","steam_id":76561198030625151,"connected_time":90000000000,"state":"active","ping":38},{"user_id":646,"name":"chilis baby back ribs","steam_id":76561198813516435,"connected_time":90000000000,"state":"active","ping":52},{"user_id":613,"name":"Veritox","steam_id":76561198075778026,"connected_time":2958000000000,"state":"active","ping":50},{"user_id":537,"name":"RiceFarmer","steam_id":76561198869180993,"connected_time":7910000000000,"state":"active","ping":63},{"user_id":573,"name":"Pizza Employee","steam_id":76561199073301053,"connected_time":5235000000000,"state":"active","ping":55},{"user_id":627,"name":"lol","steam_id":76561198026491738,"connected_time":1615000000000,"state":"active","ping":71},{"user_id":629,"name":"Knock on the sky and listen","steam_id":76561198077597130,"connected_time":1481000000000,"state":"active","ping":44}]},{"server_id":18,"name":"Uncletopia | San Francisco | 2 | All Maps","name_short":"sfo-2","host":"sfo-1.us.uncletopia.com","port":27025,"enabled":true,"region":"us-west","cc":"us","latitude":37.77397,"longitude":-122.4313,"reserved":0,"last_update":"0001-01-01T00:00:00Z","name_a2s":"Uncletopia | San Francisco | 2 | All Maps","protocol":17,"map":"koth_lakeside_final","folder":"tf","game":"Team Fortress","app_id":440,"player_count":0,"max_players":24,"Bots":0,"server_type":"Dedicated","server_os":"Linux","password":true,"vac":true,"version":"7961495","steam_id":85568392924470000,"keywords":["cp","nocrits","nodmgspread","uncletopia"],"game_id":440,"stv_port":27026,"stv_name":"Uncletopia | San Francisco | 2 | All Maps | STV","players":null},{"server_id":19,"name":"Uncletopia | San Francisco | 3 | Stopwatch","name_short":"sfo-3","host":"sfo-1.us.uncletopia.com","port":27035,"enabled":true,"region":"us-west","cc":"us","latitude":37.77397,"longitude":-122.4313,"reserved":0,"last_update":"0001-01-01T00:00:00Z","name_a2s":"Uncletopia | San Francisco | 3 | Stopwatch","protocol":17,"map":"workshop/koth_product_final.ugc454272353","folder":"tf","game":"Team Fortress","app_id":440,"player_count":0,"max_players":24,"Bots":0,"server_type":"Dedicated","server_os":"Linux","password":true,"vac":true,"version":"7961495","steam_id":85568392924742824,"keywords":["cp","nocrits","nodmgspread","uncletopia"],"game_id":440,"stv_port":27036,"stv_name":"Uncletopia | San Francisco | 3 | Stopwatch | STV","players":null},{"server_id":20,"name":"Uncletopia | San Francisco | 4 | Community","name_short":"sfo-4","host":"sfo-1.us.uncletopia.com","port":27045,"enabled":true,"region":"us-west","cc":"us","latitude":37.77397,"longitude":-122.4313,"reserved":0,"last_update":"0001-01-01T00:00:00Z","name_a2s":"Uncletopia | San Francisco | 4 | Community","protocol":17,"map":"workshop/cp_sulfur_rc2.ugc619869471","folder":"tf","game":"Team Fortress","app_id":440,"player_count":0,"max_players":24,"Bots":0,"server_type":"Dedicated","server_os":"Linux","password":true,"vac":true,"version":"7961495","steam_id":85568392924742826,"keywords":["cp","nocrits","nodmgspread","uncletopia"],"game_id":440,"stv_port":27046,"stv_name":"Uncletopia | San Francisco | 4 | Community | STV","players":null},{"server_id":141,"name":"Uncletopia | Sydney | 1 | All Maps","name_short":"syd-1","host":"syd-1.au.uncletopia.com","port":27015,"enabled":true,"region":"au","cc":"au","latitude":-33.865143,"longitude":151.2099,"reserved":0,"last_update":"0001-01-01T00:00:00Z","name_a2s":"Uncletopia | Sydney | 1 | All Maps","protocol":17,"map":"pl_frontier_final","folder":"tf","game":"Team Fortress","app_id":440,"player_count":21,"max_players":24,"Bots":0,"server_type":"Dedicated","server_os":"Linux","password":true,"vac":true,"version":"7961495","steam_id":85568392924470001,"keywords":["nocrits","nodmgspread","payload","uncletopia"],"game_id":440,"stv_port":27016,"stv_name":"Uncletopia | Sydney | 1 | All Maps | STV","players":[{"user_id":101,"name":"scoot010","steam_id":76561198821606563,"connected_time":782000000000,"state":"active","ping":40},{"user_id":88,"name":"Pompadouraus","steam_id":76561198327530525,"connected_time":2112000000000,"state":"active","ping":74},{"user_id":102,"name":"Jinxitee","steam_id":76561199094697379,"connected_time":711000000000,"state":"active","ping":55},{"user_id":94,"name":"East","steam_id":76561197998179587,"connected_time":1219000000000,"state":"active","ping":94},{"user_id":103,"name":"Not A Bean","steam_id":76561198301333750,"connected_time":696000000000,"state":"active","ping":73},{"user_id":110,"name":"fatal exception error","steam_id":76561198115584374,"connected_time":333000000000,"state":"active","ping":48},{"user_id":86,"name":"tf2 dung eater","steam_id":76561198274740718,"connected_time":2126000000000,"state":"active","ping":59},{"user_id":105,"name":"Owlenstein™","steam_id":76561198093983826,"connected_time":617000000000,"state":"active","ping":101},{"user_id":95,"name":"Cod Fish","steam_id":76561199366521937,"connected_time":1181000000000,"state":"active","ping":45},{"user_id":91,"name":"Sherpa","steam_id":76561198018913829,"connected_time":1543000000000,"state":"active","ping":53},{"user_id":109,"name":"Pyxell","steam_id":76561199081631460,"connected_time":365000000000,"state":"active","ping":50},{"user_id":107,"name":"Kraken223","steam_id":76561198036300533,"connected_time":584000000000,"state":"active","ping":45},{"user_id":114,"name":"real john pork","steam_id":76561198069029147,"connected_time":175000000000,"state":"active","ping":60},{"user_id":44,"name":"obama?","steam_id":76561198367756332,"connected_time":4742000000000,"state":"active","ping":38},{"user_id":112,"name":"Sentry Gun (EpicGuy4227)","steam_id":76561198094132328,"connected_time":237000000000,"state":"active","ping":48},{"user_id":113,"name":"NastySauce","steam_id":76561198824978577,"connected_time":228000000000,"state":"active","ping":68},{"user_id":47,"name":"society for no more society","steam_id":76561198058459622,"connected_time":4710000000000,"state":"active","ping":65},{"user_id":48,"name":"Willypookay","steam_id":76561198844638602,"connected_time":4705000000000,"state":"active","ping":60},{"user_id":77,"name":"⚡WI-FI⚡ Ultrasnoop","steam_id":76561198360630520,"connected_time":2782000000000,"state":"active","ping":105},{"user_id":99,"name":"Rizeo","steam_id":76561198147901488,"connected_time":1028000000000,"state":"active","ping":60},{"user_id":100,"name":"11/10 would cook spider again","steam_id":76561198285714724,"connected_time":865000000000,"state":"active","ping":67}]},{"server_id":123,"name":"Uncletopia | Sydney | 2 | All Maps","name_short":"syd-2","host":"syd-1.au.uncletopia.com","port":27025,"enabled":true,"region":"au","cc":"au","latitude":-33.865143,"longitude":151.2099,"reserved":0,"last_update":"0001-01-01T00:00:00Z","name_a2s":"Uncletopia | Sydney | 2 | All Maps","protocol":17,"map":"pl_barnblitz","folder":"tf","game":"Team Fortress","app_id":440,"player_count":3,"max_players":24,"Bots":0,"server_type":"Dedicated","server_os":"Linux","password":true,"vac":true,"version":"7961495","steam_id":85568392924470002,"keywords":["nocrits","nodmgspread","payload","uncletopia"],"game_id":440,"stv_port":27026,"stv_name":"Uncletopia | Sydney | 2 | All Maps | STV","players":[{"user_id":14,"name":"shmorp","steam_id":76561199105796612,"connected_time":1759000000000,"state":"active","ping":60},{"user_id":29,"name":"Mean Bug","steam_id":76561198064491659,"connected_time":426000000000,"state":"active","ping":70},{"user_id":27,"name":"quandenendoceenobat","steam_id":76561198336753552,"connected_time":973000000000,"state":"active","ping":32}]},{"server_id":395,"name":"Uncletopia | Sydney | 3 | All Maps","name_short":"syd-3","host":"syd-1.au.uncletopia.com","port":27035,"enabled":true,"region":"au","cc":"au","latitude":-33.865143,"longitude":151.2099,"reserved":0,"last_update":"0001-01-01T00:00:00Z","name_a2s":"Uncletopia | Sydney | 3 | All Maps","protocol":17,"map":"pl_frontier_final","folder":"tf","game":"Team Fortress","app_id":440,"player_count":0,"max_players":24,"Bots":0,"server_type":"Dedicated","server_os":"Linux","password":true,"vac":true,"version":"7961495","steam_id":85568392925194467,"keywords":["nocrits","nodmgspread","payload","uncletopia"],"game_id":440,"stv_port":27036,"stv_name":"Uncletopia | Sydney | 3 | All Maps | STV","players":null},{"server_id":396,"name":"Uncletopia | Sydney | 4 | All Maps","name_short":"syd-4","host":"syd-1.au.uncletopia.com","port":27045,"enabled":true,"region":"au","cc":"au","latitude":-33.865143,"longitude":151.2099,"reserved":0,"last_update":"0001-01-01T00:00:00Z","name_a2s":"Uncletopia | Sydney | 4 | All Maps","protocol":17,"map":"koth_lakeside_final","folder":"tf","game":"Team Fortress","app_id":440,"player_count":1,"max_players":24,"Bots":0,"server_type":"Dedicated","server_os":"Linux","password":true,"vac":true,"version":"7961495","steam_id":85568392925397958,"keywords":["cp","nocrits","nodmgspread","uncletopia"],"game_id":440,"stv_port":27046,"stv_name":"Uncletopia | Sydney | 4 | All Maps | STV","players":[{"user_id":17,"name":"XBER_Bonzy","steam_id":76561199085020605,"connected_time":173000000000,"state":"active","ping":46}]},{"server_id":58,"name":"Uncletopia | Sydney | 5 | Stopwatch","name_short":"syd-5","host":"syd-1.au.uncletopia.com","port":27055,"enabled":true,"region":"au","cc":"au","latitude":-33.865143,"longitude":151.2099,"reserved":0,"last_update":"0001-01-01T00:00:00Z","name_a2s":"Uncletopia | Sydney | 5 | Stopwatch","protocol":17,"map":"cp_metalworks","folder":"tf","game":"Team Fortress","app_id":440,"player_count":0,"max_players":24,"Bots":0,"server_type":"Dedicated","server_os":"Linux","password":true,"vac":true,"version":"7961495","steam_id":85568392925397959,"keywords":["cp","nocrits","nodmgspread","uncletopia"],"game_id":440,"stv_port":27056,"stv_name":"Uncletopia | Sydney | 5 | Stopwatch | STV","players":null},{"server_id":59,"name":"Uncletopia | Sydney | 6 | Community","name_short":"syd-6","host":"syd-1.au.uncletopia.com","port":27065,"enabled":true,"region":"au","cc":"au","latitude":-33.865143,"longitude":151.2099,"reserved":0,"last_update":"0001-01-01T00:00:00Z","name_a2s":"Uncletopia | Sydney | 6 | Community","protocol":17,"map":"workshop/koth_trenchfoot_ab1.ugc731436616","folder":"tf","game":"Team Fortress","app_id":440,"player_count":0,"max_players":24,"Bots":0,"server_type":"Dedicated","server_os":"Linux","password":true,"vac":true,"version":"7961495","steam_id":85568392925397960,"keywords":["cp","nocrits","nodmgspread","uncletopia"],"game_id":440,"stv_port":27066,"stv_name":"Uncletopia | Sydney | 6 | Community | STV","players":null},{"server_id":49,"name":"Uncletopia | Warsaw | 1 | One Thousand Uncles","name_short":"waw-1","host":"waw-1.pl.uncletopia.com","port":27015,"enabled":true,"region":"eu","cc":"pl","latitude":52.2297,"longitude":21.017532,"reserved":0,"last_update":"0001-01-01T00:00:00Z","name_a2s":"Uncletopia | Warsaw | 1 | One Thousand Uncles","protocol":17,"map":"pl_upward","folder":"tf","game":"Team Fortress","app_id":440,"player_count":0,"max_players":32,"Bots":0,"server_type":"Dedicated","server_os":"Linux","password":true,"vac":true,"version":"7961495","steam_id":85568392925397850,"keywords":["alltalk","danepve","increased_maxplayers","norespawntime","payload","uncletopia"],"game_id":440,"stv_port":0,"stv_name":"","players":null},{"server_id":50,"name":"Uncletopia | Warsaw | 2 | One Thousand Uncles","name_short":"waw-2","host":"waw-1.pl.uncletopia.com","port":27025,"enabled":true,"region":"eu","cc":"pl","latitude":52.2297,"longitude":21.017532,"reserved":0,"last_update":"0001-01-01T00:00:00Z","name_a2s":"Uncletopia | Warsaw | 2 | One Thousand Uncles","protocol":17,"map":"pl_goldrush","folder":"tf","game":"Team Fortress","app_id":440,"player_count":0,"max_players":32,"Bots":0,"server_type":"Dedicated","server_os":"Linux","password":true,"vac":true,"version":"7961495","steam_id":85568392925397851,"keywords":["alltalk","danepve","increased_maxplayers","norespawntime","payload","uncletopia"],"game_id":440,"stv_port":0,"stv_name":"","players":null},{"server_id":51,"name":"Uncletopia | Warsaw | 3 | All Maps","name_short":"waw-3","host":"waw-1.pl.uncletopia.com","port":27035,"enabled":true,"region":"eu","cc":"pl","latitude":52.2297,"longitude":21.017532,"reserved":0,"last_update":"0001-01-01T00:00:00Z","name_a2s":"Uncletopia | Warsaw | 3 | All Maps","protocol":17,"map":"koth_viaduct","folder":"tf","game":"Team Fortress","app_id":440,"player_count":0,"max_players":24,"Bots":0,"server_type":"Dedicated","server_os":"Linux","password":true,"vac":true,"version":"7961495","steam_id":85568392925397852,"keywords":["cp","nocrits","nodmgspread","uncletopia"],"game_id":440,"stv_port":27036,"stv_name":"Uncletopia | Warsaw | 3 | All Maps | STV","players":null},{"server_id":52,"name":"Uncletopia | Warsaw | 4 | All Maps","name_short":"waw-4","host":"waw-1.pl.uncletopia.com","port":27045,"enabled":true,"region":"eu","cc":"pl","latitude":52.2297,"longitude":21.017532,"reserved":0,"last_update":"0001-01-01T00:00:00Z","name_a2s":"Uncletopia | Warsaw | 4 | All Maps","protocol":17,"map":"cp_altitude","folder":"tf","game":"Team Fortress","app_id":440,"player_count":0,"max_players":24,"Bots":0,"server_type":"Dedicated","server_os":"Linux","password":true,"vac":true,"version":"7961495","steam_id":85568392925397853,"keywords":["cp","nocrits","nodmgspread","uncletopia"],"game_id":440,"stv_port":27046,"stv_name":"Uncletopia | Warsaw | 4 | All Maps | STV","players":null},{"server_id":53,"name":"Uncletopia | Warsaw | 5 | Stopwatch","name_short":"waw-5","host":"waw-1.pl.uncletopia.com","port":27055,"enabled":true,"region":"eu","cc":"pl","latitude":52.2297,"longitude":21.017532,"reserved":0,"last_update":"0001-01-01T00:00:00Z","name_a2s":"Uncletopia | Warsaw | 5 | Stopwatch","protocol":17,"map":"workshop/koth_bagel_rc6.ugc2514036946","folder":"tf","game":"Team Fortress","app_id":440,"player_count":0,"max_players":24,"Bots":0,"server_type":"Dedicated","server_os":"Linux","password":true,"vac":true,"version":"7961495","steam_id":85568392925397854,"keywords":["cp","nocrits","nodmgspread","uncletopia"],"game_id":440,"stv_port":27056,"stv_name":"Uncletopia | Warsaw | 5 | Stopwatch | STV","players":null},{"server_id":54,"name":"Uncletopia | Warsaw | 6 | Community","name_short":"waw-6","host":"waw-1.pl.uncletopia.com","port":27065,"enabled":true,"region":"eu","cc":"pl","latitude":52.2297,"longitude":21.017532,"reserved":0,"last_update":"0001-01-01T00:00:00Z","name_a2s":"Uncletopia | Warsaw | 6 | Community","protocol":17,"map":"workshop/rd_asteroid_redux_b1.ugc2154902912","folder":"tf","game":"Team Fortress","app_id":440,"player_count":0,"max_players":24,"Bots":0,"server_type":"Dedicated","server_os":"Linux","password":true,"vac":true,"version":"7961495","steam_id":85568392925397856,"keywords":["beta","nocrits","nodmgspread","rd","uncletopia"],"game_id":440,"stv_port":27066,"stv_name":"Uncletopia | Warsaw | 6 | Community | STV","players":null}]}