{"status":true,"message":"","result":[{"server_id":9,"name":"Uncletopia | Atlanta | 1 | All Maps","name_short":"atl-1","host":"atl-1.us.uncletopia.com","port":27015,"enabled":true,"region":"us-east","cc":"us","latitude":33.753746,"longitude":-84.38633,"reserved":0,"last_update":"0001-01-01T00:00:00Z","name_a2s":"Uncletopia | Atlanta | 1 | All Maps","protocol":17,"map":"pl_snowycoast","folder":"tf","game":"Team Fortress","app_id":440,"player_count":3,"max_players":24,"Bots":0,"server_type":"Dedicated","server_os":"Linux","password":true,"vac":true,"version":"7882260","steam_id":85568392924469982,"keywords":["nocrits","nodmgspread","payload","uncletopia"],"game_id":440,"stv_port":27016,"stv_name":"Uncletopia | Atlanta | 1 | All Maps | STV","players":[{"user_id":9,"name":"ATL1 | on my hunting trip","steam_id":76561198315341646,"connected_time":404000000000,"state":"active","ping":62},{"user_id":10,"name":"Aisforlike","steam_id":76561199482110668,"connected_time":128000000000,"state":"active","ping":59},{"user_id":11,"name":"sassy loli","steam_id":76561198402316065,"connected_time":51000000000,"state":"active","ping":93}]},{"server_id":104,"name":"Uncletopia | Atlanta | 2 | All Maps","name_short":"atl-2","host":"atl-1.us.uncletopia.com","port":27025,"enabled":true,"region":"us-east","cc":"us","latitude":33.753746,"longitude":-84.38633,"reserved":0,"last_update":"0001-01-01T00:00:00Z","name_a2s":"Uncletopia | Atlanta | 2 | All Maps","protocol":17,"map":"cp_process_final","folder":"tf","game":"Team Fortress","app_id":440,"player_count":0,"max_players":24,"Bots":0,"server_type":"Dedicated","server_os":"Linux","password":true,"vac":true,"version":"7882260","steam_id":85568392924469983,"keywords":["cp","nocrits","nodmgspread","uncletopia"],"game_id":440,"stv_port":27026,"stv_name":"Uncletopia | Atlanta | 2 | All Maps | STV","players":null},{"server_id":400,"name":"Uncletopia | Atlanta | 3 | Community","name_short":"atl-3","host":"atl-1.us.uncletopia.com","port":27035,"enabled":true,"region":"us-east","cc":"us","latitude":33.753746,"longitude":-84.38633,"reserved":0,"last_update":"0001-01-01T00:00:00Z","name_a2s":"Uncletopia | Atlanta | 3 | Community","protocol":17,"map":"workshop/pl_emerge_rc2.ugc888027758","folder":"tf","game":"Team Fortress","app_id":440,"player_count":0,"max_players":24,"Bots":0,"server_type":"Dedicated","server_os":"Linux","password":true,"vac":true,"version":"7882260","steam_id":85568392924515187,"keywords":["nocrits","nodmgspread","payload","uncletopia"],"game_id":440,"stv_port":27036,"stv_name":"Uncletopia | Atlanta | 3 | Community | STV","players":null},{"server_id":401,"name":"Uncletopia | Atlanta | 4 | No Payload","name_short":"atl-4","host":"atl-1.us.uncletopia.com","port":27045,"enabled":true,"region":"us-east","cc":"us","latitude":33.753746,"longitude":-84.38633,"reserved":0,"last_update":"0001-01-01T00:00:00Z","name_a2s":"","protocol":0,"map":"","folder":"","game":"","app_id":0,"player_count":0,"max_players":0,"Bots":0,"server_type":"","server_os":"","password":false,"vac":false,"version":"","steam_id":0,"keywords":null,"game_id":0,"stv_port":0,"stv_name":"","players":null},{"server_id":2,"name":"Uncletopia | Chicago | 1 | All Maps","name_short":"chi-1","host":"chi-1.us.uncletopia.com","port":27015,"enabled":true,"region":"us-central","cc":"us","latitude":41.881832,"longitude":-87.62318,"reserved":0,"last_update":"0001-01-01T00:00:00Z","name_a2s":"Uncletopia | Chicago | 1 | All Maps","protocol":17,"map":"pl_upward","folder":"tf","game":"Team Fortress","app_id":440,"player_count":24,"max_players":24,"Bots":0,"server_type":"Dedicated","server_os":"Linux","password":true,"vac":true,"version":"7882260","steam_id":85568392924469984,"keywords":["nocrits","nodmgspread","payload","uncletopia"],"game_id":440,"stv_port":27016,"stv_name":"Uncletopia | Chicago | 1 | All Maps | STV","players":[{"user_id":147,"name":"Mr.noob","steam_id":76561199200442395,"connected_time":855000000000,"state":"active","ping":172},{"user_id":142,"name":"Im High","steam_id":76561198049954886,"connected_time":1034000000000,"state":"active","ping":70},{"user_id":114,"name":"pool man","steam_id":76561198093145483,"connected_time":3983000000000,"state":"active","ping":61},{"user_id":115,"name":"alN","steam_id":76561198329171346,"connected_time":3976000000000,"state":"active","ping":43},{"user_id":155,"name":"DinoGoof","steam_id":76561198998427283,"connected_time":151000000000,"state":"active","ping":71},{"user_id":148,"name":"Gnarly Shark Bite","steam_id":76561198004058342,"connected_time":752000000000,"state":"active","ping":70},{"user_id":144,"name":"maS","steam_id":76561198033846407,"connected_time":881000000000,"state":"active","ping":77},{"user_id":101,"name":"volta","steam_id":76561199214283884,"connected_time":5247000000000,"state":"active","ping":100},{"user_id":133,"name":"Lincs","steam_id":76561198049851872,"connected_time":2848000000000,"state":"active","ping":78},{"user_id":138,"name":"bikerkid207","steam_id":76561198390782783,"connected_time":2087000000000,"state":"active","ping":70},{"user_id":152,"name":"Ash_Follow3","steam_id":76561199150479264,"connected_time":209000000000,"state":"active","ping":74},{"user_id":150,"name":"***** beheader","steam_id":76561199395351700,"connected_time":567000000000,"state":"active","ping":105},{"user_id":140,"name":"Cassini","steam_id":76561198318526294,"connected_time":2045000000000,"state":"active","ping":82},{"user_id":151,"name":"The Silkyest of Boys","steam_id":76561198320921269,"connected_time":391000000000,"state":"active","ping":87},{"user_id":156,"name":"Mystikkal","steam_id":76561198003949147,"connected_time":11000000000,"state":"spawning","ping":104},{"user_id":146,"name":"kite","steam_id":76561198346516392,"connected_time":877000000000,"state":"active","ping":64},{"user_id":117,"name":"-Kuu","steam_id":76561198060774066,"connected_time":3975000000000,"state":"active","ping":143},{"user_id":154,"name":"nothere","steam_id":76561198341624641,"connected_time":184000000000,"state":"active","ping":76},{"user_id":141,"name":"Lylith!!!","steam_id":76561198386687546,"connected_time":2042000000000,"state":"active","ping":69},{"user_id":145,"name":"Tahm Selleck","steam_id":76561198138083134,"connected_time":878000000000,"state":"active","ping":73},{"user_id":130,"name":"Rornir","steam_id":76561198081829615,"connected_time":2941000000000,"state":"active","ping":33},{"user_id":137,"name":"BIG HOG","steam_id":76561198079923652,"connected_time":2333000000000,"state":"active","ping":78},{"user_id":153,"name":"Jango","steam_id":76561198084589742,"connected_time":197000000000,"state":"active","ping":76},{"user_id":149,"name":"Smokey","steam_id":76561198071523590,"connected_time":714000000000,"state":"active","ping":74}]},{"server_id":106,"name":"Uncletopia | Chicago | 2 | All Maps","name_short":"chi-2","host":"chi-1.us.uncletopia.com","port":27025,"enabled":true,"region":"us-central","cc":"us","latitude":41.881832,"longitude":-87.62318,"reserved":0,"last_update":"0001-01-01T00:00:00Z","name_a2s":"Uncletopia | Chicago | 2 | All Maps","protocol":17,"map":"cp_dustbowl","folder":"tf","game":"Team Fortress","app_id":440,"player_count":0,"max_players":24,"Bots":0,"server_type":"Dedicated","server_os":"Linux","password":true,"vac":true,"version":"7882260","steam_id":85568392924469985,"keywords":["cp","nocrits","nodmgspread","uncletopia"],"game_id":440,"stv_port":27026,"stv_name":"Uncletopia | Chicago | 2 | All Maps | STV","players":null},{"server_id":402,"name":"Uncletopia | Chicago | 3 | All Maps","name_short":"chi-3","host":"chi-1.us.uncletopia.com","port":27035,"enabled":true,"region":"us-central","cc":"us","latitude":41.881832,"longitude":-87.62318,"reserved":0,"last_update":"0001-01-01T00:00:00Z","name_a2s":"Uncletopia | Chicago | 3 | All Maps","protocol":17,"map":"pl_frontier_final","folder":"tf","game":"Team Fortress","app_id":440,"player_count":0,"max_players":24,"Bots":0,"server_type":"Dedicated","server_os":"Linux","password":true,"vac":true,"version":"7882260","steam_id":85568392924515191,"keywords":["nocrits","nodmgspread","payload","uncletopia"],"game_id":440,"stv_port":27036,"stv_name":"Uncletopia | Chicago | 3 | All Maps | STV","players":null},{"server_id":403,"name":"Uncletopia | Chicago | 4 | All Maps","name_short":"chi-4","host":"chi-1.us.uncletopia.com","port":27045,"enabled":true,"region":"us-central","cc":"us","latitude":41.881832,"longitude":-87.62318,"reserved":0,"last_update":"0001-01-01T00:00:00Z","name_a2s":"Uncletopia | Chicago | 4 | All Maps","protocol":17,"map":"koth_cascade","folder":"tf","game":"Team Fortress","app_id":440,"player_count":0,"max_players":24,"Bots":0,"server_type":"Dedicated","server_os":"Linux","password":true,"vac":true,"version":"7882260","steam_id":85568392924515193,"keywords":["cp","nocrits","nodmgspread","uncletopia"],"game_id":440,"stv_port":27046,"stv_name":"Uncletopia | Chicago | 4 | All Maps | STV","players":null},{"server_id":36,"name":"Uncletopia | Chicago | 5 | All Maps","name_short":"chi-5","host":"chi-2.us.uncletopia.com","port":27015,"enabled":true,"region":"us-central","cc":"us","latitude":41.881832,"longitude":-87.62318,"reserved":0,"last_update":"0001-01-01T00:00:00Z","name_a2s":"Uncletopia | Chicago | 5 | All Maps","protocol":17,"map":"koth_highpass","folder":"tf","game":"Team Fortress","app_id":440,"player_count":0,"max_players":24,"Bots":0,"server_type":"Dedicated","server_os":"Linux","password":true,"vac":true,"version":"7882260","steam_id":85568392924866362,"keywords":["cp","nocrits","nodmgspread","uncletopia"],"game_id":440,"stv_port":27016,"stv_name":"Uncletopia | Chicago | 5 | All Maps | STV","players":null},{"server_id":37,"name":"Uncletopia | Chicago | 6 | All Maps","name_short":"chi-6","host":"chi-2.us.uncletopia.com","port":27025,"enabled":true,"region":"us-central","cc":"us","latitude":41.881832,"longitude":-87.62318,"reserved":0,"last_update":"0001-01-01T00:00:00Z","name_a2s":"Uncletopia | Chicago | 6 | All Maps","protocol":17,"map":"pl_snowycoast","folder":"tf","game":"Team Fortress","app_id":440,"player_count":24,"max_players":24,"Bots":0,"server_type":"Dedicated","server_os":"Linux","password":true,"vac":true,"version":"7882260","steam_id":85568392924866363,"keywords":["nocrits","nodmgspread","payload","uncletopia"],"game_id":440,"stv_port":27026,"stv_name":"Uncletopia | Chicago | 6 | All Maps | STV","players":[{"user_id":259,"name":"Sean Bae","steam_id":76561198036909521,"connected_time":1927000000000,"state":"active","ping":64},{"user_id":237,"name":"Open Mailbox","steam_id":76561198051933580,"connected_time":3834000000000,"state":"active","ping":86},{"user_id":267,"name":"30-50 feral hogs","steam_id":76561198073587145,"connected_time":287000000000,"state":"active","ping":119},{"user_id":218,"name":"Lifial","steam_id":76561198271885819,"connected_time":5110000000000,"state":"active","ping":73},{"user_id":243,"name":"lost in spaaaaace","steam_id":76561199085974120,"connected_time":3700000000000,"state":"active","ping":74},{"user_id":230,"name":"Dad 2","steam_id":76561198138546187,"connected_time":4340000000000,"state":"active","ping":75},{"user_id":236,"name":"Cedric","steam_id":76561198072090580,"connected_time":3925000000000,"state":"active","ping":93},{"user_id":264,"name":"Jasper Zawn","steam_id":76561198077651204,"connected_time":727000000000,"state":"active","ping":73},{"user_id":168,"name":"and i'm javert!","steam_id":76561198117033273,"connected_time":9359000000000,"state":"active","ping":145},{"user_id":240,"name":"Anomalous Materials Scientist","steam_id":76561198092542997,"connected_time":3756000000000,"state":"active","ping":67},{"user_id":260,"name":"firstlastmcgee","steam_id":76561198170187989,"connected_time":1902000000000,"state":"active","ping":63},{"user_id":258,"name":"Just a Good Friend","steam_id":76561198140052403,"connected_time":2575000000000,"state":"active","ping":75},{"user_id":265,"name":"Snozz Core","steam_id":76561198064520262,"connected_time":466000000000,"state":"active","ping":71},{"user_id":212,"name":"adiosToreador","steam_id":76561198297961039,"connected_time":5691000000000,"state":"active","ping":91},{"user_id":262,"name":"guywholikesSOUP","steam_id":76561198006670369,"connected_time":974000000000,"state":"active","ping":60},{"user_id":239,"name":"Acro Banwagon","steam_id":76561198092451804,"connected_time":3769000000000,"state":"active","ping":69},{"user_id":238,"name":"waltuh","steam_id":76561198363541736,"connected_time":3781000000000,"state":"active","ping":87},{"user_id":231,"name":"Sup m8","steam_id":76561198081659121,"connected_time":4317000000000,"state":"active","ping":75},{"user_id":244,"name":"KaleScrooge","steam_id":76561199229442595,"connected_time":3689000000000,"state":"active","ping":147},{"user_id":268,"name":"can","steam_id":76561198090531755,"connected_time":76000000000,"state":"active","ping":73},{"user_id":247,"name":"SeaBass","steam_id":76561197982949108,"connected_time":3523000000000,"state":"active","ping":71},{"user_id":229,"name":"Mom 2","steam_id":76561198200961750,"connected_time":4379000000000,"state":"active","ping":116},{"user_id":250,"name":"gamerlegend47","steam_id":76561198122776598,"connected_time":2847000000000,"state":"active","ping":72},{"user_id":254,"name":"Gas Can","steam_id":76561198162853003,"connected_time":2671000000000,"state":"active","ping":81}]},{"server_id":38,"name":"Uncletopia | Chicago | 7 | Stopwatch Beta","name_short":"chi-7","host":"chi-2.us.uncletopia.com","port":27035,"enabled":true,"region":"us-central","cc":"us","latitude":41.881832,"longitude":-87.62318,"reserved":0,"last_update":"0001-01-01T00:00:00Z","name_a2s":"Uncletopia | Chicago | 7 | Stopwatch Beta","protocol":17,"map":"pl_borneo","folder":"tf","game":"Team Fortress","app_id":440,"player_count":0,"max_players":24,"Bots":0,"server_type":"Dedicated","server_os":"Linux","password":true,"vac":true,"version":"7882260","steam_id":85568392924866364,"keywords":["nocrits","nodmgspread","payload","uncletopia"],"game_id":440,"stv_port":27036,"stv_name":"Uncletopia | Chicago | 7 | Stopwatch Beta | STV","players":null},{"server_id":39,"name":"Uncletopia | Chicago | 8 | Community","name_short":"chi-8","host":"chi-2.us.uncletopia.com","port":27045,"enabled":true,"region":"us-central","cc":"us","latitude":41.881832,"longitude":-87.62318,"reserved":0,"last_update":"0001-01-01T00:00:00Z","name_a2s":"Uncletopia | Chicago | 8 | Community","protocol":17,"map":"workshop/koth_ashville_final.ugc2130459942","folder":"tf","game":"Team Fortress","app_id":440,"player_count":0,"max_players":24,"Bots":0,"server_type":"Dedicated","server_os":"Linux","password":true,"vac":true,"version":"7882260","steam_id":85568392924866365,"keywords":["cp","nocrits","nodmgspread","uncletopia"],"game_id":440,"stv_port":27046,"stv_name":"Uncletopia | Chicago | 8 | Community | STV","players":null},{"server_id":8,"name":"Uncletopia | Dallas | 1 | All Maps","name_short":"dal-1","host":"dal-1.us.uncletopia.com","port":27015,"enabled":true,"region":"us-central","cc":"us","latitude":32.779167,"longitude":-96.80889,"reserved":0,"last_update":"0001-01-01T00:00:00Z","name_a2s":"Uncletopia | Dallas | 1 | All Maps","protocol":17,"map":"koth_cascade","folder":"tf","game":"Team Fortress","app_id":440,"player_count":0,"max_players":24,"Bots":0,"server_type":"Dedicated","server_os":"Linux","password":true,"vac":true,"version":"7882260","steam_id":85568392924469986,"keywords":["cp","nocrits","nodmgspread","uncletopia"],"game_id":440,"stv_port":27016,"stv_name":"Uncletopia | Dallas | 1 | All Maps | STV","players":null},{"server_id":108,"name":"Uncletopia | Dallas | 2 | All Maps","name_short":"dal-2","host":"dal-1.us.uncletopia.com","port":27025,"enabled":true,"region":"us-central","cc":"us","latitude":32.779167,"longitude":-96.80889,"reserved":0,"last_update":"0001-01-01T00:00:00Z","name_a2s":"Uncletopia | Dallas | 2 | All Maps","protocol":17,"map":"koth_lakeside_final","folder":"tf","game":"Team Fortress","app_id":440,"player_count":0,"max_players":24,"Bots":0,"server_type":"Dedicated","server_os":"Linux","password":true,"vac":true,"version":"7882260","steam_id":85568392924469988,"keywords":["cp","nocrits","nodmgspread","uncletopia"],"game_id":440,"stv_port":27026,"stv_name":"Uncletopia | Dallas | 2 | All Maps | STV","players":null},{"server_id":5,"name":"Uncletopia | Frankfurt | 1 | All Maps","name_short":"frk-1","host":"frk-1.de.uncletopia.com","port":27015,"enabled":true,"region":"eu","cc":"de","latitude":50.110924,"longitude":8.682127,"reserved":0,"last_update":"0001-01-01T00:00:00Z","name_a2s":"Uncletopia | Frankfurt | 1 | All Maps","protocol":17,"map":"cp_sunshine","folder":"tf","game":"Team Fortress","app_id":440,"player_count":24,"max_players":24,"Bots":0,"server_type":"Dedicated","server_os":"Linux","password":true,"vac":true,"version":"7882260","steam_id":85568392924469989,"keywords":["cp","nocrits","nodmgspread","uncletopia"],"game_id":440,"stv_port":27016,"stv_name":"Uncletopia | Frankfurt | 1 | All Maps | STV","players":[{"user_id":313,"name":"frbuz","steam_id":76561198327135462,"connected_time":1372000000000,"state":"active","ping":149},{"user_id":326,"name":"reformed i swear","steam_id":76561198152392309,"connected_time":251000000000,"state":"active","ping":58},{"user_id":303,"name":"Valdis","steam_id":76561198057340489,"connected_time":1614000000000,"state":"active","ping":52},{"user_id":329,"name":"miszcz2137 (Don't uber me)","steam_id":76561198432568243,"connected_time":57000000000,"state":"active","ping":73},{"user_id":284,"name":"Adib al-asfar","steam_id":76561198095691592,"connected_time":2948000000000,"state":"active","ping":59},{"user_id":310,"name":"Zina Tv","steam_id":76561198116530769,"connected_time":1388000000000,"state":"active","ping":85},{"user_id":321,"name":"medicinal man","steam_id":76561198202668788,"connected_time":906000000000,"state":"active","ping":52},{"user_id":327,"name":"‚ô•Hearth da Femboy‚ô•","steam_id":76561199202438796,"connected_time":218000000000,"state":"active","ping":67},{"user_id":330,"name":"keri","steam_id":76561199066513442,"connected_time":37000000000,"state":"active","ping":66},{"user_id":308,"name":"slugg","steam_id":76561198297753260,"connected_time":1480000000000,"state":"active","ping":74},{"user_id":309,"name":"RiX","steam_id":76561197969053733,"connected_time":1412000000000,"state":"active","ping":69},{"user_id":314,"name":"ThatGamingKiwi","steam_id":76561199170522237,"connected_time":1365000000000,"state":"active","ping":170},{"user_id":275,"name":"Sh1n","steam_id":76561199012155377,"connected_time":3297000000000,"state":"active","ping":45},{"user_id":288,"name":"taima","steam_id":76561198281053248,"connected_time":2594000000000,"state":"active","ping":70},{"user_id":307,"name":"Benny Harvey RIP","steam_id":76561198386373871,"connected_time":1548000000000,"state":"active","ping":82},{"user_id":297,"name":"Krzty","steam_id":76561198306160711,"connected_time":1856000000000,"state":"active","ping":54},{"user_id":315,"name":"vadr","steam_id":76561198334528186,"connected_time":1337000000000,"state":"active","ping":56},{"user_id":331,"name":"TimmiBlade","steam_id":76561199241852786,"connected_time":15000000000,"state":"active","ping":74},{"user_id":320,"name":"Chuck van Chider","steam_id":76561198022104234,"connected_time":1265000000000,"state":"active","ping":65},{"user_id":317,"name":"multiflex \u003e\u003e\u003e+\u003c\u003c\u003c","steam_id":76561198049639319,"connected_time":1320000000000,"state":"active","ping":71},{"user_id":318,"name":"rumford is underrated","steam_id":76561199165355017,"connected_time":1316000000000,"state":"active","ping":102},{"user_id":328,"name":"Yodesman","steam_id":76561198035765995,"connected_time":115000000000,"state":"active","ping":119},{"user_id":295,"name":"strideŒî","steam_id":76561199007826093,"connected_time":1900000000000,"state":"active","ping":76},{"user_id":243,"name":"._.","steam_id":76561198056227515,"connected_time":5633000000000,"state":"active","ping":81}]},{"server_id":110,"name":"Uncletopia | Frankfurt | 2 | All Maps","name_short":"frk-2","host":"frk-1.de.uncletopia.com","port":27025,"enabled":true,"region":"eu","cc":"de","latitude":50.110924,"longitude":8.682127,"reserved":0,"last_update":"0001-01-01T00:00:00Z","name_a2s":"Uncletopia | Frankfurt | 2 | All Maps","protocol":17,"map":"pl_upward","folder":"tf","game":"Team Fortress","app_id":440,"player_count":23,"max_players":24,"Bots":0,"server_type":"Dedicated","server_os":"Linux","password":true,"vac":true,"version":"7882260","steam_id":85568392924469990,"keywords":["nocrits","nodmgspread","payload","uncletopia"],"game_id":440,"stv_port":27026,"stv_name":"Uncletopia | Frankfurt | 2 | All Maps | STV","players":[{"user_id":183,"name":"Minister of cocks","steam_id":76561198829740342,"connected_time":305000000000,"state":"active","ping":99},{"user_id":153,"name":"on se perkele","steam_id":76561198111134021,"connected_time":1634000000000,"state":"active","ping":78},{"user_id":159,"name":"–ù—ñ–∫—ñ—Ç—Ä–æ–Ω","steam_id":76561198044401080,"connected_time":1592000000000,"state":"active","ping":58},{"user_id":168,"name":"n0k0la","steam_id":76561198363645264,"connected_time":1319000000000,"state":"active","ping":108},{"user_id":125,"name":"Femboy Ambassador","steam_id":76561198972418498,"connected_time":3192000000000,"state":"active","ping":101},{"user_id":67,"name":"mixxxa_french","steam_id":76561198085098243,"connected_time":6873000000000,"state":"active","ping":113},{"user_id":132,"name":"Yung Autism","steam_id":76561198021110471,"connected_time":2728000000000,"state":"active","ping":94},{"user_id":136,"name":"BELADIT","steam_id":76561198011911501,"connected_time":2552000000000,"state":"active","ping":77},{"user_id":175,"name":"Dolcelatte","steam_id":76561198038501770,"connected_time":1109000000000,"state":"active","ping":47},{"user_id":170,"name":"JazzCat","steam_id":76561198305052350,"connected_time":1277000000000,"state":"active","ping":87},{"user_id":184,"name":"Spoody #JustPassing","steam_id":76561198031523769,"connected_time":286000000000,"state":"active","ping":59},{"user_id":171,"name":"Cosmetic brain","steam_id":76561198055936410,"connected_time":1270000000000,"state":"active","ping":89},{"user_id":182,"name":"zvekan","steam_id":76561198381101196,"connected_time":324000000000,"state":"active","ping":63},{"user_id":180,"name":"SooS","steam_id":76561198058943929,"connected_time":351000000000,"state":"active","ping":88},{"user_id":173,"name":"Slifer the Sky Dragon","steam_id":76561198062255803,"connected_time":1205000000000,"state":"active","ping":59},{"user_id":174,"name":"azzy","steam_id":76561198061293740,"connected_time":1205000000000,"state":"active","ping":77},{"user_id":186,"name":"Volterion #SaveTf2","steam_id":76561198293088484,"connected_time":31000000000,"state":"active","ping":61},{"user_id":162,"name":"Grenade Launcher","steam_id":76561198441974031,"connected_time":1571000000000,"state":"active","ping":72},{"user_id":181,"name":"„ÄéDorarhim„Äè","steam_id":76561198220232352,"connected_time":351000000000,"state":"active","ping":53},{"user_id":178,"name":"Mother Puncher","steam_id":76561198150448445,"connected_time":686000000000,"state":"active","ping":54},{"user_id":164,"name":"DEADPOOLGOD666","steam_id":76561198276356229,"connected_time":1536000000000,"state":"active","ping":74},{"user_id":152,"name":"Tea","steam_id":76561198799243030,"connected_time":1650000000000,"state":"active","ping":73},{"user_id":165,"name":"LEBren","steam_id":76561199229295431,"connected_time":1520000000000,"state":"active","ping":69}]},{"server_id":308,"name":"Uncletopia | Frankfurt | 3 | All Maps","name_short":"frk-3","host":"frk-1.de.uncletopia.com","port":27035,"enabled":true,"region":"eu","cc":"de","latitude":50.110924,"longitude":8.682127,"reserved":0,"last_update":"0001-01-01T00:00:00Z","name_a2s":"Uncletopia | Frankfurt | 3 | All Maps","protocol":17,"map":"cp_sunshine","folder":"tf","game":"Team Fortress","app_id":440,"player_count":24,"max_players":24,"Bots":0,"server_type":"Dedicated","server_os":"Linux","password":true,"vac":true,"version":"7882260","steam_id":85568392924504274,"keywords":["cp","nocrits","nodmgspread","uncletopia"],"game_id":440,"stv_port":27036,"stv_name":"Uncletopia | Frankfurt | 3 | All Maps | STV","players":[{"user_id":202,"name":"Valkyr","steam_id":76561197994049208,"connected_time":318000000000,"state":"active","ping":72},{"user_id":212,"name":"Tison","steam_id":76561199127635841,"connected_time":136000000000,"state":"active","ping":45},{"user_id":207,"name":"WALTER WHITE","steam_id":76561199147666336,"connected_time":225000000000,"state":"active","ping":63},{"user_id":204,"name":"solverod","steam_id":76561199213630004,"connected_time":249000000000,"state":"active","ping":138},{"user_id":153,"name":"Plop_","steam_id":76561198112567921,"connected_time":3074000000000,"state":"active","ping":45},{"user_id":206,"name":"Noob_with_source","steam_id":76561198870362103,"connected_time":244000000000,"state":"active","ping":60},{"user_id":205,"name":"GMsU | Rebikas","steam_id":76561198077053764,"connected_time":246000000000,"state":"active","ping":46},{"user_id":208,"name":"Ander Escobar","steam_id":76561198335366902,"connected_time":220000000000,"state":"active","ping":100},{"user_id":86,"name":"Caliban","steam_id":76561197999696839,"connected_time":7311000000000,"state":"active","ping":110},{"user_id":167,"name":"REN","steam_id":76561198000596385,"connected_time":2351000000000,"state":"active","ping":66},{"user_id":209,"name":"cl_skinnyboi 1","steam_id":76561198042864708,"connected_time":206000000000,"state":"active","ping":67},{"user_id":180,"name":"Cagnus Marlsen","steam_id":76561198077859721,"connected_time":1856000000000,"state":"active","ping":52},{"user_id":188,"name":"dropkickas","steam_id":76561198105121641,"connected_time":1545000000000,"state":"active","ping":61},{"user_id":182,"name":"generic alias","steam_id":76561198271607226,"connected_time":1657000000000,"state":"active","ping":103},{"user_id":197,"name":"eva.","steam_id":76561198054474684,"connected_time":442000000000,"state":"active","ping":75},{"user_id":148,"name":"Jazzlike","steam_id":76561198839813662,"connected_time":3496000000000,"state":"active","ping":79},{"user_id":213,"name":"vadim_kotler","steam_id":76561199016634369,"connected_time":67000000000,"state":"active","ping":114},{"user_id":210,"name":"zhern1337","steam_id":76561198027033926,"connected_time":203000000000,"state":"active","ping":73},{"user_id":170,"name":"elijah","steam_id":76561198093936708,"connected_time":2328000000000,"state":"active","ping":69},{"user_id":199,"name":"rjc","steam_id":76561199485138600,"connected_time":435000000000,"state":"active","ping":77},{"user_id":176,"name":"f√©nix","steam_id":76561198083199151,"connected_time":2107000000000,"state":"active","ping":61},{"user_id":68,"name":"Chromega","steam_id":76561199075307750,"connected_time":8828000000000,"state":"active","ping":67},{"user_id":191,"name":"Carol Olston","steam_id":76561198080257273,"connected_time":655000000000,"state":"active","ping":59},{"user_id":201,"name":"Grelamass","steam_id":76561199372198864,"connected_time":393000000000,"state":"active","ping":74}]},{"server_id":309,"name":"Uncletopia | Frankfurt | 4 | All Maps","name_short":"frk-4","host":"frk-1.de.uncletopia.com","port":27045,"enabled":true,"region":"eu","cc":"de","latitude":50.110924,"longitude":8.682127,"reserved":0,"last_update":"0001-01-01T00:00:00Z","name_a2s":"Uncletopia | Frankfurt | 4 | All Maps","protocol":17,"map":"pl_pier","folder":"tf","game":"Team Fortress","app_id":440,"player_count":24,"max_players":24,"Bots":0,"server_type":"Dedicated","server_os":"Linux","password":true,"vac":true,"version":"7882260","steam_id":85568392924504275,"keywords":["nocrits","nodmgspread","payload","uncletopia"],"game_id":440,"stv_port":27046,"stv_name":"Uncletopia | Frankfurt | 4 | All Maps | STV","players":[{"user_id":395,"name":"SCRAMMMBLED","steam_id":76561197998307746,"connected_time":381000000000,"state":"active","ping":62},{"user_id":398,"name":"jaime8D","steam_id":76561197980590671,"connected_time":150000000000,"state":"active","ping":89},{"user_id":396,"name":"Yargƒ±√ß","steam_id":76561199147152361,"connected_time":254000000000,"state":"active","ping":127},{"user_id":391,"name":"murderwow","steam_id":76561198024566944,"connected_time":582000000000,"state":"active","ping":104},{"user_id":284,"name":"P9Nexus","steam_id":76561198073416257,"connected_time":6522000000000,"state":"active","ping":48},{"user_id":383,"name":"romaingallo","steam_id":76561198268112907,"connected_time":1078000000000,"state":"active","ping":61},{"user_id":362,"name":"dnljns","steam_id":76561198085091752,"connected_time":2507000000000,"state":"active","ping":86},{"user_id":392,"name":"Reyasmus","steam_id":76561199107253208,"connected_time":577000000000,"state":"active","ping":66},{"user_id":393,"name":"Zegon (Limited Edition)","steam_id":76561198196418618,"connected_time":501000000000,"state":"active","ping":47},{"user_id":373,"name":"Dor_atar","steam_id":76561198973980542,"connected_time":1459000000000,"state":"active","ping":68},{"user_id":386,"name":"Setade","steam_id":76561198161957305,"connected_time":842000000000,"state":"active","ping":47},{"user_id":370,"name":"Feylo","steam_id":76561199149815448,"connected_time":1649000000000,"state":"active","ping":60},{"user_id":388,"name":"killbind irl","steam_id":76561198180637374,"connected_time":803000000000,"state":"active","ping":81},{"user_id":397,"name":"The one who knocks","steam_id":76561198089341471,"connected_time":188000000000,"state":"active","ping":79},{"user_id":390,"name":"hallu","steam_id":76561198198581079,"connected_time":678000000000,"state":"active","ping":80},{"user_id":394,"name":"Big Trader","steam_id":76561197992364667,"connected_time":405000000000,"state":"active","ping":79},{"user_id":355,"name":"Mr. Mundy","steam_id":76561198132008918,"connected_time":2925000000000,"state":"active","ping":78},{"user_id":311,"name":"SkillFullNinja","steam_id":76561198376246441,"connected_time":4887000000000,"state":"active","ping":124},{"user_id":369,"name":"Fallen Dog","steam_id":76561198851387188,"connected_time":1660000000000,"state":"active","ping":63},{"user_id":295,"name":"burgz","steam_id":76561198109955787,"connected_time":6332000000000,"state":"active","ping":57},{"user_id":374,"name":"Jan.","steam_id":76561197974066329,"connected_time":1453000000000,"state":"active","ping":61},{"user_id":360,"name":"Dr. Mike","steam_id":76561197991205793,"connected_time":2789000000000,"state":"active","ping":74},{"user_id":385,"name":"YaG-10 (29-K)","steam_id":76561198112012468,"connected_time":1030000000000,"state":"active","ping":71},{"user_id":381,"name":"Ross from F.R.I.E.N.D.S.","steam_id":76561198008511665,"connected_time":1257000000000,"state":"active","ping":64}]},{"server_id":310,"name":"Uncletopia | Frankfurt | 5 | All Maps","name_short":"frk-5","host":"frk-1.de.uncletopia.com","port":27055,"enabled":true,"region":"eu","cc":"de","latitude":50.110924,"longitude":8.682127,"reserved":0,"last_update":"0001-01-01T00:00:00Z","name_a2s":"Uncletopia | Frankfurt | 5 | All Maps","protocol":17,"map":"koth_cascade","folder":"tf","game":"Team Fortress","app_id":440,"player_count":0,"max_players":24,"Bots":0,"server_type":"Dedicated","server_os":"Linux","password":true,"vac":true,"version":"7882260","steam_id":85568392924504277,"keywords":["cp","nocrits","nodmgspread","uncletopia"],"game_id":440,"stv_port":27056,"stv_name":"Uncletopia | Frankfurt | 5 | All Maps | STV","players":null},{"server_id":311,"name":"Uncletopia | Frankfurt | 6 | All Maps","name_short":"frk-6","host":"frk-1.de.uncletopia.com","port":27065,"enabled":true,"region":"eu","cc":"de","latitude":50.110924,"longitude":8.682127,"reserved":0,"last_update":"0001-01-01T00:00:00Z","name_a2s":"Uncletopia | Frankfurt | 6 | All Maps","protocol":17,"map":"koth_lakeside_final","folder":"tf","game":"Team Fortress","app_id":440,"player_count":1,"max_players":24,"Bots":0,"server_type":"Dedicated","server_os":"Linux","password":true,"vac":true,"version":"7882260","steam_id":85568392924504278,"keywords":["cp","nocrits","nodmgspread","uncletopia"],"game_id":440,"stv_port":27066,"stv_name":"Uncletopia | Frankfurt | 6 | All Maps | STV","players":[{"user_id":17,"name":"BRICK TOP","steam_id":76561198014366715,"connected_time":122000000000,"state":"active","ping":52}]},{"server_id":23,"name":"Uncletopia | Frankfurt | 7 | Stopwatch Beta","name_short":"frk-7","host":"frk-1.de.uncletopia.com","port":27075,"enabled":true,"region":"eu","cc":"de","latitude":50.110924,"longitude":8.682127,"reserved":0,"last_update":"0001-01-01T00:00:00Z","name_a2s":"Uncletopia | Frankfurt | 7 | Stopwatch Beta","protocol":17,"map":"workshop/koth_product_final.ugc454272353","folder":"tf","game":"Team Fortress","app_id":440,"player_count":3,"max_players":24,"Bots":0,"server_type":"Dedicated","server_os":"Linux","password":true,"vac":true,"version":"7882260","steam_id":85568392924742827,"keywords":["cp","nocrits","nodmgspread","uncletopia"],"game_id":440,"stv_port":27076,"stv_name":"Uncletopia | Frankfurt | 7 | Stopwatch Beta | STV","players":[{"user_id":32,"name":"Jeerven","steam_id":76561198259189841,"connected_time":195000000000,"state":"active","ping":56},{"user_id":25,"name":"Topper 150","steam_id":76561198841217266,"connected_time":918000000000,"state":"active","ping":83},{"user_id":15,"name":"Dzan50","steam_id":76561198059758591,"connected_time":2544000000000,"state":"active","ping":93}]},{"server_id":24,"name":"Uncletopia | Frankfurt | 8 | Community","name_short":"frk-8","host":"frk-1.de.uncletopia.com","port":27085,"enabled":true,"region":"eu","cc":"de","latitude":50.110924,"longitude":8.682127,"reserved":0,"last_update":"0001-01-01T00:00:00Z","name_a2s":"Uncletopia | Frankfurt | 8 | Community","protocol":17,"map":"koth_cascade","folder":"tf","game":"Team Fortress","app_id":440,"player_count":9,"max_players":24,"Bots":0,"server_type":"Dedicated","server_os":"Linux","password":true,"vac":true,"version":"7882260","steam_id":85568392924742828,"keywords":["cp","nocrits","nodmgspread","uncletopia"],"game_id":440,"stv_port":27086,"stv_name":"Uncletopia | Frankfurt | 8 | Community | STV","players":[{"user_id":18,"name":"ARCANE","steam_id":76561198141294779,"connected_time":726000000000,"state":"active","ping":92},{"user_id":19,"name":"Coromax","steam_id":76561198797006018,"connected_time":649000000000,"state":"active","ping":70},{"user_id":26,"name":"cof","steam_id":76561199128417805,"connected_time":81000000000,"state":"active","ping":815},{"user_id":21,"name":"Mael\u003c3","steam_id":76561197996852498,"connected_time":538000000000,"state":"active","ping":55},{"user_id":22,"name":"Kirov Reporting","steam_id":76561198815127418,"connected_time":496000000000,"state":"active","ping":84},{"user_id":23,"name":"Gordon","steam_id":76561198303652059,"connected_time":349000000000,"state":"active","ping":63},{"user_id":27,"name":"christoph","steam_id":76561198862617811,"connected_time":46000000000,"state":"active","ping":61},{"user_id":28,"name":"Allereinan","steam_id":76561198342239906,"connected_time":40000000000,"state":"active","ping":116},{"user_id":29,"name":"Sato","steam_id":76561199042847761,"connected_time":6000000000,"state":"spawning","ping":114}]},{"server_id":202,"name":"Uncletopia | Hong Kong | 1 | All Maps","name_short":"hgk-1","host":"hgk-1.hk.uncletopia.com","port":27015,"enabled":true,"region":"asia","cc":"hk","latitude":22.302711,"longitude":114.177216,"reserved":0,"last_update":"0001-01-01T00:00:00Z","name_a2s":"Uncletopia | Hong Kong | 1 | All Maps","protocol":17,"map":"koth_viaduct","folder":"tf","game":"Team Fortress","app_id":440,"player_count":0,"max_players":24,"Bots":0,"server_type":"Dedicated","server_os":"Linux","password":true,"vac":true,"version":"7882260","steam_id":85568392924494504,"keywords":["cp","nocrits","nodmgspread","uncletopia"],"game_id":440,"stv_port":27016,"stv_name":"Uncletopia | Hong Kong | 1 | All Maps | STV","players":null},{"server_id":1,"name":"Uncletopia | Los Angeles | 1 | All Maps","name_short":"lax-1","host":"lax-1.us.uncletopia.com","port":27015,"enabled":true,"region":"us-west","cc":"us","latitude":33.94279,"longitude":-118.41004,"reserved":0,"last_update":"0001-01-01T00:00:00Z","name_a2s":"Uncletopia | Los Angeles | 1 | All Maps","protocol":17,"map":"cp_sunshine","folder":"tf","game":"Team Fortress","app_id":440,"player_count":0,"max_players":24,"Bots":0,"server_type":"Dedicated","server_os":"Linux","password":true,"vac":true,"version":"7882260","steam_id":85568392924469991,"keywords":["cp","nocrits","nodmgspread","uncletopia"],"game_id":440,"stv_port":27016,"stv_name":"Uncletopia | Los Angeles | 1 | All Maps | STV","players":null},{"server_id":112,"name":"Uncletopia | Los Angeles | 2 | All Maps","name_short":"lax-2","host":"lax-1.us.uncletopia.com","port":27025,"enabled":true,"region":"us-west","cc":"us","latitude":33.94279,"longitude":-118.41004,"reserved":0,"last_update":"0001-01-01T00:00:00Z","name_a2s":"Uncletopia | Los Angeles | 2 | All Maps","protocol":17,"map":"cp_snakewater_final1","folder":"tf","game":"Team Fortress","app_id":440,"player_count":0,"max_players":24,"Bots":0,"server_type":"Dedicated","server_os":"Linux","password":true,"vac":true,"version":"7882260","steam_id":85568392924469992,"keywords":["cp","nocrits","nodmgspread","uncletopia"],"game_id":440,"stv_port":27026,"stv_name":"Uncletopia | Los Angeles | 2 | All Maps | STV","players":null},{"server_id":324,"name":"Uncletopia | Los Angeles | 3 | All Maps","name_short":"lax-3","host":"lax-1.us.uncletopia.com","port":27035,"enabled":true,"region":"us-west","cc":"us","latitude":33.94279,"longitude":-118.41004,"reserved":0,"last_update":"0001-01-01T00:00:00Z","name_a2s":"Uncletopia | Los Angeles | 3 | All Maps","protocol":17,"map":"pl_frontier_final","folder":"tf","game":"Team Fortress","app_id":440,"player_count":2,"max_players":24,"Bots":0,"server_type":"Dedicated","server_os":"Linux","password":true,"vac":true,"version":"7882260","steam_id":85568392924510198,"keywords":["nocrits","nodmgspread","payload","uncletopia"],"game_id":440,"stv_port":27036,"stv_name":"Uncletopia | Los Angeles | 3 | All Maps | STV","players":[{"user_id":3,"name":"Big Oz","steam_id":76561198970897660,"connected_time":591000000000,"state":"active","ping":85},{"user_id":4,"name":"bobletoob","steam_id":76561199184464900,"connected_time":525000000000,"state":"active","ping":62}]},{"server_id":25,"name":"Uncletopia | Los Angeles | 4 | Stopwatch Beta","name_short":"lax-4","host":"lax-1.us.uncletopia.com","port":27045,"enabled":true,"region":"us-west","cc":"us","latitude":33.94279,"longitude":-118.41004,"reserved":0,"last_update":"0001-01-01T00:00:00Z","name_a2s":"Uncletopia | Los Angeles | 4 | Stopwatch Beta","protocol":17,"map":"cp_snakewater_final1","folder":"tf","game":"Team Fortress","app_id":440,"player_count":0,"max_players":24,"Bots":0,"server_type":"Dedicated","server_os":"Linux","password":true,"vac":true,"version":"7882260","steam_id":85568392924510199,"keywords":["cp","nocrits","nodmgspread","uncletopia"],"game_id":440,"stv_port":27046,"stv_name":"Uncletopia | Los Angeles | 4 | Stopwatch Beta | STV","players":null},{"server_id":11,"name":"Uncletopia | London | 1 | All Maps","name_short":"lon-1","host":"lon-1.uk.uncletopia.com","port":27015,"enabled":true,"region":"eu","cc":"gb","latitude":51.509865,"longitude":-0.118092,"reserved":0,"last_update":"0001-01-01T00:00:00Z","name_a2s":"Uncletopia | London | 1 | All Maps","protocol":17,"map":"pl_upward","folder":"tf","game":"Team Fortress","app_id":440,"player_count":23,"max_players":24,"Bots":0,"server_type":"Dedicated","server_os":"Linux","password":true,"vac":true,"version":"7882260","steam_id":85568392924367362,"keywords":["nocrits","nodmgspread","payload","uncletopia"],"game_id":440,"stv_port":27016,"stv_name":"Uncletopia | London | 1 | All Maps | STV","players":[{"user_id":595,"name":"Minimi","steam_id":76561198873850443,"connected_time":1865000000000,"state":"active","ping":38},{"user_id":605,"name":"Matrix108","steam_id":76561198180382327,"connected_time":948000000000,"state":"active","ping":72},{"user_id":603,"name":"Mownkey","steam_id":76561198152813004,"connected_time":1334000000000,"state":"active","ping":45},{"user_id":537,"name":"box","steam_id":76561198049531483,"connected_time":3581000000000,"state":"active","ping":141},{"user_id":545,"name":"benifis163","steam_id":76561198420973492,"connected_time":3311000000000,"state":"active","ping":109},{"user_id":541,"name":"jimmy bob","steam_id":76561198319583692,"connected_time":3334000000000,"state":"active","ping":58},{"user_id":622,"name":"Gnarville","steam_id":76561198006373329,"connected_time":40000000000,"state":"spawning","ping":44},{"user_id":542,"name":"Hermitcrack","steam_id":76561198149216441,"connected_time":3333000000000,"state":"active","ping":74},{"user_id":612,"name":"R0mulone","steam_id":76561198352513792,"connected_time":415000000000,"state":"active","ping":53},{"user_id":620,"name":"molly","steam_id":76561198029399151,"connected_time":109000000000,"state":"active","ping":60},{"user_id":614,"name":"Tortes","steam_id":76561199049185884,"connected_time":269000000000,"state":"active","ping":105},{"user_id":599,"name":"Fish","steam_id":76561198152128484,"connected_time":1396000000000,"state":"active","ping":45},{"user_id":594,"name":"Yelowchy","steam_id":76561198199416121,"connected_time":1943000000000,"state":"active","ping":74},{"user_id":501,"name":"transgender e-girl","steam_id":76561198168589809,"connected_time":6818000000000,"state":"active","ping":73},{"user_id":593,"name":"Mav","steam_id":76561198004403881,"connected_time":2098000000000,"state":"active","ping":64},{"user_id":549,"name":"madijo","steam_id":76561198012617400,"connected_time":3162000000000,"state":"active","ping":62},{"user_id":587,"name":"Kahvi","steam_id":76561198723244199,"connected_time":2487000000000,"state":"active","ping":75},{"user_id":611,"name":"Jesus Enjoyer","steam_id":76561198840259819,"connected_time":444000000000,"state":"active","ping":60},{"user_id":513,"name":"astra","steam_id":76561198042980579,"connected_time":5534000000000,"state":"active","ping":68},{"user_id":610,"name":"aminoxsos1230987","steam_id":76561198839741609,"connected_time":485000000000,"state":"active","ping":73},{"user_id":615,"name":"êÇÉêÇÉ","steam_id":76561198191052349,"connected_time":260000000000,"state":"active","ping":105},{"user_id":621,"name":"Ferlo","steam_id":76561198095561504,"connected_time":109000000000,"state":"active","ping":45},{"user_id":602,"name":"Swedish E-Femboy","steam_id":76561197983095579,"connected_time":1371000000000,"state":"active","ping":85}]},{"server_id":114,"name":"Uncletopia | London | 2 | All Maps","name_short":"lon-2","host":"lon-1.uk.uncletopia.com","port":27025,"enabled":true,"region":"eu","cc":"gb","latitude":51.509865,"longitude":-0.118092,"reserved":0,"last_update":"0001-01-01T00:00:00Z","name_a2s":"Uncletopia | London | 2 | All Maps","protocol":17,"map":"pl_swiftwater_final1","folder":"tf","game":"Team Fortress","app_id":440,"player_count":24,"max_players":24,"Bots":0,"server_type":"Dedicated","server_os":"Linux","password":true,"vac":true,"version":"7882260","steam_id":85568392924470941,"keywords":["nocrits","nodmgspread","payload","uncletopia"],"game_id":440,"stv_port":27026,"stv_name":"Uncletopia | London | 2 | All Maps | STV","players":[{"user_id":142,"name":"scarfweather","steam_id":76561198121331836,"connected_time":2096000000000,"state":"active","ping":51},{"user_id":164,"name":"Demoknight tf2","steam_id":76561198133041874,"connected_time":438000000000,"state":"active","ping":66},{"user_id":138,"name":"SnowShot","steam_id":76561198004766638,"connected_time":2551000000000,"state":"active","ping":72},{"user_id":160,"name":"Cutesy Femboy","steam_id":76561198156906497,"connected_time":609000000000,"state":"active","ping":53},{"user_id":127,"name":"[waffles]","steam_id":76561198951206047,"connected_time":3054000000000,"state":"active","ping":93},{"user_id":143,"name":"Marko Rutto","steam_id":76561198124226614,"connected_time":2092000000000,"state":"active","ping":47},{"user_id":137,"name":"Scarlet","steam_id":76561198075966579,"connected_time":2568000000000,"state":"active","ping":43},{"user_id":146,"name":"BORGETENNISCLUB","steam_id":76561198049343723,"connected_time":2063000000000,"state":"active","ping":49},{"user_id":140,"name":"SirSangoor","steam_id":76561198044462559,"connected_time":2379000000000,"state":"active","ping":109},{"user_id":157,"name":"Apolo","steam_id":76561198116159344,"connected_time":636000000000,"state":"active","ping":40},{"user_id":145,"name":"Spinyapickle","steam_id":76561198086653667,"connected_time":2083000000000,"state":"active","ping":56},{"user_id":147,"name":"Critless","steam_id":76561198133968184,"connected_time":1807000000000,"state":"active","ping":52},{"user_id":133,"name":"Stayprone","steam_id":76561197963491785,"connected_time":2777000000000,"state":"active","ping":69},{"user_id":163,"name":"‚ù§G a n K","steam_id":76561199125995565,"connected_time":542000000000,"state":"active","ping":64},{"user_id":141,"name":"Sta≈Ñczyk","steam_id":76561197998906563,"connected_time":2194000000000,"state":"active","ping":44},{"user_id":136,"name":"jona3838","steam_id":76561199097658195,"connected_time":2581000000000,"state":"active","ping":104},{"user_id":165,"name":"t√Øger","steam_id":76561198260483157,"connected_time":82000000000,"state":"active","ping":81},{"user_id":162,"name":"Corpus Christi","steam_id":76561198417999443,"connected_time":597000000000,"state":"active","ping":112},{"user_id":153,"name":"Sylvanas","steam_id":76561198154904165,"connected_time":1299000000000,"state":"active","ping":112},{"user_id":152,"name":"Loupombear","steam_id":76561198115905860,"connected_time":1339000000000,"state":"active","ping":55},{"user_id":129,"name":"SK4RD3S","steam_id":76561198058724777,"connected_time":2987000000000,"state":"active","ping":81},{"user_id":122,"name":"Buggy","steam_id":76561198989158872,"connected_time":3273000000000,"state":"active","ping":46},{"user_id":144,"name":"hedon/","steam_id":76561198249832770,"connected_time":2092000000000,"state":"active","ping":51}]},{"server_id":320,"name":"Uncletopia | London | 3 | All Maps","name_short":"lon-3","host":"lon-1.uk.uncletopia.com","port":27035,"enabled":true,"region":"eu","cc":"gb","latitude":51.509865,"longitude":-0.118092,"reserved":0,"last_update":"0001-01-01T00:00:00Z","name_a2s":"Uncletopia | London | 3 | All Maps","protocol":17,"map":"koth_highpass","folder":"tf","game":"Team Fortress","app_id":440,"player_count":0,"max_players":24,"Bots":0,"server_type":"Dedicated","server_os":"Linux","password":true,"vac":true,"version":"7882260","steam_id":85568392924510192,"keywords":["cp","nocrits","nodmgspread","uncletopia"],"game_id":440,"stv_port":27036,"stv_name":"Uncletopia | London | 3 | All Maps | STV","players":null},{"server_id":321,"name":"Uncletopia | London | 4 | All Maps","name_short":"lon-4","host":"lon-1.uk.uncletopia.com","port":27045,"enabled":true,"region":"eu","cc":"gb","latitude":51.509865,"longitude":-0.118092,"reserved":0,"last_update":"0001-01-01T00:00:00Z","name_a2s":"Uncletopia | London | 4 | All Maps","protocol":17,"map":"koth_highpass","folder":"tf","game":"Team Fortress","app_id":440,"player_count":0,"max_players":24,"Bots":0,"server_type":"Dedicated","server_os":"Linux","password":true,"vac":true,"version":"7882260","steam_id":85568392924510193,"keywords":["cp","nocrits","nodmgspread","uncletopia"],"game_id":440,"stv_port":27046,"stv_name":"Uncletopia | London | 4 | All Maps | STV","players":null},{"server_id":21,"name":"Uncletopia | London | 5 | All Maps","name_short":"lon-5","host":"lon-1.uk.uncletopia.com","port":27055,"enabled":true,"region":"eu","cc":"gb","latitude":51.509865,"longitude":-0.118092,"reserved":0,"last_update":"0001-01-01T00:00:00Z","name_a2s":"Uncletopia | London | 5 | All Maps","protocol":17,"map":"plr_hightower","folder":"tf","game":"Team Fortress","app_id":440,"player_count":24,"max_players":24,"Bots":0,"server_type":"Dedicated","server_os":"Linux","password":true,"vac":true,"version":"7882260","steam_id":85568392924742829,"keywords":["nocrits","nodmgspread","payload","uncletopia"],"game_id":440,"stv_port":27056,"stv_name":"Uncletopia | London | 5 | All Maps | STV","players":[{"user_id":10,"name":"chopsticks","steam_id":76561198045899345,"connected_time":5382000000000,"state":"active","ping":112},{"user_id":11,"name":"Butt Fangs Fetish","steam_id":76561198038130063,"connected_time":5376000000000,"state":"active","ping":89},{"user_id":12,"name":"Lastik","steam_id":76561198086394413,"connected_time":5374000000000,"state":"active","ping":124},{"user_id":67,"name":"ilimori","steam_id":76561197961231625,"connected_time":2419000000000,"state":"active","ping":44},{"user_id":93,"name":"–ëravo","steam_id":76561198259340310,"connected_time":791000000000,"state":"active","ping":68},{"user_id":17,"name":"Jonno","steam_id":76561198285144917,"connected_time":5227000000000,"state":"active","ping":117},{"user_id":18,"name":"Havelyn","steam_id":76561198036159862,"connected_time":5200000000000,"state":"active","ping":137},{"user_id":91,"name":"Milk","steam_id":76561198125876588,"connected_time":865000000000,"state":"active","ping":40},{"user_id":69,"name":"Gyro Zeppeli","steam_id":76561198143600606,"connected_time":2381000000000,"state":"active","ping":71},{"user_id":66,"name":"twitch.tv/Dr.Sex","steam_id":76561198029044617,"connected_time":2533000000000,"state":"active","ping":48},{"user_id":96,"name":"Blinimies","steam_id":76561198372430190,"connected_time":505000000000,"state":"active","ping":83},{"user_id":72,"name":"Voldord","steam_id":76561198100706456,"connected_time":2278000000000,"state":"active","ping":57},{"user_id":80,"name":"Clitorina","steam_id":76561198077570815,"connected_time":2117000000000,"state":"active","ping":39},{"user_id":89,"name":"TJ1212","steam_id":76561199013575313,"connected_time":932000000000,"state":"active","ping":73},{"user_id":79,"name":"Tank","steam_id":76561199059174576,"connected_time":2144000000000,"state":"active","ping":170},{"user_id":99,"name":"Abel","steam_id":76561198354150858,"connected_time":301000000000,"state":"active","ping":104},{"user_id":92,"name":"tete","steam_id":76561198045222850,"connected_time":811000000000,"state":"active","ping":74},{"user_id":60,"name":"wasto-/-‚Ñ¢","steam_id":76561198102888038,"connected_time":3404000000000,"state":"active","ping":57},{"user_id":90,"name":"I.AM.THE.BOOP.WHICH.IS.APROACHI","steam_id":76561198049342507,"connected_time":912000000000,"state":"active","ping":98},{"user_id":43,"name":"–ö–æ—Ç—ë–Ω–æ–∫ –ë–ª—é–≤–æ—Ç—ã—à","steam_id":76561198084585685,"connected_time":4580000000000,"state":"active","ping":130},{"user_id":81,"name":"Calanim","steam_id":76561198068163854,"connected_time":1494000000000,"state":"active","ping":52},{"user_id":98,"name":"Titar Industries","steam_id":76561198143078476,"connected_time":429000000000,"state":"active","ping":139},{"user_id":45,"name":"Vinipux","steam_id":76561198224485952,"connected_time":4363000000000,"state":"active","ping":102},{"user_id":86,"name":"Perci","steam_id":76561198097789669,"connected_time":1243000000000,"state":"active","ping":70}]},{"server_id":22,"name":"Uncletopia | London | 6 | All Maps","name_short":"lon-6","host":"lon-1.uk.uncletopia.com","port":27065,"enabled":true,"region":"eu","cc":"gb","latitude":51.509865,"longitude":-0.118092,"reserved":0,"last_update":"0001-01-01T00:00:00Z","name_a2s":"Uncletopia | London | 6 | All Maps","protocol":17,"map":"cp_mountainlab","folder":"tf","game":"Team Fortress","app_id":440,"player_count":0,"max_players":24,"Bots":0,"server_type":"Dedicated","server_os":"Linux","password":true,"vac":true,"version":"7882260","steam_id":85568392924742830,"keywords":["cp","nocrits","nodmgspread","uncletopia"],"game_id":440,"stv_port":27066,"stv_name":"Uncletopia | London | 6 | All Maps | STV","players":null},{"server_id":40,"name":"Uncletopia | London | 7 | No Payload","name_short":"lon-7","host":"lon-1.uk.uncletopia.com","port":27075,"enabled":true,"region":"eu","cc":"gb","latitude":51.509865,"longitude":-0.118092,"reserved":0,"last_update":"0001-01-01T00:00:00Z","name_a2s":"Uncletopia | London | 7 | No Payload","protocol":17,"map":"cp_granary","folder":"tf","game":"Team Fortress","app_id":440,"player_count":1,"max_players":24,"Bots":0,"server_type":"Dedicated","server_os":"Linux","password":true,"vac":true,"version":"7882260","steam_id":85568392924964314,"keywords":["cp","nocrits","nodmgspread","uncletopia"],"game_id":440,"stv_port":27076,"stv_name":"Uncletopia | London | 7 | No Payload | STV","players":[{"user_id":10,"name":"herbal tea","steam_id":76561197980736364,"connected_time":70000000000,"state":"spawning","ping":107}]},{"server_id":41,"name":"Uncletopia | London | 8 | Community","name_short":"lon-8","host":"lon-1.uk.uncletopia.com","port":27085,"enabled":true,"region":"eu","cc":"gb","latitude":51.509865,"longitude":-0.118092,"reserved":0,"last_update":"0001-01-01T00:00:00Z","name_a2s":"Uncletopia | London | 8 | Community","protocol":17,"map":"workshop/pl_badwater_pro_v12.ugc2142942074","folder":"tf","game":"Team Fortress","app_id":440,"player_count":24,"max_players":24,"Bots":0,"server_type":"Dedicated","server_os":"Linux","password":true,"vac":true,"version":"7882260","steam_id":85568392924964315,"keywords":["nocrits","nodmgspread","payload","uncletopia"],"game_id":440,"stv_port":27086,"stv_name":"Uncletopia | London | 8 | Community | STV","players":[{"user_id":422,"name":"Sverhrazym","steam_id":76561198868708664,"connected_time":1803000000000,"state":"active","ping":94},{"user_id":414,"name":"Ava9","steam_id":76561198975869024,"connected_time":2766000000000,"state":"active","ping":85},{"user_id":432,"name":"Vinnyboiler","steam_id":76561198048722825,"connected_time":1161000000000,"state":"active","ping":31},{"user_id":390,"name":"Fat Pigeon","steam_id":76561198817940142,"connected_time":3783000000000,"state":"active","ping":46},{"user_id":428,"name":"Providence","steam_id":76561198003920270,"connected_time":1589000000000,"state":"active","ping":70},{"user_id":366,"name":"bowchika wowa #SlavaUkraine","steam_id":76561198159564550,"connected_time":4499000000000,"state":"active","ping":70},{"user_id":383,"name":"elsuedi","steam_id":76561198074722832,"connected_time":4023000000000,"state":"active","ping":60},{"user_id":441,"name":"Egg","steam_id":76561199360189459,"connected_time":338000000000,"state":"active","ping":67},{"user_id":431,"name":"Boki","steam_id":76561198044553351,"connected_time":1287000000000,"state":"active","ping":70},{"user_id":442,"name":"wouris","steam_id":76561198876188003,"connected_time":3000000000,"state":"spawning","ping":69},{"user_id":371,"name":"band-aid copyright infringement","steam_id":76561199027095451,"connected_time":4375000000000,"state":"active","ping":92},{"user_id":433,"name":"QuackQuackCrack","steam_id":76561198087569947,"connected_time":1097000000000,"state":"active","ping":122},{"user_id":180,"name":"Ran33","steam_id":76561197991474499,"connected_time":18897000000000,"state":"active","ping":85},{"user_id":417,"name":"G(RIZZ)LY","steam_id":76561197973234203,"connected_time":2055000000000,"state":"active","ping":56},{"user_id":423,"name":"Battle_Pass90","steam_id":76561199367142516,"connected_time":1792000000000,"state":"active","ping":83},{"user_id":300,"name":"duplicated","steam_id":76561198344952248,"connected_time":10137000000000,"state":"active","ping":60},{"user_id":415,"name":"CEO of Pen Island","steam_id":76561198037212191,"connected_time":2692000000000,"state":"active","ping":142},{"user_id":435,"name":"Portal79","steam_id":76561198095499584,"connected_time":964000000000,"state":"active","ping":62},{"user_id":405,"name":"quickfast","steam_id":76561199438900919,"connected_time":3154000000000,"state":"active","ping":42},{"user_id":406,"name":"the scringly dingly","steam_id":76561198192179174,"connected_time":3134000000000,"state":"active","ping":127},{"user_id":436,"name":"GGabe","steam_id":76561198117199068,"connected_time":953000000000,"state":"active","ping":74},{"user_id":426,"name":"Miton","steam_id":76561197970323209,"connected_time":1658000000000,"state":"active","ping":93},{"user_id":440,"name":"DragonLord","steam_id":76561198074279225,"connected_time":604000000000,"state":"active","ping":52},{"user_id":391,"name":"LarsInABox","steam_id":76561198028329262,"connected_time":3783000000000,"state":"active","ping":71}]},{"server_id":300,"name":"Uncletopia | Montr√©al | 1 | All Maps","name_short":"mtl-1","host":"mtl-1.ca.uncletopia.com","port":27015,"enabled":true,"region":"us-east","cc":"ca","latitude":45.50889,"longitude":-73.56167,"reserved":0,"last_update":"0001-01-01T00:00:00Z","name_a2s":"Uncletopia | Montr√©al | 1 | All Maps","protocol":17,"map":"koth_highpass","folder":"tf","game":"Team Fortress","app_id":440,"player_count":19,"max_players":24,"Bots":0,"server_type":"Dedicated","server_os":"Linux","password":true,"vac":true,"version":"7882260","steam_id":85568392924500087,"keywords":["cp","nocrits","nodmgspread","uncletopia"],"game_id":440,"stv_port":27016,"stv_name":"Uncletopia | Montr√©al | 1 | All Maps | STV","players":[{"user_id":3,"name":"send dudes","steam_id":76561198084277762,"connected_time":3076000000000,"state":"active","ping":33},{"user_id":40,"name":"stall","steam_id":76561199152861652,"connected_time":154000000000,"state":"active","ping":44},{"user_id":5,"name":"tasty","steam_id":76561198083839061,"connected_time":2915000000000,"state":"active","ping":100},{"user_id":29,"name":"Eosson","steam_id":76561198108642113,"connected_time":577000000000,"state":"active","ping":72},{"user_id":28,"name":"joethefool","steam_id":76561199015436319,"connected_time":642000000000,"state":"active","ping":60},{"user_id":38,"name":"goldgardian","steam_id":76561198319471339,"connected_time":212000000000,"state":"active","ping":75},{"user_id":30,"name":"Moonman327","steam_id":76561197992616059,"connected_time":569000000000,"state":"active","ping":77},{"user_id":31,"name":"Cwiishe","steam_id":76561199482943969,"connected_time":566000000000,"state":"active","ping":51},{"user_id":42,"name":"DOMAIN","steam_id":76561199095640319,"connected_time":78000000000,"state":"active","ping":167},{"user_id":18,"name":"DemoPan enjoyer","steam_id":76561198211703603,"connected_time":1243000000000,"state":"active","ping":34},{"user_id":19,"name":"Bee_Pirate","steam_id":76561199000599111,"connected_time":1214000000000,"state":"active","ping":64},{"user_id":32,"name":"EmergantZombie","steam_id":76561198004993012,"connected_time":544000000000,"state":"active","ping":100},{"user_id":24,"name":"Zenabie","steam_id":76561198088372680,"connected_time":864000000000,"state":"active","ping":75},{"user_id":25,"name":"„ÄåÔº¶ÔºµÔºÆÔº´„Äç","steam_id":76561198190323610,"connected_time":855000000000,"state":"active","ping":75},{"user_id":33,"name":"Witchings","steam_id":76561198247431254,"connected_time":510000000000,"state":"active","ping":72},{"user_id":41,"name":"Fat Payton | (GL)","steam_id":76561198169302585,"connected_time":128000000000,"state":"active","ping":72},{"user_id":34,"name":"Sea raider","steam_id":76561198123982355,"connected_time":509000000000,"state":"active","ping":105},{"user_id":36,"name":"Lovedaddy","steam_id":76561198006569710,"connected_time":316000000000,"state":"active","ping":80},{"user_id":43,"name":"Sleepy","steam_id":76561198156746320,"connected_time":11000000000,"state":"spawning","ping":60}]},{"server_id":301,"name":"Uncletopia | Montr√©al | 2 | All Maps","name_short":"mtl-2","host":"mtl-1.ca.uncletopia.com","port":27025,"enabled":true,"region":"us-east","cc":"ca","latitude":45.50889,"longitude":-73.56167,"reserved":0,"last_update":"0001-01-01T00:00:00Z","name_a2s":"Uncletopia | Montr√©al | 2 | All Maps","protocol":17,"map":"cp_sunshine","folder":"tf","game":"Team Fortress","app_id":440,"player_count":0,"max_players":24,"Bots":0,"server_type":"Dedicated","server_os":"Linux","password":true,"vac":true,"version":"7882260","steam_id":85568392924500088,"keywords":["cp","nocrits","nodmgspread","uncletopia"],"game_id":440,"stv_port":27026,"stv_name":"Uncletopia | Montr√©al | 2 | All Maps | STV","players":null},{"server_id":302,"name":"Uncletopia | Montr√©al | 3 | All Maps","name_short":"mtl-3","host":"mtl-1.ca.uncletopia.com","port":27035,"enabled":true,"region":"us-east","cc":"ca","latitude":45.50889,"longitude":-73.56167,"reserved":0,"last_update":"0001-01-01T00:00:00Z","name_a2s":"Uncletopia | Montr√©al | 3 | All Maps","protocol":17,"map":"koth_viaduct","folder":"tf","game":"Team Fortress","app_id":440,"player_count":0,"max_players":24,"Bots":0,"server_type":"Dedicated","server_os":"Linux","password":true,"vac":true,"version":"7882260","steam_id":85568392924500089,"keywords":["cp","nocrits","nodmgspread","uncletopia"],"game_id":440,"stv_port":27036,"stv_name":"Uncletopia | Montr√©al | 3 | All Maps | STV","players":null},{"server_id":303,"name":"Uncletopia | Montr√©al | 4 | No Payload","name_short":"mtl-4","host":"mtl-1.ca.uncletopia.com","port":27045,"enabled":true,"region":"us-east","cc":"ca","latitude":45.50889,"longitude":-73.56167,"reserved":0,"last_update":"0001-01-01T00:00:00Z","name_a2s":"Uncletopia | Montr√©al | 4 | No Payload","protocol":17,"map":"cp_sunshine","folder":"tf","game":"Team Fortress","app_id":440,"player_count":0,"max_players":24,"Bots":0,"server_type":"Dedicated","server_os":"Linux","password":true,"vac":true,"version":"7882260","steam_id":85568392924500090,"keywords":["cp","nocrits","nodmgspread","uncletopia"],"game_id":440,"stv_port":27046,"stv_name":"Uncletopia | Montr√©al | 4 | No Payload | STV","players":null},{"server_id":13,"name":"Uncletopia | New York City | 1 | All Maps","name_short":"nyc-1","host":"nyc-1.us.uncletopia.com","port":27015,"enabled":true,"region":"us-east","cc":"us","latitude":40.73061,"longitude":-73.93524,"reserved":0,"last_update":"0001-01-01T00:00:00Z","name_a2s":"Uncletopia | New York City | 1 | All Maps","protocol":17,"map":"pl_snowycoast","folder":"tf","game":"Team Fortress","app_id":440,"player_count":24,"max_players":24,"Bots":0,"server_type":"Dedicated","server_os":"Linux","password":true,"vac":true,"version":"7882260","steam_id":85568392924469993,"keywords":["nocrits","nodmgspread","payload","uncletopia"],"game_id":440,"stv_port":27016,"stv_name":"Uncletopia | New York City | 1 | All Maps | STV","players":[{"user_id":81,"name":"sasharudzik","steam_id":76561199126617781,"connected_time":2823000000000,"state":"active","ping":64},{"user_id":76,"name":"Slazzer","steam_id":76561198404351844,"connected_time":2883000000000,"state":"active","ping":58},{"user_id":124,"name":"H E L L O    T H E R E","steam_id":76561198433936091,"connected_time":172000000000,"state":"active","ping":78},{"user_id":115,"name":"quint","steam_id":76561198046797995,"connected_time":937000000000,"state":"active","ping":71},{"user_id":104,"name":"a 1930s robber","steam_id":76561198125237406,"connected_time":1743000000000,"state":"active","ping":60},{"user_id":100,"name":"illious","steam_id":76561198169925494,"connected_time":2412000000000,"state":"active","ping":70},{"user_id":53,"name":"Silvercoat's Stargazer","steam_id":76561198399525329,"connected_time":3452000000000,"state":"active","ping":67},{"user_id":103,"name":"trobin120","steam_id":76561199122420273,"connected_time":1965000000000,"state":"active","ping":50},{"user_id":108,"name":"\u0026rew","steam_id":76561198070531331,"connected_time":1545000000000,"state":"active","ping":53},{"user_id":125,"name":"pickup truck with huge honks","steam_id":76561198111447214,"connected_time":82000000000,"state":"active","ping":58},{"user_id":122,"name":"Five","steam_id":76561198026640473,"connected_time":348000000000,"state":"active","ping":85},{"user_id":110,"name":"mkl","steam_id":76561197986401685,"connected_time":1319000000000,"state":"active","ping":89},{"user_id":109,"name":"Diabolik","steam_id":76561197999707045,"connected_time":1397000000000,"state":"active","ping":68},{"user_id":118,"name":"the pest","steam_id":76561198826298849,"connected_time":693000000000,"state":"active","ping":92},{"user_id":101,"name":"J O V A","steam_id":76561198090333536,"connected_time":2272000000000,"state":"active","ping":63},{"user_id":112,"name":"LocaKola","steam_id":76561198173435430,"connected_time":1163000000000,"state":"active","ping":70},{"user_id":48,"name":"kingjeffry2012@hotmail.com","steam_id":76561198314104415,"connected_time":4353000000000,"state":"active","ping":78},{"user_id":107,"name":"lingulata","steam_id":76561198076208960,"connected_time":1549000000000,"state":"active","ping":75},{"user_id":111,"name":"Scrib Nibbler","steam_id":76561198042227832,"connected_time":1315000000000,"state":"active","ping":78},{"user_id":105,"name":"Bee","steam_id":76561198074681324,"connected_time":1740000000000,"state":"active","ping":46},{"user_id":123,"name":"capeeKo","steam_id":76561197970346623,"connected_time":347000000000,"state":"active","ping":72},{"user_id":121,"name":"(no monitor) ayylien","steam_id":76561198042127970,"connected_time":362000000000,"state":"active","ping":71},{"user_id":114,"name":"xen","steam_id":76561198048568188,"connected_time":943000000000,"state":"active","ping":50},{"user_id":116,"name":"guac","steam_id":76561198070305720,"connected_time":933000000000,"state":"active","ping":84}]},{"server_id":14,"name":"Uncletopia | New York City | 2 | All Maps","name_short":"nyc-2","host":"nyc-1.us.uncletopia.com","port":27025,"enabled":true,"region":"us-east","cc":"us","latitude":40.73061,"longitude":-73.93524,"reserved":0,"last_update":"0001-01-01T00:00:00Z","name_a2s":"Uncletopia | New York City | 2 | All Maps","protocol":17,"map":"cp_snakewater_final1","folder":"tf","game":"Team Fortress","app_id":440,"player_count":0,"max_players":24,"Bots":0,"server_type":"Dedicated","server_os":"Linux","password":true,"vac":true,"version":"7882260","steam_id":85568392924469994,"keywords":["cp","nocrits","nodmgspread","uncletopia"],"game_id":440,"stv_port":27026,"stv_name":"Uncletopia | New York City | 2 | All Maps | STV","players":null},{"server_id":15,"name":"Uncletopia | New York City | 3 | Stopwatch Beta","name_short":"nyc-3","host":"nyc-1.us.uncletopia.com","port":27035,"enabled":true,"region":"us-east","cc":"us","latitude":40.73061,"longitude":-73.93524,"reserved":0,"last_update":"0001-01-01T00:00:00Z","name_a2s":"Uncletopia | New York City | 3 | Stopwatch Beta","protocol":17,"map":"koth_lakeside_final","folder":"tf","game":"Team Fortress","app_id":440,"player_count":0,"max_players":24,"Bots":0,"server_type":"Dedicated","server_os":"Linux","password":true,"vac":true,"version":"7882260","steam_id":85568392924742820,"keywords":["cp","nocrits","nodmgspread","uncletopia"],"game_id":440,"stv_port":27036,"stv_name":"Uncletopia | New York City | 3 | Stopwatch Beta | STV","players":null},{"server_id":16,"name":"Uncletopia | New York City | 4 | Community","name_short":"nyc-4","host":"nyc-1.us.uncletopia.com","port":27045,"enabled":true,"region":"us-east","cc":"us","latitude":40.73061,"longitude":-73.93524,"reserved":0,"last_update":"0001-01-01T00:00:00Z","name_a2s":"Uncletopia | New York City | 4 | Community","protocol":17,"map":"workshop/cp_fulgur_rc2a.ugc2068252300","folder":"tf","game":"Team Fortress","app_id":440,"player_count":0,"max_players":24,"Bots":0,"server_type":"Dedicated","server_os":"Linux","password":true,"vac":true,"version":"7882260","steam_id":85568392924742821,"keywords":["cp","nocrits","nodmgspread","uncletopia"],"game_id":440,"stv_port":27046,"stv_name":"Uncletopia | New York City | 4 | Community | STV","players":null},{"server_id":142,"name":"Uncletopia | S√£o Paulo | 1 | All Maps","name_short":"sao-1","host":"sao-1.br.uncletopia.com","port":27015,"enabled":true,"region":"sa","cc":"br","latitude":-23.533773,"longitude":-46.62529,"reserved":0,"last_update":"0001-01-01T00:00:00Z","name_a2s":"Uncletopia | S√£o Paulo | 1 | All Maps","protocol":17,"map":"pl_swiftwater_final1","folder":"tf","game":"Team Fortress","app_id":440,"player_count":0,"max_players":24,"Bots":0,"server_type":"Dedicated","server_os":"Linux","password":true,"vac":true,"version":"7882260","steam_id":85568392924469996,"keywords":["nocrits","nodmgspread","payload","uncletopia"],"game_id":440,"stv_port":27016,"stv_name":"Uncletopia | S√£o Paulo | 1 | All Maps | STV","players":null},{"server_id":143,"name":"Uncletopia | S√£o Paulo | 2 | All Maps","name_short":"sao-2","host":"sao-2.br.uncletopia.com","port":27015,"enabled":true,"region":"sa","cc":"br","latitude":-23.533773,"longitude":-46.62529,"reserved":0,"last_update":"0001-01-01T00:00:00Z","name_a2s":"Uncletopia | S√£o Paulo | 2 | All Maps","protocol":17,"map":"pl_pier","folder":"tf","game":"Team Fortress","app_id":440,"player_count":0,"max_players":24,"Bots":0,"server_type":"Dedicated","server_os":"Linux","password":true,"vac":true,"version":"7882260","steam_id":85568392924485349,"keywords":["nocrits","nodmgspread","payload","uncletopia"],"game_id":440,"stv_port":27016,"stv_name":"Uncletopia | S√£o Paulo | 2 | All Maps | STV","players":null},{"server_id":7,"name":"Uncletopia | Seattle | 1 | All Maps","name_short":"sea-1","host":"sea-1.us.uncletopia.com","port":27015,"enabled":true,"region":"us-west","cc":"us","latitude":47.608013,"longitude":-122.33517,"reserved":0,"last_update":"0001-01-01T00:00:00Z","name_a2s":"Uncletopia | Seattle | 1 | All Maps","protocol":17,"map":"pl_swiftwater_final1","folder":"tf","game":"Team Fortress","app_id":440,"player_count":20,"max_players":24,"Bots":0,"server_type":"Dedicated","server_os":"Linux","password":true,"vac":true,"version":"7882260","steam_id":85568392924469997,"keywords":["nocrits","nodmgspread","payload","uncletopia"],"game_id":440,"stv_port":27016,"stv_name":"Uncletopia | Seattle | 1 | All Maps | STV","players":[{"user_id":197,"name":"Drakon","steam_id":76561198078210822,"connected_time":152000000000,"state":"active","ping":83},{"user_id":199,"name":"lil Froag","steam_id":76561198072722879,"connected_time":67000000000,"state":"active","ping":153},{"user_id":153,"name":"SibilantSerpent","steam_id":76561198154488754,"connected_time":4290000000000,"state":"active","ping":55},{"user_id":200,"name":"ORANGE","steam_id":76561198000401769,"connected_time":63000000000,"state":"active","ping":41},{"user_id":154,"name":"spider_murphy","steam_id":76561198079057101,"connected_time":4287000000000,"state":"active","ping":50},{"user_id":187,"name":"4logan","steam_id":76561198835163155,"connected_time":1665000000000,"state":"active","ping":45},{"user_id":158,"name":"DOPEam1ne","steam_id":76561198112204774,"connected_time":4211000000000,"state":"active","ping":59},{"user_id":194,"name":"INeverFold","steam_id":76561198285482224,"connected_time":247000000000,"state":"active","ping":97},{"user_id":178,"name":"evilOlive","steam_id":76561198106222025,"connected_time":2206000000000,"state":"active","ping":75},{"user_id":172,"name":"Level 99 Mudcrab","steam_id":76561198077452771,"connected_time":3124000000000,"state":"active","ping":58},{"user_id":160,"name":"Mythical Lag","steam_id":76561198347031281,"connected_time":4164000000000,"state":"active","ping":119},{"user_id":189,"name":"Warhead","steam_id":76561198067746049,"connected_time":1493000000000,"state":"active","ping":51},{"user_id":152,"name":"my monitor is off","steam_id":76561198074499537,"connected_time":4299000000000,"state":"active","ping":73},{"user_id":190,"name":"Mr.Frundles","steam_id":76561198134559026,"connected_time":1415000000000,"state":"active","ping":60},{"user_id":198,"name":"a bullet","steam_id":76561198809248362,"connected_time":120000000000,"state":"active","ping":437},{"user_id":176,"name":"Women's Wrongs","steam_id":76561198315021197,"connected_time":2775000000000,"state":"active","ping":76},{"user_id":141,"name":"lil uzi vert","steam_id":76561198326466375,"connected_time":5807000000000,"state":"active","ping":83},{"user_id":167,"name":"matt_rolltide","steam_id":76561198796727164,"connected_time":3468000000000,"state":"active","ping":69},{"user_id":191,"name":"HiFivr","steam_id":76561198285190162,"connected_time":1413000000000,"state":"active","ping":66},{"user_id":193,"name":"jeff_fan","steam_id":76561198086420687,"connected_time":908000000000,"state":"active","ping":92}]},{"server_id":119,"name":"Uncletopia | Seattle | 2 | All Maps","name_short":"sea-2","host":"sea-1.us.uncletopia.com","port":27025,"enabled":true,"region":"us-west","cc":"us","latitude":47.608013,"longitude":-122.33517,"reserved":0,"last_update":"0001-01-01T00:00:00Z","name_a2s":"Uncletopia | Seattle | 2 | All Maps","protocol":17,"map":"pl_pier","folder":"tf","game":"Team Fortress","app_id":440,"player_count":23,"max_players":24,"Bots":0,"server_type":"Dedicated","server_os":"Linux","password":true,"vac":true,"version":"7882260","steam_id":85568392924469998,"keywords":["nocrits","nodmgspread","payload","uncletopia"],"game_id":440,"stv_port":27026,"stv_name":"Uncletopia | Seattle | 2 | All Maps | STV","players":[{"user_id":77,"name":"Sad Sapling","steam_id":76561198075612150,"connected_time":867000000000,"state":"active","ping":76},{"user_id":49,"name":"YouCantSpellNutritionW/OutNUT","steam_id":76561198060588059,"connected_time":2274000000000,"state":"active","ping":83},{"user_id":91,"name":"Spirit","steam_id":76561198026245914,"connected_time":39000000000,"state":"active","ping":86},{"user_id":16,"name":"CJAIME01345","steam_id":76561199091599141,"connected_time":3178000000000,"state":"active","ping":188},{"user_id":83,"name":"Ryshy02","steam_id":76561198055425447,"connected_time":699000000000,"state":"active","ping":107},{"user_id":65,"name":"Bombat","steam_id":76561198083096946,"connected_time":1191000000000,"state":"active","ping":102},{"user_id":20,"name":"Anyar","steam_id":76561198160174097,"connected_time":2970000000000,"state":"active","ping":95},{"user_id":76,"name":"fart","steam_id":76561198206922028,"connected_time":973000000000,"state":"active","ping":74},{"user_id":75,"name":"Rafl","steam_id":76561198055222756,"connected_time":982000000000,"state":"active","ping":90},{"user_id":79,"name":"PheebsyDeebsy","steam_id":76561198101509436,"connected_time":813000000000,"state":"active","ping":60},{"user_id":52,"name":"Reverie","steam_id":76561198987005784,"connected_time":2197000000000,"state":"active","ping":111},{"user_id":70,"name":"Trash Rummager","steam_id":76561198085388962,"connected_time":1013000000000,"state":"active","ping":92},{"user_id":88,"name":"pylot","steam_id":76561198119460618,"connected_time":257000000000,"state":"active","ping":90},{"user_id":31,"name":"Pimastr","steam_id":76561198230996464,"connected_time":2685000000000,"state":"active","ping":107},{"user_id":64,"name":"Local","steam_id":76561198069537437,"connected_time":1452000000000,"state":"active","ping":80},{"user_id":90,"name":"Zalthair","steam_id":76561198052698533,"connected_time":57000000000,"state":"spawning","ping":208},{"user_id":81,"name":"Cob","steam_id":76561198042518365,"connected_time":809000000000,"state":"active","ping":62},{"user_id":67,"name":"Jeeper","steam_id":76561198155583692,"connected_time":1171000000000,"state":"active","ping":132},{"user_id":37,"name":"Lock'd","steam_id":76561198170108230,"connected_time":2615000000000,"state":"active","ping":81},{"user_id":54,"name":"paradise","steam_id":76561198044192429,"connected_time":2097000000000,"state":"active","ping":120},{"user_id":86,"name":"neet","steam_id":76561197968115168,"connected_time":286000000000,"state":"active","ping":107},{"user_id":87,"name":"blunderly","steam_id":76561198131915334,"connected_time":277000000000,"state":"active","ping":127},{"user_id":48,"name":"Jerphf","steam_id":76561198328825964,"connected_time":2310000000000,"state":"active","ping":105}]},{"server_id":406,"name":"Uncletopia | Seattle | 3 | Stopwatch Beta","name_short":"sea-3","host":"sea-1.us.uncletopia.com","port":27035,"enabled":true,"region":"us-west","cc":"us","latitude":47.608013,"longitude":-122.33517,"reserved":0,"last_update":"0001-01-01T00:00:00Z","name_a2s":"Uncletopia | Seattle | 3 | Stopwatch Beta","protocol":17,"map":"cp_mountainlab","folder":"tf","game":"Team Fortress","app_id":440,"player_count":0,"max_players":24,"Bots":0,"server_type":"Dedicated","server_os":"Linux","password":true,"vac":true,"version":"7882260","steam_id":85568392924515217,"keywords":["cp","nocrits","nodmgspread","uncletopia"],"game_id":440,"stv_port":27036,"stv_name":"Uncletopia | Seattle | 3 | Stopwatch Beta | STV","players":null},{"server_id":17,"name":"Uncletopia | San Francisco | 1 | All Maps","name_short":"sfo-1","host":"sfo-1.us.uncletopia.com","port":27015,"enabled":true,"region":"us-west","cc":"us","latitude":37.77397,"longitude":-122.4313,"reserved":0,"last_update":"0001-01-01T00:00:00Z","name_a2s":"Uncletopia | San Francisco | 1 | All Maps","protocol":17,"map":"cp_process_final","folder":"tf","game":"Team Fortress","app_id":440,"player_count":0,"max_players":24,"Bots":0,"server_type":"Dedicated","server_os":"Linux","password":true,"vac":true,"version":"7757534","steam_id":85568392924469999,"keywords":["cp","nocrits","nodmgspread","uncletopia"],"game_id":440,"stv_port":27016,"stv_name":"Uncletopia | San Francisco | 1 | All Maps | STV","players":null},{"server_id":18,"name":"Uncletopia | San Francisco | 2 | All Maps","name_short":"sfo-2","host":"sfo-1.us.uncletopia.com","port":27025,"enabled":true,"region":"us-west","cc":"us","latitude":37.77397,"longitude":-122.4313,"reserved":0,"last_update":"0001-01-01T00:00:00Z","name_a2s":"Uncletopia | San Francisco | 2 | All Maps","protocol":17,"map":"koth_highpass","folder":"tf","game":"Team Fortress","app_id":440,"player_count":0,"max_players":24,"Bots":0,"server_type":"Dedicated","server_os":"Linux","password":true,"vac":true,"version":"7757534","steam_id":85568392924470000,"keywords":["cp","nocrits","nodmgspread","uncletopia"],"game_id":440,"stv_port":27026,"stv_name":"Uncletopia | San Francisco | 2 | All Maps | STV","players":null},{"server_id":19,"name":"Uncletopia | San Francisco | 3 | Stopwatch Beta","name_short":"sfo-3","host":"sfo-1.us.uncletopia.com","port":27035,"enabled":true,"region":"us-west","cc":"us","latitude":37.77397,"longitude":-122.4313,"reserved":0,"last_update":"0001-01-01T00:00:00Z","name_a2s":"Uncletopia | San Francisco | 3 | Stopwatch Beta","protocol":17,"map":"koth_lakeside_final","folder":"tf","game":"Team Fortress","app_id":440,"player_count":0,"max_players":24,"Bots":0,"server_type":"Dedicated","server_os":"Linux","password":true,"vac":true,"version":"7757534","steam_id":85568392924742824,"keywords":["cp","nocrits","nodmgspread","uncletopia"],"game_id":440,"stv_port":27036,"stv_name":"Uncletopia | San Francisco | 3 | Stopwatch Beta | STV","players":null},{"server_id":20,"name":"Uncletopia | San Francisco | 4 | Community","name_short":"sfo-4","host":"sfo-1.us.uncletopia.com","port":27045,"enabled":true,"region":"us-west","cc":"us","latitude":37.77397,"longitude":-122.4313,"reserved":0,"last_update":"0001-01-01T00:00:00Z","name_a2s":"Uncletopia | San Francisco | 4 | Community","protocol":17,"map":"cp_altitude","folder":"tf","game":"Team Fortress","app_id":440,"player_count":0,"max_players":24,"Bots":0,"server_type":"Dedicated","server_os":"Linux","password":true,"vac":true,"version":"7757534","steam_id":85568392924742826,"keywords":["cp","nocrits","nodmgspread","uncletopia"],"game_id":440,"stv_port":27046,"stv_name":"Uncletopia | San Francisco | 4 | Community | STV","players":null},{"server_id":141,"name":"Uncletopia | Sydney | 1 | All Maps","name_short":"syd-1","host":"syd-1.au.uncletopia.com","port":27015,"enabled":true,"region":"au","cc":"au","latitude":-33.865143,"longitude":151.2099,"reserved":0,"last_update":"0001-01-01T00:00:00Z","name_a2s":"Uncletopia | Sydney | 1 | All Maps","protocol":17,"map":"koth_viaduct","folder":"tf","game":"Team Fortress","app_id":440,"player_count":0,"max_players":24,"Bots":0,"server_type":"Dedicated","server_os":"Linux","password":true,"vac":true,"version":"7882260","steam_id":85568392924470001,"keywords":["cp","nocrits","nodmgspread","uncletopia"],"game_id":440,"stv_port":27016,"stv_name":"Uncletopia | Sydney | 1 | All Maps | STV","players":null},{"server_id":123,"name":"Uncletopia | Sydney | 2 | All Maps","name_short":"syd-2","host":"syd-1.au.uncletopia.com","port":27025,"enabled":true,"region":"au","cc":"au","latitude":-33.865143,"longitude":151.2099,"reserved":0,"last_update":"0001-01-01T00:00:00Z","name_a2s":"Uncletopia | Sydney | 2 | All Maps","protocol":17,"map":"cp_mountainlab","folder":"tf","game":"Team Fortress","app_id":440,"player_count":0,"max_players":24,"Bots":0,"server_type":"Dedicated","server_os":"Linux","password":true,"vac":true,"version":"7882260","steam_id":85568392924470002,"keywords":["cp","nocrits","nodmgspread","uncletopia"],"game_id":440,"stv_port":27026,"stv_name":"Uncletopia | Sydney | 2 | All Maps | STV","players":null},{"server_id":395,"name":"Uncletopia | Sydney | 3 | All Maps","name_short":"syd-3","host":"syd-1.au.uncletopia.com","port":27035,"enabled":true,"region":"au","cc":"au","latitude":-33.865143,"longitude":151.2099,"reserved":0,"last_update":"0001-01-01T00:00:00Z","name_a2s":"Uncletopia | Sydney | 3 | All Maps","protocol":17,"map":"koth_highpass","folder":"tf","game":"Team Fortress","app_id":440,"player_count":0,"max_players":24,"Bots":0,"server_type":"Dedicated","server_os":"Linux","password":true,"vac":true,"version":"7882260","steam_id":85568392925194467,"keywords":["cp","nocrits","nodmgspread","uncletopia"],"game_id":440,"stv_port":27036,"stv_name":"Uncletopia | Sydney | 3 | All Maps | STV","players":null},{"server_id":396,"name":"Uncletopia | Sydney | 4 | All Maps","name_short":"syd-4","host":"syd-1.au.uncletopia.com","port":27045,"enabled":true,"region":"au","cc":"au","latitude":-33.865143,"longitude":151.2099,"reserved":0,"last_update":"0001-01-01T00:00:00Z","name_a2s":"Uncletopia | Sydney | 4 | All Maps","protocol":17,"map":"koth_cascade","folder":"tf","game":"Team Fortress","app_id":440,"player_count":0,"max_players":24,"Bots":0,"server_type":"Dedicated","server_os":"Linux","password":true,"vac":true,"version":"7882260","steam_id":85568392925397958,"keywords":["cp","nocrits","nodmgspread","uncletopia"],"game_id":440,"stv_port":27046,"stv_name":"Uncletopia | Sydney | 4 | All Maps | STV","players":null},{"server_id":58,"name":"Uncletopia | Sydney | 5 | Stopwatch Beta","name_short":"syd-5","host":"syd-1.au.uncletopia.com","port":27055,"enabled":true,"region":"au","cc":"au","latitude":-33.865143,"longitude":151.2099,"reserved":0,"last_update":"0001-01-01T00:00:00Z","name_a2s":"Uncletopia | Sydney | 5 | Stopwatch Beta","protocol":17,"map":"koth_lakeside_final","folder":"tf","game":"Team Fortress","app_id":440,"player_count":0,"max_players":24,"Bots":0,"server_type":"Dedicated","server_os":"Linux","password":true,"vac":true,"version":"7882260","steam_id":85568392925397959,"keywords":["cp","nocrits","nodmgspread","uncletopia"],"game_id":440,"stv_port":27056,"stv_name":"Uncletopia | Sydney | 5 | Stopwatch Beta | STV","players":null},{"server_id":59,"name":"Uncletopia | Sydney | 6 | Community","name_short":"syd-6","host":"syd-1.au.uncletopia.com","port":27065,"enabled":true,"region":"au","cc":"au","latitude":-33.865143,"longitude":151.2099,"reserved":0,"last_update":"0001-01-01T00:00:00Z","name_a2s":"Uncletopia | Sydney | 6 | Community","protocol":17,"map":"workshop/rd_asteroid_redux_b1.ugc2154902912","folder":"tf","game":"Team Fortress","app_id":440,"player_count":0,"max_players":24,"Bots":0,"server_type":"Dedicated","server_os":"Linux","password":true,"vac":true,"version":"7882260","steam_id":85568392925397960,"keywords":["beta","nocrits","nodmgspread","rd","uncletopia"],"game_id":440,"stv_port":27066,"stv_name":"Uncletopia | Sydney | 6 | Community | STV","players":null},{"server_id":49,"name":"Uncletopia | Warsaw | 1 | All Maps","name_short":"waw-1","host":"waw-1.pl.uncletopia.com","port":27015,"enabled":true,"region":"eu","cc":"pl","latitude":52.2297,"longitude":21.017532,"reserved":0,"last_update":"0001-01-01T00:00:00Z","name_a2s":"","protocol":0,"map":"","folder":"","game":"","app_id":0,"player_count":0,"max_players":0,"Bots":0,"server_type":"","server_os":"","password":false,"vac":false,"version":"","steam_id":0,"keywords":null,"game_id":0,"stv_port":0,"stv_name":"","players":null},{"server_id":50,"name":"Uncletopia | Warsaw | 2 | All Maps","name_short":"waw-2","host":"waw-1.pl.uncletopia.com","port":27025,"enabled":true,"region":"eu","cc":"pl","latitude":52.2297,"longitude":21.017532,"reserved":0,"last_update":"0001-01-01T00:00:00Z","name_a2s":"Uncletopia | Warsaw | 2 | All Maps","protocol":17,"map":"koth_cascade","folder":"tf","game":"Team Fortress","app_id":440,"player_count":0,"max_players":24,"Bots":0,"server_type":"Dedicated","server_os":"Linux","password":true,"vac":true,"version":"7882260","steam_id":85568392925397851,"keywords":["cp","nocrits","nodmgspread","uncletopia"],"game_id":440,"stv_port":27026,"stv_name":"Uncletopia | Warsaw | 2 | All Maps | STV","players":null},{"server_id":51,"name":"Uncletopia | Warsaw | 3 | All Maps","name_short":"waw-3","host":"waw-1.pl.uncletopia.com","port":27035,"enabled":true,"region":"eu","cc":"pl","latitude":52.2297,"longitude":21.017532,"reserved":0,"last_update":"0001-01-01T00:00:00Z","name_a2s":"Uncletopia | Warsaw | 3 | All Maps","protocol":17,"map":"ctf_2fort","folder":"tf","game":"Team Fortress","app_id":440,"player_count":24,"max_players":24,"Bots":0,"server_type":"Dedicated","server_os":"Linux","password":true,"vac":true,"version":"7882260","steam_id":85568392925397852,"keywords":["ctf","nocrits","nodmgspread","uncletopia"],"game_id":440,"stv_port":27036,"stv_name":"Uncletopia | Warsaw | 3 | All Maps | STV","players":[{"user_id":75,"name":"big poo","steam_id":76561199088284199,"connected_time":6803000000000,"state":"active","ping":48},{"user_id":166,"name":"Zygocact","steam_id":76561197990776598,"connected_time":264000000000,"state":"active","ping":105},{"user_id":146,"name":"Gearless","steam_id":76561198362367074,"connected_time":1637000000000,"state":"active","ping":90},{"user_id":147,"name":"M2rtRa","steam_id":76561198111036466,"connected_time":1634000000000,"state":"active","ping":83},{"user_id":154,"name":"peter griffin be like","steam_id":76561198149476240,"connected_time":1331000000000,"state":"active","ping":65},{"user_id":152,"name":"–†–∏–¥–¥–∏–∫","steam_id":76561199019105314,"connected_time":1407000000000,"state":"active","ping":112},{"user_id":123,"name":"Igames","steam_id":76561198414062544,"connected_time":3139000000000,"state":"active","ping":74},{"user_id":137,"name":"froyo Pablo","steam_id":76561198322087870,"connected_time":2339000000000,"state":"active","ping":123},{"user_id":115,"name":"MEATGOOD","steam_id":76561198346535909,"connected_time":4085000000000,"state":"active","ping":171},{"user_id":86,"name":"Galex","steam_id":76561198045637579,"connected_time":5463000000000,"state":"active","ping":65},{"user_id":87,"name":"Themoonisacheese","steam_id":76561198025594173,"connected_time":5381000000000,"state":"active","ping":77},{"user_id":163,"name":"JMan","steam_id":76561198367705381,"connected_time":514000000000,"state":"active","ping":41},{"user_id":121,"name":"the_gambler","steam_id":76561198026052716,"connected_time":3672000000000,"state":"active","ping":83},{"user_id":138,"name":"the chocolate crapper","steam_id":76561198057722639,"connected_time":2301000000000,"state":"active","ping":74},{"user_id":155,"name":"ya boi regi","steam_id":76561198004463741,"connected_time":1263000000000,"state":"active","ping":105},{"user_id":162,"name":"znunney","steam_id":76561199438501613,"connected_time":758000000000,"state":"active","ping":89},{"user_id":141,"name":"Merc","steam_id":76561199012274799,"connected_time":2112000000000,"state":"active","ping":78},{"user_id":153,"name":"BigTastyBread","steam_id":76561198364203486,"connected_time":1405000000000,"state":"active","ping":78},{"user_id":168,"name":"LOBZIK","steam_id":76561198114830120,"connected_time":1000000000,"state":"spawning","ping":40},{"user_id":118,"name":"MGE MELVIN","steam_id":76561198049312442,"connected_time":3916000000000,"state":"active","ping":89},{"user_id":120,"name":"Doughy","steam_id":76561198044084210,"connected_time":3685000000000,"state":"active","ping":78},{"user_id":157,"name":"Mr.Schnittlauch","steam_id":76561198295868113,"connected_time":1154000000000,"state":"active","ping":71},{"user_id":165,"name":"TaxEvasion","steam_id":76561198199037139,"connected_time":406000000000,"state":"active","ping":62},{"user_id":167,"name":"2003 Volkswagen passat 1.6 tdi","steam_id":76561199148666369,"connected_time":205000000000,"state":"active","ping":63}]},{"server_id":52,"name":"Uncletopia | Warsaw | 4 | All Maps","name_short":"waw-4","host":"waw-1.pl.uncletopia.com","port":27045,"enabled":true,"region":"eu","cc":"pl","latitude":52.2297,"longitude":21.017532,"reserved":0,"last_update":"0001-01-01T00:00:00Z","name_a2s":"Uncletopia | Warsaw | 4 | All Maps","protocol":17,"map":"koth_highpass","folder":"tf","game":"Team Fortress","app_id":440,"player_count":0,"max_players":24,"Bots":0,"server_type":"Dedicated","server_os":"Linux","password":true,"vac":true,"version":"7882260","steam_id":85568392925397853,"keywords":["cp","nocrits","nodmgspread","uncletopia"],"game_id":440,"stv_port":27046,"stv_name":"Uncletopia | Warsaw | 4 | All Maps | STV","players":null},{"server_id":53,"name":"Uncletopia | Warsaw | 5 | Stopwatch Beta","name_short":"waw-5","host":"waw-1.pl.uncletopia.com","port":27055,"enabled":true,"region":"eu","cc":"pl","latitude":52.2297,"longitude":21.017532,"reserved":0,"last_update":"0001-01-01T00:00:00Z","name_a2s":"Uncletopia | Warsaw | 5 | Stopwatch Beta","protocol":17,"map":"cp_mountainlab","folder":"tf","game":"Team Fortress","app_id":440,"player_count":0,"max_players":24,"Bots":0,"server_type":"Dedicated","server_os":"Linux","password":true,"vac":true,"version":"7882260","steam_id":85568392925397854,"keywords":["cp","nocrits","nodmgspread","uncletopia"],"game_id":440,"stv_port":27056,"stv_name":"Uncletopia | Warsaw | 5 | Stopwatch Beta | STV","players":null},{"server_id":54,"name":"Uncletopia | Warsaw | 6 | Community","name_short":"waw-6","host":"waw-1.pl.uncletopia.com","port":27065,"enabled":true,"region":"eu","cc":"pl","latitude":52.2297,"longitude":21.017532,"reserved":0,"last_update":"0001-01-01T00:00:00Z","name_a2s":"Uncletopia | Warsaw | 6 | Community","protocol":17,"map":"workshop/cp_indulge.ugc528106646","folder":"tf","game":"Team Fortress","app_id":440,"player_count":0,"max_players":24,"Bots":0,"server_type":"Dedicated","server_os":"Linux","password":true,"vac":true,"version":"7882260","steam_id":85568392925397856,"keywords":["cp","nocrits","nodmgspread","uncletopia"],"game_id":440,"stv_port":27066,"stv_name":"Uncletopia | Warsaw | 6 | Community | STV","players":null}]}