{"status":true,"message":"","result":[{"server_id":9,"name":"Uncletopia | Atlanta | 1 | All Maps","name_short":"atl-1","host":"atl-1.us.uncletopia.com","port":27015,"enabled":true,"region":"us-east","cc":"us","latitude":33.753746,"longitude":-84.38633,"reserved":0,"last_update":"0001-01-01T00:00:00Z","name_a2s":"Uncletopia | Atlanta | 1 | All Maps","protocol":17,"map":"cp_steel","folder":"tf","game":"Team Fortress","app_id":440,"player_count":23,"max_players":24,"Bots":0,"server_type":"Dedicated","server_os":"Linux","password":true,"vac":true,"version":"7742253","steam_id":85568392924469982,"keywords":["cp","nocrits","nodmgspread","uncletopia"],"game_id":440,"stv_port":27016,"stv_name":"Uncletopia | Atlanta | 1 | All Maps | STV","players":[{"user_id":797,"name":"ATL1 | Rat","steam_id":76561198137925582,"connected_time":1755000000000,"state":"active","ping":60},{"user_id":818,"name":"ATL1 | Crystron","steam_id":76561198880437428,"connected_time":322000000000,"state":"active","ping":82},{"user_id":800,"name":"potato pat lft","steam_id":76561198025489194,"connected_time":1610000000000,"state":"active","ping":62},{"user_id":776,"name":"ATL1 | Lancer Fan Club","steam_id":76561198355495948,"connected_time":2748000000000,"state":"active","ping":92},{"user_id":815,"name":"Zoombini16","steam_id":76561198324428992,"connected_time":479000000000,"state":"active","ping":54},{"user_id":775,"name":"Inky (Coolest)","steam_id":76561198968337022,"connected_time":2754000000000,"state":"active","ping":43},{"user_id":819,"name":"Mage","steam_id":76561198285026879,"connected_time":296000000000,"state":"active","ping":73},{"user_id":809,"name":"SethMan","steam_id":76561198004402532,"connected_time":1121000000000,"state":"active","ping":74},{"user_id":814,"name":"Antwan","steam_id":76561198246200638,"connected_time":621000000000,"state":"active","ping":60},{"user_id":784,"name":"ArnoldGaming","steam_id":76561198040140247,"connected_time":2647000000000,"state":"active","ping":86},{"user_id":762,"name":"Brass beast heavy","steam_id":76561198274197623,"connected_time":4256000000000,"state":"active","ping":149},{"user_id":820,"name":"Drunk on Sodium(real)","steam_id":76561199016285746,"connected_time":192000000000,"state":"active","ping":75},{"user_id":803,"name":"yomokha","steam_id":76561198063175935,"connected_time":1485000000000,"state":"active","ping":58},{"user_id":777,"name":"ATL1 | SparkStorm","steam_id":76561198095817025,"connected_time":2746000000000,"state":"active","ping":32},{"user_id":804,"name":"earthbound393","steam_id":76561199444276547,"connected_time":1474000000000,"state":"active","ping":146},{"user_id":812,"name":"forklift circumcised","steam_id":76561198278756087,"connected_time":980000000000,"state":"active","ping":75},{"user_id":764,"name":"enlite","steam_id":76561198884284647,"connected_time":4143000000000,"state":"active","ping":64},{"user_id":810,"name":"StarLy","steam_id":76561198174428289,"connected_time":1042000000000,"state":"active","ping":95},{"user_id":806,"name":"truundrscr","steam_id":76561198213525809,"connected_time":1448000000000,"state":"active","ping":112},{"user_id":807,"name":"Miner2495","steam_id":76561198445904523,"connected_time":1447000000000,"state":"active","ping":84},{"user_id":798,"name":"mos","steam_id":76561198146126212,"connected_time":1739000000000,"state":"active","ping":63},{"user_id":793,"name":"Boop","steam_id":76561198376703875,"connected_time":2160000000000,"state":"active","ping":73}]},{"server_id":400,"name":"Uncletopia | Atlanta | 3 | Stopwatch Beta","name_short":"atl-3","host":"atl-1.us.uncletopia.com","port":27035,"enabled":true,"region":"us-east","cc":"us","latitude":33.753746,"longitude":-84.38633,"reserved":0,"last_update":"0001-01-01T00:00:00Z","name_a2s":"Uncletopia | Atlanta | 3 | Stopwatch Beta","protocol":17,"map":"pl_borneo","folder":"tf","game":"Team Fortress","app_id":440,"player_count":0,"max_players":24,"Bots":0,"server_type":"Dedicated","server_os":"Linux","password":true,"vac":true,"version":"7742253","steam_id":85568392924515187,"keywords":["nocrits","nodmgspread","payload","uncletopia"],"game_id":440,"stv_port":27036,"stv_name":"Uncletopia | Atlanta | 3 | Stopwatch Beta | STV","players":null},{"server_id":401,"name":"Uncletopia | Atlanta | 4 | No Payload","name_short":"atl-4","host":"atl-1.us.uncletopia.com","port":27045,"enabled":true,"region":"us-east","cc":"us","latitude":33.753746,"longitude":-84.38633,"reserved":0,"last_update":"0001-01-01T00:00:00Z","name_a2s":"Uncletopia | Atlanta | 4 | No Payload","protocol":17,"map":"pl_pier","folder":"tf","game":"Team Fortress","app_id":440,"player_count":0,"max_players":24,"Bots":0,"server_type":"Dedicated","server_os":"Linux","password":true,"vac":true,"version":"7723704","steam_id":85568392924515188,"keywords":["nocrits","nodmgspread","payload","uncletopia"],"game_id":440,"stv_port":27046,"stv_name":"Uncletopia | Atlanta | 4 | No Payload | STV","players":null},{"server_id":2,"name":"Uncletopia | Chicago | 1 | All Maps","name_short":"chi-1","host":"chi-1.us.uncletopia.com","port":27015,"enabled":true,"region":"us-central","cc":"us","latitude":41.881832,"longitude":-87.62318,"reserved":0,"last_update":"0001-01-01T00:00:00Z","name_a2s":"Uncletopia | Chicago | 1 | All Maps","protocol":17,"map":"pl_barnblitz","folder":"tf","game":"Team Fortress","app_id":440,"player_count":24,"max_players":24,"Bots":0,"server_type":"Dedicated","server_os":"Linux","password":true,"vac":true,"version":"7742253","steam_id":85568392924469984,"keywords":["nocrits","nodmgspread","payload","uncletopia"],"game_id":440,"stv_port":27016,"stv_name":"Uncletopia | Chicago | 1 | All Maps | STV","players":[{"user_id":531,"name":"BooshBuster","steam_id":76561198237192090,"connected_time":4029000000000,"state":"active","ping":46},{"user_id":572,"name":"About That Gift I Owed Ya","steam_id":76561198071506287,"connected_time":1171000000000,"state":"active","ping":95},{"user_id":576,"name":"Scout Cuomo","steam_id":76561198345950408,"connected_time":485000000000,"state":"active","ping":70},{"user_id":557,"name":"Sarbanes-Oxley","steam_id":76561197975898479,"connected_time":2511000000000,"state":"active","ping":77},{"user_id":413,"name":"jingle.JIFF","steam_id":76561198045181760,"connected_time":13764000000000,"state":"active","ping":51},{"user_id":562,"name":"Busto","steam_id":76561198322674075,"connected_time":2267000000000,"state":"active","ping":101},{"user_id":567,"name":"Gabinator32","steam_id":76561198872467183,"connected_time":1614000000000,"state":"active","ping":48},{"user_id":527,"name":"Howster002","steam_id":76561198323965902,"connected_time":4144000000000,"state":"active","ping":87},{"user_id":555,"name":"Coolyo1313","steam_id":76561198158772227,"connected_time":2546000000000,"state":"active","ping":57},{"user_id":560,"name":"pworple","steam_id":76561199189877104,"connected_time":2383000000000,"state":"active","ping":47},{"user_id":585,"name":"ROGUE-PLANET","steam_id":76561198116023052,"connected_time":41000000000,"state":"active","ping":62},{"user_id":575,"name":"SsaucySam","steam_id":76561198362539268,"connected_time":689000000000,"state":"active","ping":78},{"user_id":574,"name":"StonedGiant","steam_id":76561197984386932,"connected_time":790000000000,"state":"active","ping":57},{"user_id":581,"name":"Heisenberg","steam_id":76561198167411287,"connected_time":431000000000,"state":"active","ping":52},{"user_id":584,"name":"Space⭐Taffy","steam_id":76561198002271720,"connected_time":117000000000,"state":"active","ping":66},{"user_id":580,"name":"Batman","steam_id":76561198202427509,"connected_time":442000000000,"state":"active","ping":77},{"user_id":510,"name":"Susan","steam_id":76561198045705049,"connected_time":5701000000000,"state":"active","ping":105},{"user_id":548,"name":"Ace Chromatica","steam_id":76561198042211131,"connected_time":3169000000000,"state":"active","ping":45},{"user_id":568,"name":"IIP","steam_id":76561198286102406,"connected_time":1585000000000,"state":"active","ping":62},{"user_id":582,"name":"Trolley","steam_id":76561198106695948,"connected_time":249000000000,"state":"active","ping":91},{"user_id":543,"name":"yvngbvshvvookie","steam_id":76561198054354674,"connected_time":3244000000000,"state":"active","ping":62},{"user_id":544,"name":"Mycelion","steam_id":76561198024999530,"connected_time":3241000000000,"state":"active","ping":79},{"user_id":566,"name":"Blond Putain","steam_id":76561198144097470,"connected_time":2207000000000,"state":"active","ping":51},{"user_id":571,"name":"CoconutRice","steam_id":76561198114909164,"connected_time":1298000000000,"state":"active","ping":47}]},{"server_id":106,"name":"Uncletopia | Chicago | 2 | All Maps","name_short":"chi-2","host":"chi-1.us.uncletopia.com","port":27025,"enabled":true,"region":"us-central","cc":"us","latitude":41.881832,"longitude":-87.62318,"reserved":0,"last_update":"0001-01-01T00:00:00Z","name_a2s":"Uncletopia | Chicago | 2 | All Maps","protocol":17,"map":"pl_swiftwater_final1","folder":"tf","game":"Team Fortress","app_id":440,"player_count":24,"max_players":24,"Bots":0,"server_type":"Dedicated","server_os":"Linux","password":true,"vac":true,"version":"7742253","steam_id":85568392924469985,"keywords":["nocrits","nodmgspread","payload","uncletopia"],"game_id":440,"stv_port":27026,"stv_name":"Uncletopia | Chicago | 2 | All Maps | STV","players":[{"user_id":302,"name":"Minion Bob","steam_id":76561198023938170,"connected_time":3977000000000,"state":"active","ping":95},{"user_id":329,"name":"KaleidoscopeOk7981","steam_id":76561198110449520,"connected_time":1598000000000,"state":"active","ping":90},{"user_id":336,"name":"Reckless Klondike","steam_id":76561198060904416,"connected_time":731000000000,"state":"active","ping":73},{"user_id":314,"name":"Big G","steam_id":76561198067496197,"connected_time":2441000000000,"state":"active","ping":49},{"user_id":332,"name":"Pyromanncer TF","steam_id":76561198018508494,"connected_time":1454000000000,"state":"active","ping":82},{"user_id":323,"name":"Totes Adorbs!","steam_id":76561197994655618,"connected_time":1625000000000,"state":"active","ping":67},{"user_id":310,"name":"honja","steam_id":76561197999343534,"connected_time":2800000000000,"state":"active","ping":68},{"user_id":324,"name":"Dug","steam_id":76561198017691029,"connected_time":1624000000000,"state":"active","ping":51},{"user_id":335,"name":"Vibey","steam_id":76561198342873474,"connected_time":925000000000,"state":"active","ping":79},{"user_id":337,"name":"AUGH","steam_id":76561198208827912,"connected_time":709000000000,"state":"active","ping":73},{"user_id":277,"name":"Cursed.jpg","steam_id":76561198164146325,"connected_time":5561000000000,"state":"active","ping":81},{"user_id":331,"name":"Mancer","steam_id":76561198002825637,"connected_time":1514000000000,"state":"active","ping":91},{"user_id":320,"name":"RaddahRaddah","steam_id":76561198194462829,"connected_time":2016000000000,"state":"active","ping":57},{"user_id":333,"name":"Papa Meme a la Cream","steam_id":76561198067810973,"connected_time":1285000000000,"state":"active","ping":61},{"user_id":334,"name":"Pancreas Enjoyer","steam_id":76561199438598904,"connected_time":993000000000,"state":"active","ping":101},{"user_id":319,"name":"Marlboro Menthol 100s","steam_id":76561198263631055,"connected_time":2148000000000,"state":"active","ping":62},{"user_id":339,"name":"Dirtbike rider","steam_id":76561198030457066,"connected_time":0,"state":"spawning","ping":19},{"user_id":317,"name":"totally not a pile of beans","steam_id":76561198119851931,"connected_time":2391000000000,"state":"active","ping":78},{"user_id":270,"name":"Soap Man","steam_id":76561198000490235,"connected_time":6249000000000,"state":"active","ping":111},{"user_id":308,"name":"BernardBull","steam_id":76561198036138813,"connected_time":3234000000000,"state":"active","ping":81},{"user_id":326,"name":"Myro","steam_id":76561198030064216,"connected_time":1618000000000,"state":"active","ping":74},{"user_id":338,"name":"FireQuiz","steam_id":76561198107357249,"connected_time":423000000000,"state":"active","ping":103},{"user_id":330,"name":"Kid named download","steam_id":76561199192074448,"connected_time":1596000000000,"state":"active","ping":75},{"user_id":328,"name":"Jinx","steam_id":76561198010088266,"connected_time":1615000000000,"state":"active","ping":96}]},{"server_id":402,"name":"Uncletopia | Chicago | 3 | All Maps","name_short":"chi-3","host":"chi-1.us.uncletopia.com","port":27035,"enabled":true,"region":"us-central","cc":"us","latitude":41.881832,"longitude":-87.62318,"reserved":0,"last_update":"0001-01-01T00:00:00Z","name_a2s":"Uncletopia | Chicago | 3 | All Maps","protocol":17,"map":"pl_frontier_final","folder":"tf","game":"Team Fortress","app_id":440,"player_count":24,"max_players":24,"Bots":0,"server_type":"Dedicated","server_os":"Linux","password":true,"vac":true,"version":"7742253","steam_id":85568392924515191,"keywords":["nocrits","nodmgspread","payload","uncletopia"],"game_id":440,"stv_port":27036,"stv_name":"Uncletopia | Chicago | 3 | All Maps | STV","players":[{"user_id":933,"name":"ghostedghost","steam_id":76561198111410905,"connected_time":2332000000000,"state":"active","ping":80},{"user_id":913,"name":"DeadErebus","steam_id":76561198286117045,"connected_time":4119000000000,"state":"active","ping":37},{"user_id":822,"name":"peachy","steam_id":76561198026664629,"connected_time":10288000000000,"state":"active","ping":57},{"user_id":949,"name":"BustedRake","steam_id":76561198130489976,"connected_time":1228000000000,"state":"active","ping":67},{"user_id":924,"name":"SpyShark","steam_id":76561198064973839,"connected_time":3116000000000,"state":"active","ping":69},{"user_id":915,"name":"i will unheal your scars","steam_id":76561198067994868,"connected_time":4095000000000,"state":"active","ping":63},{"user_id":939,"name":"SliFox115","steam_id":76561198006657143,"connected_time":2084000000000,"state":"active","ping":77},{"user_id":945,"name":"DarcoYouKnow","steam_id":76561198148885233,"connected_time":1802000000000,"state":"active","ping":70},{"user_id":942,"name":"FlakkerSaber","steam_id":76561198103503066,"connected_time":1936000000000,"state":"active","ping":84},{"user_id":909,"name":"Space-E","steam_id":76561198799417313,"connected_time":4572000000000,"state":"active","ping":64},{"user_id":941,"name":"TheFlyingTortis","steam_id":76561198071576016,"connected_time":1948000000000,"state":"active","ping":59},{"user_id":947,"name":"Butters495","steam_id":76561197998689042,"connected_time":1383000000000,"state":"active","ping":72},{"user_id":922,"name":"Medic","steam_id":76561198067869016,"connected_time":3734000000000,"state":"active","ping":45},{"user_id":919,"name":"Raniel Dicciardo","steam_id":76561198053859538,"connected_time":3895000000000,"state":"active","ping":59},{"user_id":849,"name":"miles","steam_id":76561199029019040,"connected_time":9047000000000,"state":"active","ping":82},{"user_id":943,"name":"Eins","steam_id":76561199030343810,"connected_time":1918000000000,"state":"active","ping":52},{"user_id":929,"name":"amazing","steam_id":76561198386233160,"connected_time":2943000000000,"state":"active","ping":89},{"user_id":957,"name":":(","steam_id":76561199433687944,"connected_time":297000000000,"state":"active","ping":97},{"user_id":954,"name":"jimmie","steam_id":76561198042583389,"connected_time":588000000000,"state":"active","ping":71},{"user_id":950,"name":"BigOrca54","steam_id":76561198181360271,"connected_time":862000000000,"state":"active","ping":82},{"user_id":946,"name":"Dark Horse","steam_id":76561198121786844,"connected_time":1405000000000,"state":"active","ping":95},{"user_id":956,"name":"Jettzky","steam_id":76561198305540151,"connected_time":460000000000,"state":"active","ping":91},{"user_id":952,"name":"Nexusuxen","steam_id":76561198117547131,"connected_time":798000000000,"state":"active","ping":71},{"user_id":931,"name":"Weerk","steam_id":76561199209543551,"connected_time":2695000000000,"state":"active","ping":86}]},{"server_id":403,"name":"Uncletopia | Chicago | 4 | All Maps","name_short":"chi-4","host":"chi-1.us.uncletopia.com","port":27045,"enabled":true,"region":"us-central","cc":"us","latitude":41.881832,"longitude":-87.62318,"reserved":0,"last_update":"0001-01-01T00:00:00Z","name_a2s":"Uncletopia | Chicago | 4 | All Maps","protocol":17,"map":"pl_pier","folder":"tf","game":"Team Fortress","app_id":440,"player_count":23,"max_players":24,"Bots":0,"server_type":"Dedicated","server_os":"Linux","password":true,"vac":true,"version":"7742253","steam_id":85568392924515193,"keywords":["nocrits","nodmgspread","payload","uncletopia"],"game_id":440,"stv_port":27046,"stv_name":"Uncletopia | Chicago | 4 | All Maps | STV","players":[{"user_id":379,"name":"Cat Drone","steam_id":76561198088151251,"connected_time":150000000000,"state":"active","ping":58},{"user_id":346,"name":"java","steam_id":76561198030276792,"connected_time":2693000000000,"state":"active","ping":58},{"user_id":368,"name":"King","steam_id":76561198010019214,"connected_time":515000000000,"state":"active","ping":48},{"user_id":370,"name":"MilkMan","steam_id":76561199129965359,"connected_time":513000000000,"state":"active","ping":72},{"user_id":380,"name":"leumas","steam_id":76561198240408540,"connected_time":127000000000,"state":"active","ping":74},{"user_id":381,"name":"TheChickenChuck","steam_id":76561199192686708,"connected_time":51000000000,"state":"active","ping":92},{"user_id":376,"name":"The Beast","steam_id":76561198273512996,"connected_time":361000000000,"state":"active","ping":83},{"user_id":366,"name":"jim","steam_id":76561198134905085,"connected_time":773000000000,"state":"active","ping":151},{"user_id":367,"name":"FlashGamer420","steam_id":76561199063103261,"connected_time":660000000000,"state":"active","ping":50},{"user_id":371,"name":"Artic_Ryuu","steam_id":76561198182194918,"connected_time":508000000000,"state":"active","ping":91},{"user_id":377,"name":"TheOneGaming","steam_id":76561199178940978,"connected_time":332000000000,"state":"active","ping":77},{"user_id":382,"name":"king of bogers","steam_id":76561198045731295,"connected_time":46000000000,"state":"spawning","ping":70},{"user_id":383,"name":"Allotrope","steam_id":76561197998450103,"connected_time":44000000000,"state":"spawning","ping":59},{"user_id":378,"name":"GreekGoat_Coffee","steam_id":76561198129331088,"connected_time":302000000000,"state":"active","ping":45},{"user_id":384,"name":"dave strider","steam_id":76561198065112186,"connected_time":43000000000,"state":"spawning","ping":67},{"user_id":364,"name":"sithreis","steam_id":76561198000564263,"connected_time":957000000000,"state":"active","ping":65},{"user_id":385,"name":"esog","steam_id":76561198250069226,"connected_time":26000000000,"state":"active","ping":65},{"user_id":355,"name":"AlecTheNefarious","steam_id":76561198035291230,"connected_time":1648000000000,"state":"active","ping":60},{"user_id":386,"name":"kametro4","steam_id":76561198835430429,"connected_time":12000000000,"state":"spawning","ping":89},{"user_id":374,"name":"howtobepker","steam_id":76561198115053865,"connected_time":488000000000,"state":"active","ping":81},{"user_id":341,"name":"The Beast Within","steam_id":76561198298416058,"connected_time":3179000000000,"state":"active","ping":72},{"user_id":375,"name":"Herr Müller","steam_id":76561198064876829,"connected_time":445000000000,"state":"active","ping":90},{"user_id":342,"name":"YoshaBoss","steam_id":76561198449656454,"connected_time":3062000000000,"state":"active","ping":76}]},{"server_id":36,"name":"Uncletopia | Chicago | 5 | All Maps","name_short":"chi-5","host":"chi-2.us.uncletopia.com","port":27015,"enabled":true,"region":"us-central","cc":"us","latitude":41.881832,"longitude":-87.62318,"reserved":0,"last_update":"0001-01-01T00:00:00Z","name_a2s":"Uncletopia | Chicago | 5 | All Maps","protocol":17,"map":"koth_lakeside_final","folder":"tf","game":"Team Fortress","app_id":440,"player_count":24,"max_players":24,"Bots":0,"server_type":"Dedicated","server_os":"Linux","password":true,"vac":true,"version":"7742253","steam_id":85568392924866362,"keywords":["cp","nocrits","nodmgspread","uncletopia"],"game_id":440,"stv_port":27016,"stv_name":"Uncletopia | Chicago | 5 | All Maps | STV","players":[{"user_id":86,"name":"Crabbymic","steam_id":76561197979418745,"connected_time":5545000000000,"state":"active","ping":49},{"user_id":128,"name":"Queefaholic™","steam_id":76561198201698086,"connected_time":2017000000000,"state":"active","ping":96},{"user_id":139,"name":"Shima","steam_id":76561198996459518,"connected_time":1437000000000,"state":"active","ping":85},{"user_id":127,"name":"Gray","steam_id":76561198275796773,"connected_time":2032000000000,"state":"active","ping":100},{"user_id":159,"name":"StarB","steam_id":76561198149605368,"connected_time":656000000000,"state":"active","ping":82},{"user_id":97,"name":"atserc","steam_id":76561197997570349,"connected_time":4073000000000,"state":"active","ping":96},{"user_id":143,"name":"Mr. Tickle","steam_id":76561198126684647,"connected_time":1257000000000,"state":"active","ping":58},{"user_id":141,"name":"joethefool","steam_id":76561199015436319,"connected_time":1377000000000,"state":"active","ping":79},{"user_id":158,"name":"gtec229","steam_id":76561198026589960,"connected_time":700000000000,"state":"active","ping":59},{"user_id":154,"name":"VerSaKa","steam_id":76561198052392540,"connected_time":968000000000,"state":"active","ping":77},{"user_id":160,"name":"Turtle","steam_id":76561198262110064,"connected_time":652000000000,"state":"active","ping":74},{"user_id":144,"name":"faxxy","steam_id":76561198079621240,"connected_time":1226000000000,"state":"active","ping":45},{"user_id":145,"name":"Gyroic","steam_id":76561198063556027,"connected_time":1127000000000,"state":"active","ping":57},{"user_id":147,"name":"ItsRoy","steam_id":76561198119525485,"connected_time":1052000000000,"state":"active","ping":64},{"user_id":134,"name":"beats","steam_id":76561199245717718,"connected_time":1686000000000,"state":"active","ping":51},{"user_id":166,"name":"Roz257","steam_id":76561198842844532,"connected_time":214000000000,"state":"active","ping":71},{"user_id":85,"name":"Ford Truck Gaming","steam_id":76561199042674833,"connected_time":5559000000000,"state":"active","ping":79},{"user_id":149,"name":"Mr.Poopy Pants","steam_id":76561199037703635,"connected_time":1049000000000,"state":"active","ping":78},{"user_id":162,"name":"Waffle Wannabe","steam_id":76561198064510650,"connected_time":545000000000,"state":"active","ping":67},{"user_id":151,"name":"RickDaglessMD","steam_id":76561197985875169,"connected_time":1017000000000,"state":"active","ping":82},{"user_id":63,"name":"Bringer of Gibbs","steam_id":76561198035700041,"connected_time":7182000000000,"state":"active","ping":105},{"user_id":161,"name":"Drowning Fish","steam_id":76561198019689150,"connected_time":645000000000,"state":"active","ping":73},{"user_id":164,"name":"callum","steam_id":76561198070918366,"connected_time":393000000000,"state":"active","ping":69},{"user_id":153,"name":"Mystic Knight","steam_id":76561198042035621,"connected_time":994000000000,"state":"active","ping":81}]},{"server_id":37,"name":"Uncletopia | Chicago | 6 | All Maps","name_short":"chi-6","host":"chi-2.us.uncletopia.com","port":27025,"enabled":true,"region":"us-central","cc":"us","latitude":41.881832,"longitude":-87.62318,"reserved":0,"last_update":"0001-01-01T00:00:00Z","name_a2s":"Uncletopia | Chicago | 6 | All Maps","protocol":17,"map":"pl_badwater","folder":"tf","game":"Team Fortress","app_id":440,"player_count":24,"max_players":24,"Bots":0,"server_type":"Dedicated","server_os":"Linux","password":true,"vac":true,"version":"7742253","steam_id":85568392924866363,"keywords":["nocrits","nodmgspread","payload","uncletopia"],"game_id":440,"stv_port":27026,"stv_name":"Uncletopia | Chicago | 6 | All Maps | STV","players":[{"user_id":255,"name":"Hose water","steam_id":76561198843651958,"connected_time":1216000000000,"state":"active","ping":130},{"user_id":241,"name":"Red Heavy The Sandwich Slayer","steam_id":76561199187226776,"connected_time":1752000000000,"state":"active","ping":74},{"user_id":252,"name":"Hol Horse","steam_id":76561198078207743,"connected_time":1321000000000,"state":"active","ping":66},{"user_id":234,"name":"xXcLaImEd__ReApErXx [F2P]","steam_id":76561198067232540,"connected_time":2276000000000,"state":"active","ping":87},{"user_id":274,"name":"bringanotebook","steam_id":76561198838822605,"connected_time":100000000000,"state":"active","ping":112},{"user_id":265,"name":"OJN","steam_id":76561197963388706,"connected_time":294000000000,"state":"active","ping":78},{"user_id":243,"name":"Xgrandmadestroyer7000","steam_id":76561199028337565,"connected_time":1622000000000,"state":"active","ping":77},{"user_id":276,"name":"Ekstra","steam_id":76561199031147010,"connected_time":74000000000,"state":"active","ping":162},{"user_id":244,"name":"JimmySquid","steam_id":76561198254242530,"connected_time":1596000000000,"state":"active","ping":62},{"user_id":266,"name":"yeyoi","steam_id":76561198069821885,"connected_time":290000000000,"state":"active","ping":62},{"user_id":247,"name":"tim-","steam_id":76561199119101315,"connected_time":1482000000000,"state":"active","ping":75},{"user_id":248,"name":"SPC Ham Sandwich","steam_id":76561198035752185,"connected_time":1390000000000,"state":"active","ping":69},{"user_id":219,"name":"¿skitt1eS?","steam_id":76561198330093211,"connected_time":3769000000000,"state":"active","ping":64},{"user_id":264,"name":"GreenApples","steam_id":76561198120559543,"connected_time":645000000000,"state":"active","ping":93},{"user_id":260,"name":"......","steam_id":76561198067612741,"connected_time":1098000000000,"state":"active","ping":90},{"user_id":270,"name":"Wug","steam_id":76561198084112264,"connected_time":237000000000,"state":"active","ping":80},{"user_id":250,"name":"FloorPasta","steam_id":76561198171617418,"connected_time":1372000000000,"state":"active","ping":71},{"user_id":272,"name":"McNamJam","steam_id":76561198028128686,"connected_time":223000000000,"state":"active","ping":102},{"user_id":263,"name":"CreeperCatBengal","steam_id":76561198213193221,"connected_time":817000000000,"state":"active","ping":78},{"user_id":269,"name":"Taco","steam_id":76561198158621392,"connected_time":246000000000,"state":"active","ping":60},{"user_id":273,"name":"pablo","steam_id":76561198395577807,"connected_time":214000000000,"state":"active","ping":57},{"user_id":235,"name":"jodie.blend","steam_id":76561198140701807,"connected_time":2263000000000,"state":"active","ping":67},{"user_id":257,"name":"Windchaser123","steam_id":76561198969156571,"connected_time":1182000000000,"state":"active","ping":94},{"user_id":258,"name":"Stare at Vauhlve","steam_id":76561198986265728,"connected_time":1166000000000,"state":"active","ping":80}]},{"server_id":38,"name":"Uncletopia | Chicago | 7 | Stopwatch Beta","name_short":"chi-7","host":"chi-2.us.uncletopia.com","port":27035,"enabled":true,"region":"us-central","cc":"us","latitude":41.881832,"longitude":-87.62318,"reserved":0,"last_update":"0001-01-01T00:00:00Z","name_a2s":"Uncletopia | Chicago | 7 | Stopwatch Beta","protocol":17,"map":"cp_metalworks","folder":"tf","game":"Team Fortress","app_id":440,"player_count":0,"max_players":24,"Bots":0,"server_type":"Dedicated","server_os":"Linux","password":true,"vac":true,"version":"7742253","steam_id":85568392924866364,"keywords":["cp","nocrits","nodmgspread","uncletopia"],"game_id":440,"stv_port":27036,"stv_name":"Uncletopia | Chicago | 7 | Stopwatch Beta | STV","players":null},{"server_id":39,"name":"Uncletopia | Chicago | 8 | Community","name_short":"chi-8","host":"chi-2.us.uncletopia.com","port":27045,"enabled":true,"region":"us-central","cc":"us","latitude":41.881832,"longitude":-87.62318,"reserved":0,"last_update":"0001-01-01T00:00:00Z","name_a2s":"Uncletopia | Chicago | 8 | Community","protocol":17,"map":"workshop/pl_cactuscanyon_redux_rc4b.ugc2579644293","folder":"tf","game":"Team Fortress","app_id":440,"player_count":19,"max_players":24,"Bots":0,"server_type":"Dedicated","server_os":"Linux","password":true,"vac":true,"version":"7742253","steam_id":85568392924866365,"keywords":["nocrits","nodmgspread","payload","uncletopia"],"game_id":440,"stv_port":27046,"stv_name":"Uncletopia | Chicago | 8 | Community | STV","players":[{"user_id":86,"name":"ggggggggggggggggggggglo","steam_id":76561199163004572,"connected_time":179000000000,"state":"active","ping":96},{"user_id":87,"name":"Buddybudman","steam_id":76561198144316911,"connected_time":168000000000,"state":"active","ping":65},{"user_id":89,"name":"The Rizzler","steam_id":76561198142699958,"connected_time":98000000000,"state":"active","ping":88},{"user_id":39,"name":"vinny6","steam_id":76561198386735728,"connected_time":3652000000000,"state":"active","ping":61},{"user_id":90,"name":"skele10","steam_id":76561198198460711,"connected_time":96000000000,"state":"active","ping":51},{"user_id":41,"name":"Aidan R","steam_id":76561198089848273,"connected_time":3313000000000,"state":"active","ping":150},{"user_id":42,"name":"SoupBoyBlue","steam_id":76561198118836350,"connected_time":3286000000000,"state":"active","ping":100},{"user_id":91,"name":"Epha","steam_id":76561198079379951,"connected_time":92000000000,"state":"active","ping":60},{"user_id":83,"name":"Farseer Ulwithy","steam_id":76561197965179245,"connected_time":1020000000000,"state":"active","ping":79},{"user_id":84,"name":"Katzenwerfer","steam_id":76561198345464748,"connected_time":1015000000000,"state":"active","ping":115},{"user_id":85,"name":"Spicy Within Reason","steam_id":76561198066700370,"connected_time":596000000000,"state":"active","ping":90},{"user_id":46,"name":"scaup","steam_id":76561198349283519,"connected_time":3239000000000,"state":"active","ping":105},{"user_id":49,"name":"grifwich","steam_id":76561197982380250,"connected_time":2948000000000,"state":"active","ping":67},{"user_id":50,"name":"Mr. Dr. Proffessor Patrick","steam_id":76561198025706190,"connected_time":2942000000000,"state":"active","ping":69},{"user_id":51,"name":"Windmills","steam_id":76561198035299715,"connected_time":2939000000000,"state":"active","ping":60},{"user_id":55,"name":"(TTV) The_Astrum_Guardian","steam_id":76561198130134103,"connected_time":2840000000000,"state":"active","ping":61},{"user_id":57,"name":"D_Doxxed","steam_id":76561198276498805,"connected_time":2828000000000,"state":"active","ping":85},{"user_id":70,"name":"Gay Cake","steam_id":76561198004388831,"connected_time":2610000000000,"state":"active","ping":69},{"user_id":75,"name":"Goofball","steam_id":76561198061211537,"connected_time":1816000000000,"state":"active","ping":71}]},{"server_id":8,"name":"Uncletopia | Dallas | 1 | All Maps","name_short":"dal-1","host":"dal-1.us.uncletopia.com","port":27015,"enabled":true,"region":"us-central","cc":"us","latitude":32.779167,"longitude":-96.80889,"reserved":0,"last_update":"0001-01-01T00:00:00Z","name_a2s":"Uncletopia | Dallas | 1 | All Maps","protocol":17,"map":"cp_dustbowl","folder":"tf","game":"Team Fortress","app_id":440,"player_count":13,"max_players":24,"Bots":0,"server_type":"Dedicated","server_os":"Linux","password":true,"vac":true,"version":"7742253","steam_id":85568392924469986,"keywords":["cp","nocrits","nodmgspread","uncletopia"],"game_id":440,"stv_port":27016,"stv_name":"Uncletopia | Dallas | 1 | All Maps | STV","players":[{"user_id":639,"name":"Greg Boberton 2012","steam_id":76561198983566026,"connected_time":969000000000,"state":"active","ping":87},{"user_id":603,"name":"Fostrel","steam_id":76561198152160601,"connected_time":3609000000000,"state":"active","ping":44},{"user_id":644,"name":"Yucho","steam_id":76561198148751724,"connected_time":73000000000,"state":"active","ping":101},{"user_id":636,"name":"intek","steam_id":76561198052705291,"connected_time":1406000000000,"state":"active","ping":77},{"user_id":634,"name":"Psych03","steam_id":76561198061753667,"connected_time":1476000000000,"state":"active","ping":74},{"user_id":626,"name":"everythingrhymeswithorange","steam_id":76561198010306193,"connected_time":1751000000000,"state":"active","ping":76},{"user_id":637,"name":"The Foolish Samurai","steam_id":76561198094494945,"connected_time":1381000000000,"state":"active","ping":80},{"user_id":606,"name":"viscodolante","steam_id":76561198013650292,"connected_time":3583000000000,"state":"active","ping":105},{"user_id":633,"name":"Cube From Geometry Dash","steam_id":76561198112196381,"connected_time":1535000000000,"state":"active","ping":90},{"user_id":602,"name":"Xmas Xtar","steam_id":76561198301774048,"connected_time":3719000000000,"state":"active","ping":107},{"user_id":586,"name":"captainspatklz","steam_id":76561198432167270,"connected_time":4654000000000,"state":"active","ping":68},{"user_id":632,"name":"[PROFILE REDACTED]","steam_id":76561198817953928,"connected_time":1603000000000,"state":"active","ping":72}]},{"server_id":108,"name":"Uncletopia | Dallas | 2 | All Maps","name_short":"dal-2","host":"dal-1.us.uncletopia.com","port":27025,"enabled":true,"region":"us-central","cc":"us","latitude":32.779167,"longitude":-96.80889,"reserved":0,"last_update":"0001-01-01T00:00:00Z","name_a2s":"Uncletopia | Dallas | 2 | All Maps","protocol":17,"map":"pl_borneo","folder":"tf","game":"Team Fortress","app_id":440,"player_count":23,"max_players":24,"Bots":0,"server_type":"Dedicated","server_os":"Linux","password":true,"vac":true,"version":"7742253","steam_id":85568392924469988,"keywords":["nocrits","nodmgspread","payload","uncletopia"],"game_id":440,"stv_port":27026,"stv_name":"Uncletopia | Dallas | 2 | All Maps | STV","players":[{"user_id":649,"name":"trucksforducks","steam_id":76561198122970888,"connected_time":620000000000,"state":"active","ping":48},{"user_id":650,"name":"maniacalcoast0","steam_id":76561198982540746,"connected_time":610000000000,"state":"active","ping":111},{"user_id":598,"name":"plink","steam_id":76561198057829889,"connected_time":4673000000000,"state":"active","ping":104},{"user_id":642,"name":"Alice Hiiragi","steam_id":76561198094078478,"connected_time":1049000000000,"state":"active","ping":87},{"user_id":486,"name":"45 Cent","steam_id":76561198048690188,"connected_time":13087000000000,"state":"active","ping":93},{"user_id":651,"name":"dead spy","steam_id":76561199144340440,"connected_time":592000000000,"state":"active","ping":59},{"user_id":643,"name":"jorge","steam_id":76561198310829298,"connected_time":1042000000000,"state":"active","ping":69},{"user_id":656,"name":"bok","steam_id":76561197999411826,"connected_time":537000000000,"state":"active","ping":77},{"user_id":555,"name":"doing my best","steam_id":76561198323491654,"connected_time":8062000000000,"state":"active","ping":43},{"user_id":652,"name":"The Assistant Regional Manager","steam_id":76561199221484936,"connected_time":588000000000,"state":"active","ping":88},{"user_id":626,"name":"YAGOO GAMING","steam_id":76561198219019875,"connected_time":1722000000000,"state":"active","ping":78},{"user_id":608,"name":"damiankiller1243","steam_id":76561198868885090,"connected_time":2772000000000,"state":"active","ping":63},{"user_id":628,"name":"Bob the Builder","steam_id":76561199069029812,"connected_time":1586000000000,"state":"active","ping":85},{"user_id":634,"name":"Dat Turtle","steam_id":76561198051423618,"connected_time":1471000000000,"state":"active","ping":95},{"user_id":653,"name":"dw4rf","steam_id":76561198046953937,"connected_time":571000000000,"state":"active","ping":107},{"user_id":636,"name":"Satori Komeiji","steam_id":76561198158211423,"connected_time":1400000000000,"state":"active","ping":61},{"user_id":624,"name":"Oatmeal","steam_id":76561199378924674,"connected_time":2042000000000,"state":"active","ping":100},{"user_id":632,"name":"Mr. Yoshida","steam_id":76561198263829831,"connected_time":1514000000000,"state":"active","ping":98},{"user_id":648,"name":"Yiff Police","steam_id":76561198103938356,"connected_time":784000000000,"state":"active","ping":65},{"user_id":657,"name":"The Anomaly TF2","steam_id":76561198834819021,"connected_time":224000000000,"state":"active","ping":82},{"user_id":654,"name":"gonurlight","steam_id":76561198935839416,"connected_time":567000000000,"state":"active","ping":79},{"user_id":647,"name":"ztnt1000","steam_id":76561198245073566,"connected_time":855000000000,"state":"active","ping":104},{"user_id":655,"name":"heavy jumpscare","steam_id":76561198376752965,"connected_time":565000000000,"state":"active","ping":105}]},{"server_id":5,"name":"Uncletopia | Frankfurt | 1 | All Maps","name_short":"frk-1","host":"frk-1.de.uncletopia.com","port":27015,"enabled":true,"region":"eu","cc":"de","latitude":50.110924,"longitude":8.682127,"reserved":0,"last_update":"0001-01-01T00:00:00Z","name_a2s":"Uncletopia | Frankfurt | 1 | All Maps","protocol":17,"map":"pl_badwater","folder":"tf","game":"Team Fortress","app_id":440,"player_count":0,"max_players":24,"Bots":0,"server_type":"Dedicated","server_os":"Linux","password":true,"vac":true,"version":"7742253","steam_id":85568392924469989,"keywords":["nocrits","nodmgspread","payload","uncletopia"],"game_id":440,"stv_port":27016,"stv_name":"Uncletopia | Frankfurt | 1 | All Maps | STV","players":null},{"server_id":110,"name":"Uncletopia | Frankfurt | 2 | All Maps","name_short":"frk-2","host":"frk-1.de.uncletopia.com","port":27025,"enabled":true,"region":"eu","cc":"de","latitude":50.110924,"longitude":8.682127,"reserved":0,"last_update":"0001-01-01T00:00:00Z","name_a2s":"Uncletopia | Frankfurt | 2 | All Maps","protocol":17,"map":"cp_mountainlab","folder":"tf","game":"Team Fortress","app_id":440,"player_count":0,"max_players":24,"Bots":0,"server_type":"Dedicated","server_os":"Linux","password":true,"vac":true,"version":"7742253","steam_id":85568392924469990,"keywords":["cp","nocrits","nodmgspread","uncletopia"],"game_id":440,"stv_port":27026,"stv_name":"Uncletopia | Frankfurt | 2 | All Maps | STV","players":null},{"server_id":308,"name":"Uncletopia | Frankfurt | 3 | All Maps","name_short":"frk-3","host":"frk-1.de.uncletopia.com","port":27035,"enabled":true,"region":"eu","cc":"de","latitude":50.110924,"longitude":8.682127,"reserved":0,"last_update":"0001-01-01T00:00:00Z","name_a2s":"Uncletopia | Frankfurt | 3 | All Maps","protocol":17,"map":"cp_sunshine","folder":"tf","game":"Team Fortress","app_id":440,"player_count":0,"max_players":24,"Bots":0,"server_type":"Dedicated","server_os":"Linux","password":true,"vac":true,"version":"7742253","steam_id":85568392924504274,"keywords":["cp","nocrits","nodmgspread","uncletopia"],"game_id":440,"stv_port":27036,"stv_name":"Uncletopia | Frankfurt | 3 | All Maps | STV","players":null},{"server_id":309,"name":"Uncletopia | Frankfurt | 4 | All Maps","name_short":"frk-4","host":"frk-1.de.uncletopia.com","port":27045,"enabled":true,"region":"eu","cc":"de","latitude":50.110924,"longitude":8.682127,"reserved":0,"last_update":"0001-01-01T00:00:00Z","name_a2s":"Uncletopia | Frankfurt | 4 | All Maps","protocol":17,"map":"pl_borneo","folder":"tf","game":"Team Fortress","app_id":440,"player_count":14,"max_players":24,"Bots":0,"server_type":"Dedicated","server_os":"Linux","password":true,"vac":true,"version":"7742253","steam_id":85568392924504275,"keywords":["nocrits","nodmgspread","payload","uncletopia"],"game_id":440,"stv_port":27046,"stv_name":"Uncletopia | Frankfurt | 4 | All Maps | STV","players":[{"user_id":571,"name":"Pybro Gaming","steam_id":76561199185692465,"connected_time":2772000000000,"state":"active","ping":144},{"user_id":576,"name":"SuperBob103","steam_id":76561199175360012,"connected_time":2434000000000,"state":"active","ping":66},{"user_id":585,"name":"engie?","steam_id":76561198331852832,"connected_time":926000000000,"state":"active","ping":87},{"user_id":577,"name":"SynthBox3","steam_id":76561199094075745,"connected_time":1998000000000,"state":"active","ping":90},{"user_id":586,"name":"etc","steam_id":76561197998394797,"connected_time":852000000000,"state":"active","ping":58},{"user_id":579,"name":"ACG_Dubsy","steam_id":76561198797308565,"connected_time":1566000000000,"state":"active","ping":64},{"user_id":568,"name":"✧ Ghosty ✧","steam_id":76561198312022168,"connected_time":3016000000000,"state":"active","ping":63},{"user_id":582,"name":"desu","steam_id":76561198052878585,"connected_time":1385000000000,"state":"active","ping":128},{"user_id":583,"name":"the high amby spy","steam_id":76561198212488780,"connected_time":1340000000000,"state":"active","ping":51},{"user_id":584,"name":"Kitsune","steam_id":76561198998999946,"connected_time":1267000000000,"state":"active","ping":141},{"user_id":589,"name":"thekoolest88","steam_id":76561199022415672,"connected_time":583000000000,"state":"active","ping":143},{"user_id":590,"name":"Moist Squidicles","steam_id":76561198077257617,"connected_time":497000000000,"state":"active","ping":186},{"user_id":591,"name":"Rubber Child","steam_id":76561198144654350,"connected_time":495000000000,"state":"active","ping":184},{"user_id":593,"name":"Kali","steam_id":76561198070745106,"connected_time":218000000000,"state":"active","ping":97}]},{"server_id":310,"name":"Uncletopia | Frankfurt | 5 | All Maps","name_short":"frk-5","host":"frk-1.de.uncletopia.com","port":27055,"enabled":true,"region":"eu","cc":"de","latitude":50.110924,"longitude":8.682127,"reserved":0,"last_update":"0001-01-01T00:00:00Z","name_a2s":"Uncletopia | Frankfurt | 5 | All Maps","protocol":17,"map":"cp_dustbowl","folder":"tf","game":"Team Fortress","app_id":440,"player_count":0,"max_players":24,"Bots":0,"server_type":"Dedicated","server_os":"Linux","password":true,"vac":true,"version":"7742253","steam_id":85568392924504277,"keywords":["cp","nocrits","nodmgspread","uncletopia"],"game_id":440,"stv_port":27056,"stv_name":"Uncletopia | Frankfurt | 5 | All Maps | STV","players":null},{"server_id":311,"name":"Uncletopia | Frankfurt | 6 | All Maps","name_short":"frk-6","host":"frk-1.de.uncletopia.com","port":27065,"enabled":true,"region":"eu","cc":"de","latitude":50.110924,"longitude":8.682127,"reserved":0,"last_update":"0001-01-01T00:00:00Z","name_a2s":"Uncletopia | Frankfurt | 6 | All Maps","protocol":17,"map":"koth_harvest_final","folder":"tf","game":"Team Fortress","app_id":440,"player_count":0,"max_players":24,"Bots":0,"server_type":"Dedicated","server_os":"Linux","password":true,"vac":true,"version":"7742253","steam_id":85568392924504278,"keywords":["cp","nocrits","nodmgspread","uncletopia"],"game_id":440,"stv_port":27066,"stv_name":"Uncletopia | Frankfurt | 6 | All Maps | STV","players":null},{"server_id":23,"name":"Uncletopia | Frankfurt | 7 | Stopwatch Beta","name_short":"frk-7","host":"frk-1.de.uncletopia.com","port":27075,"enabled":true,"region":"eu","cc":"de","latitude":50.110924,"longitude":8.682127,"reserved":0,"last_update":"0001-01-01T00:00:00Z","name_a2s":"Uncletopia | Frankfurt | 7 | Stopwatch Beta","protocol":17,"map":"koth_lakeside_final","folder":"tf","game":"Team Fortress","app_id":440,"player_count":0,"max_players":24,"Bots":0,"server_type":"Dedicated","server_os":"Linux","password":true,"vac":true,"version":"7742253","steam_id":85568392924742827,"keywords":["cp","nocrits","nodmgspread","uncletopia"],"game_id":440,"stv_port":27076,"stv_name":"Uncletopia | Frankfurt | 7 | Stopwatch Beta | STV","players":null},{"server_id":24,"name":"Uncletopia | Frankfurt | 8 | Community","name_short":"frk-8","host":"frk-1.de.uncletopia.com","port":27085,"enabled":true,"region":"eu","cc":"de","latitude":50.110924,"longitude":8.682127,"reserved":0,"last_update":"0001-01-01T00:00:00Z","name_a2s":"Uncletopia | Frankfurt | 8 | Community","protocol":17,"map":"workshop/koth_slaughter_rc1.ugc1712845210","folder":"tf","game":"Team Fortress","app_id":440,"player_count":0,"max_players":24,"Bots":0,"server_type":"Dedicated","server_os":"Linux","password":true,"vac":true,"version":"7742253","steam_id":85568392924742828,"keywords":["cp","nocrits","nodmgspread","uncletopia"],"game_id":440,"stv_port":27086,"stv_name":"Uncletopia | Frankfurt | 8 | Community | STV","players":null},{"server_id":202,"name":"Uncletopia | Hong Kong | 1 | All Maps","name_short":"hgk-1","host":"hgk-1.hk.uncletopia.com","port":27015,"enabled":true,"region":"asia","cc":"hk","latitude":22.302711,"longitude":114.177216,"reserved":0,"last_update":"0001-01-01T00:00:00Z","name_a2s":"Uncletopia | Hong Kong | 1 | All Maps","protocol":17,"map":"koth_king","folder":"tf","game":"Team Fortress","app_id":440,"player_count":24,"max_players":24,"Bots":0,"server_type":"Dedicated","server_os":"Linux","password":true,"vac":true,"version":"7742253","steam_id":85568392924494504,"keywords":["cp","nocrits","nodmgspread","uncletopia"],"game_id":440,"stv_port":27016,"stv_name":"Uncletopia | Hong Kong | 1 | All Maps | STV","players":[{"user_id":123,"name":"sex","steam_id":76561198153440975,"connected_time":2384000000000,"state":"active","ping":94},{"user_id":112,"name":"r/leroy","steam_id":76561199137927625,"connected_time":3288000000000,"state":"active","ping":109},{"user_id":145,"name":"Giouri","steam_id":76561199152247162,"connected_time":189000000000,"state":"active","ping":85},{"user_id":128,"name":"Fluffy","steam_id":76561198316671856,"connected_time":2347000000000,"state":"active","ping":101},{"user_id":140,"name":"Skyler White yo","steam_id":76561198895193247,"connected_time":1103000000000,"state":"active","ping":74},{"user_id":64,"name":"Windmill","steam_id":76561199230997986,"connected_time":6181000000000,"state":"active","ping":69},{"user_id":149,"name":"AzureWares","steam_id":76561199439340850,"connected_time":132000000000,"state":"active","ping":68},{"user_id":115,"name":"AmaiToxic","steam_id":76561199122491157,"connected_time":2698000000000,"state":"active","ping":59},{"user_id":134,"name":"Lizard Wizard","steam_id":76561198062225011,"connected_time":1579000000000,"state":"active","ping":90},{"user_id":121,"name":"煙海 | Enkai","steam_id":76561198050460825,"connected_time":2552000000000,"state":"active","ping":76},{"user_id":135,"name":"monkeyman536","steam_id":76561197997717737,"connected_time":1565000000000,"state":"active","ping":127},{"user_id":150,"name":"Urotsuki","steam_id":76561198074339034,"connected_time":90000000000,"state":"active","ping":75},{"user_id":104,"name":"heronthebird","steam_id":76561198964411581,"connected_time":3658000000000,"state":"active","ping":69},{"user_id":139,"name":"apollo","steam_id":76561198823374287,"connected_time":1317000000000,"state":"active","ping":74},{"user_id":131,"name":"Reisen ᗜˬᗜ","steam_id":76561198374227173,"connected_time":2065000000000,"state":"active","ping":68},{"user_id":75,"name":"o2","steam_id":76561199262570913,"connected_time":5655000000000,"state":"active","ping":79},{"user_id":147,"name":"gob lin","steam_id":76561198379597982,"connected_time":188000000000,"state":"active","ping":94},{"user_id":103,"name":"Water Weed Dune Hair","steam_id":76561198090087072,"connected_time":3802000000000,"state":"active","ping":111},{"user_id":142,"name":"Steve","steam_id":76561198429235506,"connected_time":517000000000,"state":"active","ping":77},{"user_id":137,"name":"screaming sniper","steam_id":76561199085568674,"connected_time":1523000000000,"state":"active","ping":62},{"user_id":109,"name":"lilla laxum","steam_id":76561198230213828,"connected_time":3466000000000,"state":"active","ping":67},{"user_id":116,"name":"LudE","steam_id":76561198828840546,"connected_time":2695000000000,"state":"active","ping":71},{"user_id":91,"name":"SissyFemboy♡","steam_id":76561198841376347,"connected_time":5232000000000,"state":"active","ping":54}]},{"server_id":1,"name":"Uncletopia | Los Angeles | 1 | All Maps","name_short":"lax-1","host":"lax-1.us.uncletopia.com","port":27015,"enabled":true,"region":"us-west","cc":"us","latitude":33.94279,"longitude":-118.41004,"reserved":0,"last_update":"0001-01-01T00:00:00Z","name_a2s":"Uncletopia | Los Angeles | 1 | All Maps","protocol":17,"map":"pl_badwater","folder":"tf","game":"Team Fortress","app_id":440,"player_count":21,"max_players":24,"Bots":0,"server_type":"Dedicated","server_os":"Linux","password":true,"vac":true,"version":"7742253","steam_id":85568392924469991,"keywords":["nocrits","nodmgspread","payload","uncletopia"],"game_id":440,"stv_port":27016,"stv_name":"Uncletopia | Los Angeles | 1 | All Maps | STV","players":[{"user_id":201,"name":"Squatter1","steam_id":76561198078987734,"connected_time":1465000000000,"state":"active","ping":69},{"user_id":208,"name":"The Caretaker","steam_id":76561198125241411,"connected_time":264000000000,"state":"active","ping":63},{"user_id":194,"name":"Mugen","steam_id":76561198411174773,"connected_time":2068000000000,"state":"active","ping":47},{"user_id":210,"name":"corbenis","steam_id":76561199012442511,"connected_time":88000000000,"state":"active","ping":48},{"user_id":211,"name":"BlaneBowser","steam_id":76561198068994389,"connected_time":79000000000,"state":"active","ping":60},{"user_id":212,"name":"BLACKout","steam_id":76561198002194086,"connected_time":75000000000,"state":"active","ping":47},{"user_id":214,"name":"Yu Plush","steam_id":76561198800891125,"connected_time":57000000000,"state":"active","ping":68},{"user_id":209,"name":"Wernher","steam_id":76561198061192094,"connected_time":119000000000,"state":"active","ping":60},{"user_id":215,"name":"Dark Lord","steam_id":76561198044199150,"connected_time":34000000000,"state":"active","ping":114},{"user_id":185,"name":"Sol","steam_id":76561198803824764,"connected_time":2689000000000,"state":"active","ping":82},{"user_id":216,"name":"Red Physical","steam_id":76561198151864382,"connected_time":32000000000,"state":"spawning","ping":143},{"user_id":145,"name":"kr1tsurf3r","steam_id":76561198076402476,"connected_time":5460000000000,"state":"active","ping":68},{"user_id":191,"name":"Rammu :)","steam_id":76561198078584678,"connected_time":2502000000000,"state":"active","ping":106},{"user_id":164,"name":"Owl_eyes","steam_id":76561198066199203,"connected_time":3886000000000,"state":"active","ping":46},{"user_id":188,"name":"kimin","steam_id":76561198263393063,"connected_time":2659000000000,"state":"active","ping":103},{"user_id":197,"name":"satdarn","steam_id":76561199091760468,"connected_time":2025000000000,"state":"active","ping":50},{"user_id":204,"name":"LtAlexandro","steam_id":76561198997494266,"connected_time":621000000000,"state":"active","ping":52},{"user_id":199,"name":"Rakk","steam_id":76561198855176174,"connected_time":1994000000000,"state":"active","ping":54},{"user_id":168,"name":"Lennie Longfinger","steam_id":76561198276959460,"connected_time":3802000000000,"state":"active","ping":63},{"user_id":148,"name":"darkhelmet2202","steam_id":76561199143168398,"connected_time":5414000000000,"state":"active","ping":108},{"user_id":206,"name":"axel","steam_id":76561198844924677,"connected_time":578000000000,"state":"active","ping":65}]},{"server_id":112,"name":"Uncletopia | Los Angeles | 2 | All Maps","name_short":"lax-2","host":"lax-1.us.uncletopia.com","port":27025,"enabled":true,"region":"us-west","cc":"us","latitude":33.94279,"longitude":-118.41004,"reserved":0,"last_update":"0001-01-01T00:00:00Z","name_a2s":"Uncletopia | Los Angeles | 2 | All Maps","protocol":17,"map":"pl_frontier_final","folder":"tf","game":"Team Fortress","app_id":440,"player_count":0,"max_players":24,"Bots":0,"server_type":"Dedicated","server_os":"Linux","password":true,"vac":true,"version":"7742253","steam_id":85568392924469992,"keywords":["nocrits","nodmgspread","payload","uncletopia"],"game_id":440,"stv_port":27026,"stv_name":"Uncletopia | Los Angeles | 2 | All Maps | STV","players":null},{"server_id":324,"name":"Uncletopia | Los Angeles | 3 | All Maps","name_short":"lax-3","host":"lax-1.us.uncletopia.com","port":27035,"enabled":true,"region":"us-west","cc":"us","latitude":33.94279,"longitude":-118.41004,"reserved":0,"last_update":"0001-01-01T00:00:00Z","name_a2s":"Uncletopia | Los Angeles | 3 | All Maps","protocol":17,"map":"pl_pier","folder":"tf","game":"Team Fortress","app_id":440,"player_count":0,"max_players":24,"Bots":0,"server_type":"Dedicated","server_os":"Linux","password":true,"vac":true,"version":"7742253","steam_id":85568392924510198,"keywords":["nocrits","nodmgspread","payload","uncletopia"],"game_id":440,"stv_port":27036,"stv_name":"Uncletopia | Los Angeles | 3 | All Maps | STV","players":null},{"server_id":25,"name":"Uncletopia | Los Angeles | 4 | Stopwatch Beta","name_short":"lax-4","host":"lax-1.us.uncletopia.com","port":27045,"enabled":true,"region":"us-west","cc":"us","latitude":33.94279,"longitude":-118.41004,"reserved":0,"last_update":"0001-01-01T00:00:00Z","name_a2s":"Uncletopia | Los Angeles | 4 | Stopwatch Beta","protocol":17,"map":"koth_lakeside_final","folder":"tf","game":"Team Fortress","app_id":440,"player_count":0,"max_players":24,"Bots":0,"server_type":"Dedicated","server_os":"Linux","password":true,"vac":true,"version":"7742253","steam_id":85568392924510199,"keywords":["cp","nocrits","nodmgspread","uncletopia"],"game_id":440,"stv_port":27046,"stv_name":"Uncletopia | Los Angeles | 4 | Stopwatch Beta | STV","players":null},{"server_id":11,"name":"Uncletopia | London | 1 | All Maps","name_short":"lon-1","host":"lon-1.uk.uncletopia.com","port":27015,"enabled":true,"region":"eu","cc":"gb","latitude":51.509865,"longitude":-0.118092,"reserved":0,"last_update":"0001-01-01T00:00:00Z","name_a2s":"Uncletopia | London | 1 | All Maps","protocol":17,"map":"koth_lakeside_final","folder":"tf","game":"Team Fortress","app_id":440,"player_count":0,"max_players":24,"Bots":0,"server_type":"Dedicated","server_os":"Linux","password":true,"vac":true,"version":"7742253","steam_id":85568392924367362,"keywords":["cp","nocrits","nodmgspread","uncletopia"],"game_id":440,"stv_port":27016,"stv_name":"Uncletopia | London | 1 | All Maps | STV","players":null},{"server_id":114,"name":"Uncletopia | London | 2 | All Maps","name_short":"lon-2","host":"lon-1.uk.uncletopia.com","port":27025,"enabled":true,"region":"eu","cc":"gb","latitude":51.509865,"longitude":-0.118092,"reserved":0,"last_update":"0001-01-01T00:00:00Z","name_a2s":"Uncletopia | London | 2 | All Maps","protocol":17,"map":"koth_highpass","folder":"tf","game":"Team Fortress","app_id":440,"player_count":1,"max_players":24,"Bots":0,"server_type":"Dedicated","server_os":"Linux","password":true,"vac":true,"version":"7742253","steam_id":85568392924470941,"keywords":["cp","nocrits","nodmgspread","uncletopia"],"game_id":440,"stv_port":27026,"stv_name":"Uncletopia | London | 2 | All Maps | STV","players":[{"user_id":811,"name":"some Pyro player","steam_id":76561199177655299,"connected_time":198000000000,"state":"active","ping":103}]},{"server_id":320,"name":"Uncletopia | London | 3 | All Maps","name_short":"lon-3","host":"lon-1.uk.uncletopia.com","port":27035,"enabled":true,"region":"eu","cc":"gb","latitude":51.509865,"longitude":-0.118092,"reserved":0,"last_update":"0001-01-01T00:00:00Z","name_a2s":"Uncletopia | London | 3 | All Maps","protocol":17,"map":"koth_viaduct","folder":"tf","game":"Team Fortress","app_id":440,"player_count":0,"max_players":24,"Bots":0,"server_type":"Dedicated","server_os":"Linux","password":true,"vac":true,"version":"7742253","steam_id":85568392924510192,"keywords":["cp","nocrits","nodmgspread","uncletopia"],"game_id":440,"stv_port":27036,"stv_name":"Uncletopia | London | 3 | All Maps | STV","players":null},{"server_id":321,"name":"Uncletopia | London | 4 | All Maps","name_short":"lon-4","host":"lon-1.uk.uncletopia.com","port":27045,"enabled":true,"region":"eu","cc":"gb","latitude":51.509865,"longitude":-0.118092,"reserved":0,"last_update":"0001-01-01T00:00:00Z","name_a2s":"Uncletopia | London | 4 | All Maps","protocol":17,"map":"pl_borneo","folder":"tf","game":"Team Fortress","app_id":440,"player_count":0,"max_players":24,"Bots":0,"server_type":"Dedicated","server_os":"Linux","password":true,"vac":true,"version":"7742253","steam_id":85568392924510193,"keywords":["nocrits","nodmgspread","payload","uncletopia"],"game_id":440,"stv_port":27046,"stv_name":"Uncletopia | London | 4 | All Maps | STV","players":null},{"server_id":21,"name":"Uncletopia | London | 5 | All Maps","name_short":"lon-5","host":"lon-1.uk.uncletopia.com","port":27055,"enabled":true,"region":"eu","cc":"gb","latitude":51.509865,"longitude":-0.118092,"reserved":0,"last_update":"0001-01-01T00:00:00Z","name_a2s":"Uncletopia | London | 5 | All Maps","protocol":17,"map":"pl_pier","folder":"tf","game":"Team Fortress","app_id":440,"player_count":0,"max_players":24,"Bots":0,"server_type":"Dedicated","server_os":"Linux","password":true,"vac":true,"version":"7742253","steam_id":85568392924742829,"keywords":["nocrits","nodmgspread","payload","uncletopia"],"game_id":440,"stv_port":27056,"stv_name":"Uncletopia | London | 5 | All Maps | STV","players":null},{"server_id":22,"name":"Uncletopia | London | 6 | All Maps","name_short":"lon-6","host":"lon-1.uk.uncletopia.com","port":27065,"enabled":true,"region":"eu","cc":"gb","latitude":51.509865,"longitude":-0.118092,"reserved":0,"last_update":"0001-01-01T00:00:00Z","name_a2s":"Uncletopia | London | 6 | All Maps","protocol":17,"map":"cp_dustbowl","folder":"tf","game":"Team Fortress","app_id":440,"player_count":0,"max_players":24,"Bots":0,"server_type":"Dedicated","server_os":"Linux","password":true,"vac":true,"version":"7742253","steam_id":85568392924742830,"keywords":["cp","nocrits","nodmgspread","uncletopia"],"game_id":440,"stv_port":27066,"stv_name":"Uncletopia | London | 6 | All Maps | STV","players":null},{"server_id":40,"name":"Uncletopia | London | 7 | No Payload","name_short":"lon-7","host":"lon-1.uk.uncletopia.com","port":27075,"enabled":true,"region":"eu","cc":"gb","latitude":51.509865,"longitude":-0.118092,"reserved":0,"last_update":"0001-01-01T00:00:00Z","name_a2s":"Uncletopia | London | 7 | No Payload","protocol":17,"map":"cp_dustbowl","folder":"tf","game":"Team Fortress","app_id":440,"player_count":0,"max_players":24,"Bots":0,"server_type":"Dedicated","server_os":"Linux","password":true,"vac":true,"version":"7742253","steam_id":85568392924964314,"keywords":["cp","nocrits","nodmgspread","uncletopia"],"game_id":440,"stv_port":27076,"stv_name":"Uncletopia | London | 7 | No Payload | STV","players":null},{"server_id":41,"name":"Uncletopia | London | 8 | Community","name_short":"lon-8","host":"lon-1.uk.uncletopia.com","port":27085,"enabled":true,"region":"eu","cc":"gb","latitude":51.509865,"longitude":-0.118092,"reserved":0,"last_update":"0001-01-01T00:00:00Z","name_a2s":"Uncletopia | London | 8 | Community","protocol":17,"map":"workshop/koth_bagel_rc5.ugc2514036946","folder":"tf","game":"Team Fortress","app_id":440,"player_count":0,"max_players":24,"Bots":0,"server_type":"Dedicated","server_os":"Linux","password":true,"vac":true,"version":"7742253","steam_id":85568392924964315,"keywords":["cp","nocrits","nodmgspread","uncletopia"],"game_id":440,"stv_port":27086,"stv_name":"Uncletopia | London | 8 | Community | STV","players":null},{"server_id":300,"name":"Uncletopia | Montréal | 1 | All Maps","name_short":"mtl-1","host":"mtl-1.ca.uncletopia.com","port":27015,"enabled":true,"region":"us-east","cc":"ca","latitude":45.50889,"longitude":-73.56167,"reserved":0,"last_update":"0001-01-01T00:00:00Z","name_a2s":"Uncletopia | Montréal | 1 | All Maps","protocol":17,"map":"koth_lakeside_final","folder":"tf","game":"Team Fortress","app_id":440,"player_count":0,"max_players":24,"Bots":0,"server_type":"Dedicated","server_os":"Linux","password":true,"vac":true,"version":"7742253","steam_id":85568392924500087,"keywords":["cp","nocrits","nodmgspread","uncletopia"],"game_id":440,"stv_port":27016,"stv_name":"Uncletopia | Montréal | 1 | All Maps | STV","players":null},{"server_id":301,"name":"Uncletopia | Montréal | 2 | All Maps","name_short":"mtl-2","host":"mtl-1.ca.uncletopia.com","port":27025,"enabled":true,"region":"us-east","cc":"ca","latitude":45.50889,"longitude":-73.56167,"reserved":0,"last_update":"0001-01-01T00:00:00Z","name_a2s":"Uncletopia | Montréal | 2 | All Maps","protocol":17,"map":"koth_lakeside_final","folder":"tf","game":"Team Fortress","app_id":440,"player_count":0,"max_players":24,"Bots":0,"server_type":"Dedicated","server_os":"Linux","password":true,"vac":true,"version":"7742253","steam_id":85568392924500088,"keywords":["cp","nocrits","nodmgspread","uncletopia"],"game_id":440,"stv_port":27026,"stv_name":"Uncletopia | Montréal | 2 | All Maps | STV","players":null},{"server_id":302,"name":"Uncletopia | Montréal | 3 | All Maps","name_short":"mtl-3","host":"mtl-1.ca.uncletopia.com","port":27035,"enabled":true,"region":"us-east","cc":"ca","latitude":45.50889,"longitude":-73.56167,"reserved":0,"last_update":"0001-01-01T00:00:00Z","name_a2s":"Uncletopia | Montréal | 3 | All Maps","protocol":17,"map":"koth_cascade","folder":"tf","game":"Team Fortress","app_id":440,"player_count":0,"max_players":24,"Bots":0,"server_type":"Dedicated","server_os":"Linux","password":true,"vac":true,"version":"7742253","steam_id":85568392924500089,"keywords":["cp","nocrits","nodmgspread","uncletopia"],"game_id":440,"stv_port":27036,"stv_name":"Uncletopia | Montréal | 3 | All Maps | STV","players":null},{"server_id":303,"name":"Uncletopia | Montréal | 4 | No Payload","name_short":"mtl-4","host":"mtl-1.ca.uncletopia.com","port":27045,"enabled":true,"region":"us-east","cc":"ca","latitude":45.50889,"longitude":-73.56167,"reserved":0,"last_update":"0001-01-01T00:00:00Z","name_a2s":"Uncletopia | Montréal | 4 | No Payload","protocol":17,"map":"koth_harvest_final","folder":"tf","game":"Team Fortress","app_id":440,"player_count":0,"max_players":24,"Bots":0,"server_type":"Dedicated","server_os":"Linux","password":true,"vac":true,"version":"7742253","steam_id":85568392924500090,"keywords":["cp","nocrits","nodmgspread","uncletopia"],"game_id":440,"stv_port":27046,"stv_name":"Uncletopia | Montréal | 4 | No Payload | STV","players":null},{"server_id":13,"name":"Uncletopia | New York City | 1 | All Maps","name_short":"nyc-1","host":"nyc-1.us.uncletopia.com","port":27015,"enabled":true,"region":"us-east","cc":"us","latitude":40.73061,"longitude":-73.93524,"reserved":0,"last_update":"0001-01-01T00:00:00Z","name_a2s":"Uncletopia | New York City | 1 | All Maps","protocol":17,"map":"cp_dustbowl","folder":"tf","game":"Team Fortress","app_id":440,"player_count":21,"max_players":24,"Bots":0,"server_type":"Dedicated","server_os":"Linux","password":true,"vac":true,"version":"7742253","steam_id":85568392924469993,"keywords":["cp","nocrits","nodmgspread","uncletopia"],"game_id":440,"stv_port":27016,"stv_name":"Uncletopia | New York City | 1 | All Maps | STV","players":[{"user_id":507,"name":"Cthulwho?","steam_id":76561198165550810,"connected_time":4486000000000,"state":"active","ping":75},{"user_id":557,"name":"Dusty Bucket","steam_id":76561198037064732,"connected_time":502000000000,"state":"active","ping":46},{"user_id":563,"name":"BOILED BREAD","steam_id":76561199002744899,"connected_time":47000000000,"state":"active","ping":79},{"user_id":381,"name":"layabout","steam_id":76561198130892117,"connected_time":13493000000000,"state":"active","ping":53},{"user_id":548,"name":"theancientnut","steam_id":76561199396708880,"connected_time":1649000000000,"state":"active","ping":77},{"user_id":558,"name":"carrion goat","steam_id":76561198262064871,"connected_time":498000000000,"state":"active","ping":45},{"user_id":533,"name":"coal","steam_id":76561198027252280,"connected_time":3206000000000,"state":"active","ping":55},{"user_id":509,"name":"TheConchinator","steam_id":76561199388149092,"connected_time":4460000000000,"state":"active","ping":75},{"user_id":553,"name":"Sir Quacksalot","steam_id":76561198048942777,"connected_time":1436000000000,"state":"active","ping":85},{"user_id":535,"name":"Uncle Majic the Hip Hop Magicia","steam_id":76561198107924303,"connected_time":3053000000000,"state":"active","ping":54},{"user_id":518,"name":"CheeseCake488","steam_id":76561199407617942,"connected_time":4100000000000,"state":"active","ping":143},{"user_id":559,"name":"Simonster","steam_id":76561198046896952,"connected_time":236000000000,"state":"active","ping":118},{"user_id":546,"name":"iL","steam_id":76561198086331015,"connected_time":1669000000000,"state":"active","ping":32},{"user_id":542,"name":"fish","steam_id":76561198274534190,"connected_time":2191000000000,"state":"active","ping":76},{"user_id":540,"name":"Room","steam_id":76561199174579733,"connected_time":2511000000000,"state":"active","ping":75},{"user_id":536,"name":"big guapo","steam_id":76561198103228695,"connected_time":3017000000000,"state":"active","ping":54},{"user_id":467,"name":"he's angry","steam_id":76561198069065342,"connected_time":8517000000000,"state":"active","ping":56},{"user_id":547,"name":"Braamklauw","steam_id":76561198283287697,"connected_time":1665000000000,"state":"active","ping":132},{"user_id":554,"name":"inyanga!","steam_id":76561198354663927,"connected_time":1217000000000,"state":"active","ping":58},{"user_id":549,"name":"G-G-G-GAMERSHOT","steam_id":76561198798980951,"connected_time":1644000000000,"state":"active","ping":43},{"user_id":562,"name":"Sideshow Penguin","steam_id":76561198128024135,"connected_time":155000000000,"state":"active","ping":46}]},{"server_id":14,"name":"Uncletopia | New York City | 2 | All Maps","name_short":"nyc-2","host":"nyc-1.us.uncletopia.com","port":27025,"enabled":true,"region":"us-east","cc":"us","latitude":40.73061,"longitude":-73.93524,"reserved":0,"last_update":"0001-01-01T00:00:00Z","name_a2s":"Uncletopia | New York City | 2 | All Maps","protocol":17,"map":"plr_hightower","folder":"tf","game":"Team Fortress","app_id":440,"player_count":0,"max_players":24,"Bots":0,"server_type":"Dedicated","server_os":"Linux","password":true,"vac":true,"version":"7742253","steam_id":85568392924469994,"keywords":["nocrits","nodmgspread","payload","uncletopia"],"game_id":440,"stv_port":27026,"stv_name":"Uncletopia | New York City | 2 | All Maps | STV","players":null},{"server_id":15,"name":"Uncletopia | New York City | 3 | Stopwatch Beta","name_short":"nyc-3","host":"nyc-1.us.uncletopia.com","port":27035,"enabled":true,"region":"us-east","cc":"us","latitude":40.73061,"longitude":-73.93524,"reserved":0,"last_update":"0001-01-01T00:00:00Z","name_a2s":"Uncletopia | New York City | 3 | Stopwatch Beta","protocol":17,"map":"cp_altitude","folder":"tf","game":"Team Fortress","app_id":440,"player_count":0,"max_players":24,"Bots":0,"server_type":"Dedicated","server_os":"Linux","password":true,"vac":true,"version":"7742253","steam_id":85568392924742820,"keywords":["cp","nocrits","nodmgspread","uncletopia"],"game_id":440,"stv_port":27036,"stv_name":"Uncletopia | New York City | 3 | Stopwatch Beta | STV","players":null},{"server_id":16,"name":"Uncletopia | New York City | 4 | Community","name_short":"nyc-4","host":"nyc-1.us.uncletopia.com","port":27045,"enabled":true,"region":"us-east","cc":"us","latitude":40.73061,"longitude":-73.93524,"reserved":0,"last_update":"0001-01-01T00:00:00Z","name_a2s":"Uncletopia | New York City | 4 | Community","protocol":17,"map":"workshop/koth_synthetic_rc6a.ugc1549817316","folder":"tf","game":"Team Fortress","app_id":440,"player_count":0,"max_players":24,"Bots":0,"server_type":"Dedicated","server_os":"Linux","password":true,"vac":true,"version":"7742253","steam_id":85568392924742821,"keywords":["cp","nocrits","nodmgspread","uncletopia"],"game_id":440,"stv_port":27046,"stv_name":"Uncletopia | New York City | 4 | Community | STV","players":null},{"server_id":142,"name":"Uncletopia | São Paulo | 1 | All Maps","name_short":"sao-1","host":"sao-1.br.uncletopia.com","port":27015,"enabled":true,"region":"sa","cc":"br","latitude":-23.533773,"longitude":-46.62529,"reserved":0,"last_update":"0001-01-01T00:00:00Z","name_a2s":"Uncletopia | São Paulo | 1 | All Maps","protocol":17,"map":"koth_cascade","folder":"tf","game":"Team Fortress","app_id":440,"player_count":2,"max_players":24,"Bots":0,"server_type":"Dedicated","server_os":"Linux","password":true,"vac":true,"version":"7742253","steam_id":85568392924469996,"keywords":["cp","nocrits","nodmgspread","uncletopia"],"game_id":440,"stv_port":27016,"stv_name":"Uncletopia | São Paulo | 1 | All Maps | STV","players":[{"user_id":211,"name":"Mesasq.","steam_id":76561199268788962,"connected_time":1387000000000,"state":"active","ping":63},{"user_id":212,"name":"BenyDC","steam_id":76561199418910109,"connected_time":1329000000000,"state":"active","ping":57}]},{"server_id":143,"name":"Uncletopia | São Paulo | 2 | All Maps","name_short":"sao-2","host":"sao-2.br.uncletopia.com","port":27015,"enabled":true,"region":"sa","cc":"br","latitude":-23.533773,"longitude":-46.62529,"reserved":0,"last_update":"0001-01-01T00:00:00Z","name_a2s":"Uncletopia | São Paulo | 2 | All Maps","protocol":17,"map":"koth_viaduct","folder":"tf","game":"Team Fortress","app_id":440,"player_count":0,"max_players":24,"Bots":0,"server_type":"Dedicated","server_os":"Linux","password":true,"vac":true,"version":"7742253","steam_id":85568392924485349,"keywords":["cp","nocrits","nodmgspread","uncletopia"],"game_id":440,"stv_port":27016,"stv_name":"Uncletopia | São Paulo | 2 | All Maps | STV","players":null},{"server_id":7,"name":"Uncletopia | Seattle | 1 | All Maps","name_short":"sea-1","host":"sea-1.us.uncletopia.com","port":27015,"enabled":true,"region":"us-west","cc":"us","latitude":47.608013,"longitude":-122.33517,"reserved":0,"last_update":"0001-01-01T00:00:00Z","name_a2s":"Uncletopia | Seattle | 1 | All Maps","protocol":17,"map":"pl_badwater","folder":"tf","game":"Team Fortress","app_id":440,"player_count":24,"max_players":24,"Bots":0,"server_type":"Dedicated","server_os":"Linux","password":true,"vac":true,"version":"7742253","steam_id":85568392924469997,"keywords":["nocrits","nodmgspread","payload","uncletopia"],"game_id":440,"stv_port":27016,"stv_name":"Uncletopia | Seattle | 1 | All Maps | STV","players":[{"user_id":356,"name":"rat gets the cheese","steam_id":76561198031234032,"connected_time":8231000000000,"state":"active","ping":104},{"user_id":446,"name":"Gaming","steam_id":76561198327632113,"connected_time":261000000000,"state":"active","ping":45},{"user_id":362,"name":"Level 99 Mudcrab","steam_id":76561198077452771,"connected_time":7981000000000,"state":"active","ping":62},{"user_id":444,"name":"help","steam_id":76561198171840525,"connected_time":323000000000,"state":"active","ping":60},{"user_id":432,"name":"Tom","steam_id":76561198070630154,"connected_time":1564000000000,"state":"active","ping":78},{"user_id":442,"name":"iphone 7 plus","steam_id":76561198335836405,"connected_time":872000000000,"state":"active","ping":75},{"user_id":445,"name":"Bagaboned","steam_id":76561198043761335,"connected_time":317000000000,"state":"active","ping":51},{"user_id":422,"name":"viciousbellringer","steam_id":76561198086876652,"connected_time":1975000000000,"state":"active","ping":80},{"user_id":366,"name":"Klone","steam_id":76561198854485605,"connected_time":6543000000000,"state":"active","ping":80},{"user_id":412,"name":"William P. Ennis","steam_id":76561198073464877,"connected_time":2232000000000,"state":"active","ping":95},{"user_id":420,"name":"BONG THREAT","steam_id":76561197988234127,"connected_time":2009000000000,"state":"active","ping":37},{"user_id":430,"name":"Joji - Tick Tock","steam_id":76561198418414338,"connected_time":1605000000000,"state":"active","ping":102},{"user_id":441,"name":"Afrosho","steam_id":76561199072657965,"connected_time":1087000000000,"state":"active","ping":49},{"user_id":414,"name":"resting neutral face","steam_id":76561197999259502,"connected_time":2074000000000,"state":"active","ping":210},{"user_id":433,"name":"VicLoL","steam_id":76561198045580784,"connected_time":1561000000000,"state":"active","ping":83},{"user_id":443,"name":"dust","steam_id":76561198045218909,"connected_time":393000000000,"state":"active","ping":44},{"user_id":406,"name":"PorgyPork","steam_id":76561198824399078,"connected_time":3321000000000,"state":"active","ping":67},{"user_id":417,"name":"Shah","steam_id":76561198047508851,"connected_time":2058000000000,"state":"active","ping":58},{"user_id":427,"name":"Shon","steam_id":76561198170116342,"connected_time":1661000000000,"state":"active","ping":80},{"user_id":439,"name":"Vladakus","steam_id":76561198195649605,"connected_time":1296000000000,"state":"active","ping":100},{"user_id":401,"name":"Zee❤","steam_id":76561198274550638,"connected_time":3901000000000,"state":"active","ping":114},{"user_id":447,"name":"Punished Jඞff #NeverSimpAgain","steam_id":76561198304252584,"connected_time":249000000000,"state":"active","ping":74},{"user_id":448,"name":"BowlOfRice","steam_id":76561199239165015,"connected_time":230000000000,"state":"active","ping":98},{"user_id":405,"name":"big car","steam_id":76561198067082350,"connected_time":3438000000000,"state":"active","ping":71}]},{"server_id":119,"name":"Uncletopia | Seattle | 2 | All Maps","name_short":"sea-2","host":"sea-1.us.uncletopia.com","port":27025,"enabled":true,"region":"us-west","cc":"us","latitude":47.608013,"longitude":-122.33517,"reserved":0,"last_update":"0001-01-01T00:00:00Z","name_a2s":"Uncletopia | Seattle | 2 | All Maps","protocol":17,"map":"pl_pier","folder":"tf","game":"Team Fortress","app_id":440,"player_count":24,"max_players":24,"Bots":0,"server_type":"Dedicated","server_os":"Linux","password":true,"vac":true,"version":"7742253","steam_id":85568392924469998,"keywords":["nocrits","nodmgspread","payload","uncletopia"],"game_id":440,"stv_port":27026,"stv_name":"Uncletopia | Seattle | 2 | All Maps | STV","players":[{"user_id":506,"name":"KingTinkerer","steam_id":76561198226856548,"connected_time":2585000000000,"state":"active","ping":63},{"user_id":492,"name":"thunderous prophet","steam_id":76561198131166135,"connected_time":3656000000000,"state":"active","ping":37},{"user_id":513,"name":"brobtlcehc","steam_id":76561198043558709,"connected_time":1549000000000,"state":"active","ping":58},{"user_id":510,"name":"pizza","steam_id":76561199389584938,"connected_time":2019000000000,"state":"active","ping":44},{"user_id":499,"name":"The Best Healer","steam_id":76561198079452621,"connected_time":2787000000000,"state":"active","ping":52},{"user_id":476,"name":"Tom Skirrett","steam_id":76561198014600788,"connected_time":4766000000000,"state":"active","ping":65},{"user_id":516,"name":"nescoceo","steam_id":76561198040801160,"connected_time":418000000000,"state":"active","ping":84},{"user_id":514,"name":"Sparks","steam_id":76561198050950496,"connected_time":1275000000000,"state":"active","ping":98},{"user_id":521,"name":"the","steam_id":76561198079418310,"connected_time":351000000000,"state":"active","ping":52},{"user_id":498,"name":"HO MY GOD HELP ME","steam_id":76561198119150842,"connected_time":2996000000000,"state":"active","ping":61},{"user_id":504,"name":"3.dlc","steam_id":76561198234377776,"connected_time":2642000000000,"state":"active","ping":83},{"user_id":493,"name":"General Fisticuffs","steam_id":76561198255721392,"connected_time":3483000000000,"state":"active","ping":105},{"user_id":522,"name":"chucknut","steam_id":76561199329553584,"connected_time":309000000000,"state":"active","ping":120},{"user_id":503,"name":"Florist","steam_id":76561198009121060,"connected_time":2657000000000,"state":"active","ping":47},{"user_id":464,"name":"Noxus","steam_id":76561199009820852,"connected_time":5556000000000,"state":"active","ping":110},{"user_id":518,"name":"lili.winters","steam_id":76561199391478575,"connected_time":405000000000,"state":"active","ping":62},{"user_id":470,"name":"Nibotshooter","steam_id":76561199284825579,"connected_time":5473000000000,"state":"active","ping":97},{"user_id":466,"name":"TROY","steam_id":76561197983852176,"connected_time":5549000000000,"state":"active","ping":80},{"user_id":495,"name":"squash","steam_id":76561198150281353,"connected_time":3345000000000,"state":"active","ping":57},{"user_id":501,"name":"rorytherednosedreindeer","steam_id":76561198065825165,"connected_time":2679000000000,"state":"active","ping":73},{"user_id":511,"name":"hardfork","steam_id":76561197960958019,"connected_time":1809000000000,"state":"active","ping":57},{"user_id":497,"name":"Dali","steam_id":76561198077593486,"connected_time":3290000000000,"state":"active","ping":93},{"user_id":520,"name":"serotine","steam_id":76561198012590797,"connected_time":376000000000,"state":"active","ping":94},{"user_id":523,"name":"p=9HIGHjorts","steam_id":76561199041179985,"connected_time":264000000000,"state":"active","ping":63}]},{"server_id":406,"name":"Uncletopia | Seattle | 3 | Stopwatch Beta","name_short":"sea-3","host":"sea-1.us.uncletopia.com","port":27035,"enabled":true,"region":"us-west","cc":"us","latitude":47.608013,"longitude":-122.33517,"reserved":0,"last_update":"0001-01-01T00:00:00Z","name_a2s":"Uncletopia | Seattle | 3 | Stopwatch Beta","protocol":17,"map":"cp_gullywash_final1","folder":"tf","game":"Team Fortress","app_id":440,"player_count":4,"max_players":24,"Bots":0,"server_type":"Dedicated","server_os":"Linux","password":true,"vac":false,"version":"7742253","steam_id":0,"keywords":["cp","nocrits","nodmgspread","uncletopia"],"game_id":440,"stv_port":27036,"stv_name":"Uncletopia | Seattle | 3 | Stopwatch Beta | STV","players":[{"user_id":12,"name":"Elite_Friendly","steam_id":76561198819972127,"connected_time":346000000000,"state":"active","ping":50},{"user_id":9,"name":"Anti-Buffer","steam_id":76561198202023350,"connected_time":1288000000000,"state":"active","ping":145},{"user_id":10,"name":"WELCOME TO WARIO WORLD!!!","steam_id":76561199118711243,"connected_time":1216000000000,"state":"active","ping":80},{"user_id":11,"name":"Your Local Festive Furry","steam_id":76561199030190462,"connected_time":572000000000,"state":"active","ping":96}]},{"server_id":17,"name":"Uncletopia | San Francisco | 1 | All Maps","name_short":"sfo-1","host":"sfo-1.us.uncletopia.com","port":27015,"enabled":true,"region":"us-west","cc":"us","latitude":37.77397,"longitude":-122.4313,"reserved":0,"last_update":"0001-01-01T00:00:00Z","name_a2s":"Uncletopia | San Francisco | 1 | All Maps","protocol":17,"map":"koth_lakeside_final","folder":"tf","game":"Team Fortress","app_id":440,"player_count":0,"max_players":24,"Bots":0,"server_type":"Dedicated","server_os":"Linux","password":true,"vac":true,"version":"7742253","steam_id":85568392924469999,"keywords":["cp","nocrits","nodmgspread","uncletopia"],"game_id":440,"stv_port":27016,"stv_name":"Uncletopia | San Francisco | 1 | All Maps | STV","players":null},{"server_id":18,"name":"Uncletopia | San Francisco | 2 | All Maps","name_short":"sfo-2","host":"sfo-1.us.uncletopia.com","port":27025,"enabled":true,"region":"us-west","cc":"us","latitude":37.77397,"longitude":-122.4313,"reserved":0,"last_update":"0001-01-01T00:00:00Z","name_a2s":"Uncletopia | San Francisco | 2 | All Maps","protocol":17,"map":"koth_cascade","folder":"tf","game":"Team Fortress","app_id":440,"player_count":2,"max_players":24,"Bots":0,"server_type":"Dedicated","server_os":"Linux","password":true,"vac":true,"version":"7742253","steam_id":85568392924470000,"keywords":["cp","nocrits","nodmgspread","uncletopia"],"game_id":440,"stv_port":27026,"stv_name":"Uncletopia | San Francisco | 2 | All Maps | STV","players":[{"user_id":17,"name":"IV","steam_id":76561198208996573,"connected_time":60000000000,"state":"active","ping":60},{"user_id":18,"name":"Imabox","steam_id":76561199206177858,"connected_time":23000000000,"state":"active","ping":56}]},{"server_id":19,"name":"Uncletopia | San Francisco | 3 | Stopwatch Beta","name_short":"sfo-3","host":"sfo-1.us.uncletopia.com","port":27035,"enabled":true,"region":"us-west","cc":"us","latitude":37.77397,"longitude":-122.4313,"reserved":0,"last_update":"0001-01-01T00:00:00Z","name_a2s":"Uncletopia | San Francisco | 3 | Stopwatch Beta","protocol":17,"map":"cp_snakewater_final1","folder":"tf","game":"Team Fortress","app_id":440,"player_count":0,"max_players":24,"Bots":0,"server_type":"Dedicated","server_os":"Linux","password":true,"vac":true,"version":"7742253","steam_id":85568392924742824,"keywords":["cp","nocrits","nodmgspread","uncletopia"],"game_id":440,"stv_port":27036,"stv_name":"Uncletopia | San Francisco | 3 | Stopwatch Beta | STV","players":null},{"server_id":20,"name":"Uncletopia | San Francisco | 4 | Community","name_short":"sfo-4","host":"sfo-1.us.uncletopia.com","port":27045,"enabled":true,"region":"us-west","cc":"us","latitude":37.77397,"longitude":-122.4313,"reserved":0,"last_update":"0001-01-01T00:00:00Z","name_a2s":"Uncletopia | San Francisco | 4 | Community","protocol":17,"map":"workshop/koth_ramjam_v2_b2.ugc2865676487","folder":"tf","game":"Team Fortress","app_id":440,"player_count":0,"max_players":24,"Bots":0,"server_type":"Dedicated","server_os":"Linux","password":true,"vac":true,"version":"7742253","steam_id":85568392924742826,"keywords":["cp","nocrits","nodmgspread","uncletopia"],"game_id":440,"stv_port":27046,"stv_name":"Uncletopia | San Francisco | 4 | Community | STV","players":null},{"server_id":141,"name":"Uncletopia | Sydney | 1 | All Maps","name_short":"syd-1","host":"syd-1.au.uncletopia.com","port":27015,"enabled":true,"region":"au","cc":"au","latitude":-33.865143,"longitude":151.2099,"reserved":0,"last_update":"0001-01-01T00:00:00Z","name_a2s":"Uncletopia | Sydney | 1 | All Maps","protocol":17,"map":"pl_goldrush","folder":"tf","game":"Team Fortress","app_id":440,"player_count":11,"max_players":24,"Bots":0,"server_type":"Dedicated","server_os":"Linux","password":true,"vac":true,"version":"7742253","steam_id":85568392924470001,"keywords":["nocrits","nodmgspread","payload","uncletopia"],"game_id":440,"stv_port":27016,"stv_name":"Uncletopia | Sydney | 1 | All Maps | STV","players":[{"user_id":177,"name":"Muffin™","steam_id":76561198819353439,"connected_time":1856000000000,"state":"active","ping":50},{"user_id":28,"name":"Nyda","steam_id":76561198152311904,"connected_time":13855000000000,"state":"active","ping":66},{"user_id":205,"name":"fat","steam_id":76561198997194322,"connected_time":113000000000,"state":"active","ping":61},{"user_id":204,"name":"Defender90","steam_id":76561198864422095,"connected_time":181000000000,"state":"active","ping":43},{"user_id":40,"name":"Maxamus","steam_id":76561198343953317,"connected_time":12314000000000,"state":"active","ping":60},{"user_id":206,"name":"Shoot Shooot Good Gud","steam_id":76561198880471961,"connected_time":82000000000,"state":"active","ping":224},{"user_id":170,"name":"*akolai","steam_id":76561198075366402,"connected_time":2314000000000,"state":"active","ping":46},{"user_id":199,"name":"Tiblob","steam_id":76561198159195449,"connected_time":451000000000,"state":"active","ping":44},{"user_id":202,"name":"Depressed Mario. #savetf2","steam_id":76561198941782823,"connected_time":366000000000,"state":"active","ping":320},{"user_id":207,"name":"TW_light2022","steam_id":76561199393566784,"connected_time":4000000000,"state":"spawning","ping":84},{"user_id":189,"name":"Coffee","steam_id":76561198072414195,"connected_time":982000000000,"state":"active","ping":60}]},{"server_id":123,"name":"Uncletopia | Sydney | 2 | All Maps","name_short":"syd-2","host":"syd-1.au.uncletopia.com","port":27025,"enabled":true,"region":"au","cc":"au","latitude":-33.865143,"longitude":151.2099,"reserved":0,"last_update":"0001-01-01T00:00:00Z","name_a2s":"Uncletopia | Sydney | 2 | All Maps","protocol":17,"map":"pl_badwater","folder":"tf","game":"Team Fortress","app_id":440,"player_count":24,"max_players":24,"Bots":0,"server_type":"Dedicated","server_os":"Linux","password":true,"vac":true,"version":"7742253","steam_id":85568392924470002,"keywords":["nocrits","nodmgspread","payload","uncletopia"],"game_id":440,"stv_port":27026,"stv_name":"Uncletopia | Sydney | 2 | All Maps | STV","players":[{"user_id":94,"name":"electro599","steam_id":76561198058148858,"connected_time":2404000000000,"state":"active","ping":60},{"user_id":76,"name":"Rizeo","steam_id":76561198147901488,"connected_time":3131000000000,"state":"active","ping":63},{"user_id":47,"name":"CuzzyCuz","steam_id":76561198069054697,"connected_time":4881000000000,"state":"active","ping":65},{"user_id":120,"name":"michael","steam_id":76561198052848358,"connected_time":1305000000000,"state":"active","ping":59},{"user_id":79,"name":"braddles [HF]","steam_id":76561198153854876,"connected_time":3000000000000,"state":"active","ping":45},{"user_id":37,"name":"Branko","steam_id":76561199262196710,"connected_time":5591000000000,"state":"active","ping":40},{"user_id":164,"name":"smiv","steam_id":76561197967531912,"connected_time":135000000000,"state":"active","ping":71},{"user_id":104,"name":"The Goodnight Kiwi","steam_id":76561198866433807,"connected_time":1932000000000,"state":"active","ping":64},{"user_id":161,"name":"CouldBeKarlos","steam_id":76561198956180767,"connected_time":376000000000,"state":"active","ping":46},{"user_id":159,"name":"Jacob","steam_id":76561198059341907,"connected_time":449000000000,"state":"active","ping":41},{"user_id":92,"name":"Dr Barry Mundy PhD","steam_id":76561198034512686,"connected_time":2525000000000,"state":"active","ping":79},{"user_id":121,"name":"Dark_Angel","steam_id":76561198248798154,"connected_time":1288000000000,"state":"active","ping":45},{"user_id":163,"name":"SkoKiE","steam_id":76561198283542986,"connected_time":217000000000,"state":"active","ping":63},{"user_id":148,"name":"Spicy Baguette","steam_id":76561198238030210,"connected_time":800000000000,"state":"active","ping":49},{"user_id":72,"name":"ZaEpicScout205","steam_id":76561198170693338,"connected_time":3210000000000,"state":"active","ping":83},{"user_id":156,"name":"tama","steam_id":76561197963485175,"connected_time":569000000000,"state":"active","ping":60},{"user_id":117,"name":"LocalScrub","steam_id":76561198365456239,"connected_time":1340000000000,"state":"active","ping":94},{"user_id":113,"name":"CheezyPeeny","steam_id":76561198131989405,"connected_time":1495000000000,"state":"active","ping":53},{"user_id":151,"name":"hobo","steam_id":76561199046481213,"connected_time":663000000000,"state":"active","ping":71},{"user_id":158,"name":"Diming","steam_id":76561198325584599,"connected_time":499000000000,"state":"active","ping":63},{"user_id":87,"name":"Tnttoad","steam_id":76561198297360775,"connected_time":2715000000000,"state":"active","ping":45},{"user_id":144,"name":"pooparse","steam_id":76561198217959591,"connected_time":860000000000,"state":"active","ping":60},{"user_id":154,"name":"ITS FUCKING FEMBOY FRIDAY","steam_id":76561199090168813,"connected_time":598000000000,"state":"active","ping":49},{"user_id":102,"name":"Mr.Deathclaw","steam_id":76561198025419320,"connected_time":1997000000000,"state":"active","ping":46}]},{"server_id":395,"name":"Uncletopia | Sydney | 3 | All Maps","name_short":"syd-3","host":"syd-1.au.uncletopia.com","port":27035,"enabled":true,"region":"au","cc":"au","latitude":-33.865143,"longitude":151.2099,"reserved":0,"last_update":"0001-01-01T00:00:00Z","name_a2s":"Uncletopia | Sydney | 3 | All Maps","protocol":17,"map":"cp_snakewater_final1","folder":"tf","game":"Team Fortress","app_id":440,"player_count":0,"max_players":24,"Bots":0,"server_type":"Dedicated","server_os":"Linux","password":true,"vac":true,"version":"7742253","steam_id":85568392925194467,"keywords":["cp","nocrits","nodmgspread","uncletopia"],"game_id":440,"stv_port":27036,"stv_name":"Uncletopia | Sydney | 3 | All Maps | STV","players":null},{"server_id":396,"name":"Uncletopia | Sydney | 4 | All Maps","name_short":"syd-4","host":"syd-1.au.uncletopia.com","port":27045,"enabled":true,"region":"au","cc":"au","latitude":-33.865143,"longitude":151.2099,"reserved":0,"last_update":"0001-01-01T00:00:00Z","name_a2s":"Uncletopia | Sydney | 4 | All Maps","protocol":17,"map":"pl_borneo","folder":"tf","game":"Team Fortress","app_id":440,"player_count":0,"max_players":24,"Bots":0,"server_type":"Dedicated","server_os":"Linux","password":true,"vac":true,"version":"7742253","steam_id":85568392925397958,"keywords":["nocrits","nodmgspread","payload","uncletopia"],"game_id":440,"stv_port":27046,"stv_name":"Uncletopia | Sydney | 4 | All Maps | STV","players":null},{"server_id":58,"name":"Uncletopia | Sydney | 5 | Stopwatch Beta","name_short":"syd-5","host":"syd-1.au.uncletopia.com","port":27055,"enabled":true,"region":"au","cc":"au","latitude":-33.865143,"longitude":151.2099,"reserved":0,"last_update":"0001-01-01T00:00:00Z","name_a2s":"Uncletopia | Sydney | 5 | Stopwatch Beta","protocol":17,"map":"cp_snakewater_final1","folder":"tf","game":"Team Fortress","app_id":440,"player_count":0,"max_players":24,"Bots":0,"server_type":"Dedicated","server_os":"Linux","password":true,"vac":true,"version":"7742253","steam_id":85568392925397959,"keywords":["cp","nocrits","nodmgspread","uncletopia"],"game_id":440,"stv_port":27056,"stv_name":"Uncletopia | Sydney | 5 | Stopwatch Beta | STV","players":null},{"server_id":59,"name":"Uncletopia | Sydney | 6 | Community","name_short":"syd-6","host":"syd-1.au.uncletopia.com","port":27065,"enabled":true,"region":"au","cc":"au","latitude":-33.865143,"longitude":151.2099,"reserved":0,"last_update":"0001-01-01T00:00:00Z","name_a2s":"Uncletopia | Sydney | 6 | Community","protocol":17,"map":"workshop/koth_product_final.ugc454272353","folder":"tf","game":"Team Fortress","app_id":440,"player_count":0,"max_players":24,"Bots":0,"server_type":"Dedicated","server_os":"Linux","password":true,"vac":true,"version":"7742253","steam_id":85568392925397960,"keywords":["cp","nocrits","nodmgspread","uncletopia"],"game_id":440,"stv_port":27066,"stv_name":"Uncletopia | Sydney | 6 | Community | STV","players":null},{"server_id":49,"name":"Uncletopia | Warsaw | 1 | All Maps","name_short":"waw-1","host":"waw-1.pl.uncletopia.com","port":27015,"enabled":true,"region":"eu","cc":"pl","latitude":52.2297,"longitude":21.017532,"reserved":0,"last_update":"0001-01-01T00:00:00Z","name_a2s":"Uncletopia | Warsaw | 1 | All Maps","protocol":17,"map":"koth_lakeside_final","folder":"tf","game":"Team Fortress","app_id":440,"player_count":0,"max_players":24,"Bots":0,"server_type":"Dedicated","server_os":"Linux","password":true,"vac":true,"version":"7723704","steam_id":85568392925397850,"keywords":["cp","nocrits","nodmgspread","uncletopia"],"game_id":440,"stv_port":27016,"stv_name":"Uncletopia | Warsaw | 1 | All Maps | STV","players":null},{"server_id":50,"name":"Uncletopia | Warsaw | 2 | All Maps","name_short":"waw-2","host":"waw-1.pl.uncletopia.com","port":27025,"enabled":true,"region":"eu","cc":"pl","latitude":52.2297,"longitude":21.017532,"reserved":0,"last_update":"0001-01-01T00:00:00Z","name_a2s":"Uncletopia | Warsaw | 2 | All Maps","protocol":17,"map":"koth_cascade","folder":"tf","game":"Team Fortress","app_id":440,"player_count":0,"max_players":24,"Bots":0,"server_type":"Dedicated","server_os":"Linux","password":true,"vac":true,"version":"7742253","steam_id":85568392925397851,"keywords":["cp","nocrits","nodmgspread","uncletopia"],"game_id":440,"stv_port":27026,"stv_name":"Uncletopia | Warsaw | 2 | All Maps | STV","players":null},{"server_id":51,"name":"Uncletopia | Warsaw | 3 | All Maps","name_short":"waw-3","host":"waw-1.pl.uncletopia.com","port":27035,"enabled":true,"region":"eu","cc":"pl","latitude":52.2297,"longitude":21.017532,"reserved":0,"last_update":"0001-01-01T00:00:00Z","name_a2s":"Uncletopia | Warsaw | 3 | All Maps","protocol":17,"map":"koth_cascade","folder":"tf","game":"Team Fortress","app_id":440,"player_count":0,"max_players":24,"Bots":0,"server_type":"Dedicated","server_os":"Linux","password":true,"vac":true,"version":"7742253","steam_id":85568392925397852,"keywords":["cp","nocrits","nodmgspread","uncletopia"],"game_id":440,"stv_port":27036,"stv_name":"Uncletopia | Warsaw | 3 | All Maps | STV","players":null},{"server_id":52,"name":"Uncletopia | Warsaw | 4 | All Maps","name_short":"waw-4","host":"waw-1.pl.uncletopia.com","port":27045,"enabled":true,"region":"eu","cc":"pl","latitude":52.2297,"longitude":21.017532,"reserved":0,"last_update":"0001-01-01T00:00:00Z","name_a2s":"Uncletopia | Warsaw | 4 | All Maps","protocol":17,"map":"pl_swiftwater_final1","folder":"tf","game":"Team Fortress","app_id":440,"player_count":0,"max_players":24,"Bots":0,"server_type":"Dedicated","server_os":"Linux","password":true,"vac":true,"version":"7742253","steam_id":85568392925397853,"keywords":["nocrits","nodmgspread","payload","uncletopia"],"game_id":440,"stv_port":27046,"stv_name":"Uncletopia | Warsaw | 4 | All Maps | STV","players":null},{"server_id":53,"name":"Uncletopia | Warsaw | 5 | Stopwatch Beta","name_short":"waw-5","host":"waw-1.pl.uncletopia.com","port":27055,"enabled":true,"region":"eu","cc":"pl","latitude":52.2297,"longitude":21.017532,"reserved":0,"last_update":"0001-01-01T00:00:00Z","name_a2s":"Uncletopia | Warsaw | 5 | Stopwatch Beta","protocol":17,"map":"pl_pier","folder":"tf","game":"Team Fortress","app_id":440,"player_count":0,"max_players":24,"Bots":0,"server_type":"Dedicated","server_os":"Linux","password":true,"vac":true,"version":"7742253","steam_id":85568392925397854,"keywords":["nocrits","nodmgspread","payload","uncletopia"],"game_id":440,"stv_port":27056,"stv_name":"Uncletopia | Warsaw | 5 | Stopwatch Beta | STV","players":null},{"server_id":54,"name":"Uncletopia | Warsaw | 6 | Community","name_short":"waw-6","host":"waw-1.pl.uncletopia.com","port":27065,"enabled":true,"region":"eu","cc":"pl","latitude":52.2297,"longitude":21.017532,"reserved":0,"last_update":"0001-01-01T00:00:00Z","name_a2s":"Uncletopia | Warsaw | 6 | Community","protocol":17,"map":"workshop/rd_asteroid_redux_rc9.ugc2154902912","folder":"tf","game":"Team Fortress","app_id":440,"player_count":0,"max_players":24,"Bots":0,"server_type":"Dedicated","server_os":"Linux","password":true,"vac":true,"version":"7742253","steam_id":85568392925397856,"keywords":["beta","nocrits","nodmgspread","rd","uncletopia"],"game_id":440,"stv_port":27066,"stv_name":"Uncletopia | Warsaw | 6 | Community | STV","players":null}]}