{"status":true,"message":"","result":[{"server_id":9,"name":"Uncletopia | Atlanta | 1 | All Maps","name_short":"atl-1","host":"atl-1.us.uncletopia.com","port":27015,"enabled":true,"region":"us-east","cc":"us","latitude":33.753746,"longitude":-84.38633,"reserved":0,"last_update":"0001-01-01T00:00:00Z","name_a2s":"Uncletopia | Atlanta | 1 | All Maps","protocol":17,"map":"pl_frontier_final","folder":"tf","game":"Team Fortress","app_id":440,"player_count":24,"max_players":24,"Bots":0,"server_type":"Dedicated","server_os":"Linux","password":true,"vac":true,"version":"7723704","steam_id":85568392924469982,"keywords":["nocrits","nodmgspread","payload","uncletopia"],"game_id":440,"stv_port":27016,"stv_name":"Uncletopia | Atlanta | 1 | All Maps | STV","players":[{"user_id":262,"name":"you should recycle","steam_id":76561198119478199,"connected_time":760000000000,"state":"active","ping":42},{"user_id":291,"name":"Nyle","steam_id":76561198045652639,"connected_time":66000000000,"state":"active","ping":112},{"user_id":195,"name":"Goldblock369837","steam_id":76561198405515937,"connected_time":3250000000000,"state":"active","ping":119},{"user_id":253,"name":"ATL1 | Crystron","steam_id":76561198880437428,"connected_time":1003000000000,"state":"active","ping":76},{"user_id":254,"name":"Dr. WAH","steam_id":76561198297778149,"connected_time":948000000000,"state":"active","ping":173},{"user_id":204,"name":"FancyBones","steam_id":76561198180198885,"connected_time":2218000000000,"state":"active","ping":69},{"user_id":205,"name":"Casper","steam_id":76561198012055967,"connected_time":2192000000000,"state":"active","ping":58},{"user_id":239,"name":"ATL1 | merryy","steam_id":76561198968001329,"connected_time":1250000000000,"state":"active","ping":54},{"user_id":215,"name":"oog","steam_id":76561199444283741,"connected_time":1963000000000,"state":"active","ping":114},{"user_id":207,"name":"Trinima","steam_id":76561198359215935,"connected_time":2177000000000,"state":"active","ping":84},{"user_id":281,"name":"Female Gamer","steam_id":76561199366482682,"connected_time":185000000000,"state":"active","ping":109},{"user_id":255,"name":"Dylan Pulido","steam_id":76561198272681544,"connected_time":936000000000,"state":"active","ping":101},{"user_id":198,"name":"mommy claus","steam_id":76561199230929836,"connected_time":2971000000000,"state":"active","ping":87},{"user_id":174,"name":"David De Bergerac","steam_id":76561198010306294,"connected_time":5089000000000,"state":"active","ping":80},{"user_id":289,"name":"Merchants of Misery","steam_id":76561199188142396,"connected_time":80000000000,"state":"active","ping":88},{"user_id":277,"name":"Potato","steam_id":76561198989551964,"connected_time":367000000000,"state":"active","ping":75},{"user_id":89,"name":"Probably P3","steam_id":76561198000127035,"connected_time":7550000000000,"state":"active","ping":66},{"user_id":209,"name":"Luucyf3r","steam_id":76561198141820085,"connected_time":2162000000000,"state":"active","ping":61},{"user_id":210,"name":"Eins","steam_id":76561199030343810,"connected_time":2154000000000,"state":"active","ping":41},{"user_id":257,"name":"SnakeEyes505","steam_id":76561198267634428,"connected_time":917000000000,"state":"active","ping":90},{"user_id":282,"name":"Gary Budussy","steam_id":76561197969793969,"connected_time":173000000000,"state":"active","ping":62},{"user_id":212,"name":"Jeff","steam_id":76561198094572694,"connected_time":2145000000000,"state":"active","ping":103},{"user_id":214,"name":"mangoface","steam_id":76561199028760996,"connected_time":2046000000000,"state":"active","ping":151},{"user_id":220,"name":"ATL1 | Lancer Fan Club","steam_id":76561198355495948,"connected_time":1701000000000,"state":"active","ping":84}]},{"server_id":400,"name":"Uncletopia | Atlanta | 3 | All Maps","name_short":"atl-3","host":"atl-1.us.uncletopia.com","port":27035,"enabled":true,"region":"us-east","cc":"us","latitude":33.753746,"longitude":-84.38633,"reserved":0,"last_update":"0001-01-01T00:00:00Z","name_a2s":"Uncletopia | Atlanta | 3 | All Maps","protocol":17,"map":"cp_dustbowl","folder":"tf","game":"Team Fortress","app_id":440,"player_count":0,"max_players":24,"Bots":0,"server_type":"Dedicated","server_os":"Linux","password":true,"vac":true,"version":"7723704","steam_id":85568392924515187,"keywords":["cp","nocrits","nodmgspread","uncletopia"],"game_id":440,"stv_port":27036,"stv_name":"Uncletopia | Atlanta | 3 | All Maps | STV","players":null},{"server_id":401,"name":"Uncletopia | Atlanta | 4 | No Payload","name_short":"atl-4","host":"atl-1.us.uncletopia.com","port":27045,"enabled":true,"region":"us-east","cc":"us","latitude":33.753746,"longitude":-84.38633,"reserved":0,"last_update":"0001-01-01T00:00:00Z","name_a2s":"Uncletopia | Atlanta | 4 | No Payload","protocol":17,"map":"cp_mercenarypark","folder":"tf","game":"Team Fortress","app_id":440,"player_count":0,"max_players":24,"Bots":0,"server_type":"Dedicated","server_os":"Linux","password":true,"vac":true,"version":"7723704","steam_id":85568392924515188,"keywords":["cp","nocrits","nodmgspread","uncletopia"],"game_id":440,"stv_port":27046,"stv_name":"Uncletopia | Atlanta | 4 | No Payload | STV","players":null},{"server_id":2,"name":"Uncletopia | Chicago | 1 | All Maps","name_short":"chi-1","host":"chi-1.us.uncletopia.com","port":27015,"enabled":true,"region":"us-central","cc":"us","latitude":41.881832,"longitude":-87.62318,"reserved":0,"last_update":"0001-01-01T00:00:00Z","name_a2s":"Uncletopia | Chicago | 1 | All Maps","protocol":17,"map":"pl_frontier_final","folder":"tf","game":"Team Fortress","app_id":440,"player_count":24,"max_players":24,"Bots":0,"server_type":"Dedicated","server_os":"Linux","password":true,"vac":true,"version":"7723704","steam_id":85568392924469984,"keywords":["nocrits","nodmgspread","payload","uncletopia"],"game_id":440,"stv_port":27016,"stv_name":"Uncletopia | Chicago | 1 | All Maps | STV","players":[{"user_id":3,"name":"ÒwÓ","steam_id":76561197997304387,"connected_time":29298000000000,"state":"active","ping":61},{"user_id":265,"name":"Michaelpc1","steam_id":76561198088365519,"connected_time":6753000000000,"state":"active","ping":60},{"user_id":329,"name":"NautilusShell","steam_id":76561198061289498,"connected_time":1528000000000,"state":"active","ping":62},{"user_id":331,"name":"three three","steam_id":76561198177354155,"connected_time":1316000000000,"state":"active","ping":61},{"user_id":302,"name":"C papi","steam_id":76561198027779564,"connected_time":3833000000000,"state":"active","ping":54},{"user_id":291,"name":"Dr. Birb","steam_id":76561198141939154,"connected_time":4719000000000,"state":"active","ping":79},{"user_id":321,"name":"Squishybrick","steam_id":76561198029526606,"connected_time":2521000000000,"state":"active","ping":81},{"user_id":283,"name":"keffers | Chrimbus Time","steam_id":76561198202338796,"connected_time":4987000000000,"state":"active","ping":65},{"user_id":281,"name":"armed slobbery. enguzzlement.","steam_id":76561198237292756,"connected_time":5454000000000,"state":"active","ping":66},{"user_id":278,"name":"weeb_whacker #Jenius","steam_id":76561198187098041,"connected_time":5628000000000,"state":"active","ping":53},{"user_id":325,"name":"abomination","steam_id":76561198167974713,"connected_time":1970000000000,"state":"active","ping":70},{"user_id":286,"name":"Alfonso Molestro","steam_id":76561197998677099,"connected_time":4954000000000,"state":"active","ping":81},{"user_id":258,"name":"ccog","steam_id":76561198009314845,"connected_time":7362000000000,"state":"active","ping":107},{"user_id":318,"name":"harry","steam_id":76561198263271697,"connected_time":2735000000000,"state":"active","ping":46},{"user_id":333,"name":"lu","steam_id":76561198080731872,"connected_time":1153000000000,"state":"active","ping":73},{"user_id":342,"name":"A Sun","steam_id":76561198142545364,"connected_time":407000000000,"state":"active","ping":64},{"user_id":339,"name":"Bird","steam_id":76561198247484514,"connected_time":448000000000,"state":"active","ping":75},{"user_id":336,"name":"Tyco","steam_id":76561197978414167,"connected_time":653000000000,"state":"active","ping":75},{"user_id":317,"name":"josh","steam_id":76561198111565081,"connected_time":2814000000000,"state":"active","ping":106},{"user_id":337,"name":"Ripheart","steam_id":76561198089661561,"connected_time":653000000000,"state":"active","ping":44},{"user_id":326,"name":"Rappitor","steam_id":76561198105613110,"connected_time":1864000000000,"state":"active","ping":61},{"user_id":328,"name":"Kevin Y.","steam_id":76561198364331423,"connected_time":1567000000000,"state":"active","ping":86},{"user_id":338,"name":"Raniel Dicciardo","steam_id":76561198053859538,"connected_time":461000000000,"state":"active","ping":64},{"user_id":313,"name":"jt","steam_id":76561198059575962,"connected_time":3060000000000,"state":"active","ping":52}]},{"server_id":106,"name":"Uncletopia | Chicago | 2 | All Maps","name_short":"chi-2","host":"chi-1.us.uncletopia.com","port":27025,"enabled":true,"region":"us-central","cc":"us","latitude":41.881832,"longitude":-87.62318,"reserved":0,"last_update":"0001-01-01T00:00:00Z","name_a2s":"Uncletopia | Chicago | 2 | All Maps","protocol":17,"map":"cp_sunshine","folder":"tf","game":"Team Fortress","app_id":440,"player_count":0,"max_players":24,"Bots":0,"server_type":"Dedicated","server_os":"Linux","password":true,"vac":true,"version":"7723704","steam_id":85568392924469985,"keywords":["cp","nocrits","nodmgspread","uncletopia"],"game_id":440,"stv_port":27026,"stv_name":"Uncletopia | Chicago | 2 | All Maps | STV","players":null},{"server_id":402,"name":"Uncletopia | Chicago | 3 | All Maps","name_short":"chi-3","host":"chi-1.us.uncletopia.com","port":27035,"enabled":true,"region":"us-central","cc":"us","latitude":41.881832,"longitude":-87.62318,"reserved":0,"last_update":"0001-01-01T00:00:00Z","name_a2s":"Uncletopia | Chicago | 3 | All Maps","protocol":17,"map":"cp_dustbowl","folder":"tf","game":"Team Fortress","app_id":440,"player_count":24,"max_players":24,"Bots":0,"server_type":"Dedicated","server_os":"Linux","password":true,"vac":true,"version":"7723704","steam_id":85568392924515191,"keywords":["cp","nocrits","nodmgspread","uncletopia"],"game_id":440,"stv_port":27036,"stv_name":"Uncletopia | Chicago | 3 | All Maps | STV","players":[{"user_id":191,"name":"vcx","steam_id":76561198139371143,"connected_time":792000000000,"state":"active","ping":58},{"user_id":180,"name":"stop","steam_id":76561198268686419,"connected_time":1494000000000,"state":"active","ping":57},{"user_id":171,"name":"ungr8t","steam_id":76561198063521721,"connected_time":2358000000000,"state":"active","ping":74},{"user_id":181,"name":"Jade Greenleaf","steam_id":76561198304845413,"connected_time":1464000000000,"state":"active","ping":70},{"user_id":195,"name":"Nefy","steam_id":76561198030017316,"connected_time":222000000000,"state":"active","ping":80},{"user_id":186,"name":"bladeefan17","steam_id":76561198239286750,"connected_time":1024000000000,"state":"active","ping":69},{"user_id":150,"name":"me me bad at game","steam_id":76561198230211816,"connected_time":3650000000000,"state":"active","ping":108},{"user_id":185,"name":"reiidaya","steam_id":76561198325306660,"connected_time":1180000000000,"state":"active","ping":103},{"user_id":199,"name":"Crowmancer","steam_id":76561198056707334,"connected_time":9000000000,"state":"spawning","ping":89},{"user_id":182,"name":"festive klevin","steam_id":76561198799106535,"connected_time":1459000000000,"state":"active","ping":69},{"user_id":141,"name":"Sagoogoo","steam_id":76561198176061614,"connected_time":4282000000000,"state":"active","ping":87},{"user_id":187,"name":"Derpy Banana","steam_id":76561198831085285,"connected_time":972000000000,"state":"active","ping":52},{"user_id":163,"name":"PeopleOrderOurPatties","steam_id":76561198323144922,"connected_time":2712000000000,"state":"active","ping":46},{"user_id":196,"name":"NoShen","steam_id":76561198147434663,"connected_time":88000000000,"state":"active","ping":66},{"user_id":164,"name":"pissbaby69420","steam_id":76561198170395477,"connected_time":2700000000000,"state":"active","ping":111},{"user_id":80,"name":"Satori Komeiji","steam_id":76561198158211423,"connected_time":7789000000000,"state":"active","ping":97},{"user_id":184,"name":"rat gets the cheese","steam_id":76561198031234032,"connected_time":1367000000000,"state":"active","ping":50},{"user_id":167,"name":"Architect","steam_id":76561198015242016,"connected_time":2618000000000,"state":"active","ping":41},{"user_id":133,"name":"jerma enthusiast","steam_id":76561198359466264,"connected_time":4588000000000,"state":"active","ping":70},{"user_id":172,"name":"Marie","steam_id":76561198056104899,"connected_time":2320000000000,"state":"active","ping":83},{"user_id":176,"name":"AncientBag","steam_id":76561198349204830,"connected_time":1727000000000,"state":"active","ping":56},{"user_id":126,"name":"greenpeace","steam_id":76561197983221708,"connected_time":5042000000000,"state":"active","ping":94},{"user_id":179,"name":"Sigiferd","steam_id":76561198148788110,"connected_time":1504000000000,"state":"active","ping":123},{"user_id":194,"name":"Big Tobacco","steam_id":76561198130165656,"connected_time":415000000000,"state":"active","ping":51}]},{"server_id":403,"name":"Uncletopia | Chicago | 4 | All Maps","name_short":"chi-4","host":"chi-1.us.uncletopia.com","port":27045,"enabled":true,"region":"us-central","cc":"us","latitude":41.881832,"longitude":-87.62318,"reserved":0,"last_update":"0001-01-01T00:00:00Z","name_a2s":"Uncletopia | Chicago | 4 | All Maps","protocol":17,"map":"pl_swiftwater_final1","folder":"tf","game":"Team Fortress","app_id":440,"player_count":24,"max_players":24,"Bots":0,"server_type":"Dedicated","server_os":"Linux","password":true,"vac":true,"version":"7723704","steam_id":85568392924515193,"keywords":["nocrits","nodmgspread","payload","uncletopia"],"game_id":440,"stv_port":27046,"stv_name":"Uncletopia | Chicago | 4 | All Maps | STV","players":[{"user_id":444,"name":"God of bread","steam_id":76561198373688035,"connected_time":126000000000,"state":"active","ping":61},{"user_id":439,"name":"177013","steam_id":76561198072303290,"connected_time":1317000000000,"state":"active","ping":68},{"user_id":441,"name":"jpuck","steam_id":76561198025018960,"connected_time":232000000000,"state":"active","ping":70},{"user_id":426,"name":"Beanboi","steam_id":76561198977881677,"connected_time":2520000000000,"state":"active","ping":66},{"user_id":425,"name":"Bysig_ttv #savetf2","steam_id":76561198086422663,"connected_time":2653000000000,"state":"active","ping":71},{"user_id":432,"name":"Mr. Squidward","steam_id":76561198103821671,"connected_time":2430000000000,"state":"active","ping":79},{"user_id":443,"name":"wyatt","steam_id":76561198035096199,"connected_time":152000000000,"state":"active","ping":80},{"user_id":429,"name":"Enderneer","steam_id":76561198012136653,"connected_time":2505000000000,"state":"active","ping":60},{"user_id":430,"name":"cosmik","steam_id":76561198071193180,"connected_time":2499000000000,"state":"active","ping":58},{"user_id":393,"name":"ÜberBurst inVinci","steam_id":76561198044470684,"connected_time":5791000000000,"state":"active","ping":75},{"user_id":416,"name":"Wang of Wall St","steam_id":76561198047460598,"connected_time":4134000000000,"state":"active","ping":76},{"user_id":452,"name":"Crunchy Pancake","steam_id":76561198002555973,"connected_time":3000000000,"state":"spawning","ping":82},{"user_id":446,"name":"Wug","steam_id":76561198084112264,"connected_time":106000000000,"state":"active","ping":75},{"user_id":433,"name":"Jolly evil little man","steam_id":76561198311053471,"connected_time":2428000000000,"state":"active","ping":78},{"user_id":438,"name":"Albino Jellyfish","steam_id":76561198208561097,"connected_time":1331000000000,"state":"active","ping":61},{"user_id":447,"name":"thomasdee725","steam_id":76561199189526173,"connected_time":79000000000,"state":"active","ping":105},{"user_id":448,"name":"Anxiety","steam_id":76561198365627687,"connected_time":71000000000,"state":"active","ping":111},{"user_id":436,"name":"Dagsdaf","steam_id":76561198055317112,"connected_time":1947000000000,"state":"active","ping":64},{"user_id":449,"name":"Salad Days","steam_id":76561198110323694,"connected_time":57000000000,"state":"active","ping":85},{"user_id":450,"name":"Bigger bathroom","steam_id":76561198034771900,"connected_time":50000000000,"state":"active","ping":65},{"user_id":451,"name":"Stay SALTy bby","steam_id":76561198877590581,"connected_time":41000000000,"state":"active","ping":81},{"user_id":302,"name":"ItsRoy","steam_id":76561198119525485,"connected_time":11818000000000,"state":"active","ping":58},{"user_id":421,"name":"The Goat","steam_id":76561197960432083,"connected_time":3431000000000,"state":"active","ping":74},{"user_id":398,"name":"MitcheyHD","steam_id":76561198066489645,"connected_time":5373000000000,"state":"active","ping":81}]},{"server_id":36,"name":"Uncletopia | Chicago | 5 | All Maps","name_short":"chi-5","host":"chi-2.us.uncletopia.com","port":27015,"enabled":true,"region":"us-central","cc":"us","latitude":41.881832,"longitude":-87.62318,"reserved":0,"last_update":"0001-01-01T00:00:00Z","name_a2s":"Uncletopia | Chicago | 5 | All Maps","protocol":17,"map":"koth_cascade","folder":"tf","game":"Team Fortress","app_id":440,"player_count":0,"max_players":24,"Bots":0,"server_type":"Dedicated","server_os":"Linux","password":true,"vac":true,"version":"7723704","steam_id":85568392924866362,"keywords":["cp","nocrits","nodmgspread","uncletopia"],"game_id":440,"stv_port":27016,"stv_name":"Uncletopia | Chicago | 5 | All Maps | STV","players":null},{"server_id":37,"name":"Uncletopia | Chicago | 6 | All Maps","name_short":"chi-6","host":"chi-2.us.uncletopia.com","port":27025,"enabled":true,"region":"us-central","cc":"us","latitude":41.881832,"longitude":-87.62318,"reserved":0,"last_update":"0001-01-01T00:00:00Z","name_a2s":"Uncletopia | Chicago | 6 | All Maps","protocol":17,"map":"cp_altitude","folder":"tf","game":"Team Fortress","app_id":440,"player_count":0,"max_players":24,"Bots":0,"server_type":"Dedicated","server_os":"Linux","password":true,"vac":true,"version":"7723704","steam_id":85568392924866363,"keywords":["cp","nocrits","nodmgspread","uncletopia"],"game_id":440,"stv_port":27026,"stv_name":"Uncletopia | Chicago | 6 | All Maps | STV","players":null},{"server_id":38,"name":"Uncletopia | Chicago | 7 | Stopwatch (test)","name_short":"chi-7","host":"chi-2.us.uncletopia.com","port":27035,"enabled":true,"region":"us-central","cc":"us","latitude":41.881832,"longitude":-87.62318,"reserved":0,"last_update":"0001-01-01T00:00:00Z","name_a2s":"Uncletopia | Chicago | 7 | Stopwatch (test)","protocol":17,"map":"workshop/koth_clearcut_b15.ugc2107050255","folder":"tf","game":"Team Fortress","app_id":440,"player_count":0,"max_players":24,"Bots":0,"server_type":"Dedicated","server_os":"Linux","password":true,"vac":true,"version":"7723704","steam_id":85568392924866364,"keywords":["cp","nocrits","nodmgspread","uncletopia"],"game_id":440,"stv_port":27036,"stv_name":"Uncletopia | Chicago | 7 | Stopwatch (test) | STV","players":null},{"server_id":39,"name":"Uncletopia | Chicago | 8 | Community","name_short":"chi-8","host":"chi-2.us.uncletopia.com","port":27045,"enabled":true,"region":"us-central","cc":"us","latitude":41.881832,"longitude":-87.62318,"reserved":0,"last_update":"0001-01-01T00:00:00Z","name_a2s":"Uncletopia | Chicago | 8 | Community","protocol":17,"map":"pl_frontier_final","folder":"tf","game":"Team Fortress","app_id":440,"player_count":0,"max_players":24,"Bots":0,"server_type":"Dedicated","server_os":"Linux","password":true,"vac":true,"version":"7723704","steam_id":85568392924866365,"keywords":["nocrits","nodmgspread","payload","uncletopia"],"game_id":440,"stv_port":27046,"stv_name":"Uncletopia | Chicago | 8 | Community | STV","players":null},{"server_id":8,"name":"Uncletopia | Dallas | 1 | All Maps","name_short":"dal-1","host":"dal-1.us.uncletopia.com","port":27015,"enabled":true,"region":"us-central","cc":"us","latitude":32.779167,"longitude":-96.80889,"reserved":0,"last_update":"0001-01-01T00:00:00Z","name_a2s":"Uncletopia | Dallas | 1 | All Maps","protocol":17,"map":"cp_altitude","folder":"tf","game":"Team Fortress","app_id":440,"player_count":24,"max_players":24,"Bots":0,"server_type":"Dedicated","server_os":"Linux","password":true,"vac":true,"version":"7723704","steam_id":85568392924469986,"keywords":["cp","nocrits","nodmgspread","uncletopia"],"game_id":440,"stv_port":27016,"stv_name":"Uncletopia | Dallas | 1 | All Maps | STV","players":[{"user_id":469,"name":"[LINUX] F2P=S*(M/B)+H || Spy!","steam_id":76561198093538786,"connected_time":456000000000,"state":"active","ping":44},{"user_id":472,"name":"Kawflynn","steam_id":76561198029885678,"connected_time":179000000000,"state":"active","ping":101},{"user_id":473,"name":"Aster","steam_id":76561198037920420,"connected_time":171000000000,"state":"active","ping":59},{"user_id":454,"name":"Power With Flower","steam_id":76561198798123834,"connected_time":1707000000000,"state":"active","ping":60},{"user_id":417,"name":"SmokeyGalaxy","steam_id":76561198118780516,"connected_time":3783000000000,"state":"active","ping":60},{"user_id":474,"name":"TC_Zephyr","steam_id":76561199059189394,"connected_time":163000000000,"state":"active","ping":68},{"user_id":475,"name":"dumbass engineer","steam_id":76561198003593070,"connected_time":163000000000,"state":"active","ping":80},{"user_id":443,"name":"Chris P Bacon","steam_id":76561199217021327,"connected_time":2464000000000,"state":"active","ping":63},{"user_id":446,"name":"Nanochip","steam_id":76561198042248451,"connected_time":2232000000000,"state":"active","ping":42},{"user_id":476,"name":"Heida","steam_id":76561198298468550,"connected_time":116000000000,"state":"active","ping":71},{"user_id":382,"name":"Octoblue64","steam_id":76561198388997283,"connected_time":5212000000000,"state":"active","ping":153},{"user_id":466,"name":"real life cartoon being","steam_id":76561198068958789,"connected_time":1142000000000,"state":"active","ping":63},{"user_id":348,"name":"Bubbles","steam_id":76561198812361950,"connected_time":7150000000000,"state":"active","ping":97},{"user_id":477,"name":"Big Smoke","steam_id":76561198278375987,"connected_time":103000000000,"state":"active","ping":59},{"user_id":478,"name":"Asura","steam_id":76561198212893101,"connected_time":84000000000,"state":"active","ping":81},{"user_id":468,"name":"Ultra\u003c3","steam_id":76561198352021493,"connected_time":562000000000,"state":"active","ping":75},{"user_id":452,"name":"Kracken","steam_id":76561198843862421,"connected_time":1794000000000,"state":"active","ping":83},{"user_id":450,"name":"Blink","steam_id":76561197986181277,"connected_time":1919000000000,"state":"active","ping":45},{"user_id":470,"name":"ice cream (冰淇淋)","steam_id":76561198976530881,"connected_time":310000000000,"state":"active","ping":60},{"user_id":482,"name":"RIT Obelix","steam_id":76561198274715109,"connected_time":3000000000,"state":"spawning","ping":62},{"user_id":481,"name":"hellohello","steam_id":76561198094058177,"connected_time":30000000000,"state":"active","ping":65},{"user_id":459,"name":"Houndoo","steam_id":76561198079003902,"connected_time":1590000000000,"state":"active","ping":88},{"user_id":460,"name":"XIV Hyena","steam_id":76561198256653428,"connected_time":1569000000000,"state":"active","ping":58},{"user_id":431,"name":"gordon freeman christmas","steam_id":76561198367735460,"connected_time":3349000000000,"state":"active","ping":47}]},{"server_id":108,"name":"Uncletopia | Dallas | 2 | All Maps","name_short":"dal-2","host":"dal-1.us.uncletopia.com","port":27025,"enabled":true,"region":"us-central","cc":"us","latitude":32.779167,"longitude":-96.80889,"reserved":0,"last_update":"0001-01-01T00:00:00Z","name_a2s":"Uncletopia | Dallas | 2 | All Maps","protocol":17,"map":"cp_process_final","folder":"tf","game":"Team Fortress","app_id":440,"player_count":0,"max_players":24,"Bots":0,"server_type":"Dedicated","server_os":"Linux","password":true,"vac":true,"version":"7723704","steam_id":85568392924469988,"keywords":["cp","nocrits","nodmgspread","uncletopia"],"game_id":440,"stv_port":27026,"stv_name":"Uncletopia | Dallas | 2 | All Maps | STV","players":null},{"server_id":5,"name":"Uncletopia | Frankfurt | 1 | All Maps","name_short":"frk-1","host":"frk-1.de.uncletopia.com","port":27015,"enabled":true,"region":"eu","cc":"de","latitude":50.110924,"longitude":8.682127,"reserved":0,"last_update":"0001-01-01T00:00:00Z","name_a2s":"Uncletopia | Frankfurt | 1 | All Maps","protocol":17,"map":"pl_pier","folder":"tf","game":"Team Fortress","app_id":440,"player_count":23,"max_players":24,"Bots":0,"server_type":"Dedicated","server_os":"Linux","password":true,"vac":true,"version":"7723704","steam_id":85568392924469989,"keywords":["nocrits","nodmgspread","payload","uncletopia"],"game_id":440,"stv_port":27016,"stv_name":"Uncletopia | Frankfurt | 1 | All Maps | STV","players":[{"user_id":418,"name":"MatesThePlayer","steam_id":76561198066156449,"connected_time":717000000000,"state":"active","ping":53},{"user_id":411,"name":"Ross from F.R.I.E.N.D.S.","steam_id":76561198008511665,"connected_time":826000000000,"state":"active","ping":60},{"user_id":412,"name":"kotamine","steam_id":76561198068907991,"connected_time":813000000000,"state":"active","ping":64},{"user_id":413,"name":"Gold","steam_id":76561198094384339,"connected_time":797000000000,"state":"active","ping":75},{"user_id":424,"name":"NotFionn","steam_id":76561198890525176,"connected_time":521000000000,"state":"active","ping":85},{"user_id":408,"name":"Mor'du","steam_id":76561198274105878,"connected_time":952000000000,"state":"active","ping":78},{"user_id":107,"name":"Ｒ Ｏ Ｂ Ｂ Ｅ Ｒ Ｔ","steam_id":76561198134404830,"connected_time":22564000000000,"state":"active","ping":125},{"user_id":396,"name":"tallen","steam_id":76561198061708595,"connected_time":2651000000000,"state":"active","ping":77},{"user_id":382,"name":"'_'","steam_id":76561198120264459,"connected_time":3914000000000,"state":"active","ping":59},{"user_id":406,"name":"Shawty","steam_id":76561198256704286,"connected_time":1079000000000,"state":"active","ping":91},{"user_id":428,"name":"dddd","steam_id":76561198120894372,"connected_time":432000000000,"state":"active","ping":118},{"user_id":431,"name":"Persephone \u003c3","steam_id":76561198045694137,"connected_time":69000000000,"state":"spawning","ping":84},{"user_id":421,"name":"Guardsman Alex","steam_id":76561198000094686,"connected_time":665000000000,"state":"active","ping":69},{"user_id":404,"name":"Prox","steam_id":76561198351490981,"connected_time":1575000000000,"state":"active","ping":52},{"user_id":399,"name":"filo","steam_id":76561198103633797,"connected_time":2156000000000,"state":"active","ping":88},{"user_id":429,"name":"Cillian","steam_id":76561199046965320,"connected_time":413000000000,"state":"active","ping":80},{"user_id":426,"name":"lugi","steam_id":76561199020785925,"connected_time":452000000000,"state":"active","ping":88},{"user_id":425,"name":"Sabour","steam_id":76561197963965445,"connected_time":492000000000,"state":"active","ping":61},{"user_id":368,"name":"bigwish | bmod.tf","steam_id":76561197997859723,"connected_time":5071000000000,"state":"active","ping":69},{"user_id":432,"name":"lucifer_on_vacation","steam_id":76561198088956059,"connected_time":66000000000,"state":"active","ping":106},{"user_id":363,"name":"Atronic","steam_id":76561198354960567,"connected_time":5428000000000,"state":"active","ping":60},{"user_id":423,"name":"asfklhhjklafdjh","steam_id":76561198418644913,"connected_time":615000000000,"state":"active","ping":157},{"user_id":402,"name":"drew","steam_id":76561198012304706,"connected_time":1817000000000,"state":"active","ping":103}]},{"server_id":110,"name":"Uncletopia | Frankfurt | 2 | All Maps","name_short":"frk-2","host":"frk-1.de.uncletopia.com","port":27025,"enabled":true,"region":"eu","cc":"de","latitude":50.110924,"longitude":8.682127,"reserved":0,"last_update":"0001-01-01T00:00:00Z","name_a2s":"Uncletopia | Frankfurt | 2 | All Maps","protocol":17,"map":"cp_process_final","folder":"tf","game":"Team Fortress","app_id":440,"player_count":23,"max_players":24,"Bots":0,"server_type":"Dedicated","server_os":"Linux","password":true,"vac":true,"version":"7723704","steam_id":85568392924469990,"keywords":["cp","nocrits","nodmgspread","uncletopia"],"game_id":440,"stv_port":27026,"stv_name":"Uncletopia | Frankfurt | 2 | All Maps | STV","players":[{"user_id":686,"name":"LasagnaLarry22","steam_id":76561198089478290,"connected_time":1225000000000,"state":"active","ping":51},{"user_id":703,"name":"Niemen","steam_id":76561198021559905,"connected_time":427000000000,"state":"active","ping":68},{"user_id":685,"name":"Kili","steam_id":76561198138456346,"connected_time":1243000000000,"state":"active","ping":62},{"user_id":644,"name":"The gordon Ramsay of sex","steam_id":76561198173218318,"connected_time":3293000000000,"state":"active","ping":58},{"user_id":633,"name":"Fran","steam_id":76561199070516960,"connected_time":4820000000000,"state":"active","ping":67},{"user_id":661,"name":"jerkiadpeseda","steam_id":76561199089145135,"connected_time":2396000000000,"state":"active","ping":166},{"user_id":704,"name":"Sylbar","steam_id":76561198065379590,"connected_time":367000000000,"state":"active","ping":68},{"user_id":697,"name":"QuantumSleeper","steam_id":76561198082347638,"connected_time":683000000000,"state":"active","ping":119},{"user_id":688,"name":"Posture Check","steam_id":76561198053897197,"connected_time":1206000000000,"state":"active","ping":58},{"user_id":665,"name":"Fat Pigeon","steam_id":76561198817940142,"connected_time":2165000000000,"state":"active","ping":59},{"user_id":705,"name":"Dacrylis","steam_id":76561198090803893,"connected_time":84000000000,"state":"active","ping":66},{"user_id":690,"name":"Sunkerdink","steam_id":76561197996757446,"connected_time":1194000000000,"state":"active","ping":59},{"user_id":676,"name":"nemil","steam_id":76561198090733505,"connected_time":1926000000000,"state":"active","ping":52},{"user_id":699,"name":"hi guys","steam_id":76561198139303045,"connected_time":610000000000,"state":"active","ping":90},{"user_id":700,"name":"ndy","steam_id":76561198269047549,"connected_time":610000000000,"state":"active","ping":64},{"user_id":635,"name":"Michał","steam_id":76561198320346362,"connected_time":4789000000000,"state":"active","ping":63},{"user_id":691,"name":"NukePigg","steam_id":76561198131324143,"connected_time":1192000000000,"state":"active","ping":62},{"user_id":692,"name":"Estamie","steam_id":76561198058527691,"connected_time":1149000000000,"state":"active","ping":71},{"user_id":696,"name":"Nithle","steam_id":76561198025372740,"connected_time":1070000000000,"state":"active","ping":78},{"user_id":694,"name":"Rintse","steam_id":76561198065679312,"connected_time":1134000000000,"state":"active","ping":51},{"user_id":702,"name":"DONGUS","steam_id":76561198042774930,"connected_time":523000000000,"state":"active","ping":79},{"user_id":695,"name":"Frog","steam_id":76561198043981067,"connected_time":1127000000000,"state":"active","ping":76},{"user_id":624,"name":"Senator Armstrong","steam_id":76561198984346408,"connected_time":5512000000000,"state":"active","ping":72}]},{"server_id":308,"name":"Uncletopia | Frankfurt | 3 | All Maps","name_short":"frk-3","host":"frk-1.de.uncletopia.com","port":27035,"enabled":true,"region":"eu","cc":"de","latitude":50.110924,"longitude":8.682127,"reserved":0,"last_update":"0001-01-01T00:00:00Z","name_a2s":"Uncletopia | Frankfurt | 3 | All Maps","protocol":17,"map":"cp_mountainlab","folder":"tf","game":"Team Fortress","app_id":440,"player_count":24,"max_players":24,"Bots":0,"server_type":"Dedicated","server_os":"Linux","password":true,"vac":true,"version":"7723704","steam_id":85568392924504274,"keywords":["cp","nocrits","nodmgspread","uncletopia"],"game_id":440,"stv_port":27036,"stv_name":"Uncletopia | Frankfurt | 3 | All Maps | STV","players":[{"user_id":558,"name":"Gurgula","steam_id":76561198021253678,"connected_time":1049000000000,"state":"active","ping":83},{"user_id":540,"name":"Piki","steam_id":76561199209287968,"connected_time":2220000000000,"state":"active","ping":92},{"user_id":559,"name":"Kali","steam_id":76561198070745106,"connected_time":1028000000000,"state":"active","ping":61},{"user_id":546,"name":"AoA Charger","steam_id":76561198838291029,"connected_time":1360000000000,"state":"active","ping":56},{"user_id":491,"name":"reho-iwnw","steam_id":76561198348062373,"connected_time":4943000000000,"state":"active","ping":89},{"user_id":535,"name":"Dommy","steam_id":76561197990864747,"connected_time":2551000000000,"state":"active","ping":53},{"user_id":547,"name":"iPhone 4S","steam_id":76561198281913312,"connected_time":1350000000000,"state":"active","ping":60},{"user_id":556,"name":"Welder","steam_id":76561198355300561,"connected_time":1197000000000,"state":"active","ping":63},{"user_id":536,"name":"Plop_","steam_id":76561198112567921,"connected_time":2524000000000,"state":"active","ping":47},{"user_id":548,"name":"Harpenden, Harpenden, Harpenden","steam_id":76561198118138546,"connected_time":1348000000000,"state":"active","ping":59},{"user_id":565,"name":"Flatlander","steam_id":76561198016087904,"connected_time":478000000000,"state":"active","ping":74},{"user_id":568,"name":"pfffez","steam_id":76561199438438043,"connected_time":282000000000,"state":"active","ping":75},{"user_id":550,"name":"Lux","steam_id":76561198060417740,"connected_time":1311000000000,"state":"active","ping":52},{"user_id":514,"name":"MrBanana","steam_id":76561198116021623,"connected_time":3241000000000,"state":"active","ping":59},{"user_id":551,"name":"billy benadryl","steam_id":76561198112817599,"connected_time":1311000000000,"state":"active","ping":90},{"user_id":562,"name":"Space Ace","steam_id":76561198032808751,"connected_time":730000000000,"state":"active","ping":63},{"user_id":569,"name":"☭ybercat","steam_id":76561198014070417,"connected_time":177000000000,"state":"active","ping":64},{"user_id":557,"name":"Millero15","steam_id":76561198143105719,"connected_time":1140000000000,"state":"active","ping":87},{"user_id":563,"name":"Krios","steam_id":76561199198145670,"connected_time":686000000000,"state":"active","ping":37},{"user_id":555,"name":"guarda-chuva","steam_id":76561198078694330,"connected_time":1216000000000,"state":"active","ping":53},{"user_id":567,"name":"ICho","steam_id":76561198033221440,"connected_time":304000000000,"state":"active","ping":102},{"user_id":519,"name":"fanyul","steam_id":76561198030894721,"connected_time":3119000000000,"state":"active","ping":81},{"user_id":542,"name":"mt","steam_id":76561197961319303,"connected_time":1568000000000,"state":"active","ping":56},{"user_id":564,"name":"Zembis","steam_id":76561198008017918,"connected_time":666000000000,"state":"active","ping":99}]},{"server_id":309,"name":"Uncletopia | Frankfurt | 4 | All Maps","name_short":"frk-4","host":"frk-1.de.uncletopia.com","port":27045,"enabled":true,"region":"eu","cc":"de","latitude":50.110924,"longitude":8.682127,"reserved":0,"last_update":"0001-01-01T00:00:00Z","name_a2s":"Uncletopia | Frankfurt | 4 | All Maps","protocol":17,"map":"koth_lakeside_final","folder":"tf","game":"Team Fortress","app_id":440,"player_count":4,"max_players":24,"Bots":0,"server_type":"Dedicated","server_os":"Linux","password":true,"vac":true,"version":"7723704","steam_id":85568392924504275,"keywords":["cp","nocrits","nodmgspread","uncletopia"],"game_id":440,"stv_port":27046,"stv_name":"Uncletopia | Frankfurt | 4 | All Maps | STV","players":[{"user_id":271,"name":"[GC]Kimo","steam_id":76561197992327511,"connected_time":296000000000,"state":"active","ping":61},{"user_id":272,"name":"Nicaea Sera","steam_id":76561198805876471,"connected_time":290000000000,"state":"active","ping":80},{"user_id":273,"name":"GZimmer","steam_id":76561198088794767,"connected_time":290000000000,"state":"active","ping":45},{"user_id":274,"name":"Wayward Smile","steam_id":76561198058841506,"connected_time":75000000000,"state":"active","ping":60}]},{"server_id":310,"name":"Uncletopia | Frankfurt | 5 | All Maps","name_short":"frk-5","host":"frk-1.de.uncletopia.com","port":27055,"enabled":true,"region":"eu","cc":"de","latitude":50.110924,"longitude":8.682127,"reserved":0,"last_update":"0001-01-01T00:00:00Z","name_a2s":"Uncletopia | Frankfurt | 5 | All Maps","protocol":17,"map":"pl_badwater","folder":"tf","game":"Team Fortress","app_id":440,"player_count":24,"max_players":24,"Bots":0,"server_type":"Dedicated","server_os":"Linux","password":true,"vac":true,"version":"7723704","steam_id":85568392924504277,"keywords":["nocrits","nodmgspread","payload","uncletopia"],"game_id":440,"stv_port":27056,"stv_name":"Uncletopia | Frankfurt | 5 | All Maps | STV","players":[{"user_id":481,"name":"Frank","steam_id":76561198086672774,"connected_time":1905000000000,"state":"active","ping":66},{"user_id":357,"name":"Him","steam_id":76561198086400484,"connected_time":8325000000000,"state":"active","ping":71},{"user_id":490,"name":"XantaToast","steam_id":76561198066158468,"connected_time":1772000000000,"state":"active","ping":62},{"user_id":510,"name":"4","steam_id":76561197964945192,"connected_time":597000000000,"state":"active","ping":60},{"user_id":518,"name":"Yelowchy","steam_id":76561198199416121,"connected_time":398000000000,"state":"active","ping":112},{"user_id":429,"name":"roblan11","steam_id":76561198066839258,"connected_time":5905000000000,"state":"active","ping":54},{"user_id":470,"name":"Valoxi","steam_id":76561197995042938,"connected_time":2561000000000,"state":"active","ping":63},{"user_id":507,"name":"Tweehoek","steam_id":76561197993796913,"connected_time":659000000000,"state":"active","ping":65},{"user_id":465,"name":"soulja boy face reveal","steam_id":76561198097820508,"connected_time":2793000000000,"state":"active","ping":45},{"user_id":511,"name":"Pahlberg","steam_id":76561198208547929,"connected_time":593000000000,"state":"active","ping":83},{"user_id":492,"name":"Españaa","steam_id":76561198879587832,"connected_time":1736000000000,"state":"active","ping":87},{"user_id":486,"name":"JoJo","steam_id":76561198296920548,"connected_time":1818000000000,"state":"active","ping":97},{"user_id":360,"name":"DeepBlue","steam_id":76561198140075795,"connected_time":8261000000000,"state":"active","ping":55},{"user_id":520,"name":"Gearslut","steam_id":76561198114601678,"connected_time":185000000000,"state":"active","ping":63},{"user_id":487,"name":"Glᴉtch","steam_id":76561199058002606,"connected_time":1810000000000,"state":"active","ping":60},{"user_id":500,"name":"tshirt","steam_id":76561198040757844,"connected_time":1121000000000,"state":"active","ping":82},{"user_id":515,"name":"Retarded Asian Programmer","steam_id":76561198852826853,"connected_time":508000000000,"state":"active","ping":64},{"user_id":478,"name":"Ben Dover","steam_id":76561198034264020,"connected_time":1980000000000,"state":"active","ping":117},{"user_id":493,"name":"Milosz52","steam_id":76561199060940204,"connected_time":1723000000000,"state":"active","ping":76},{"user_id":522,"name":"cazador","steam_id":76561198123096922,"connected_time":182000000000,"state":"active","ping":107},{"user_id":512,"name":"jarrupoljin","steam_id":76561198131551315,"connected_time":585000000000,"state":"active","ping":61},{"user_id":513,"name":"snazyyy","steam_id":76561198143529110,"connected_time":585000000000,"state":"active","ping":53},{"user_id":479,"name":"LVNDMARK※","steam_id":76561198200151459,"connected_time":1974000000000,"state":"active","ping":80},{"user_id":503,"name":"SteaL","steam_id":76561198016020144,"connected_time":925000000000,"state":"active","ping":56}]},{"server_id":311,"name":"Uncletopia | Frankfurt | 6 | All Maps","name_short":"frk-6","host":"frk-1.de.uncletopia.com","port":27065,"enabled":true,"region":"eu","cc":"de","latitude":50.110924,"longitude":8.682127,"reserved":0,"last_update":"0001-01-01T00:00:00Z","name_a2s":"Uncletopia | Frankfurt | 6 | All Maps","protocol":17,"map":"pl_thundermountain","folder":"tf","game":"Team Fortress","app_id":440,"player_count":23,"max_players":24,"Bots":0,"server_type":"Dedicated","server_os":"Linux","password":true,"vac":true,"version":"7723704","steam_id":85568392924504278,"keywords":["nocrits","nodmgspread","payload","uncletopia"],"game_id":440,"stv_port":27066,"stv_name":"Uncletopia | Frankfurt | 6 | All Maps | STV","players":[{"user_id":399,"name":"Bart simpson","steam_id":76561198380666998,"connected_time":29000000000,"state":"active","ping":194},{"user_id":396,"name":"TheArchitect2207","steam_id":76561199136784800,"connected_time":85000000000,"state":"active","ping":91},{"user_id":388,"name":"Yxel","steam_id":76561198123982890,"connected_time":1307000000000,"state":"active","ping":59},{"user_id":391,"name":"macauw","steam_id":76561198010467088,"connected_time":872000000000,"state":"active","ping":52},{"user_id":400,"name":"raz","steam_id":76561198147277460,"connected_time":24000000000,"state":"active","ping":58},{"user_id":385,"name":"Festive Benn","steam_id":76561199024168373,"connected_time":1664000000000,"state":"active","ping":111},{"user_id":386,"name":"Splarvis","steam_id":76561198007792525,"connected_time":1661000000000,"state":"active","ping":56},{"user_id":377,"name":"Diana Ball","steam_id":76561198382533813,"connected_time":2141000000000,"state":"active","ping":73},{"user_id":395,"name":"Foonguz","steam_id":76561198834610534,"connected_time":126000000000,"state":"active","ping":62},{"user_id":378,"name":"lego napoleon movie","steam_id":76561198153796107,"connected_time":2121000000000,"state":"active","ping":76},{"user_id":393,"name":"Pico","steam_id":76561198063552545,"connected_time":384000000000,"state":"active","ping":106},{"user_id":333,"name":"***** ***","steam_id":76561198048037379,"connected_time":4429000000000,"state":"active","ping":75},{"user_id":392,"name":"Dolphin2011","steam_id":76561197997323419,"connected_time":728000000000,"state":"active","ping":92},{"user_id":371,"name":"Varro_Sicarius","steam_id":76561198062130113,"connected_time":2434000000000,"state":"active","ping":75},{"user_id":335,"name":"FaceShackle","steam_id":76561198038371397,"connected_time":4370000000000,"state":"active","ping":47},{"user_id":381,"name":"Malsi","steam_id":76561199061284165,"connected_time":2003000000000,"state":"active","ping":86},{"user_id":401,"name":"big naked bruh","steam_id":76561199179040672,"connected_time":1000000000,"state":"spawning","ping":71},{"user_id":397,"name":"LadyMissfit","steam_id":76561198042236349,"connected_time":85000000000,"state":"active","ping":77},{"user_id":340,"name":"Blazmobins","steam_id":76561198082899401,"connected_time":4292000000000,"state":"active","ping":60},{"user_id":380,"name":"dinger","steam_id":76561198038748489,"connected_time":2069000000000,"state":"active","ping":71},{"user_id":387,"name":"Shucks","steam_id":76561198247688216,"connected_time":1323000000000,"state":"active","ping":84},{"user_id":356,"name":"hushhx","steam_id":76561198216200092,"connected_time":3897000000000,"state":"active","ping":71},{"user_id":398,"name":"noot","steam_id":76561198148074472,"connected_time":80000000000,"state":"active","ping":45}]},{"server_id":23,"name":"Uncletopia | Frankfurt | 7 | No Payload","name_short":"frk-7","host":"frk-1.de.uncletopia.com","port":27075,"enabled":true,"region":"eu","cc":"de","latitude":50.110924,"longitude":8.682127,"reserved":0,"last_update":"0001-01-01T00:00:00Z","name_a2s":"Uncletopia | Frankfurt | 7 | No Payload","protocol":17,"map":"cp_mountainlab","folder":"tf","game":"Team Fortress","app_id":440,"player_count":0,"max_players":24,"Bots":0,"server_type":"Dedicated","server_os":"Linux","password":true,"vac":true,"version":"7723704","steam_id":85568392924742827,"keywords":["cp","nocrits","nodmgspread","uncletopia"],"game_id":440,"stv_port":27076,"stv_name":"Uncletopia | Frankfurt | 7 | No Payload | STV","players":null},{"server_id":24,"name":"Uncletopia | Frankfurt | 8 | Community","name_short":"frk-8","host":"frk-1.de.uncletopia.com","port":27085,"enabled":true,"region":"eu","cc":"de","latitude":50.110924,"longitude":8.682127,"reserved":0,"last_update":"0001-01-01T00:00:00Z","name_a2s":"Uncletopia | Frankfurt | 8 | Community","protocol":17,"map":"workshop/koth_bagel_rc5.ugc2514036946","folder":"tf","game":"Team Fortress","app_id":440,"player_count":20,"max_players":24,"Bots":0,"server_type":"Dedicated","server_os":"Linux","password":true,"vac":true,"version":"7723704","steam_id":85568392924742828,"keywords":["cp","nocrits","nodmgspread","uncletopia"],"game_id":440,"stv_port":27086,"stv_name":"Uncletopia | Frankfurt | 8 | Community | STV","players":[{"user_id":84,"name":"ValentineHU","steam_id":76561198165061845,"connected_time":1521000000000,"state":"active","ping":85},{"user_id":90,"name":"Acid","steam_id":76561198102110680,"connected_time":1233000000000,"state":"active","ping":90},{"user_id":87,"name":"lisivi","steam_id":76561198365503306,"connected_time":1458000000000,"state":"active","ping":60},{"user_id":92,"name":"jerry (:","steam_id":76561198205668108,"connected_time":1214000000000,"state":"active","ping":59},{"user_id":93,"name":"Kotlet schabowy","steam_id":76561198048983509,"connected_time":1107000000000,"state":"active","ping":74},{"user_id":107,"name":"mp1mp2mp3","steam_id":76561198088967665,"connected_time":600000000000,"state":"active","ping":89},{"user_id":115,"name":"♥ Cirno ♥","steam_id":76561198834982738,"connected_time":442000000000,"state":"active","ping":63},{"user_id":123,"name":"blu","steam_id":76561199227651503,"connected_time":168000000000,"state":"active","ping":124},{"user_id":118,"name":"Flex Finster","steam_id":76561198061632224,"connected_time":332000000000,"state":"active","ping":47},{"user_id":99,"name":"the thingamabob","steam_id":76561198372639514,"connected_time":884000000000,"state":"active","ping":61},{"user_id":104,"name":"jenna oretga tf2!!!","steam_id":76561199052109415,"connected_time":746000000000,"state":"active","ping":52},{"user_id":119,"name":"timothytreestand-041165","steam_id":76561197995676953,"connected_time":328000000000,"state":"active","ping":52},{"user_id":110,"name":"Sweetcheesus","steam_id":76561198022299033,"connected_time":519000000000,"state":"active","ping":61},{"user_id":120,"name":"Akubpl","steam_id":76561198453017176,"connected_time":312000000000,"state":"active","ping":76},{"user_id":44,"name":"the worst spy ever","steam_id":76561198214336561,"connected_time":4830000000000,"state":"active","ping":48},{"user_id":112,"name":"Vince","steam_id":76561199103000131,"connected_time":511000000000,"state":"active","ping":61},{"user_id":113,"name":"avnya","steam_id":76561198863728032,"connected_time":486000000000,"state":"active","ping":89},{"user_id":116,"name":"the joy of recycling","steam_id":76561198415564349,"connected_time":440000000000,"state":"active","ping":61},{"user_id":117,"name":"pizzahawaiiEnjoyerwithbigdick","steam_id":76561198079752629,"connected_time":429000000000,"state":"active","ping":128},{"user_id":122,"name":"Lasse_Basse","steam_id":76561198300548767,"connected_time":269000000000,"state":"active","ping":65}]},{"server_id":202,"name":"Uncletopia | Hong Kong | 1 | All Maps","name_short":"hgk-1","host":"hgk-1.hk.uncletopia.com","port":27015,"enabled":true,"region":"asia","cc":"hk","latitude":22.302711,"longitude":114.177216,"reserved":0,"last_update":"0001-01-01T00:00:00Z","name_a2s":"Uncletopia | Hong Kong | 1 | All Maps","protocol":17,"map":"koth_highpass","folder":"tf","game":"Team Fortress","app_id":440,"player_count":0,"max_players":24,"Bots":0,"server_type":"Dedicated","server_os":"Linux","password":true,"vac":true,"version":"7723704","steam_id":85568392924494504,"keywords":["cp","nocrits","nodmgspread","uncletopia"],"game_id":440,"stv_port":27016,"stv_name":"Uncletopia | Hong Kong | 1 | All Maps | STV","players":null},{"server_id":1,"name":"Uncletopia | Los Angeles | 1 | All Maps","name_short":"lax-1","host":"lax-1.us.uncletopia.com","port":27015,"enabled":true,"region":"us-west","cc":"us","latitude":33.94279,"longitude":-118.41004,"reserved":0,"last_update":"0001-01-01T00:00:00Z","name_a2s":"Uncletopia | Los Angeles | 1 | All Maps","protocol":17,"map":"pl_upward","folder":"tf","game":"Team Fortress","app_id":440,"player_count":0,"max_players":24,"Bots":0,"server_type":"Dedicated","server_os":"Linux","password":true,"vac":true,"version":"7723704","steam_id":85568392924469991,"keywords":["nocrits","nodmgspread","payload","uncletopia"],"game_id":440,"stv_port":27016,"stv_name":"Uncletopia | Los Angeles | 1 | All Maps | STV","players":null},{"server_id":112,"name":"Uncletopia | Los Angeles | 2 | All Maps","name_short":"lax-2","host":"lax-1.us.uncletopia.com","port":27025,"enabled":true,"region":"us-west","cc":"us","latitude":33.94279,"longitude":-118.41004,"reserved":0,"last_update":"0001-01-01T00:00:00Z","name_a2s":"Uncletopia | Los Angeles | 2 | All Maps","protocol":17,"map":"pl_pier","folder":"tf","game":"Team Fortress","app_id":440,"player_count":0,"max_players":24,"Bots":0,"server_type":"Dedicated","server_os":"Linux","password":true,"vac":true,"version":"7723704","steam_id":85568392924469992,"keywords":["nocrits","nodmgspread","payload","uncletopia"],"game_id":440,"stv_port":27026,"stv_name":"Uncletopia | Los Angeles | 2 | All Maps | STV","players":null},{"server_id":324,"name":"Uncletopia | Los Angeles | 3 | All Maps","name_short":"lax-3","host":"lax-1.us.uncletopia.com","port":27035,"enabled":true,"region":"us-west","cc":"us","latitude":33.94279,"longitude":-118.41004,"reserved":0,"last_update":"0001-01-01T00:00:00Z","name_a2s":"Uncletopia | Los Angeles | 3 | All Maps","protocol":17,"map":"koth_highpass","folder":"tf","game":"Team Fortress","app_id":440,"player_count":0,"max_players":24,"Bots":0,"server_type":"Dedicated","server_os":"Linux","password":true,"vac":true,"version":"7723704","steam_id":85568392924510198,"keywords":["cp","nocrits","nodmgspread","uncletopia"],"game_id":440,"stv_port":27036,"stv_name":"Uncletopia | Los Angeles | 3 | All Maps | STV","players":null},{"server_id":25,"name":"Uncletopia | Los Angeles | 4 | No Payload","name_short":"lax-4","host":"lax-1.us.uncletopia.com","port":27045,"enabled":true,"region":"us-west","cc":"us","latitude":33.94279,"longitude":-118.41004,"reserved":0,"last_update":"0001-01-01T00:00:00Z","name_a2s":"Uncletopia | Los Angeles | 4 | No Payload","protocol":17,"map":"cp_mountainlab","folder":"tf","game":"Team Fortress","app_id":440,"player_count":0,"max_players":24,"Bots":0,"server_type":"Dedicated","server_os":"Linux","password":true,"vac":true,"version":"7723704","steam_id":85568392924510199,"keywords":["cp","nocrits","nodmgspread","uncletopia"],"game_id":440,"stv_port":27046,"stv_name":"Uncletopia | Los Angeles | 4 | No Payload | STV","players":null},{"server_id":11,"name":"Uncletopia | London | 1 | All Maps","name_short":"lon-1","host":"lon-1.uk.uncletopia.com","port":27015,"enabled":true,"region":"eu","cc":"gb","latitude":51.509865,"longitude":-0.118092,"reserved":0,"last_update":"0001-01-01T00:00:00Z","name_a2s":"Uncletopia | London | 1 | All Maps","protocol":17,"map":"pl_barnblitz","folder":"tf","game":"Team Fortress","app_id":440,"player_count":24,"max_players":24,"Bots":0,"server_type":"Dedicated","server_os":"Linux","password":true,"vac":true,"version":"7723704","steam_id":85568392924367362,"keywords":["nocrits","nodmgspread","payload","uncletopia"],"game_id":440,"stv_port":27016,"stv_name":"Uncletopia | London | 1 | All Maps | STV","players":[{"user_id":376,"name":"waffle toaster","steam_id":76561198799089628,"connected_time":3305000000000,"state":"active","ping":47},{"user_id":440,"name":"torn","steam_id":76561198223003236,"connected_time":1033000000000,"state":"active","ping":33},{"user_id":457,"name":"Uncle Lame","steam_id":76561198089003514,"connected_time":96000000000,"state":"active","ping":60},{"user_id":441,"name":"Aaron","steam_id":76561197990046953,"connected_time":1033000000000,"state":"active","ping":57},{"user_id":448,"name":"♥ඞlilyඞ♥","steam_id":76561198049840460,"connected_time":510000000000,"state":"active","ping":53},{"user_id":454,"name":"Evix","steam_id":76561198418450671,"connected_time":148000000000,"state":"active","ping":60},{"user_id":436,"name":"chachiply","steam_id":76561198316355509,"connected_time":1420000000000,"state":"active","ping":61},{"user_id":452,"name":"shin","steam_id":76561198039757757,"connected_time":162000000000,"state":"active","ping":45},{"user_id":433,"name":"blue mean-eyes","steam_id":76561198060105180,"connected_time":1464000000000,"state":"active","ping":65},{"user_id":379,"name":"The Erotic Barber","steam_id":76561198423902979,"connected_time":3258000000000,"state":"active","ping":52},{"user_id":434,"name":"Hkitchen","steam_id":76561198194779526,"connected_time":1459000000000,"state":"active","ping":39},{"user_id":439,"name":"davlevan","steam_id":76561198090848620,"connected_time":1381000000000,"state":"active","ping":75},{"user_id":362,"name":"sniff","steam_id":76561198259668029,"connected_time":3489000000000,"state":"active","ping":49},{"user_id":427,"name":"SOPHIIEE","steam_id":76561198443798981,"connected_time":2159000000000,"state":"active","ping":55},{"user_id":388,"name":"KPhii","steam_id":76561198970587061,"connected_time":3172000000000,"state":"active","ping":57},{"user_id":430,"name":"Thesis","steam_id":76561199308784371,"connected_time":1715000000000,"state":"active","ping":62},{"user_id":435,"name":"Инспектор Атас","steam_id":76561199175688390,"connected_time":1458000000000,"state":"active","ping":89},{"user_id":455,"name":"juJu","steam_id":76561198049343793,"connected_time":141000000000,"state":"active","ping":61},{"user_id":456,"name":"MAKENTAKEN","steam_id":76561199127359587,"connected_time":141000000000,"state":"active","ping":95},{"user_id":447,"name":"Joseph Stalin LFT","steam_id":76561198033199746,"connected_time":717000000000,"state":"active","ping":48},{"user_id":445,"name":"sumweeb","steam_id":76561198311624395,"connected_time":823000000000,"state":"active","ping":41},{"user_id":451,"name":"Bonca","steam_id":76561198137503531,"connected_time":290000000000,"state":"active","ping":71},{"user_id":406,"name":"C1nnamon_cookie","steam_id":76561199155374388,"connected_time":2916000000000,"state":"active","ping":77},{"user_id":419,"name":"Syd","steam_id":76561198020515027,"connected_time":2831000000000,"state":"active","ping":94}]},{"server_id":114,"name":"Uncletopia | London | 2 | All Maps","name_short":"lon-2","host":"lon-1.uk.uncletopia.com","port":27025,"enabled":true,"region":"eu","cc":"gb","latitude":51.509865,"longitude":-0.118092,"reserved":0,"last_update":"0001-01-01T00:00:00Z","name_a2s":"Uncletopia | London | 2 | All Maps","protocol":17,"map":"pl_frontier_final","folder":"tf","game":"Team Fortress","app_id":440,"player_count":24,"max_players":24,"Bots":0,"server_type":"Dedicated","server_os":"Linux","password":true,"vac":true,"version":"7723704","steam_id":85568392924470941,"keywords":["nocrits","nodmgspread","payload","uncletopia"],"game_id":440,"stv_port":27026,"stv_name":"Uncletopia | London | 2 | All Maps | STV","players":[{"user_id":107,"name":"Lewylow","steam_id":76561198005425686,"connected_time":3829000000000,"state":"active","ping":59},{"user_id":134,"name":"player","steam_id":76561198054474684,"connected_time":258000000000,"state":"active","ping":89},{"user_id":120,"name":"name","steam_id":76561198152620745,"connected_time":1993000000000,"state":"active","ping":50},{"user_id":121,"name":"firenickblood","steam_id":76561199302529256,"connected_time":1981000000000,"state":"active","ping":62},{"user_id":131,"name":"Someone","steam_id":76561199030195879,"connected_time":874000000000,"state":"active","ping":47},{"user_id":101,"name":"|20BB)\u003eMach","steam_id":76561198952487564,"connected_time":4325000000000,"state":"active","ping":94},{"user_id":123,"name":"ufomaster1111111","steam_id":76561198837347666,"connected_time":1861000000000,"state":"active","ping":44},{"user_id":40,"name":"Krismas","steam_id":76561198021772843,"connected_time":7250000000000,"state":"active","ping":60},{"user_id":135,"name":"Frothy Milkshake™","steam_id":76561198058727934,"connected_time":256000000000,"state":"active","ping":51},{"user_id":136,"name":"BEAST MODE 24/7","steam_id":76561198089227864,"connected_time":229000000000,"state":"active","ping":45},{"user_id":132,"name":".Aq","steam_id":76561198043376092,"connected_time":549000000000,"state":"active","ping":106},{"user_id":46,"name":"Frazzles","steam_id":76561199228009586,"connected_time":7075000000000,"state":"active","ping":43},{"user_id":75,"name":"Aspartus","steam_id":76561198101385763,"connected_time":5868000000000,"state":"active","ping":27},{"user_id":68,"name":"edmund","steam_id":76561198378470149,"connected_time":6231000000000,"state":"active","ping":49},{"user_id":133,"name":"Jeff","steam_id":76561198949174773,"connected_time":267000000000,"state":"active","ping":76},{"user_id":130,"name":"Cum flicker","steam_id":76561198304771597,"connected_time":1299000000000,"state":"active","ping":79},{"user_id":126,"name":"Tomfool","steam_id":76561197993256481,"connected_time":1852000000000,"state":"active","ping":84},{"user_id":99,"name":"McGov","steam_id":76561198211361463,"connected_time":4388000000000,"state":"active","ping":63},{"user_id":137,"name":"R A S M U S","steam_id":76561198279799226,"connected_time":214000000000,"state":"active","ping":64},{"user_id":138,"name":"Asanez3","steam_id":76561198037381436,"connected_time":163000000000,"state":"active","ping":125},{"user_id":127,"name":"|Bobby|","steam_id":76561198154208319,"connected_time":1850000000000,"state":"active","ping":61},{"user_id":141,"name":"d u k k i","steam_id":76561198071807437,"connected_time":119000000000,"state":"active","ping":98},{"user_id":129,"name":"X45Y","steam_id":76561198112534025,"connected_time":1792000000000,"state":"active","ping":57},{"user_id":140,"name":"dotdotdot","steam_id":76561198057628751,"connected_time":150000000000,"state":"active","ping":60}]},{"server_id":320,"name":"Uncletopia | London | 3 | All Maps","name_short":"lon-3","host":"lon-1.uk.uncletopia.com","port":27035,"enabled":true,"region":"eu","cc":"gb","latitude":51.509865,"longitude":-0.118092,"reserved":0,"last_update":"0001-01-01T00:00:00Z","name_a2s":"Uncletopia | London | 3 | All Maps","protocol":17,"map":"cp_snakewater_final1","folder":"tf","game":"Team Fortress","app_id":440,"player_count":0,"max_players":24,"Bots":0,"server_type":"Dedicated","server_os":"Linux","password":true,"vac":true,"version":"7723704","steam_id":85568392924510192,"keywords":["cp","nocrits","nodmgspread","uncletopia"],"game_id":440,"stv_port":27036,"stv_name":"Uncletopia | London | 3 | All Maps | STV","players":null},{"server_id":321,"name":"Uncletopia | London | 4 | All Maps","name_short":"lon-4","host":"lon-1.uk.uncletopia.com","port":27045,"enabled":true,"region":"eu","cc":"gb","latitude":51.509865,"longitude":-0.118092,"reserved":0,"last_update":"0001-01-01T00:00:00Z","name_a2s":"Uncletopia | London | 4 | All Maps","protocol":17,"map":"cp_dustbowl","folder":"tf","game":"Team Fortress","app_id":440,"player_count":0,"max_players":24,"Bots":0,"server_type":"Dedicated","server_os":"Linux","password":true,"vac":true,"version":"7723704","steam_id":85568392924510193,"keywords":["cp","nocrits","nodmgspread","uncletopia"],"game_id":440,"stv_port":27046,"stv_name":"Uncletopia | London | 4 | All Maps | STV","players":null},{"server_id":21,"name":"Uncletopia | London | 5 | All Maps","name_short":"lon-5","host":"lon-1.uk.uncletopia.com","port":27055,"enabled":true,"region":"eu","cc":"gb","latitude":51.509865,"longitude":-0.118092,"reserved":0,"last_update":"0001-01-01T00:00:00Z","name_a2s":"Uncletopia | London | 5 | All Maps","protocol":17,"map":"koth_lakeside_final","folder":"tf","game":"Team Fortress","app_id":440,"player_count":0,"max_players":24,"Bots":0,"server_type":"Dedicated","server_os":"Linux","password":true,"vac":true,"version":"7723704","steam_id":85568392924742829,"keywords":["cp","nocrits","nodmgspread","uncletopia"],"game_id":440,"stv_port":27056,"stv_name":"Uncletopia | London | 5 | All Maps | STV","players":null},{"server_id":22,"name":"Uncletopia | London | 6 | All Maps","name_short":"lon-6","host":"lon-1.uk.uncletopia.com","port":27065,"enabled":true,"region":"eu","cc":"gb","latitude":51.509865,"longitude":-0.118092,"reserved":0,"last_update":"0001-01-01T00:00:00Z","name_a2s":"Uncletopia | London | 6 | All Maps","protocol":17,"map":"pl_snowycoast","folder":"tf","game":"Team Fortress","app_id":440,"player_count":24,"max_players":24,"Bots":0,"server_type":"Dedicated","server_os":"Linux","password":true,"vac":true,"version":"7723704","steam_id":85568392924742830,"keywords":["nocrits","nodmgspread","payload","uncletopia"],"game_id":440,"stv_port":27066,"stv_name":"Uncletopia | London | 6 | All Maps | STV","players":[{"user_id":227,"name":"Clitorina","steam_id":76561198077570815,"connected_time":1542000000000,"state":"active","ping":45},{"user_id":240,"name":"Cpt. Spice","steam_id":76561198002278580,"connected_time":746000000000,"state":"active","ping":69},{"user_id":221,"name":"Kurage","steam_id":76561198021221288,"connected_time":1992000000000,"state":"active","ping":68},{"user_id":209,"name":"Assassin-","steam_id":76561197994310420,"connected_time":2519000000000,"state":"active","ping":90},{"user_id":256,"name":"The Terminator","steam_id":76561198027307745,"connected_time":83000000000,"state":"active","ping":46},{"user_id":239,"name":"noobdestroyer420","steam_id":76561199249569889,"connected_time":1056000000000,"state":"active","ping":60},{"user_id":184,"name":"Caskye","steam_id":76561198165430888,"connected_time":3139000000000,"state":"active","ping":80},{"user_id":246,"name":"Diamhair","steam_id":76561198109020178,"connected_time":331000000000,"state":"active","ping":60},{"user_id":254,"name":"Bobo","steam_id":76561198052308399,"connected_time":135000000000,"state":"active","ping":61},{"user_id":257,"name":"IceWolf","steam_id":76561198134807461,"connected_time":69000000000,"state":"active","ping":82},{"user_id":232,"name":"Genuine Bear","steam_id":76561198290782996,"connected_time":1421000000000,"state":"active","ping":60},{"user_id":194,"name":"Scrubbey","steam_id":76561197962091948,"connected_time":2823000000000,"state":"active","ping":75},{"user_id":195,"name":"Insanitybomb","steam_id":76561198048707708,"connected_time":2820000000000,"state":"active","ping":57},{"user_id":247,"name":"Mr. Hunts","steam_id":76561197981910397,"connected_time":320000000000,"state":"active","ping":61},{"user_id":241,"name":"Peggle Extreme","steam_id":76561198101451654,"connected_time":737000000000,"state":"active","ping":47},{"user_id":245,"name":"Max Andrew","steam_id":76561198158955194,"connected_time":371000000000,"state":"active","ping":50},{"user_id":250,"name":"MyDude","steam_id":76561198795433411,"connected_time":256000000000,"state":"active","ping":102},{"user_id":242,"name":"♦Silvia♦","steam_id":76561198373039444,"connected_time":670000000000,"state":"active","ping":92},{"user_id":251,"name":"Nilin","steam_id":76561198081058354,"connected_time":230000000000,"state":"active","ping":89},{"user_id":252,"name":"[MNI]Dazed\u0026Confused666","steam_id":76561198015151235,"connected_time":219000000000,"state":"active","ping":51},{"user_id":253,"name":"MeBandae","steam_id":76561198910770432,"connected_time":210000000000,"state":"active","ping":67},{"user_id":255,"name":"SuntanPikachu","steam_id":76561198121242476,"connected_time":111000000000,"state":"active","ping":81},{"user_id":243,"name":"öööö✪","steam_id":76561198181645822,"connected_time":610000000000,"state":"active","ping":91},{"user_id":258,"name":"Lusa","steam_id":76561199435564731,"connected_time":7000000000,"state":"active","ping":134}]},{"server_id":40,"name":"Uncletopia | London | 7 | No Payload","name_short":"lon-7","host":"lon-1.uk.uncletopia.com","port":27075,"enabled":true,"region":"eu","cc":"gb","latitude":51.509865,"longitude":-0.118092,"reserved":0,"last_update":"0001-01-01T00:00:00Z","name_a2s":"Uncletopia | London | 7 | No Payload","protocol":17,"map":"koth_cascade","folder":"tf","game":"Team Fortress","app_id":440,"player_count":0,"max_players":24,"Bots":0,"server_type":"Dedicated","server_os":"Linux","password":true,"vac":true,"version":"7723704","steam_id":85568392924964314,"keywords":["cp","nocrits","nodmgspread","uncletopia"],"game_id":440,"stv_port":27076,"stv_name":"Uncletopia | London | 7 | No Payload | STV","players":null},{"server_id":41,"name":"Uncletopia | London | 8 | Community","name_short":"lon-8","host":"lon-1.uk.uncletopia.com","port":27085,"enabled":true,"region":"eu","cc":"gb","latitude":51.509865,"longitude":-0.118092,"reserved":0,"last_update":"0001-01-01T00:00:00Z","name_a2s":"Uncletopia | London | 8 | Community","protocol":17,"map":"workshop/koth_ramjam_v2_b2.ugc2865676487","folder":"tf","game":"Team Fortress","app_id":440,"player_count":0,"max_players":24,"Bots":0,"server_type":"Dedicated","server_os":"Linux","password":true,"vac":true,"version":"7723704","steam_id":85568392924964315,"keywords":["cp","nocrits","nodmgspread","uncletopia"],"game_id":440,"stv_port":27086,"stv_name":"Uncletopia | London | 8 | Community | STV","players":null},{"server_id":300,"name":"Uncletopia | Montréal | 1 | All Maps","name_short":"mtl-1","host":"mtl-1.ca.uncletopia.com","port":27015,"enabled":true,"region":"us-east","cc":"ca","latitude":45.50889,"longitude":-73.56167,"reserved":0,"last_update":"0001-01-01T00:00:00Z","name_a2s":"Uncletopia | Montréal | 1 | All Maps","protocol":17,"map":"cp_mountainlab","folder":"tf","game":"Team Fortress","app_id":440,"player_count":0,"max_players":24,"Bots":0,"server_type":"Dedicated","server_os":"Linux","password":true,"vac":true,"version":"7723704","steam_id":85568392924500087,"keywords":["cp","nocrits","nodmgspread","uncletopia"],"game_id":440,"stv_port":27016,"stv_name":"Uncletopia | Montréal | 1 | All Maps | STV","players":null},{"server_id":301,"name":"Uncletopia | Montréal | 2 | All Maps","name_short":"mtl-2","host":"mtl-1.ca.uncletopia.com","port":27025,"enabled":true,"region":"us-east","cc":"ca","latitude":45.50889,"longitude":-73.56167,"reserved":0,"last_update":"0001-01-01T00:00:00Z","name_a2s":"Uncletopia | Montréal | 2 | All Maps","protocol":17,"map":"cp_sunshine","folder":"tf","game":"Team Fortress","app_id":440,"player_count":0,"max_players":24,"Bots":0,"server_type":"Dedicated","server_os":"Linux","password":true,"vac":true,"version":"7723704","steam_id":85568392924500088,"keywords":["cp","nocrits","nodmgspread","uncletopia"],"game_id":440,"stv_port":27026,"stv_name":"Uncletopia | Montréal | 2 | All Maps | STV","players":null},{"server_id":302,"name":"Uncletopia | Montréal | 3 | All Maps","name_short":"mtl-3","host":"mtl-1.ca.uncletopia.com","port":27035,"enabled":true,"region":"us-east","cc":"ca","latitude":45.50889,"longitude":-73.56167,"reserved":0,"last_update":"0001-01-01T00:00:00Z","name_a2s":"Uncletopia | Montréal | 3 | All Maps","protocol":17,"map":"cp_dustbowl","folder":"tf","game":"Team Fortress","app_id":440,"player_count":0,"max_players":24,"Bots":0,"server_type":"Dedicated","server_os":"Linux","password":true,"vac":true,"version":"7723704","steam_id":85568392924500089,"keywords":["cp","nocrits","nodmgspread","uncletopia"],"game_id":440,"stv_port":27036,"stv_name":"Uncletopia | Montréal | 3 | All Maps | STV","players":null},{"server_id":303,"name":"Uncletopia | Montréal | 4 | No Payload","name_short":"mtl-4","host":"mtl-1.ca.uncletopia.com","port":27045,"enabled":true,"region":"us-east","cc":"ca","latitude":45.50889,"longitude":-73.56167,"reserved":0,"last_update":"0001-01-01T00:00:00Z","name_a2s":"Uncletopia | Montréal | 4 | No Payload","protocol":17,"map":"koth_nucleus","folder":"tf","game":"Team Fortress","app_id":440,"player_count":0,"max_players":24,"Bots":0,"server_type":"Dedicated","server_os":"Linux","password":true,"vac":true,"version":"7723704","steam_id":85568392924500090,"keywords":["cp","nocrits","nodmgspread","uncletopia"],"game_id":440,"stv_port":27046,"stv_name":"Uncletopia | Montréal | 4 | No Payload | STV","players":null},{"server_id":13,"name":"Uncletopia | New York City | 1 | All Maps","name_short":"nyc-1","host":"nyc-1.us.uncletopia.com","port":27015,"enabled":true,"region":"us-east","cc":"us","latitude":40.73061,"longitude":-73.93524,"reserved":0,"last_update":"0001-01-01T00:00:00Z","name_a2s":"Uncletopia | New York City | 1 | All Maps","protocol":17,"map":"pl_swiftwater_final1","folder":"tf","game":"Team Fortress","app_id":440,"player_count":24,"max_players":24,"Bots":0,"server_type":"Dedicated","server_os":"Linux","password":true,"vac":true,"version":"7723704","steam_id":85568392924469993,"keywords":["nocrits","nodmgspread","payload","uncletopia"],"game_id":440,"stv_port":27016,"stv_name":"Uncletopia | New York City | 1 | All Maps | STV","players":[{"user_id":223,"name":"OddShadow","steam_id":76561199230502274,"connected_time":3000000000000,"state":"active","ping":196},{"user_id":244,"name":"SE X","steam_id":76561198094525829,"connected_time":1856000000000,"state":"active","ping":55},{"user_id":224,"name":"CrazedFerno","steam_id":76561198068854510,"connected_time":2993000000000,"state":"active","ping":47},{"user_id":248,"name":"e0e0","steam_id":76561198293839750,"connected_time":1364000000000,"state":"active","ping":47},{"user_id":264,"name":"BaguetteThief","steam_id":76561197962257656,"connected_time":588000000000,"state":"active","ping":61},{"user_id":268,"name":"bendera","steam_id":76561197965486503,"connected_time":35000000000,"state":"active","ping":80},{"user_id":266,"name":"EddyQTooReal","steam_id":76561198088480679,"connected_time":499000000000,"state":"active","ping":74},{"user_id":254,"name":"crybaby","steam_id":76561199383952901,"connected_time":1142000000000,"state":"active","ping":76},{"user_id":256,"name":"CHKR","steam_id":76561198366790166,"connected_time":1059000000000,"state":"active","ping":45},{"user_id":265,"name":"tinguspingus","steam_id":76561198147746558,"connected_time":538000000000,"state":"active","ping":75},{"user_id":258,"name":"jan kili","steam_id":76561198289894834,"connected_time":947000000000,"state":"active","ping":90},{"user_id":229,"name":"frank","steam_id":76561198045436159,"connected_time":2828000000000,"state":"active","ping":57},{"user_id":245,"name":"holden ford","steam_id":76561198124810219,"connected_time":1807000000000,"state":"active","ping":59},{"user_id":259,"name":"Young-OG","steam_id":76561198058800479,"connected_time":897000000000,"state":"active","ping":89},{"user_id":267,"name":"Adawnby","steam_id":76561198103057295,"connected_time":349000000000,"state":"active","ping":82},{"user_id":247,"name":"Genuine_Angus_B33F","steam_id":76561198115577047,"connected_time":1558000000000,"state":"active","ping":59},{"user_id":233,"name":"Corbe","steam_id":76561198353893927,"connected_time":2742000000000,"state":"active","ping":60},{"user_id":243,"name":"Horse","steam_id":76561199112075552,"connected_time":2060000000000,"state":"active","ping":53},{"user_id":246,"name":"PinkLemonade","steam_id":76561198799286228,"connected_time":1627000000000,"state":"active","ping":59},{"user_id":262,"name":"Roz257","steam_id":76561198842844532,"connected_time":842000000000,"state":"active","ping":81},{"user_id":237,"name":"SlrMunCrystla","steam_id":76561198055312457,"connected_time":2623000000000,"state":"active","ping":47},{"user_id":251,"name":"Ballin \u0026 Can't Get Up","steam_id":76561198047394013,"connected_time":1226000000000,"state":"active","ping":64},{"user_id":242,"name":"meowfang","steam_id":76561198123056791,"connected_time":2081000000000,"state":"active","ping":54},{"user_id":263,"name":"tabbymei","steam_id":76561199437351945,"connected_time":668000000000,"state":"active","ping":85}]},{"server_id":14,"name":"Uncletopia | New York City | 2 | All Maps","name_short":"nyc-2","host":"nyc-1.us.uncletopia.com","port":27025,"enabled":true,"region":"us-east","cc":"us","latitude":40.73061,"longitude":-73.93524,"reserved":0,"last_update":"0001-01-01T00:00:00Z","name_a2s":"Uncletopia | New York City | 2 | All Maps","protocol":17,"map":"pl_frontier_final","folder":"tf","game":"Team Fortress","app_id":440,"player_count":24,"max_players":24,"Bots":0,"server_type":"Dedicated","server_os":"Linux","password":true,"vac":true,"version":"7723704","steam_id":85568392924469994,"keywords":["nocrits","nodmgspread","payload","uncletopia"],"game_id":440,"stv_port":27026,"stv_name":"Uncletopia | New York City | 2 | All Maps | STV","players":[{"user_id":47,"name":"Giva Mike","steam_id":76561199151189522,"connected_time":377000000000,"state":"active","ping":54},{"user_id":5,"name":"Chillin Turt","steam_id":76561198025796849,"connected_time":3689000000000,"state":"active","ping":72},{"user_id":6,"name":"name420","steam_id":76561198129374525,"connected_time":3679000000000,"state":"active","ping":72},{"user_id":30,"name":"Froggie.","steam_id":76561198059098649,"connected_time":817000000000,"state":"active","ping":63},{"user_id":28,"name":"cedarisnotbook","steam_id":76561198356522924,"connected_time":836000000000,"state":"active","ping":63},{"user_id":11,"name":"crunchy and spicy wasp snack","steam_id":76561199322728703,"connected_time":3282000000000,"state":"active","ping":55},{"user_id":21,"name":"Militant Pacifist","steam_id":76561198290691432,"connected_time":1284000000000,"state":"active","ping":118},{"user_id":32,"name":"Slondermin","steam_id":76561198320301349,"connected_time":766000000000,"state":"active","ping":61},{"user_id":19,"name":"M249 | Spectre","steam_id":76561198118334485,"connected_time":1351000000000,"state":"active","ping":67},{"user_id":45,"name":"Festive Fire Starting Rock","steam_id":76561198066547582,"connected_time":433000000000,"state":"active","ping":91},{"user_id":48,"name":"tf2","steam_id":76561198062839511,"connected_time":355000000000,"state":"active","ping":65},{"user_id":31,"name":"BojackWojack","steam_id":76561198422425920,"connected_time":787000000000,"state":"active","ping":58},{"user_id":49,"name":"Teidan","steam_id":76561198391486271,"connected_time":345000000000,"state":"active","ping":100},{"user_id":27,"name":"GuyGoom","steam_id":76561198254522178,"connected_time":974000000000,"state":"active","ping":88},{"user_id":34,"name":"RICE A RONI JABRONI","steam_id":76561198251653444,"connected_time":676000000000,"state":"active","ping":59},{"user_id":35,"name":"I'll save you a pint","steam_id":76561198968657265,"connected_time":633000000000,"state":"active","ping":83},{"user_id":37,"name":"Agent Hugh Jass","steam_id":76561199097744991,"connected_time":517000000000,"state":"active","ping":55},{"user_id":38,"name":"aimee","steam_id":76561198834309212,"connected_time":506000000000,"state":"active","ping":50},{"user_id":39,"name":"CyDev","steam_id":76561198253072875,"connected_time":505000000000,"state":"active","ping":83},{"user_id":40,"name":"nhbiker","steam_id":76561198081277675,"connected_time":504000000000,"state":"active","ping":52},{"user_id":50,"name":"Verathragna","steam_id":76561198067215453,"connected_time":319000000000,"state":"active","ping":56},{"user_id":51,"name":"AceMahi","steam_id":76561199085988291,"connected_time":280000000000,"state":"active","ping":67},{"user_id":44,"name":"็","steam_id":76561199372405984,"connected_time":457000000000,"state":"active","ping":114},{"user_id":52,"name":"Majora","steam_id":76561198275518424,"connected_time":272000000000,"state":"active","ping":62}]},{"server_id":15,"name":"Uncletopia | New York City | 3 | All Maps","name_short":"nyc-3","host":"nyc-1.us.uncletopia.com","port":27035,"enabled":true,"region":"us-east","cc":"us","latitude":40.73061,"longitude":-73.93524,"reserved":0,"last_update":"0001-01-01T00:00:00Z","name_a2s":"Uncletopia | New York City | 3 | All Maps","protocol":17,"map":"cp_snakewater_final1","folder":"tf","game":"Team Fortress","app_id":440,"player_count":0,"max_players":24,"Bots":0,"server_type":"Dedicated","server_os":"Linux","password":true,"vac":true,"version":"7723704","steam_id":85568392924742820,"keywords":["cp","nocrits","nodmgspread","uncletopia"],"game_id":440,"stv_port":27036,"stv_name":"Uncletopia | New York City | 3 | All Maps | STV","players":null},{"server_id":16,"name":"Uncletopia | New York City | 4 | Community","name_short":"nyc-4","host":"nyc-1.us.uncletopia.com","port":27045,"enabled":true,"region":"us-east","cc":"us","latitude":40.73061,"longitude":-73.93524,"reserved":0,"last_update":"0001-01-01T00:00:00Z","name_a2s":"Uncletopia | New York City | 4 | Community","protocol":17,"map":"workshop/koth_product_final.ugc454272353","folder":"tf","game":"Team Fortress","app_id":440,"player_count":0,"max_players":24,"Bots":0,"server_type":"Dedicated","server_os":"Linux","password":true,"vac":true,"version":"7723704","steam_id":85568392924742821,"keywords":["cp","nocrits","nodmgspread","uncletopia"],"game_id":440,"stv_port":27046,"stv_name":"Uncletopia | New York City | 4 | Community | STV","players":null},{"server_id":142,"name":"Uncletopia | São Paulo | 1 | All Maps","name_short":"sao-1","host":"sao-1.br.uncletopia.com","port":27015,"enabled":true,"region":"sa","cc":"br","latitude":-23.533773,"longitude":-46.62529,"reserved":0,"last_update":"0001-01-01T00:00:00Z","name_a2s":"Uncletopia | São Paulo | 1 | All Maps","protocol":17,"map":"pl_snowycoast","folder":"tf","game":"Team Fortress","app_id":440,"player_count":23,"max_players":24,"Bots":0,"server_type":"Dedicated","server_os":"Linux","password":true,"vac":true,"version":"7723704","steam_id":85568392924469996,"keywords":["nocrits","nodmgspread","payload","uncletopia"],"game_id":440,"stv_port":27016,"stv_name":"Uncletopia | São Paulo | 1 | All Maps | STV","players":[{"user_id":112,"name":"YekkuUwU","steam_id":76561199349215012,"connected_time":225000000000,"state":"active","ping":41},{"user_id":41,"name":"Zoom!","steam_id":76561198289562649,"connected_time":4456000000000,"state":"active","ping":45},{"user_id":105,"name":"Emisu","steam_id":76561198278086794,"connected_time":714000000000,"state":"active","ping":64},{"user_id":39,"name":"Lan","steam_id":76561198263163492,"connected_time":4750000000000,"state":"active","ping":63},{"user_id":42,"name":"Taka Okunavara","steam_id":76561198055681296,"connected_time":4429000000000,"state":"active","ping":83},{"user_id":91,"name":"1 beer left","steam_id":76561198995575441,"connected_time":1529000000000,"state":"active","ping":48},{"user_id":97,"name":"Stalin","steam_id":76561198073356694,"connected_time":1163000000000,"state":"active","ping":64},{"user_id":116,"name":"---------------------------jao","steam_id":76561198408082822,"connected_time":58000000000,"state":"active","ping":47},{"user_id":114,"name":"Daelm","steam_id":76561198063381258,"connected_time":133000000000,"state":"active","ping":43},{"user_id":76,"name":"siirtyaoliveira","steam_id":76561199176805537,"connected_time":2051000000000,"state":"active","ping":41},{"user_id":104,"name":"Pr通りの伝説","steam_id":76561198976110673,"connected_time":924000000000,"state":"active","ping":58},{"user_id":64,"name":"burghley","steam_id":76561199148843299,"connected_time":2884000000000,"state":"active","ping":85},{"user_id":73,"name":"ohStucky","steam_id":76561198136845622,"connected_time":2329000000000,"state":"active","ping":53},{"user_id":45,"name":"Sanches","steam_id":76561198006932156,"connected_time":4367000000000,"state":"active","ping":85},{"user_id":46,"name":"manihoT","steam_id":76561198298416173,"connected_time":4328000000000,"state":"active","ping":111},{"user_id":47,"name":"V̴̢̘͕͛̒̓_Rupt","steam_id":76561198056688070,"connected_time":4294000000000,"state":"active","ping":58},{"user_id":107,"name":"vinisaurus","steam_id":76561198112127509,"connected_time":402000000000,"state":"active","ping":73},{"user_id":82,"name":"Taro","steam_id":76561198048904810,"connected_time":1860000000000,"state":"active","ping":101},{"user_id":83,"name":"Jumpman","steam_id":76561198069655588,"connected_time":1838000000000,"state":"active","ping":109},{"user_id":95,"name":"NenF | Yatosemtato","steam_id":76561199066360306,"connected_time":1434000000000,"state":"active","ping":76},{"user_id":98,"name":"Vic Rattlehead","steam_id":76561199232899925,"connected_time":1109000000000,"state":"active","ping":56},{"user_id":117,"name":"Perão","steam_id":76561198044655726,"connected_time":36000000000,"state":"spawning","ping":65},{"user_id":109,"name":"CHAOSzeraas","steam_id":76561198045068934,"connected_time":303000000000,"state":"active","ping":49}]},{"server_id":143,"name":"Uncletopia | São Paulo | 2 | All Maps","name_short":"sao-2","host":"sao-2.br.uncletopia.com","port":27015,"enabled":true,"region":"sa","cc":"br","latitude":-23.533773,"longitude":-46.62529,"reserved":0,"last_update":"0001-01-01T00:00:00Z","name_a2s":"Uncletopia | São Paulo | 2 | All Maps","protocol":17,"map":"cp_mountainlab","folder":"tf","game":"Team Fortress","app_id":440,"player_count":1,"max_players":24,"Bots":0,"server_type":"Dedicated","server_os":"Linux","password":true,"vac":true,"version":"7723704","steam_id":85568392924485349,"keywords":["cp","nocrits","nodmgspread","uncletopia"],"game_id":440,"stv_port":27016,"stv_name":"Uncletopia | São Paulo | 2 | All Maps | STV","players":[{"user_id":17,"name":"✓Rodrigo_hambúrguers✓","steam_id":76561199063941794,"connected_time":62000000000,"state":"active","ping":35}]},{"server_id":7,"name":"Uncletopia | Seattle | 1 | All Maps","name_short":"sea-1","host":"sea-1.us.uncletopia.com","port":27015,"enabled":true,"region":"us-west","cc":"us","latitude":47.608013,"longitude":-122.33517,"reserved":0,"last_update":"0001-01-01T00:00:00Z","name_a2s":"Uncletopia | Seattle | 1 | All Maps","protocol":17,"map":"pl_badwater","folder":"tf","game":"Team Fortress","app_id":440,"player_count":23,"max_players":24,"Bots":0,"server_type":"Dedicated","server_os":"Linux","password":true,"vac":true,"version":"7723704","steam_id":85568392924469997,"keywords":["nocrits","nodmgspread","payload","uncletopia"],"game_id":440,"stv_port":27016,"stv_name":"Uncletopia | Seattle | 1 | All Maps | STV","players":[{"user_id":72,"name":"The Collective","steam_id":76561198170423483,"connected_time":187000000000,"state":"active","ping":123},{"user_id":21,"name":"flood_escape","steam_id":76561199228698404,"connected_time":1283000000000,"state":"active","ping":104},{"user_id":45,"name":"Nickel Consumer","steam_id":76561199128723378,"connected_time":619000000000,"state":"active","ping":126},{"user_id":14,"name":"RedKnight","steam_id":76561198891277519,"connected_time":2386000000000,"state":"active","ping":98},{"user_id":16,"name":"chompmastr","steam_id":76561199121805899,"connected_time":1828000000000,"state":"active","ping":49},{"user_id":78,"name":"poogetisi","steam_id":76561198262572343,"connected_time":89000000000,"state":"active","ping":75},{"user_id":18,"name":"sniffy","steam_id":76561198184933255,"connected_time":1664000000000,"state":"active","ping":81},{"user_id":61,"name":"ganjasmoker22","steam_id":76561198168621580,"connected_time":467000000000,"state":"active","ping":82},{"user_id":64,"name":"math","steam_id":76561198092542997,"connected_time":401000000000,"state":"active","ping":109},{"user_id":24,"name":"Morbius","steam_id":76561198387984694,"connected_time":1082000000000,"state":"active","ping":64},{"user_id":26,"name":"grumbo","steam_id":76561198428029447,"connected_time":1046000000000,"state":"active","ping":64},{"user_id":27,"name":"ms. anthrope","steam_id":76561198063533082,"connected_time":1000000000000,"state":"active","ping":36},{"user_id":28,"name":"Rock Kickass","steam_id":76561198450510841,"connected_time":996000000000,"state":"active","ping":96},{"user_id":33,"name":"krootonitron","steam_id":76561198114113037,"connected_time":871000000000,"state":"active","ping":59},{"user_id":31,"name":"Oomitch","steam_id":76561198071702759,"connected_time":961000000000,"state":"active","ping":52},{"user_id":69,"name":"Person","steam_id":76561198073885832,"connected_time":273000000000,"state":"active","ping":80},{"user_id":75,"name":"heisenberg","steam_id":76561198170879526,"connected_time":110000000000,"state":"active","ping":166},{"user_id":48,"name":"Honeybunch","steam_id":76561198014850580,"connected_time":585000000000,"state":"active","ping":44},{"user_id":40,"name":"Gilgamesh","steam_id":76561198317113179,"connected_time":759000000000,"state":"active","ping":95},{"user_id":41,"name":"Mr. Ruckus","steam_id":76561198339566190,"connected_time":713000000000,"state":"active","ping":137},{"user_id":79,"name":"BleeboBleebo","steam_id":76561198151549658,"connected_time":81000000000,"state":"active","ping":127},{"user_id":71,"name":"Fribas","steam_id":76561198138502813,"connected_time":213000000000,"state":"active","ping":136},{"user_id":63,"name":"Whorenet","steam_id":76561198090433209,"connected_time":436000000000,"state":"active","ping":155}]},{"server_id":119,"name":"Uncletopia | Seattle | 2 | All Maps","name_short":"sea-2","host":"sea-1.us.uncletopia.com","port":27025,"enabled":true,"region":"us-west","cc":"us","latitude":47.608013,"longitude":-122.33517,"reserved":0,"last_update":"0001-01-01T00:00:00Z","name_a2s":"Uncletopia | Seattle | 2 | All Maps","protocol":17,"map":"koth_lakeside_final","folder":"tf","game":"Team Fortress","app_id":440,"player_count":2,"max_players":24,"Bots":0,"server_type":"Dedicated","server_os":"Linux","password":true,"vac":true,"version":"7723704","steam_id":85568392924469998,"keywords":["cp","nocrits","nodmgspread","uncletopia"],"game_id":440,"stv_port":27026,"stv_name":"Uncletopia | Seattle | 2 | All Maps | STV","players":[{"user_id":9,"name":"Lumi♡","steam_id":76561198133342164,"connected_time":187000000000,"state":"active","ping":121},{"user_id":10,"name":"Reb","steam_id":76561198062752902,"connected_time":154000000000,"state":"active","ping":50}]},{"server_id":17,"name":"Uncletopia | San Francisco | 1 | All Maps","name_short":"sfo-1","host":"sfo-1.us.uncletopia.com","port":27015,"enabled":true,"region":"us-west","cc":"us","latitude":37.77397,"longitude":-122.4313,"reserved":0,"last_update":"0001-01-01T00:00:00Z","name_a2s":"Uncletopia | San Francisco | 1 | All Maps","protocol":17,"map":"koth_viaduct","folder":"tf","game":"Team Fortress","app_id":440,"player_count":0,"max_players":24,"Bots":0,"server_type":"Dedicated","server_os":"Linux","password":true,"vac":true,"version":"7723704","steam_id":85568392924469999,"keywords":["cp","nocrits","nodmgspread","uncletopia"],"game_id":440,"stv_port":27016,"stv_name":"Uncletopia | San Francisco | 1 | All Maps | STV","players":null},{"server_id":18,"name":"Uncletopia | San Francisco | 2 | All Maps","name_short":"sfo-2","host":"sfo-1.us.uncletopia.com","port":27025,"enabled":true,"region":"us-west","cc":"us","latitude":37.77397,"longitude":-122.4313,"reserved":0,"last_update":"0001-01-01T00:00:00Z","name_a2s":"Uncletopia | San Francisco | 2 | All Maps","protocol":17,"map":"cp_dustbowl","folder":"tf","game":"Team Fortress","app_id":440,"player_count":0,"max_players":24,"Bots":0,"server_type":"Dedicated","server_os":"Linux","password":true,"vac":true,"version":"7723704","steam_id":85568392924470000,"keywords":["cp","nocrits","nodmgspread","uncletopia"],"game_id":440,"stv_port":27026,"stv_name":"Uncletopia | San Francisco | 2 | All Maps | STV","players":null},{"server_id":19,"name":"Uncletopia | San Francisco | 3 | No Payload","name_short":"sfo-3","host":"sfo-1.us.uncletopia.com","port":27035,"enabled":true,"region":"us-west","cc":"us","latitude":37.77397,"longitude":-122.4313,"reserved":0,"last_update":"0001-01-01T00:00:00Z","name_a2s":"Uncletopia | San Francisco | 3 | No Payload","protocol":17,"map":"pl_snowycoast","folder":"tf","game":"Team Fortress","app_id":440,"player_count":0,"max_players":24,"Bots":0,"server_type":"Dedicated","server_os":"Linux","password":true,"vac":true,"version":"7723704","steam_id":85568392924742824,"keywords":["nocrits","nodmgspread","payload","uncletopia"],"game_id":440,"stv_port":27036,"stv_name":"Uncletopia | San Francisco | 3 | No Payload | STV","players":null},{"server_id":20,"name":"Uncletopia | San Francisco | 4 | Community","name_short":"sfo-4","host":"sfo-1.us.uncletopia.com","port":27045,"enabled":true,"region":"us-west","cc":"us","latitude":37.77397,"longitude":-122.4313,"reserved":0,"last_update":"0001-01-01T00:00:00Z","name_a2s":"Uncletopia | San Francisco | 4 | Community","protocol":17,"map":"workshop/pl_cactuscanyon_redux_rc4b.ugc2579644293","folder":"tf","game":"Team Fortress","app_id":440,"player_count":21,"max_players":24,"Bots":0,"server_type":"Dedicated","server_os":"Linux","password":true,"vac":true,"version":"7723704","steam_id":85568392924742826,"keywords":["nocrits","nodmgspread","payload","uncletopia"],"game_id":440,"stv_port":27046,"stv_name":"Uncletopia | San Francisco | 4 | Community | STV","players":[{"user_id":103,"name":"The Sinister Potion","steam_id":76561198131280715,"connected_time":645000000000,"state":"active","ping":125},{"user_id":110,"name":"ehs","steam_id":76561198431048339,"connected_time":461000000000,"state":"active","ping":49},{"user_id":61,"name":"Frank Accardi","steam_id":76561198017275707,"connected_time":3053000000000,"state":"active","ping":70},{"user_id":64,"name":"Cactus™ ♥","steam_id":76561198036441270,"connected_time":2747000000000,"state":"active","ping":87},{"user_id":91,"name":"dodecadron","steam_id":76561198027397222,"connected_time":1490000000000,"state":"active","ping":75},{"user_id":14,"name":"oo","steam_id":76561198119626492,"connected_time":6607000000000,"state":"active","ping":118},{"user_id":106,"name":"Hindmost","steam_id":76561199081837220,"connected_time":530000000000,"state":"active","ping":96},{"user_id":118,"name":"spicydogecena6505+","steam_id":76561198053609801,"connected_time":150000000000,"state":"active","ping":97},{"user_id":117,"name":"Jerffrey09","steam_id":76561199438939430,"connected_time":167000000000,"state":"active","ping":121},{"user_id":111,"name":"EatSomeBEES","steam_id":76561198047334307,"connected_time":425000000000,"state":"active","ping":67},{"user_id":75,"name":"Jarated","steam_id":76561198352187445,"connected_time":2211000000000,"state":"active","ping":109},{"user_id":52,"name":"oil","steam_id":76561198099980149,"connected_time":3720000000000,"state":"active","ping":53},{"user_id":92,"name":"holymoly1645 TWITCH","steam_id":76561198079009899,"connected_time":1477000000000,"state":"active","ping":72},{"user_id":35,"name":"whatzhisface","steam_id":76561198127891646,"connected_time":4383000000000,"state":"active","ping":66},{"user_id":114,"name":"BPplays","steam_id":76561198254680007,"connected_time":236000000000,"state":"active","ping":47},{"user_id":57,"name":"aeseu","steam_id":76561198066319618,"connected_time":3487000000000,"state":"active","ping":105},{"user_id":115,"name":"TheWildDragon","steam_id":76561198212937072,"connected_time":233000000000,"state":"active","ping":108},{"user_id":82,"name":"Daddy","steam_id":76561199380536155,"connected_time":1670000000000,"state":"active","ping":118},{"user_id":77,"name":"Dwarf Millionaire","steam_id":76561198092110938,"connected_time":2068000000000,"state":"active","ping":60},{"user_id":51,"name":"nAk","steam_id":76561198151387942,"connected_time":3916000000000,"state":"active","ping":52},{"user_id":50,"name":"Sex Haver","steam_id":76561198168989022,"connected_time":3961000000000,"state":"active","ping":50}]},{"server_id":141,"name":"Uncletopia | Sydney | 1 | All Maps","name_short":"syd-1","host":"syd-1.au.uncletopia.com","port":27015,"enabled":true,"region":"au","cc":"au","latitude":-33.865143,"longitude":151.2099,"reserved":0,"last_update":"0001-01-01T00:00:00Z","name_a2s":"Uncletopia | Sydney | 1 | All Maps","protocol":17,"map":"pl_wutville_event","folder":"tf","game":"Team Fortress","app_id":440,"player_count":0,"max_players":24,"Bots":0,"server_type":"Dedicated","server_os":"Linux","password":true,"vac":true,"version":"7723704","steam_id":85568392924470001,"keywords":["nocrits","nodmgspread","payload","uncletopia"],"game_id":440,"stv_port":27016,"stv_name":"Uncletopia | Sydney | 1 | All Maps | STV","players":null},{"server_id":123,"name":"Uncletopia | Sydney | 2 | All Maps","name_short":"syd-2","host":"syd-1.au.uncletopia.com","port":27025,"enabled":true,"region":"au","cc":"au","latitude":-33.865143,"longitude":151.2099,"reserved":0,"last_update":"0001-01-01T00:00:00Z","name_a2s":"Uncletopia | Sydney | 2 | All Maps","protocol":17,"map":"pl_wutville_event","folder":"tf","game":"Team Fortress","app_id":440,"player_count":0,"max_players":24,"Bots":0,"server_type":"Dedicated","server_os":"Linux","password":true,"vac":true,"version":"7723704","steam_id":85568392924470002,"keywords":["nocrits","nodmgspread","payload","uncletopia"],"game_id":440,"stv_port":27026,"stv_name":"Uncletopia | Sydney | 2 | All Maps | STV","players":null},{"server_id":395,"name":"Uncletopia | Sydney | 3 | All Maps","name_short":"syd-3","host":"syd-1.au.uncletopia.com","port":27035,"enabled":true,"region":"au","cc":"au","latitude":-33.865143,"longitude":151.2099,"reserved":0,"last_update":"0001-01-01T00:00:00Z","name_a2s":"Uncletopia | Sydney | 3 | All Maps","protocol":17,"map":"pl_wutville_event","folder":"tf","game":"Team Fortress","app_id":440,"player_count":0,"max_players":24,"Bots":0,"server_type":"Dedicated","server_os":"Linux","password":true,"vac":true,"version":"7723704","steam_id":85568392925194467,"keywords":["nocrits","nodmgspread","payload","uncletopia"],"game_id":440,"stv_port":27036,"stv_name":"Uncletopia | Sydney | 3 | All Maps | STV","players":null},{"server_id":396,"name":"Uncletopia | Sydney | 4 | All Maps","name_short":"syd-4","host":"syd-1.au.uncletopia.com","port":27045,"enabled":true,"region":"au","cc":"au","latitude":-33.865143,"longitude":151.2099,"reserved":0,"last_update":"0001-01-01T00:00:00Z","name_a2s":"Uncletopia | Sydney | 4 | All Maps","protocol":17,"map":"pl_wutville_event","folder":"tf","game":"Team Fortress","app_id":440,"player_count":0,"max_players":24,"Bots":0,"server_type":"Dedicated","server_os":"Linux","password":true,"vac":true,"version":"7723704","steam_id":85568392925397958,"keywords":["nocrits","nodmgspread","payload","uncletopia"],"game_id":440,"stv_port":27046,"stv_name":"Uncletopia | Sydney | 4 | All Maps | STV","players":null},{"server_id":58,"name":"Uncletopia | Sydney | 5 | No Payload","name_short":"syd-5","host":"syd-1.au.uncletopia.com","port":27055,"enabled":true,"region":"au","cc":"au","latitude":-33.865143,"longitude":151.2099,"reserved":0,"last_update":"0001-01-01T00:00:00Z","name_a2s":"Uncletopia | Sydney | 5 | No Payload","protocol":17,"map":"ctf_2fort","folder":"tf","game":"Team Fortress","app_id":440,"player_count":0,"max_players":24,"Bots":0,"server_type":"Dedicated","server_os":"Linux","password":true,"vac":true,"version":"7723704","steam_id":85568392925397959,"keywords":["ctf","nocrits","nodmgspread","uncletopia"],"game_id":440,"stv_port":27056,"stv_name":"Uncletopia | Sydney | 5 | No Payload | STV","players":null},{"server_id":59,"name":"Uncletopia | Sydney | 6 | Community","name_short":"syd-6","host":"syd-1.au.uncletopia.com","port":27065,"enabled":true,"region":"au","cc":"au","latitude":-33.865143,"longitude":151.2099,"reserved":0,"last_update":"0001-01-01T00:00:00Z","name_a2s":"Uncletopia | Sydney | 6 | Community","protocol":17,"map":"workshop/rd_asteroid_redux_rc9.ugc2154902912","folder":"tf","game":"Team Fortress","app_id":440,"player_count":0,"max_players":24,"Bots":0,"server_type":"Dedicated","server_os":"Linux","password":true,"vac":true,"version":"7723704","steam_id":85568392925397960,"keywords":["beta","nocrits","nodmgspread","rd","uncletopia"],"game_id":440,"stv_port":27066,"stv_name":"Uncletopia | Sydney | 6 | Community | STV","players":null},{"server_id":49,"name":"Uncletopia | Warsaw | 1 | All Maps","name_short":"waw-1","host":"waw-1.pl.uncletopia.com","port":27015,"enabled":true,"region":"eu","cc":"pl","latitude":52.2297,"longitude":21.017532,"reserved":0,"last_update":"0001-01-01T00:00:00Z","name_a2s":"Uncletopia | Warsaw | 1 | All Maps","protocol":17,"map":"cp_process_final","folder":"tf","game":"Team Fortress","app_id":440,"player_count":0,"max_players":24,"Bots":0,"server_type":"Dedicated","server_os":"Linux","password":true,"vac":true,"version":"7723704","steam_id":85568392925397850,"keywords":["cp","nocrits","nodmgspread","uncletopia"],"game_id":440,"stv_port":27016,"stv_name":"Uncletopia | Warsaw | 1 | All Maps | STV","players":null},{"server_id":50,"name":"Uncletopia | Warsaw | 2 | All Maps","name_short":"waw-2","host":"waw-1.pl.uncletopia.com","port":27025,"enabled":true,"region":"eu","cc":"pl","latitude":52.2297,"longitude":21.017532,"reserved":0,"last_update":"0001-01-01T00:00:00Z","name_a2s":"Uncletopia | Warsaw | 2 | All Maps","protocol":17,"map":"pl_frontier_final","folder":"tf","game":"Team Fortress","app_id":440,"player_count":2,"max_players":24,"Bots":0,"server_type":"Dedicated","server_os":"Linux","password":true,"vac":true,"version":"7723704","steam_id":85568392925397851,"keywords":["nocrits","nodmgspread","payload","uncletopia"],"game_id":440,"stv_port":27026,"stv_name":"Uncletopia | Warsaw | 2 | All Maps | STV","players":[{"user_id":7,"name":"Companion cube","steam_id":76561199045758699,"connected_time":184000000000,"state":"active","ping":54},{"user_id":8,"name":"СуньхуйВМарка","steam_id":76561199073248641,"connected_time":134000000000,"state":"active","ping":61}]},{"server_id":51,"name":"Uncletopia | Warsaw | 3 | All Maps","name_short":"waw-3","host":"waw-1.pl.uncletopia.com","port":27035,"enabled":true,"region":"eu","cc":"pl","latitude":52.2297,"longitude":21.017532,"reserved":0,"last_update":"0001-01-01T00:00:00Z","name_a2s":"Uncletopia | Warsaw | 3 | All Maps","protocol":17,"map":"koth_lakeside_final","folder":"tf","game":"Team Fortress","app_id":440,"player_count":0,"max_players":24,"Bots":0,"server_type":"Dedicated","server_os":"Linux","password":true,"vac":true,"version":"7723704","steam_id":85568392925397852,"keywords":["cp","nocrits","nodmgspread","uncletopia"],"game_id":440,"stv_port":27036,"stv_name":"Uncletopia | Warsaw | 3 | All Maps | STV","players":null},{"server_id":52,"name":"Uncletopia | Warsaw | 4 | All Maps","name_short":"waw-4","host":"waw-1.pl.uncletopia.com","port":27045,"enabled":true,"region":"eu","cc":"pl","latitude":52.2297,"longitude":21.017532,"reserved":0,"last_update":"0001-01-01T00:00:00Z","name_a2s":"Uncletopia | Warsaw | 4 | All Maps","protocol":17,"map":"pl_frontier_final","folder":"tf","game":"Team Fortress","app_id":440,"player_count":0,"max_players":24,"Bots":0,"server_type":"Dedicated","server_os":"Linux","password":true,"vac":true,"version":"7723704","steam_id":85568392925397853,"keywords":["nocrits","nodmgspread","payload","uncletopia"],"game_id":440,"stv_port":27046,"stv_name":"Uncletopia | Warsaw | 4 | All Maps | STV","players":null},{"server_id":53,"name":"Uncletopia | Warsaw | 5 | No Payload","name_short":"waw-5","host":"waw-1.pl.uncletopia.com","port":27055,"enabled":true,"region":"eu","cc":"pl","latitude":52.2297,"longitude":21.017532,"reserved":0,"last_update":"0001-01-01T00:00:00Z","name_a2s":"Uncletopia | Warsaw | 5 | No Payload","protocol":17,"map":"koth_highpass","folder":"tf","game":"Team Fortress","app_id":440,"player_count":0,"max_players":24,"Bots":0,"server_type":"Dedicated","server_os":"Linux","password":true,"vac":true,"version":"7723704","steam_id":85568392925397854,"keywords":["cp","nocrits","nodmgspread","uncletopia"],"game_id":440,"stv_port":27056,"stv_name":"Uncletopia | Warsaw | 5 | No Payload | STV","players":null},{"server_id":54,"name":"Uncletopia | Warsaw | 6 | Community","name_short":"waw-6","host":"waw-1.pl.uncletopia.com","port":27065,"enabled":true,"region":"eu","cc":"pl","latitude":52.2297,"longitude":21.017532,"reserved":0,"last_update":"0001-01-01T00:00:00Z","name_a2s":"Uncletopia | Warsaw | 6 | Community","protocol":17,"map":"workshop/rd_asteroid_redux_rc9.ugc2154902912","folder":"tf","game":"Team Fortress","app_id":440,"player_count":2,"max_players":24,"Bots":0,"server_type":"Dedicated","server_os":"Linux","password":true,"vac":true,"version":"7723704","steam_id":85568392925397856,"keywords":["beta","nocrits","nodmgspread","rd","uncletopia"],"game_id":440,"stv_port":27066,"stv_name":"Uncletopia | Warsaw | 6 | Community | STV","players":[{"user_id":12,"name":"Dave Hamburger","steam_id":76561199229416475,"connected_time":5120000000000,"state":"active","ping":83},{"user_id":16,"name":"big rat in ur toitlet haha","steam_id":76561198242095536,"connected_time":4819000000000,"state":"active","ping":82}]}]}