{"status":true,"message":"","result":[{"server_id":9,"name":"Uncletopia | Atlanta | 1 | All Maps","name_short":"atl-1","host":"atl-1.us.uncletopia.com","port":27015,"enabled":true,"region":"us-east","cc":"us","latitude":33.753746,"longitude":-84.38633,"reserved":0,"last_update":"0001-01-01T00:00:00Z","name_a2s":"Uncletopia | Atlanta | 1 | All Maps","protocol":17,"map":"pl_snowycoast","folder":"tf","game":"Team Fortress","app_id":440,"player_count":24,"max_players":24,"Bots":0,"server_type":"Dedicated","server_os":"Linux","password":true,"vac":true,"version":"7723704","steam_id":85568392924469982,"keywords":["nocrits","nodmgspread","payload","uncletopia"],"game_id":440,"stv_port":27016,"stv_name":"Uncletopia | Atlanta | 1 | All Maps | STV","players":[{"user_id":735,"name":"Big Brolic","steam_id":76561198325549536,"connected_time":1584000000000,"state":"active","ping":61},{"user_id":744,"name":"Avid Femboy Enjoyer (Real)","steam_id":76561199230313370,"connected_time":124000000000,"state":"active","ping":64},{"user_id":707,"name":"Susman Gaming","steam_id":76561199043978951,"connected_time":2751000000000,"state":"active","ping":65},{"user_id":664,"name":"yuji","steam_id":76561198401572620,"connected_time":3464000000000,"state":"active","ping":75},{"user_id":665,"name":"Snoogs","steam_id":76561198444880931,"connected_time":3459000000000,"state":"active","ping":64},{"user_id":524,"name":"vid_","steam_id":76561198065159053,"connected_time":5199000000000,"state":"active","ping":46},{"user_id":745,"name":"Minion Bob","steam_id":76561198023938170,"connected_time":103000000000,"state":"active","ping":99},{"user_id":689,"name":"Sassafrazz","steam_id":76561198036032168,"connected_time":3104000000000,"state":"active","ping":64},{"user_id":743,"name":"Festive Fire Starting Rock","steam_id":76561198066547582,"connected_time":230000000000,"state":"active","ping":105},{"user_id":730,"name":"TheAilingSword","steam_id":76561198250350844,"connected_time":2397000000000,"state":"active","ping":73},{"user_id":641,"name":"q!k.glodfyeehs","steam_id":76561198086008437,"connected_time":3672000000000,"state":"active","ping":79},{"user_id":746,"name":"Spike Bones","steam_id":76561198234926120,"connected_time":41000000000,"state":"active","ping":83},{"user_id":740,"name":"snoops","steam_id":76561197986760351,"connected_time":1033000000000,"state":"active","ping":78},{"user_id":747,"name":"Tonybolonga","steam_id":76561198805618057,"connected_time":34000000000,"state":"active","ping":53},{"user_id":670,"name":"funny","steam_id":76561199070056917,"connected_time":3365000000000,"state":"active","ping":59},{"user_id":673,"name":"ATL1 | eish","steam_id":76561198089463603,"connected_time":3349000000000,"state":"active","ping":119},{"user_id":706,"name":"just call me joe","steam_id":76561198043911582,"connected_time":2775000000000,"state":"active","ping":71},{"user_id":734,"name":"Xbox Game Pass Ultimate","steam_id":76561198102182937,"connected_time":1893000000000,"state":"active","ping":51},{"user_id":748,"name":"namaste at home dad","steam_id":76561198056971063,"connected_time":9000000000,"state":"active","ping":89},{"user_id":732,"name":"M.L.JEW","steam_id":76561198997375055,"connected_time":2271000000000,"state":"active","ping":77},{"user_id":749,"name":"AloXii","steam_id":76561198182420874,"connected_time":4000000000,"state":"spawning","ping":60},{"user_id":668,"name":"schizo","steam_id":76561198016121536,"connected_time":3434000000000,"state":"active","ping":94},{"user_id":750,"name":"fleeting","steam_id":76561198246183704,"connected_time":2000000000,"state":"spawning","ping":72},{"user_id":742,"name":"Princessie Matifina","steam_id":76561198060498180,"connected_time":477000000000,"state":"active","ping":61}]},{"server_id":400,"name":"Uncletopia | Atlanta | 3 | Stopwatch Beta","name_short":"atl-3","host":"atl-1.us.uncletopia.com","port":27035,"enabled":true,"region":"us-east","cc":"us","latitude":33.753746,"longitude":-84.38633,"reserved":0,"last_update":"0001-01-01T00:00:00Z","name_a2s":"Uncletopia | Atlanta | 3 | Stopwatch Beta","protocol":17,"map":"koth_cascade","folder":"tf","game":"Team Fortress","app_id":440,"player_count":0,"max_players":24,"Bots":0,"server_type":"Dedicated","server_os":"Linux","password":true,"vac":true,"version":"7723704","steam_id":85568392924515187,"keywords":["cp","nocrits","nodmgspread","uncletopia"],"game_id":440,"stv_port":27036,"stv_name":"Uncletopia | Atlanta | 3 | Stopwatch Beta | STV","players":null},{"server_id":401,"name":"Uncletopia | Atlanta | 4 | No Payload","name_short":"atl-4","host":"atl-1.us.uncletopia.com","port":27045,"enabled":true,"region":"us-east","cc":"us","latitude":33.753746,"longitude":-84.38633,"reserved":0,"last_update":"0001-01-01T00:00:00Z","name_a2s":"Uncletopia | Atlanta | 4 | No Payload","protocol":17,"map":"cp_steel","folder":"tf","game":"Team Fortress","app_id":440,"player_count":7,"max_players":24,"Bots":0,"server_type":"Dedicated","server_os":"Linux","password":true,"vac":true,"version":"7723704","steam_id":85568392924515188,"keywords":["cp","nocrits","nodmgspread","uncletopia"],"game_id":440,"stv_port":27046,"stv_name":"Uncletopia | Atlanta | 4 | No Payload | STV","players":[{"user_id":168,"name":"Alyx","steam_id":76561198047212251,"connected_time":659000000000,"state":"active","ping":52},{"user_id":137,"name":"FHERCH","steam_id":76561198297986105,"connected_time":2436000000000,"state":"active","ping":138},{"user_id":165,"name":"ttv/Rocatex(halloween enjoyer)","steam_id":76561199095053897,"connected_time":939000000000,"state":"active","ping":49},{"user_id":146,"name":"Lepus","steam_id":76561199168150915,"connected_time":2047000000000,"state":"active","ping":91},{"user_id":121,"name":"male pattern baldness","steam_id":76561199241807676,"connected_time":3002000000000,"state":"active","ping":128},{"user_id":122,"name":"scout.tf2","steam_id":76561199262262606,"connected_time":2995000000000,"state":"active","ping":129},{"user_id":156,"name":"Notsocreative","steam_id":76561198236372202,"connected_time":1595000000000,"state":"active","ping":67}]},{"server_id":2,"name":"Uncletopia | Chicago | 1 | All Maps","name_short":"chi-1","host":"chi-1.us.uncletopia.com","port":27015,"enabled":true,"region":"us-central","cc":"us","latitude":41.881832,"longitude":-87.62318,"reserved":0,"last_update":"0001-01-01T00:00:00Z","name_a2s":"Uncletopia | Chicago | 1 | All Maps","protocol":17,"map":"pl_goldrush","folder":"tf","game":"Team Fortress","app_id":440,"player_count":23,"max_players":24,"Bots":0,"server_type":"Dedicated","server_os":"Linux","password":true,"vac":true,"version":"7723704","steam_id":85568392924469984,"keywords":["nocrits","nodmgspread","payload","uncletopia"],"game_id":440,"stv_port":27016,"stv_name":"Uncletopia | Chicago | 1 | All Maps | STV","players":[{"user_id":653,"name":"Tony Alamo","steam_id":76561198044414707,"connected_time":2398000000000,"state":"active","ping":70},{"user_id":676,"name":"Morbius","steam_id":76561198387984694,"connected_time":1011000000000,"state":"active","ping":76},{"user_id":686,"name":"Not Slavoj Žižek","steam_id":76561198004619616,"connected_time":320000000000,"state":"active","ping":112},{"user_id":671,"name":"Astro Knight","steam_id":76561198062767484,"connected_time":1373000000000,"state":"active","ping":79},{"user_id":684,"name":"Your Local NPR Station","steam_id":76561198143830279,"connected_time":659000000000,"state":"active","ping":63},{"user_id":680,"name":"Gamut","steam_id":76561199185822800,"connected_time":876000000000,"state":"active","ping":72},{"user_id":682,"name":"murderous deer","steam_id":76561198350832152,"connected_time":778000000000,"state":"active","ping":68},{"user_id":648,"name":"Bimba","steam_id":76561198006883248,"connected_time":3273000000000,"state":"active","ping":74},{"user_id":642,"name":"stop","steam_id":76561198268686419,"connected_time":3346000000000,"state":"active","ping":52},{"user_id":672,"name":"PYBRO","steam_id":76561198083222227,"connected_time":1360000000000,"state":"active","ping":92},{"user_id":673,"name":"Fudge_Cake","steam_id":76561198059218167,"connected_time":1358000000000,"state":"active","ping":63},{"user_id":688,"name":"mijalko","steam_id":76561198108885697,"connected_time":22000000000,"state":"spawning","ping":85},{"user_id":662,"name":"Dill","steam_id":76561197985091914,"connected_time":1877000000000,"state":"active","ping":63},{"user_id":566,"name":"RaddahRaddah","steam_id":76561198194462829,"connected_time":10489000000000,"state":"active","ping":57},{"user_id":658,"name":"Nuen","steam_id":76561198936096111,"connected_time":2328000000000,"state":"active","ping":53},{"user_id":647,"name":"Nevan Nedall","steam_id":76561198041026391,"connected_time":3277000000000,"state":"active","ping":60},{"user_id":548,"name":"Astoriæ!","steam_id":76561199090168858,"connected_time":12693000000000,"state":"active","ping":60},{"user_id":664,"name":"PKBEAST_7","steam_id":76561198177136537,"connected_time":1782000000000,"state":"active","ping":80},{"user_id":651,"name":"Ether","steam_id":76561198054806528,"connected_time":2792000000000,"state":"active","ping":60},{"user_id":480,"name":"Ras","steam_id":76561198123546775,"connected_time":19641000000000,"state":"active","ping":57},{"user_id":667,"name":"Alt","steam_id":76561197992591984,"connected_time":1707000000000,"state":"active","ping":61},{"user_id":663,"name":"Jimmy","steam_id":76561197970838363,"connected_time":1872000000000,"state":"active","ping":75},{"user_id":685,"name":"merty","steam_id":76561198067874268,"connected_time":415000000000,"state":"active","ping":65}]},{"server_id":106,"name":"Uncletopia | Chicago | 2 | All Maps","name_short":"chi-2","host":"chi-1.us.uncletopia.com","port":27025,"enabled":true,"region":"us-central","cc":"us","latitude":41.881832,"longitude":-87.62318,"reserved":0,"last_update":"0001-01-01T00:00:00Z","name_a2s":"Uncletopia | Chicago | 2 | All Maps","protocol":17,"map":"pl_frontier_final","folder":"tf","game":"Team Fortress","app_id":440,"player_count":18,"max_players":24,"Bots":0,"server_type":"Dedicated","server_os":"Linux","password":true,"vac":true,"version":"7723704","steam_id":85568392924469985,"keywords":["nocrits","nodmgspread","payload","uncletopia"],"game_id":440,"stv_port":27026,"stv_name":"Uncletopia | Chicago | 2 | All Maps | STV","players":[{"user_id":672,"name":"Fermenting Kiwi","steam_id":76561198253303497,"connected_time":2198000000000,"state":"active","ping":74},{"user_id":673,"name":"Okay","steam_id":76561198075479649,"connected_time":2194000000000,"state":"active","ping":93},{"user_id":674,"name":"Raccoon.Of.Waffle.House","steam_id":76561199018770554,"connected_time":2187000000000,"state":"active","ping":87},{"user_id":600,"name":"Jeromius","steam_id":76561198051865275,"connected_time":7521000000000,"state":"active","ping":67},{"user_id":695,"name":"PenutButterPirate","steam_id":76561198252962312,"connected_time":225000000000,"state":"active","ping":73},{"user_id":696,"name":"TheHarmacist","steam_id":76561198068249096,"connected_time":222000000000,"state":"active","ping":52},{"user_id":697,"name":"greenboy135","steam_id":76561198057146944,"connected_time":118000000000,"state":"active","ping":64},{"user_id":698,"name":"I Sell PCP to 6th Graders","steam_id":76561198202195792,"connected_time":36000000000,"state":"active","ping":71},{"user_id":699,"name":"Goku","steam_id":76561198064143198,"connected_time":6000000000,"state":"spawning","ping":48},{"user_id":671,"name":"Ace Chromatica","steam_id":76561198042211131,"connected_time":2254000000000,"state":"active","ping":51},{"user_id":517,"name":"C papi","steam_id":76561198027779564,"connected_time":15679000000000,"state":"active","ping":58},{"user_id":617,"name":"Jeremy","steam_id":76561198286240347,"connected_time":6453000000000,"state":"active","ping":53},{"user_id":661,"name":"Judge Dad","steam_id":76561198071473697,"connected_time":3288000000000,"state":"active","ping":66},{"user_id":686,"name":"tokemaster69","steam_id":76561198083996924,"connected_time":1095000000000,"state":"active","ping":66},{"user_id":483,"name":"daemon","steam_id":76561198001541433,"connected_time":17977000000000,"state":"active","ping":59},{"user_id":682,"name":"Vladikr1","steam_id":76561198401495362,"connected_time":1777000000000,"state":"active","ping":51},{"user_id":687,"name":"Dahrealjerry","steam_id":76561199114254890,"connected_time":1046000000000,"state":"active","ping":110},{"user_id":680,"name":"Monkey","steam_id":76561198031015186,"connected_time":2085000000000,"state":"active","ping":69}]},{"server_id":402,"name":"Uncletopia | Chicago | 3 | All Maps","name_short":"chi-3","host":"chi-1.us.uncletopia.com","port":27035,"enabled":true,"region":"us-central","cc":"us","latitude":41.881832,"longitude":-87.62318,"reserved":0,"last_update":"0001-01-01T00:00:00Z","name_a2s":"Uncletopia | Chicago | 3 | All Maps","protocol":17,"map":"pl_badwater","folder":"tf","game":"Team Fortress","app_id":440,"player_count":20,"max_players":24,"Bots":0,"server_type":"Dedicated","server_os":"Linux","password":true,"vac":true,"version":"7723704","steam_id":85568392924515191,"keywords":["nocrits","nodmgspread","payload","uncletopia"],"game_id":440,"stv_port":27036,"stv_name":"Uncletopia | Chicago | 3 | All Maps | STV","players":[{"user_id":558,"name":"OrionKid","steam_id":76561198359094901,"connected_time":970000000000,"state":"active","ping":73},{"user_id":569,"name":"Estiar","steam_id":76561198171952766,"connected_time":99000000000,"state":"active","ping":61},{"user_id":570,"name":"man","steam_id":76561199365643094,"connected_time":65000000000,"state":"active","ping":85},{"user_id":563,"name":"lil extra chip action","steam_id":76561198099463706,"connected_time":783000000000,"state":"active","ping":61},{"user_id":564,"name":"majorbobfunction","steam_id":76561198042464632,"connected_time":765000000000,"state":"active","ping":47},{"user_id":527,"name":"Hou Tou Gu","steam_id":76561198041196591,"connected_time":3049000000000,"state":"active","ping":63},{"user_id":568,"name":"whywhy","steam_id":76561198137451523,"connected_time":184000000000,"state":"active","ping":54},{"user_id":543,"name":"Bread","steam_id":76561198271908413,"connected_time":2453000000000,"state":"active","ping":46},{"user_id":555,"name":"TheRealXenogen","steam_id":76561199047053780,"connected_time":1148000000000,"state":"active","ping":90},{"user_id":559,"name":"Eshie","steam_id":76561197983106498,"connected_time":960000000000,"state":"active","ping":68},{"user_id":565,"name":"serynsa","steam_id":76561198066987189,"connected_time":757000000000,"state":"active","ping":49},{"user_id":512,"name":"timestew","steam_id":76561198367583372,"connected_time":4901000000000,"state":"active","ping":75},{"user_id":530,"name":"howtobepker","steam_id":76561198115053865,"connected_time":2956000000000,"state":"active","ping":79},{"user_id":544,"name":"Sh3ba Spaniel","steam_id":76561198047412394,"connected_time":2450000000000,"state":"active","ping":47},{"user_id":560,"name":"鬼神 Kill Em All 1989","steam_id":76561199120301367,"connected_time":947000000000,"state":"active","ping":129},{"user_id":561,"name":"pie gaming","steam_id":76561198072592880,"connected_time":863000000000,"state":"active","ping":38},{"user_id":553,"name":"dog-shaped dog","steam_id":76561198286166220,"connected_time":1453000000000,"state":"active","ping":64},{"user_id":554,"name":"mmph","steam_id":76561198204213057,"connected_time":1256000000000,"state":"active","ping":63},{"user_id":262,"name":"{[F.H]} Hydroida","steam_id":76561197999797274,"connected_time":24278000000000,"state":"active","ping":53},{"user_id":540,"name":"¿skitt1eS?","steam_id":76561198330093211,"connected_time":2590000000000,"state":"active","ping":60}]},{"server_id":403,"name":"Uncletopia | Chicago | 4 | All Maps","name_short":"chi-4","host":"chi-1.us.uncletopia.com","port":27045,"enabled":true,"region":"us-central","cc":"us","latitude":41.881832,"longitude":-87.62318,"reserved":0,"last_update":"0001-01-01T00:00:00Z","name_a2s":"Uncletopia | Chicago | 4 | All Maps","protocol":17,"map":"pl_badwater","folder":"tf","game":"Team Fortress","app_id":440,"player_count":24,"max_players":24,"Bots":0,"server_type":"Dedicated","server_os":"Linux","password":true,"vac":true,"version":"7723704","steam_id":85568392924515193,"keywords":["nocrits","nodmgspread","payload","uncletopia"],"game_id":440,"stv_port":27046,"stv_name":"Uncletopia | Chicago | 4 | All Maps | STV","players":[{"user_id":603,"name":"Dullahan","steam_id":76561198119668908,"connected_time":1487000000000,"state":"active","ping":97},{"user_id":597,"name":"LalitoTV","steam_id":76561198334302951,"connected_time":2284000000000,"state":"active","ping":139},{"user_id":613,"name":"hfs","steam_id":76561198153020266,"connected_time":1218000000000,"state":"active","ping":73},{"user_id":604,"name":"Steve Jobs' cousin Hand Jobs","steam_id":76561198282766831,"connected_time":1468000000000,"state":"active","ping":48},{"user_id":564,"name":"Twigsmack","steam_id":76561197991402159,"connected_time":3937000000000,"state":"active","ping":105},{"user_id":548,"name":"Mina's Ninas","steam_id":76561198046502179,"connected_time":4480000000000,"state":"active","ping":94},{"user_id":617,"name":"ClericsRose","steam_id":76561198011013806,"connected_time":690000000000,"state":"active","ping":78},{"user_id":616,"name":"pathulhu","steam_id":76561198323941614,"connected_time":762000000000,"state":"active","ping":68},{"user_id":624,"name":"Candy Sparkles","steam_id":76561198126871264,"connected_time":251000000000,"state":"active","ping":79},{"user_id":620,"name":"Lumpy","steam_id":76561198058840585,"connected_time":440000000000,"state":"active","ping":74},{"user_id":619,"name":"DS8U","steam_id":76561198151554321,"connected_time":500000000000,"state":"active","ping":57},{"user_id":573,"name":"lanoc","steam_id":76561198055415367,"connected_time":3664000000000,"state":"active","ping":59},{"user_id":621,"name":"alfredodan","steam_id":76561198025011044,"connected_time":425000000000,"state":"active","ping":76},{"user_id":565,"name":"phil mias","steam_id":76561198000564263,"connected_time":3930000000000,"state":"active","ping":73},{"user_id":601,"name":"yomommasabitch","steam_id":76561198323217150,"connected_time":1784000000000,"state":"active","ping":70},{"user_id":607,"name":"GreenApples","steam_id":76561198120559543,"connected_time":1455000000000,"state":"active","ping":101},{"user_id":615,"name":"KOTH_SHE/HERVEST","steam_id":76561198029274581,"connected_time":944000000000,"state":"active","ping":70},{"user_id":566,"name":"java","steam_id":76561198030276792,"connected_time":3926000000000,"state":"active","ping":68},{"user_id":622,"name":"Scarabaeidae","steam_id":76561198016063339,"connected_time":394000000000,"state":"active","ping":59},{"user_id":600,"name":"Glass Joe","steam_id":76561198317365741,"connected_time":2022000000000,"state":"active","ping":63},{"user_id":625,"name":"CPUnit","steam_id":76561198162881878,"connected_time":208000000000,"state":"active","ping":71},{"user_id":623,"name":"hashmap","steam_id":76561198043794014,"connected_time":342000000000,"state":"active","ping":56},{"user_id":627,"name":"veryscaryguy666","steam_id":76561198041052514,"connected_time":106000000000,"state":"active","ping":86},{"user_id":583,"name":"AlecTheNefarious","steam_id":76561198035291230,"connected_time":3142000000000,"state":"active","ping":60}]},{"server_id":36,"name":"Uncletopia | Chicago | 5 | All Maps","name_short":"chi-5","host":"chi-2.us.uncletopia.com","port":27015,"enabled":true,"region":"us-central","cc":"us","latitude":41.881832,"longitude":-87.62318,"reserved":0,"last_update":"0001-01-01T00:00:00Z","name_a2s":"Uncletopia | Chicago | 5 | All Maps","protocol":17,"map":"koth_cascade","folder":"tf","game":"Team Fortress","app_id":440,"player_count":0,"max_players":24,"Bots":0,"server_type":"Dedicated","server_os":"Linux","password":true,"vac":true,"version":"7723704","steam_id":85568392924866362,"keywords":["cp","nocrits","nodmgspread","uncletopia"],"game_id":440,"stv_port":27016,"stv_name":"Uncletopia | Chicago | 5 | All Maps | STV","players":null},{"server_id":37,"name":"Uncletopia | Chicago | 6 | All Maps","name_short":"chi-6","host":"chi-2.us.uncletopia.com","port":27025,"enabled":true,"region":"us-central","cc":"us","latitude":41.881832,"longitude":-87.62318,"reserved":0,"last_update":"0001-01-01T00:00:00Z","name_a2s":"Uncletopia | Chicago | 6 | All Maps","protocol":17,"map":"pl_borneo","folder":"tf","game":"Team Fortress","app_id":440,"player_count":24,"max_players":24,"Bots":0,"server_type":"Dedicated","server_os":"Linux","password":true,"vac":true,"version":"7723704","steam_id":85568392924866363,"keywords":["nocrits","nodmgspread","payload","uncletopia"],"game_id":440,"stv_port":27026,"stv_name":"Uncletopia | Chicago | 6 | All Maps | STV","players":[{"user_id":122,"name":"Oifey","steam_id":76561198073474038,"connected_time":3072000000000,"state":"active","ping":47},{"user_id":152,"name":"Strange Child","steam_id":76561198082523009,"connected_time":757000000000,"state":"active","ping":61},{"user_id":130,"name":"Marcy2231","steam_id":76561198202323656,"connected_time":2782000000000,"state":"active","ping":61},{"user_id":106,"name":"Wwaz","steam_id":76561198000240092,"connected_time":4149000000000,"state":"active","ping":49},{"user_id":90,"name":"kennyohmalta","steam_id":76561198133239370,"connected_time":5894000000000,"state":"active","ping":53},{"user_id":143,"name":"Your Local Jester","steam_id":76561199120223717,"connected_time":1747000000000,"state":"active","ping":66},{"user_id":158,"name":"Len","steam_id":76561199141913673,"connected_time":483000000000,"state":"active","ping":79},{"user_id":137,"name":"BrotherGrowly","steam_id":76561198086663043,"connected_time":2405000000000,"state":"active","ping":85},{"user_id":92,"name":"Webi Wabo","steam_id":76561198799224408,"connected_time":5881000000000,"state":"active","ping":53},{"user_id":153,"name":"Psychosis","steam_id":76561198078659070,"connected_time":747000000000,"state":"active","ping":67},{"user_id":151,"name":"Lars","steam_id":76561198030614257,"connected_time":774000000000,"state":"active","ping":42},{"user_id":150,"name":"hunterbunney (queer)","steam_id":76561198070672899,"connected_time":1101000000000,"state":"active","ping":84},{"user_id":155,"name":"Room","steam_id":76561199174579733,"connected_time":686000000000,"state":"active","ping":86},{"user_id":149,"name":"Smüsh","steam_id":76561198117801857,"connected_time":1331000000000,"state":"active","ping":80},{"user_id":148,"name":"NoShen","steam_id":76561198147434663,"connected_time":1493000000000,"state":"active","ping":74},{"user_id":159,"name":"Taco","steam_id":76561198158621392,"connected_time":241000000000,"state":"active","ping":60},{"user_id":160,"name":"invb","steam_id":76561197998263914,"connected_time":137000000000,"state":"active","ping":56},{"user_id":69,"name":"Stressmelo","steam_id":76561199204445185,"connected_time":7491000000000,"state":"active","ping":69},{"user_id":111,"name":"Professor Peppermint","steam_id":76561198184017082,"connected_time":3841000000000,"state":"active","ping":51},{"user_id":109,"name":"soggymonki236","steam_id":76561198046953937,"connected_time":3998000000000,"state":"active","ping":108},{"user_id":110,"name":"gonurlight","steam_id":76561198935839416,"connected_time":3996000000000,"state":"active","ping":93},{"user_id":161,"name":"Bakenbacon","steam_id":76561198165315411,"connected_time":108000000000,"state":"active","ping":63},{"user_id":119,"name":"a mcflurry of blows to the head","steam_id":76561198107343544,"connected_time":3344000000000,"state":"active","ping":85},{"user_id":121,"name":"IcyGlaciers (She/They)","steam_id":76561198087843846,"connected_time":3249000000000,"state":"active","ping":102}]},{"server_id":38,"name":"Uncletopia | Chicago | 7 | Stopwatch Beta","name_short":"chi-7","host":"chi-2.us.uncletopia.com","port":27035,"enabled":true,"region":"us-central","cc":"us","latitude":41.881832,"longitude":-87.62318,"reserved":0,"last_update":"0001-01-01T00:00:00Z","name_a2s":"Uncletopia | Chicago | 7 | Stopwatch Beta","protocol":17,"map":"pl_upward","folder":"tf","game":"Team Fortress","app_id":440,"player_count":0,"max_players":24,"Bots":0,"server_type":"Dedicated","server_os":"Linux","password":true,"vac":true,"version":"7723704","steam_id":85568392924866364,"keywords":["nocrits","nodmgspread","payload","uncletopia"],"game_id":440,"stv_port":27036,"stv_name":"Uncletopia | Chicago | 7 | Stopwatch Beta | STV","players":null},{"server_id":39,"name":"Uncletopia | Chicago | 8 | Community","name_short":"chi-8","host":"chi-2.us.uncletopia.com","port":27045,"enabled":true,"region":"us-central","cc":"us","latitude":41.881832,"longitude":-87.62318,"reserved":0,"last_update":"0001-01-01T00:00:00Z","name_a2s":"Uncletopia | Chicago | 8 | Community","protocol":17,"map":"workshop/pl_fifthcurve_rc1.ugc648227046","folder":"tf","game":"Team Fortress","app_id":440,"player_count":24,"max_players":24,"Bots":0,"server_type":"Dedicated","server_os":"Linux","password":true,"vac":true,"version":"7723704","steam_id":85568392924866365,"keywords":["nocrits","nodmgspread","payload","uncletopia"],"game_id":440,"stv_port":27046,"stv_name":"Uncletopia | Chicago | 8 | Community | STV","players":[{"user_id":390,"name":"Ricedot","steam_id":76561199053075527,"connected_time":535000000000,"state":"active","ping":103},{"user_id":382,"name":"BigEarl","steam_id":76561199067183975,"connected_time":1494000000000,"state":"active","ping":109},{"user_id":379,"name":"Jousty","steam_id":76561199162677853,"connected_time":1665000000000,"state":"active","ping":120},{"user_id":337,"name":"Rabbitone","steam_id":76561198132691749,"connected_time":4797000000000,"state":"active","ping":92},{"user_id":367,"name":"Lifial","steam_id":76561198271885819,"connected_time":3598000000000,"state":"active","ping":75},{"user_id":393,"name":"Waluigi503","steam_id":76561198998007496,"connected_time":235000000000,"state":"active","ping":90},{"user_id":360,"name":"dirty crab","steam_id":76561198142472788,"connected_time":4242000000000,"state":"active","ping":80},{"user_id":339,"name":"E4Estrogen","steam_id":76561198085813708,"connected_time":4780000000000,"state":"active","ping":64},{"user_id":383,"name":"sickitslaw","steam_id":76561199110517747,"connected_time":1477000000000,"state":"active","ping":130},{"user_id":373,"name":"Angry Snowball","steam_id":76561198085888959,"connected_time":3209000000000,"state":"active","ping":56},{"user_id":362,"name":"A used self heating flesh-light","steam_id":76561198069918221,"connected_time":4140000000000,"state":"active","ping":73},{"user_id":381,"name":"gretchling","steam_id":76561198046111695,"connected_time":1527000000000,"state":"active","ping":61},{"user_id":341,"name":"Koishi","steam_id":76561198054541054,"connected_time":4772000000000,"state":"active","ping":60},{"user_id":186,"name":"Killroy NQP ❤","steam_id":76561198006983771,"connected_time":13118000000000,"state":"active","ping":77},{"user_id":394,"name":"Breaking Bad Reference","steam_id":76561198318100254,"connected_time":138000000000,"state":"active","ping":63},{"user_id":342,"name":"Doug Dimmadamndimmadimmadougdim","steam_id":76561198136169355,"connected_time":4761000000000,"state":"active","ping":53},{"user_id":384,"name":"Salt Shaman","steam_id":76561198015374828,"connected_time":1467000000000,"state":"active","ping":63},{"user_id":391,"name":"V","steam_id":76561198313364985,"connected_time":519000000000,"state":"active","ping":74},{"user_id":385,"name":"Non-Union Mexican Equivalent","steam_id":76561198013399809,"connected_time":1407000000000,"state":"active","ping":84},{"user_id":395,"name":"Magnet Dood","steam_id":76561198364178746,"connected_time":86000000000,"state":"active","ping":59},{"user_id":388,"name":"Virus858","steam_id":76561199156084410,"connected_time":773000000000,"state":"active","ping":68},{"user_id":387,"name":"Goofball","steam_id":76561198061211537,"connected_time":1252000000000,"state":"active","ping":60},{"user_id":372,"name":"kilroy_39","steam_id":76561198205173325,"connected_time":3316000000000,"state":"active","ping":90},{"user_id":389,"name":"SHADOW (he/him)","steam_id":76561198207768148,"connected_time":759000000000,"state":"active","ping":110}]},{"server_id":8,"name":"Uncletopia | Dallas | 1 | All Maps","name_short":"dal-1","host":"dal-1.us.uncletopia.com","port":27015,"enabled":true,"region":"us-central","cc":"us","latitude":32.779167,"longitude":-96.80889,"reserved":0,"last_update":"0001-01-01T00:00:00Z","name_a2s":"Uncletopia | Dallas | 1 | All Maps","protocol":17,"map":"cp_snakewater_final1","folder":"tf","game":"Team Fortress","app_id":440,"player_count":24,"max_players":24,"Bots":0,"server_type":"Dedicated","server_os":"Linux","password":true,"vac":true,"version":"7723704","steam_id":85568392924469986,"keywords":["cp","nocrits","nodmgspread","uncletopia"],"game_id":440,"stv_port":27016,"stv_name":"Uncletopia | Dallas | 1 | All Maps | STV","players":[{"user_id":692,"name":"GLG MUTT","steam_id":76561198147785541,"connected_time":1212000000000,"state":"active","ping":50},{"user_id":668,"name":"iluvtoust","steam_id":76561198869269207,"connected_time":3659000000000,"state":"active","ping":53},{"user_id":690,"name":"Skeleton incognito","steam_id":76561198091125226,"connected_time":1685000000000,"state":"active","ping":88},{"user_id":693,"name":"snideink287","steam_id":76561198166055131,"connected_time":1205000000000,"state":"active","ping":74},{"user_id":689,"name":"Guwahavel","steam_id":76561198246181902,"connected_time":1747000000000,"state":"active","ping":55},{"user_id":691,"name":"lost in spaaaaace","steam_id":76561199085974120,"connected_time":1343000000000,"state":"active","ping":80},{"user_id":647,"name":"Dr. Ludwig","steam_id":76561198110246392,"connected_time":4614000000000,"state":"active","ping":55},{"user_id":694,"name":"Moonadoo","steam_id":76561198133377546,"connected_time":1181000000000,"state":"active","ping":76},{"user_id":659,"name":"Ryo31337","steam_id":76561198063083553,"connected_time":4292000000000,"state":"active","ping":60},{"user_id":713,"name":"Yengozi","steam_id":76561198448764748,"connected_time":181000000000,"state":"active","ping":75},{"user_id":711,"name":"trash beast","steam_id":76561198015792736,"connected_time":535000000000,"state":"active","ping":79},{"user_id":709,"name":"Trentonion","steam_id":76561198195065762,"connected_time":594000000000,"state":"active","ping":77},{"user_id":714,"name":"Jolly NBowl","steam_id":76561198183947893,"connected_time":142000000000,"state":"active","ping":60},{"user_id":684,"name":"DrBenjas","steam_id":76561198345883103,"connected_time":2729000000000,"state":"active","ping":66},{"user_id":699,"name":"Ludidas","steam_id":76561198156272124,"connected_time":1126000000000,"state":"active","ping":75},{"user_id":700,"name":"Clint Conley","steam_id":76561198241754270,"connected_time":1106000000000,"state":"active","ping":77},{"user_id":701,"name":"valtiel","steam_id":76561198165212575,"connected_time":1069000000000,"state":"active","ping":78},{"user_id":710,"name":"totally not a pile of beans","steam_id":76561198119851931,"connected_time":573000000000,"state":"active","ping":92},{"user_id":677,"name":"RedheadRed","steam_id":76561198110361411,"connected_time":3203000000000,"state":"active","ping":71},{"user_id":704,"name":"Sleeping_Penguin❤","steam_id":76561198424771117,"connected_time":804000000000,"state":"active","ping":83},{"user_id":678,"name":"Reyloko","steam_id":76561198172480913,"connected_time":3202000000000,"state":"active","ping":73},{"user_id":687,"name":"Nightfall","steam_id":76561198169718867,"connected_time":2090000000000,"state":"active","ping":114},{"user_id":705,"name":"Robyn Goodfellowe","steam_id":76561198074719241,"connected_time":745000000000,"state":"active","ping":88},{"user_id":706,"name":"Smiley","steam_id":76561198836523202,"connected_time":730000000000,"state":"active","ping":47}]},{"server_id":108,"name":"Uncletopia | Dallas | 2 | All Maps","name_short":"dal-2","host":"dal-1.us.uncletopia.com","port":27025,"enabled":true,"region":"us-central","cc":"us","latitude":32.779167,"longitude":-96.80889,"reserved":0,"last_update":"0001-01-01T00:00:00Z","name_a2s":"Uncletopia | Dallas | 2 | All Maps","protocol":17,"map":"pl_barnblitz","folder":"tf","game":"Team Fortress","app_id":440,"player_count":24,"max_players":24,"Bots":0,"server_type":"Dedicated","server_os":"Linux","password":true,"vac":true,"version":"7723704","steam_id":85568392924469988,"keywords":["nocrits","nodmgspread","payload","uncletopia"],"game_id":440,"stv_port":27026,"stv_name":"Uncletopia | Dallas | 2 | All Maps | STV","players":[{"user_id":375,"name":"McNamJam","steam_id":76561198028128686,"connected_time":2815000000000,"state":"active","ping":90},{"user_id":381,"name":"Bluebird","steam_id":76561199143106401,"connected_time":2529000000000,"state":"active","ping":81},{"user_id":411,"name":"Blargian Snagglebeast","steam_id":76561198115831507,"connected_time":560000000000,"state":"active","ping":81},{"user_id":324,"name":"parsee","steam_id":76561198095139889,"connected_time":6802000000000,"state":"active","ping":89},{"user_id":385,"name":"nipplefisher","steam_id":76561199398064035,"connected_time":2315000000000,"state":"active","ping":82},{"user_id":414,"name":"「Saint」","steam_id":76561198241943070,"connected_time":345000000000,"state":"active","ping":91},{"user_id":327,"name":"NEGUSSS","steam_id":76561198303869203,"connected_time":6731000000000,"state":"active","ping":96},{"user_id":405,"name":"Junfez","steam_id":76561198340001889,"connected_time":753000000000,"state":"active","ping":72},{"user_id":328,"name":"SE X","steam_id":76561198094525829,"connected_time":6729000000000,"state":"active","ping":92},{"user_id":337,"name":"Dihsar","steam_id":76561198065169821,"connected_time":5310000000000,"state":"active","ping":88},{"user_id":376,"name":"r0ck","steam_id":76561198141716764,"connected_time":2758000000000,"state":"active","ping":98},{"user_id":355,"name":"big guapo","steam_id":76561198103228695,"connected_time":3918000000000,"state":"active","ping":85},{"user_id":412,"name":"StroopDoop","steam_id":76561198045654000,"connected_time":466000000000,"state":"active","ping":129},{"user_id":415,"name":"Heida","steam_id":76561198298468550,"connected_time":208000000000,"state":"active","ping":117},{"user_id":388,"name":"SlimPorkchops","steam_id":76561198958586069,"connected_time":2103000000000,"state":"active","ping":44},{"user_id":406,"name":"rob49","steam_id":76561198223567444,"connected_time":747000000000,"state":"active","ping":54},{"user_id":409,"name":"Gob From My Singing Monsters","steam_id":76561198272471440,"connected_time":674000000000,"state":"active","ping":65},{"user_id":371,"name":"potato pat lft(?)","steam_id":76561198025489194,"connected_time":3010000000000,"state":"active","ping":60},{"user_id":357,"name":"Lingus Loopus","steam_id":76561198041426868,"connected_time":3718000000000,"state":"active","ping":50},{"user_id":275,"name":"The Ultimate Coomer","steam_id":76561199128833757,"connected_time":9888000000000,"state":"active","ping":48},{"user_id":399,"name":"Jarryl97","steam_id":76561198055451373,"connected_time":1213000000000,"state":"active","ping":62},{"user_id":410,"name":"Joji - Tick Tock","steam_id":76561198418414338,"connected_time":664000000000,"state":"active","ping":58},{"user_id":359,"name":"Sugercrash","steam_id":76561199187685119,"connected_time":3658000000000,"state":"active","ping":73},{"user_id":400,"name":"Professor Sex","steam_id":76561198396414319,"connected_time":1210000000000,"state":"active","ping":83}]},{"server_id":5,"name":"Uncletopia | Frankfurt | 1 | All Maps","name_short":"frk-1","host":"frk-1.de.uncletopia.com","port":27015,"enabled":true,"region":"eu","cc":"de","latitude":50.110924,"longitude":8.682127,"reserved":0,"last_update":"0001-01-01T00:00:00Z","name_a2s":"Uncletopia | Frankfurt | 1 | All Maps","protocol":17,"map":"koth_highpass","folder":"tf","game":"Team Fortress","app_id":440,"player_count":0,"max_players":24,"Bots":0,"server_type":"Dedicated","server_os":"Linux","password":true,"vac":true,"version":"7723704","steam_id":85568392924469989,"keywords":["cp","nocrits","nodmgspread","uncletopia"],"game_id":440,"stv_port":27016,"stv_name":"Uncletopia | Frankfurt | 1 | All Maps | STV","players":null},{"server_id":110,"name":"Uncletopia | Frankfurt | 2 | All Maps","name_short":"frk-2","host":"frk-1.de.uncletopia.com","port":27025,"enabled":true,"region":"eu","cc":"de","latitude":50.110924,"longitude":8.682127,"reserved":0,"last_update":"0001-01-01T00:00:00Z","name_a2s":"Uncletopia | Frankfurt | 2 | All Maps","protocol":17,"map":"cp_snakewater_final1","folder":"tf","game":"Team Fortress","app_id":440,"player_count":0,"max_players":24,"Bots":0,"server_type":"Dedicated","server_os":"Linux","password":true,"vac":true,"version":"7723704","steam_id":85568392924469990,"keywords":["cp","nocrits","nodmgspread","uncletopia"],"game_id":440,"stv_port":27026,"stv_name":"Uncletopia | Frankfurt | 2 | All Maps | STV","players":null},{"server_id":308,"name":"Uncletopia | Frankfurt | 3 | All Maps","name_short":"frk-3","host":"frk-1.de.uncletopia.com","port":27035,"enabled":true,"region":"eu","cc":"de","latitude":50.110924,"longitude":8.682127,"reserved":0,"last_update":"0001-01-01T00:00:00Z","name_a2s":"Uncletopia | Frankfurt | 3 | All Maps","protocol":17,"map":"pl_barnblitz","folder":"tf","game":"Team Fortress","app_id":440,"player_count":0,"max_players":24,"Bots":0,"server_type":"Dedicated","server_os":"Linux","password":true,"vac":true,"version":"7723704","steam_id":85568392924504274,"keywords":["nocrits","nodmgspread","payload","uncletopia"],"game_id":440,"stv_port":27036,"stv_name":"Uncletopia | Frankfurt | 3 | All Maps | STV","players":null},{"server_id":309,"name":"Uncletopia | Frankfurt | 4 | All Maps","name_short":"frk-4","host":"frk-1.de.uncletopia.com","port":27045,"enabled":true,"region":"eu","cc":"de","latitude":50.110924,"longitude":8.682127,"reserved":0,"last_update":"0001-01-01T00:00:00Z","name_a2s":"Uncletopia | Frankfurt | 4 | All Maps","protocol":17,"map":"pl_snowycoast","folder":"tf","game":"Team Fortress","app_id":440,"player_count":0,"max_players":24,"Bots":0,"server_type":"Dedicated","server_os":"Linux","password":true,"vac":true,"version":"7723704","steam_id":85568392924504275,"keywords":["nocrits","nodmgspread","payload","uncletopia"],"game_id":440,"stv_port":27046,"stv_name":"Uncletopia | Frankfurt | 4 | All Maps | STV","players":null},{"server_id":310,"name":"Uncletopia | Frankfurt | 5 | All Maps","name_short":"frk-5","host":"frk-1.de.uncletopia.com","port":27055,"enabled":true,"region":"eu","cc":"de","latitude":50.110924,"longitude":8.682127,"reserved":0,"last_update":"0001-01-01T00:00:00Z","name_a2s":"Uncletopia | Frankfurt | 5 | All Maps","protocol":17,"map":"pl_barnblitz","folder":"tf","game":"Team Fortress","app_id":440,"player_count":0,"max_players":24,"Bots":0,"server_type":"Dedicated","server_os":"Linux","password":true,"vac":true,"version":"7723704","steam_id":85568392924504277,"keywords":["nocrits","nodmgspread","payload","uncletopia"],"game_id":440,"stv_port":27056,"stv_name":"Uncletopia | Frankfurt | 5 | All Maps | STV","players":null},{"server_id":311,"name":"Uncletopia | Frankfurt | 6 | All Maps","name_short":"frk-6","host":"frk-1.de.uncletopia.com","port":27065,"enabled":true,"region":"eu","cc":"de","latitude":50.110924,"longitude":8.682127,"reserved":0,"last_update":"0001-01-01T00:00:00Z","name_a2s":"Uncletopia | Frankfurt | 6 | All Maps","protocol":17,"map":"pl_badwater","folder":"tf","game":"Team Fortress","app_id":440,"player_count":0,"max_players":24,"Bots":0,"server_type":"Dedicated","server_os":"Linux","password":true,"vac":true,"version":"7723704","steam_id":85568392924504278,"keywords":["nocrits","nodmgspread","payload","uncletopia"],"game_id":440,"stv_port":27066,"stv_name":"Uncletopia | Frankfurt | 6 | All Maps | STV","players":null},{"server_id":23,"name":"Uncletopia | Frankfurt | 7 | Stopwatch Beta","name_short":"frk-7","host":"frk-1.de.uncletopia.com","port":27075,"enabled":true,"region":"eu","cc":"de","latitude":50.110924,"longitude":8.682127,"reserved":0,"last_update":"0001-01-01T00:00:00Z","name_a2s":"Uncletopia | Frankfurt | 7 | Stopwatch Beta","protocol":17,"map":"koth_viaduct","folder":"tf","game":"Team Fortress","app_id":440,"player_count":0,"max_players":24,"Bots":0,"server_type":"Dedicated","server_os":"Linux","password":true,"vac":true,"version":"7723704","steam_id":85568392924742827,"keywords":["cp","nocrits","nodmgspread","uncletopia"],"game_id":440,"stv_port":27076,"stv_name":"Uncletopia | Frankfurt | 7 | Stopwatch Beta | STV","players":null},{"server_id":24,"name":"Uncletopia | Frankfurt | 8 | Community","name_short":"frk-8","host":"frk-1.de.uncletopia.com","port":27085,"enabled":true,"region":"eu","cc":"de","latitude":50.110924,"longitude":8.682127,"reserved":0,"last_update":"0001-01-01T00:00:00Z","name_a2s":"Uncletopia | Frankfurt | 8 | Community","protocol":17,"map":"pl_frontier_final","folder":"tf","game":"Team Fortress","app_id":440,"player_count":0,"max_players":24,"Bots":0,"server_type":"Dedicated","server_os":"Linux","password":true,"vac":true,"version":"7723704","steam_id":85568392924742828,"keywords":["nocrits","nodmgspread","payload","uncletopia"],"game_id":440,"stv_port":27086,"stv_name":"Uncletopia | Frankfurt | 8 | Community | STV","players":null},{"server_id":202,"name":"Uncletopia | Hong Kong | 1 | All Maps","name_short":"hgk-1","host":"hgk-1.hk.uncletopia.com","port":27015,"enabled":true,"region":"asia","cc":"hk","latitude":22.302711,"longitude":114.177216,"reserved":0,"last_update":"0001-01-01T00:00:00Z","name_a2s":"Uncletopia | Hong Kong | 1 | All Maps","protocol":17,"map":"pl_badwater","folder":"tf","game":"Team Fortress","app_id":440,"player_count":17,"max_players":24,"Bots":0,"server_type":"Dedicated","server_os":"Linux","password":true,"vac":true,"version":"7723704","steam_id":85568392924494504,"keywords":["nocrits","nodmgspread","payload","uncletopia"],"game_id":440,"stv_port":27016,"stv_name":"Uncletopia | Hong Kong | 1 | All Maps | STV","players":[{"user_id":135,"name":"u/MeLEx3D","steam_id":76561199227871384,"connected_time":284000000000,"state":"active","ping":112},{"user_id":122,"name":"genitalia","steam_id":76561199367483634,"connected_time":1067000000000,"state":"active","ping":68},{"user_id":137,"name":"daredevil but funny","steam_id":76561198058786017,"connected_time":219000000000,"state":"active","ping":74},{"user_id":126,"name":"3wfFbdrjEze5d2G","steam_id":76561198435900451,"connected_time":1017000000000,"state":"active","ping":107},{"user_id":140,"name":"Lynax","steam_id":76561198384987334,"connected_time":140000000000,"state":"active","ping":95},{"user_id":136,"name":"NathellaBoi","steam_id":76561198093299560,"connected_time":246000000000,"state":"active","ping":118},{"user_id":141,"name":"1989 tiananmen square","steam_id":76561198044081344,"connected_time":105000000000,"state":"active","ping":94},{"user_id":142,"name":"Aerotronics","steam_id":76561198821190704,"connected_time":72000000000,"state":"active","ping":101},{"user_id":143,"name":"So close","steam_id":76561198846610729,"connected_time":36000000000,"state":"spawning","ping":134},{"user_id":144,"name":"니종나몬생김","steam_id":76561199366503353,"connected_time":34000000000,"state":"spawning","ping":194},{"user_id":108,"name":"Lu","steam_id":76561198320532821,"connected_time":3055000000000,"state":"active","ping":63},{"user_id":130,"name":"(no sound) oppai","steam_id":76561198008307645,"connected_time":822000000000,"state":"active","ping":80},{"user_id":129,"name":"JayJ","steam_id":76561198324008555,"connected_time":895000000000,"state":"active","ping":50},{"user_id":85,"name":"MS PowerPoint","steam_id":76561198369523192,"connected_time":4851000000000,"state":"active","ping":60},{"user_id":87,"name":"Tin-Tin \u003c3","steam_id":76561199247983065,"connected_time":4725000000000,"state":"active","ping":117},{"user_id":80,"name":"AAww","steam_id":76561199220320583,"connected_time":5255000000000,"state":"active","ping":66},{"user_id":132,"name":";o","steam_id":76561198360026912,"connected_time":713000000000,"state":"active","ping":78}]},{"server_id":1,"name":"Uncletopia | Los Angeles | 1 | All Maps","name_short":"lax-1","host":"lax-1.us.uncletopia.com","port":27015,"enabled":true,"region":"us-west","cc":"us","latitude":33.94279,"longitude":-118.41004,"reserved":0,"last_update":"0001-01-01T00:00:00Z","name_a2s":"Uncletopia | Los Angeles | 1 | All Maps","protocol":17,"map":"pl_wutville_event","folder":"tf","game":"Team Fortress","app_id":440,"player_count":2,"max_players":24,"Bots":0,"server_type":"Dedicated","server_os":"Linux","password":true,"vac":true,"version":"7723704","steam_id":85568392924469991,"keywords":["nocrits","nodmgspread","payload","uncletopia"],"game_id":440,"stv_port":27016,"stv_name":"Uncletopia | Los Angeles | 1 | All Maps | STV","players":[{"user_id":79,"name":"mommy claus","steam_id":76561199230929836,"connected_time":356000000000,"state":"active","ping":95},{"user_id":80,"name":"❄Brrr-azorn❄","steam_id":76561198096327396,"connected_time":329000000000,"state":"active","ping":106}]},{"server_id":112,"name":"Uncletopia | Los Angeles | 2 | All Maps","name_short":"lax-2","host":"lax-1.us.uncletopia.com","port":27025,"enabled":true,"region":"us-west","cc":"us","latitude":33.94279,"longitude":-118.41004,"reserved":0,"last_update":"0001-01-01T00:00:00Z","name_a2s":"Uncletopia | Los Angeles | 2 | All Maps","protocol":17,"map":"pl_pier","folder":"tf","game":"Team Fortress","app_id":440,"player_count":24,"max_players":24,"Bots":0,"server_type":"Dedicated","server_os":"Linux","password":true,"vac":true,"version":"7723704","steam_id":85568392924469992,"keywords":["nocrits","nodmgspread","payload","uncletopia"],"game_id":440,"stv_port":27026,"stv_name":"Uncletopia | Los Angeles | 2 | All Maps | STV","players":[{"user_id":218,"name":"Nystical","steam_id":76561198009473020,"connected_time":968000000000,"state":"active","ping":45},{"user_id":157,"name":"Ashanti Clan","steam_id":76561198032651105,"connected_time":5961000000000,"state":"active","ping":76},{"user_id":227,"name":"Blueberry Iced Coffee","steam_id":76561198149106191,"connected_time":153000000000,"state":"active","ping":45},{"user_id":224,"name":"Gugomo","steam_id":76561198121428316,"connected_time":311000000000,"state":"active","ping":26},{"user_id":217,"name":"OutOfSortsOne","steam_id":76561198836006858,"connected_time":1013000000000,"state":"active","ping":131},{"user_id":226,"name":"burnt_potato","steam_id":76561198877403540,"connected_time":232000000000,"state":"active","ping":60},{"user_id":155,"name":"......","steam_id":76561198067612741,"connected_time":6038000000000,"state":"active","ping":71},{"user_id":199,"name":"G. Howard Dee","steam_id":76561198058382812,"connected_time":2290000000000,"state":"active","ping":52},{"user_id":158,"name":"Canaan ❤","steam_id":76561198044337051,"connected_time":5951000000000,"state":"active","ping":52},{"user_id":192,"name":"The Foolish Samurai","steam_id":76561198094494945,"connected_time":2585000000000,"state":"active","ping":79},{"user_id":228,"name":"swag","steam_id":76561198094615739,"connected_time":153000000000,"state":"active","ping":65},{"user_id":203,"name":"eyeball","steam_id":76561198307697528,"connected_time":2251000000000,"state":"active","ping":58},{"user_id":210,"name":"Strength!!","steam_id":76561198001241984,"connected_time":1885000000000,"state":"active","ping":99},{"user_id":169,"name":"HELP ME, the engineer","steam_id":76561198035698704,"connected_time":4621000000000,"state":"active","ping":60},{"user_id":229,"name":"big g","steam_id":76561198067496197,"connected_time":101000000000,"state":"active","ping":115},{"user_id":225,"name":"hapybratt","steam_id":76561198095799579,"connected_time":290000000000,"state":"active","ping":124},{"user_id":212,"name":"Thrall","steam_id":76561198087004558,"connected_time":1849000000000,"state":"active","ping":58},{"user_id":194,"name":"macaroli","steam_id":76561198969523979,"connected_time":2518000000000,"state":"active","ping":78},{"user_id":193,"name":"Petroleum Jelly","steam_id":76561198118778800,"connected_time":2572000000000,"state":"active","ping":52},{"user_id":200,"name":"RCI.2","steam_id":76561198117342640,"connected_time":2279000000000,"state":"active","ping":61},{"user_id":222,"name":"mobe","steam_id":76561198121633820,"connected_time":522000000000,"state":"active","ping":102},{"user_id":116,"name":"Soap Man","steam_id":76561198000490235,"connected_time":8657000000000,"state":"active","ping":94},{"user_id":206,"name":"ElectronX","steam_id":76561198116034988,"connected_time":2203000000000,"state":"active","ping":51},{"user_id":207,"name":"BrightOrangeMango","steam_id":76561198023144607,"connected_time":2192000000000,"state":"active","ping":61}]},{"server_id":324,"name":"Uncletopia | Los Angeles | 3 | All Maps","name_short":"lax-3","host":"lax-1.us.uncletopia.com","port":27035,"enabled":true,"region":"us-west","cc":"us","latitude":33.94279,"longitude":-118.41004,"reserved":0,"last_update":"0001-01-01T00:00:00Z","name_a2s":"Uncletopia | Los Angeles | 3 | All Maps","protocol":17,"map":"pl_barnblitz","folder":"tf","game":"Team Fortress","app_id":440,"player_count":24,"max_players":24,"Bots":0,"server_type":"Dedicated","server_os":"Linux","password":true,"vac":true,"version":"7723704","steam_id":85568392924510198,"keywords":["nocrits","nodmgspread","payload","uncletopia"],"game_id":440,"stv_port":27036,"stv_name":"Uncletopia | Los Angeles | 3 | All Maps | STV","players":[{"user_id":11,"name":"Baluk","steam_id":76561199064894050,"connected_time":13408000000000,"state":"active","ping":58},{"user_id":12,"name":"yellow","steam_id":76561198366474647,"connected_time":13402000000000,"state":"active","ping":39},{"user_id":118,"name":"Bigby","steam_id":76561199056842761,"connected_time":1490000000000,"state":"active","ping":50},{"user_id":107,"name":"Delta","steam_id":76561198021957971,"connected_time":1983000000000,"state":"active","ping":45},{"user_id":125,"name":"carloseolartec","steam_id":76561198396648023,"connected_time":703000000000,"state":"active","ping":106},{"user_id":98,"name":"walrooos ✿","steam_id":76561198024521839,"connected_time":2836000000000,"state":"active","ping":41},{"user_id":126,"name":"my_naem","steam_id":76561198043971956,"connected_time":674000000000,"state":"active","ping":52},{"user_id":134,"name":"bballbhuddababyboy","steam_id":76561198079516052,"connected_time":27000000000,"state":"spawning","ping":60},{"user_id":131,"name":"Stapler","steam_id":76561198099295077,"connected_time":517000000000,"state":"active","ping":58},{"user_id":36,"name":"Star","steam_id":76561198422395239,"connected_time":9966000000000,"state":"active","ping":48},{"user_id":128,"name":"mai_name","steam_id":76561198082886638,"connected_time":662000000000,"state":"active","ping":57},{"user_id":110,"name":"arcticmonkeysfan2006","steam_id":76561198345528370,"connected_time":1939000000000,"state":"active","ping":51},{"user_id":28,"name":"Grassman (Cc)","steam_id":76561198026488532,"connected_time":10496000000000,"state":"active","ping":57},{"user_id":116,"name":"Gruntic","steam_id":76561198170396647,"connected_time":1522000000000,"state":"active","ping":47},{"user_id":133,"name":"\u003c3","steam_id":76561198196829267,"connected_time":138000000000,"state":"active","ping":54},{"user_id":112,"name":"dude","steam_id":76561198253202693,"connected_time":1891000000000,"state":"active","ping":35},{"user_id":120,"name":"The Caretaker","steam_id":76561198125241411,"connected_time":974000000000,"state":"active","ping":74},{"user_id":122,"name":"iadf","steam_id":76561198193637594,"connected_time":745000000000,"state":"active","ping":38},{"user_id":123,"name":"WeAreTheSpirits","steam_id":76561198191555728,"connected_time":740000000000,"state":"active","ping":50},{"user_id":113,"name":"Cuddly poetatoe ❤","steam_id":76561198355023657,"connected_time":1881000000000,"state":"active","ping":57},{"user_id":132,"name":"ChipperGunslinger","steam_id":76561199100483140,"connected_time":436000000000,"state":"active","ping":49},{"user_id":117,"name":"⛧Alkahestry","steam_id":76561198109641497,"connected_time":1517000000000,"state":"active","ping":45},{"user_id":121,"name":"turtle head erection","steam_id":76561197961396512,"connected_time":974000000000,"state":"active","ping":49},{"user_id":124,"name":"goldhed","steam_id":76561198051751133,"connected_time":739000000000,"state":"active","ping":84}]},{"server_id":25,"name":"Uncletopia | Los Angeles | 4 | Stopwatch Beta","name_short":"lax-4","host":"lax-1.us.uncletopia.com","port":27045,"enabled":true,"region":"us-west","cc":"us","latitude":33.94279,"longitude":-118.41004,"reserved":0,"last_update":"0001-01-01T00:00:00Z","name_a2s":"Uncletopia | Los Angeles | 4 | Stopwatch Beta","protocol":17,"map":"cp_sunshine","folder":"tf","game":"Team Fortress","app_id":440,"player_count":1,"max_players":24,"Bots":0,"server_type":"Dedicated","server_os":"Linux","password":true,"vac":true,"version":"7723704","steam_id":85568392924510199,"keywords":["cp","nocrits","nodmgspread","uncletopia"],"game_id":440,"stv_port":27046,"stv_name":"Uncletopia | Los Angeles | 4 | Stopwatch Beta | STV","players":[{"user_id":10,"name":"TemmieMelon","steam_id":76561199171591676,"connected_time":668000000000,"state":"active","ping":49}]},{"server_id":11,"name":"Uncletopia | London | 1 | All Maps","name_short":"lon-1","host":"lon-1.uk.uncletopia.com","port":27015,"enabled":true,"region":"eu","cc":"gb","latitude":51.509865,"longitude":-0.118092,"reserved":0,"last_update":"0001-01-01T00:00:00Z","name_a2s":"Uncletopia | London | 1 | All Maps","protocol":17,"map":"pl_swiftwater_final1","folder":"tf","game":"Team Fortress","app_id":440,"player_count":12,"max_players":24,"Bots":0,"server_type":"Dedicated","server_os":"Linux","password":true,"vac":true,"version":"7723704","steam_id":85568392924367362,"keywords":["nocrits","nodmgspread","payload","uncletopia"],"game_id":440,"stv_port":27016,"stv_name":"Uncletopia | London | 1 | All Maps | STV","players":[{"user_id":862,"name":"aka_Zbra","steam_id":76561198985215113,"connected_time":670000000000,"state":"active","ping":80},{"user_id":857,"name":"papa pyro","steam_id":76561197961707932,"connected_time":1480000000000,"state":"active","ping":60},{"user_id":848,"name":"Take a map","steam_id":76561198085273364,"connected_time":1964000000000,"state":"active","ping":51},{"user_id":849,"name":"Cloud03","steam_id":76561199010969848,"connected_time":1956000000000,"state":"active","ping":84},{"user_id":863,"name":"🌟🎄❄Festive MEGOS❄🎄","steam_id":76561198172740637,"connected_time":474000000000,"state":"active","ping":58},{"user_id":864,"name":"desu","steam_id":76561198052878585,"connected_time":397000000000,"state":"active","ping":132},{"user_id":865,"name":"Iru","steam_id":76561198077602040,"connected_time":268000000000,"state":"active","ping":59},{"user_id":859,"name":"Kali","steam_id":76561198070745106,"connected_time":1296000000000,"state":"active","ping":45},{"user_id":855,"name":"twitch.tv/inviter","steam_id":76561198100268434,"connected_time":1597000000000,"state":"active","ping":63},{"user_id":851,"name":"Xap222","steam_id":76561199106615239,"connected_time":1927000000000,"state":"active","ping":157},{"user_id":856,"name":"Not Sussy Tanuki","steam_id":76561198137289375,"connected_time":1571000000000,"state":"active","ping":109},{"user_id":858,"name":"KITE MAN!  HELL YEAH!","steam_id":76561198079386295,"connected_time":1460000000000,"state":"active","ping":45}]},{"server_id":114,"name":"Uncletopia | London | 2 | All Maps","name_short":"lon-2","host":"lon-1.uk.uncletopia.com","port":27025,"enabled":true,"region":"eu","cc":"gb","latitude":51.509865,"longitude":-0.118092,"reserved":0,"last_update":"0001-01-01T00:00:00Z","name_a2s":"Uncletopia | London | 2 | All Maps","protocol":17,"map":"pl_snowycoast","folder":"tf","game":"Team Fortress","app_id":440,"player_count":0,"max_players":24,"Bots":0,"server_type":"Dedicated","server_os":"Linux","password":true,"vac":true,"version":"7723704","steam_id":85568392924470941,"keywords":["nocrits","nodmgspread","payload","uncletopia"],"game_id":440,"stv_port":27026,"stv_name":"Uncletopia | London | 2 | All Maps | STV","players":null},{"server_id":320,"name":"Uncletopia | London | 3 | All Maps","name_short":"lon-3","host":"lon-1.uk.uncletopia.com","port":27035,"enabled":true,"region":"eu","cc":"gb","latitude":51.509865,"longitude":-0.118092,"reserved":0,"last_update":"0001-01-01T00:00:00Z","name_a2s":"Uncletopia | London | 3 | All Maps","protocol":17,"map":"koth_highpass","folder":"tf","game":"Team Fortress","app_id":440,"player_count":0,"max_players":24,"Bots":0,"server_type":"Dedicated","server_os":"Linux","password":true,"vac":true,"version":"7723704","steam_id":85568392924510192,"keywords":["cp","nocrits","nodmgspread","uncletopia"],"game_id":440,"stv_port":27036,"stv_name":"Uncletopia | London | 3 | All Maps | STV","players":null},{"server_id":321,"name":"Uncletopia | London | 4 | All Maps","name_short":"lon-4","host":"lon-1.uk.uncletopia.com","port":27045,"enabled":true,"region":"eu","cc":"gb","latitude":51.509865,"longitude":-0.118092,"reserved":0,"last_update":"0001-01-01T00:00:00Z","name_a2s":"Uncletopia | London | 4 | All Maps","protocol":17,"map":"pl_borneo","folder":"tf","game":"Team Fortress","app_id":440,"player_count":0,"max_players":24,"Bots":0,"server_type":"Dedicated","server_os":"Linux","password":true,"vac":true,"version":"7723704","steam_id":85568392924510193,"keywords":["nocrits","nodmgspread","payload","uncletopia"],"game_id":440,"stv_port":27046,"stv_name":"Uncletopia | London | 4 | All Maps | STV","players":null},{"server_id":21,"name":"Uncletopia | London | 5 | All Maps","name_short":"lon-5","host":"lon-1.uk.uncletopia.com","port":27055,"enabled":true,"region":"eu","cc":"gb","latitude":51.509865,"longitude":-0.118092,"reserved":0,"last_update":"0001-01-01T00:00:00Z","name_a2s":"Uncletopia | London | 5 | All Maps","protocol":17,"map":"cp_process_final","folder":"tf","game":"Team Fortress","app_id":440,"player_count":0,"max_players":24,"Bots":0,"server_type":"Dedicated","server_os":"Linux","password":true,"vac":true,"version":"7723704","steam_id":85568392924742829,"keywords":["cp","nocrits","nodmgspread","uncletopia"],"game_id":440,"stv_port":27056,"stv_name":"Uncletopia | London | 5 | All Maps | STV","players":null},{"server_id":22,"name":"Uncletopia | London | 6 | All Maps","name_short":"lon-6","host":"lon-1.uk.uncletopia.com","port":27065,"enabled":true,"region":"eu","cc":"gb","latitude":51.509865,"longitude":-0.118092,"reserved":0,"last_update":"0001-01-01T00:00:00Z","name_a2s":"Uncletopia | London | 6 | All Maps","protocol":17,"map":"cp_dustbowl","folder":"tf","game":"Team Fortress","app_id":440,"player_count":0,"max_players":24,"Bots":0,"server_type":"Dedicated","server_os":"Linux","password":true,"vac":true,"version":"7723704","steam_id":85568392924742830,"keywords":["cp","nocrits","nodmgspread","uncletopia"],"game_id":440,"stv_port":27066,"stv_name":"Uncletopia | London | 6 | All Maps | STV","players":null},{"server_id":40,"name":"Uncletopia | London | 7 | No Payload","name_short":"lon-7","host":"lon-1.uk.uncletopia.com","port":27075,"enabled":true,"region":"eu","cc":"gb","latitude":51.509865,"longitude":-0.118092,"reserved":0,"last_update":"0001-01-01T00:00:00Z","name_a2s":"Uncletopia | London | 7 | No Payload","protocol":17,"map":"koth_sawmill","folder":"tf","game":"Team Fortress","app_id":440,"player_count":0,"max_players":24,"Bots":0,"server_type":"Dedicated","server_os":"Linux","password":true,"vac":true,"version":"7723704","steam_id":85568392924964314,"keywords":["cp","nocrits","nodmgspread","uncletopia"],"game_id":440,"stv_port":27076,"stv_name":"Uncletopia | London | 7 | No Payload | STV","players":null},{"server_id":41,"name":"Uncletopia | London | 8 | Community","name_short":"lon-8","host":"lon-1.uk.uncletopia.com","port":27085,"enabled":true,"region":"eu","cc":"gb","latitude":51.509865,"longitude":-0.118092,"reserved":0,"last_update":"0001-01-01T00:00:00Z","name_a2s":"Uncletopia | London | 8 | Community","protocol":17,"map":"koth_highpass","folder":"tf","game":"Team Fortress","app_id":440,"player_count":0,"max_players":24,"Bots":0,"server_type":"Dedicated","server_os":"Linux","password":true,"vac":true,"version":"7723704","steam_id":85568392924964315,"keywords":["cp","nocrits","nodmgspread","uncletopia"],"game_id":440,"stv_port":27086,"stv_name":"Uncletopia | London | 8 | Community | STV","players":null},{"server_id":300,"name":"Uncletopia | Montréal | 1 | All Maps","name_short":"mtl-1","host":"mtl-1.ca.uncletopia.com","port":27015,"enabled":true,"region":"us-east","cc":"ca","latitude":45.50889,"longitude":-73.56167,"reserved":0,"last_update":"0001-01-01T00:00:00Z","name_a2s":"Uncletopia | Montréal | 1 | All Maps","protocol":17,"map":"koth_cascade","folder":"tf","game":"Team Fortress","app_id":440,"player_count":0,"max_players":24,"Bots":0,"server_type":"Dedicated","server_os":"Linux","password":true,"vac":true,"version":"7723704","steam_id":85568392924500087,"keywords":["cp","nocrits","nodmgspread","uncletopia"],"game_id":440,"stv_port":27016,"stv_name":"Uncletopia | Montréal | 1 | All Maps | STV","players":null},{"server_id":301,"name":"Uncletopia | Montréal | 2 | All Maps","name_short":"mtl-2","host":"mtl-1.ca.uncletopia.com","port":27025,"enabled":true,"region":"us-east","cc":"ca","latitude":45.50889,"longitude":-73.56167,"reserved":0,"last_update":"0001-01-01T00:00:00Z","name_a2s":"Uncletopia | Montréal | 2 | All Maps","protocol":17,"map":"koth_highpass","folder":"tf","game":"Team Fortress","app_id":440,"player_count":0,"max_players":24,"Bots":0,"server_type":"Dedicated","server_os":"Linux","password":true,"vac":true,"version":"7723704","steam_id":85568392924500088,"keywords":["cp","nocrits","nodmgspread","uncletopia"],"game_id":440,"stv_port":27026,"stv_name":"Uncletopia | Montréal | 2 | All Maps | STV","players":null},{"server_id":302,"name":"Uncletopia | Montréal | 3 | All Maps","name_short":"mtl-3","host":"mtl-1.ca.uncletopia.com","port":27035,"enabled":true,"region":"us-east","cc":"ca","latitude":45.50889,"longitude":-73.56167,"reserved":0,"last_update":"0001-01-01T00:00:00Z","name_a2s":"Uncletopia | Montréal | 3 | All Maps","protocol":17,"map":"cp_mountainlab","folder":"tf","game":"Team Fortress","app_id":440,"player_count":0,"max_players":24,"Bots":0,"server_type":"Dedicated","server_os":"Linux","password":true,"vac":true,"version":"7723704","steam_id":85568392924500089,"keywords":["cp","nocrits","nodmgspread","uncletopia"],"game_id":440,"stv_port":27036,"stv_name":"Uncletopia | Montréal | 3 | All Maps | STV","players":null},{"server_id":303,"name":"Uncletopia | Montréal | 4 | No Payload","name_short":"mtl-4","host":"mtl-1.ca.uncletopia.com","port":27045,"enabled":true,"region":"us-east","cc":"ca","latitude":45.50889,"longitude":-73.56167,"reserved":0,"last_update":"0001-01-01T00:00:00Z","name_a2s":"Uncletopia | Montréal | 4 | No Payload","protocol":17,"map":"koth_viaduct","folder":"tf","game":"Team Fortress","app_id":440,"player_count":0,"max_players":24,"Bots":0,"server_type":"Dedicated","server_os":"Linux","password":true,"vac":true,"version":"7723704","steam_id":85568392924500090,"keywords":["cp","nocrits","nodmgspread","uncletopia"],"game_id":440,"stv_port":27046,"stv_name":"Uncletopia | Montréal | 4 | No Payload | STV","players":null},{"server_id":13,"name":"Uncletopia | New York City | 1 | All Maps","name_short":"nyc-1","host":"nyc-1.us.uncletopia.com","port":27015,"enabled":true,"region":"us-east","cc":"us","latitude":40.73061,"longitude":-73.93524,"reserved":0,"last_update":"0001-01-01T00:00:00Z","name_a2s":"Uncletopia | New York City | 1 | All Maps","protocol":17,"map":"pl_frontier_final","folder":"tf","game":"Team Fortress","app_id":440,"player_count":21,"max_players":24,"Bots":0,"server_type":"Dedicated","server_os":"Linux","password":true,"vac":true,"version":"7723704","steam_id":85568392924469993,"keywords":["nocrits","nodmgspread","payload","uncletopia"],"game_id":440,"stv_port":27016,"stv_name":"Uncletopia | New York City | 1 | All Maps | STV","players":[{"user_id":823,"name":"King of Thickburgers","steam_id":76561198447353084,"connected_time":2111000000000,"state":"active","ping":46},{"user_id":822,"name":"WVTERS","steam_id":76561198024004360,"connected_time":2130000000000,"state":"active","ping":74},{"user_id":839,"name":"IRAcide","steam_id":76561198236149504,"connected_time":541000000000,"state":"active","ping":98},{"user_id":840,"name":"bigbootyboulevardchopter696969","steam_id":76561198400517324,"connected_time":264000000000,"state":"active","ping":107},{"user_id":824,"name":"iL","steam_id":76561198086331015,"connected_time":2097000000000,"state":"active","ping":32},{"user_id":841,"name":"mx.TheGreatMagelichopter696969","steam_id":76561198170627647,"connected_time":261000000000,"state":"active","ping":51},{"user_id":826,"name":"Marc Antony","steam_id":76561198011366517,"connected_time":2054000000000,"state":"active","ping":45},{"user_id":842,"name":"the12xu","steam_id":76561198197086561,"connected_time":176000000000,"state":"active","ping":43},{"user_id":828,"name":"Money Collector","steam_id":76561198046249467,"connected_time":2006000000000,"state":"active","ping":73},{"user_id":790,"name":"An Inordinate Amount of Beans","steam_id":76561198022758805,"connected_time":4694000000000,"state":"active","ping":86},{"user_id":774,"name":"ncc_42","steam_id":76561198066377700,"connected_time":6193000000000,"state":"active","ping":45},{"user_id":730,"name":"Wique","steam_id":76561198071217597,"connected_time":8878000000000,"state":"active","ping":64},{"user_id":843,"name":"WAP Wagon","steam_id":76561198306393090,"connected_time":145000000000,"state":"active","ping":63},{"user_id":829,"name":"Tank","steam_id":76561198862187979,"connected_time":1990000000000,"state":"active","ping":108},{"user_id":838,"name":"exo","steam_id":76561198002917925,"connected_time":893000000000,"state":"active","ping":67},{"user_id":836,"name":"fewny","steam_id":76561198225977000,"connected_time":1125000000000,"state":"active","ping":73},{"user_id":831,"name":"squiddies","steam_id":76561198182069289,"connected_time":1962000000000,"state":"active","ping":115},{"user_id":832,"name":"cahd","steam_id":76561198042159317,"connected_time":1937000000000,"state":"active","ping":126},{"user_id":816,"name":"Walking Eye!","steam_id":76561198059501252,"connected_time":2821000000000,"state":"active","ping":80},{"user_id":800,"name":"Braamklauw","steam_id":76561198283287697,"connected_time":4310000000000,"state":"active","ping":146},{"user_id":801,"name":"Sir Quacksalot","steam_id":76561198048942777,"connected_time":4295000000000,"state":"active","ping":91}]},{"server_id":14,"name":"Uncletopia | New York City | 2 | All Maps","name_short":"nyc-2","host":"nyc-1.us.uncletopia.com","port":27025,"enabled":true,"region":"us-east","cc":"us","latitude":40.73061,"longitude":-73.93524,"reserved":0,"last_update":"0001-01-01T00:00:00Z","name_a2s":"Uncletopia | New York City | 2 | All Maps","protocol":17,"map":"pl_pier","folder":"tf","game":"Team Fortress","app_id":440,"player_count":24,"max_players":24,"Bots":0,"server_type":"Dedicated","server_os":"Linux","password":true,"vac":true,"version":"7723704","steam_id":85568392924469994,"keywords":["nocrits","nodmgspread","payload","uncletopia"],"game_id":440,"stv_port":27026,"stv_name":"Uncletopia | New York City | 2 | All Maps | STV","players":[{"user_id":216,"name":"bikerkid207","steam_id":76561198390782783,"connected_time":6610000000000,"state":"active","ping":47},{"user_id":266,"name":"wideface","steam_id":76561198414122318,"connected_time":1481000000000,"state":"active","ping":71},{"user_id":277,"name":"BOY♂NEXT♂DOOR","steam_id":76561198008124026,"connected_time":415000000000,"state":"active","ping":106},{"user_id":209,"name":"Medical Asshat","steam_id":76561198004584315,"connected_time":7712000000000,"state":"active","ping":92},{"user_id":268,"name":"Piyono","steam_id":76561197962188504,"connected_time":1329000000000,"state":"active","ping":75},{"user_id":269,"name":"Owen","steam_id":76561198126511851,"connected_time":1301000000000,"state":"active","ping":44},{"user_id":275,"name":"anti-citizen #1","steam_id":76561197970748784,"connected_time":919000000000,"state":"active","ping":133},{"user_id":257,"name":"Chechens Spotted","steam_id":76561199028910893,"connected_time":3709000000000,"state":"active","ping":64},{"user_id":242,"name":"RumetCoke","steam_id":76561198125922681,"connected_time":5032000000000,"state":"active","ping":88},{"user_id":193,"name":"cube","steam_id":76561197991759721,"connected_time":8937000000000,"state":"active","ping":46},{"user_id":251,"name":"Ignalis","steam_id":76561198025662927,"connected_time":4208000000000,"state":"active","ping":51},{"user_id":221,"name":"River","steam_id":76561198137529294,"connected_time":6527000000000,"state":"active","ping":68},{"user_id":222,"name":"Quinoa","steam_id":76561198446788303,"connected_time":6521000000000,"state":"active","ping":77},{"user_id":272,"name":"R.","steam_id":76561198024545911,"connected_time":1204000000000,"state":"active","ping":77},{"user_id":243,"name":"PinkDizaster","steam_id":76561198112512523,"connected_time":5020000000000,"state":"active","ping":88},{"user_id":273,"name":"󠀡󠀡","steam_id":76561198027546178,"connected_time":1161000000000,"state":"active","ping":106},{"user_id":206,"name":"Do Moose go Moo?","steam_id":76561198073550620,"connected_time":7896000000000,"state":"active","ping":61},{"user_id":234,"name":"saus","steam_id":76561198114729364,"connected_time":5517000000000,"state":"active","ping":137},{"user_id":264,"name":"The Rambler","steam_id":76561198109648603,"connected_time":2051000000000,"state":"active","ping":73},{"user_id":236,"name":"iHateDying","steam_id":76561198321790697,"connected_time":5270000000000,"state":"active","ping":109},{"user_id":274,"name":"remnar","steam_id":76561197995454090,"connected_time":1117000000000,"state":"active","ping":80},{"user_id":232,"name":"Zelumie","steam_id":76561198147335801,"connected_time":5941000000000,"state":"active","ping":71},{"user_id":260,"name":"Juno was mad, knew he'd been ha","steam_id":76561198294013916,"connected_time":3323000000000,"state":"active","ping":50},{"user_id":276,"name":"Huff Dog","steam_id":76561198113397623,"connected_time":571000000000,"state":"active","ping":95}]},{"server_id":15,"name":"Uncletopia | New York City | 3 | Stopwatch Beta","name_short":"nyc-3","host":"nyc-1.us.uncletopia.com","port":27035,"enabled":true,"region":"us-east","cc":"us","latitude":40.73061,"longitude":-73.93524,"reserved":0,"last_update":"0001-01-01T00:00:00Z","name_a2s":"Uncletopia | New York City | 3 | Stopwatch Beta","protocol":17,"map":"cp_metalworks","folder":"tf","game":"Team Fortress","app_id":440,"player_count":24,"max_players":24,"Bots":0,"server_type":"Dedicated","server_os":"Linux","password":true,"vac":true,"version":"7723704","steam_id":85568392924742820,"keywords":["cp","nocrits","nodmgspread","uncletopia"],"game_id":440,"stv_port":27036,"stv_name":"Uncletopia | New York City | 3 | Stopwatch Beta | STV","players":[{"user_id":779,"name":"Michaelpc1","steam_id":76561198088365519,"connected_time":185000000000,"state":"active","ping":60},{"user_id":767,"name":"genderx gaming","steam_id":76561198047707226,"connected_time":854000000000,"state":"active","ping":55},{"user_id":736,"name":"cheetaz","steam_id":76561198224614084,"connected_time":3277000000000,"state":"active","ping":59},{"user_id":669,"name":"Arick","steam_id":76561198053743602,"connected_time":8317000000000,"state":"active","ping":61},{"user_id":633,"name":"alligator fuckhouse","steam_id":76561198119178364,"connected_time":10230000000000,"state":"active","ping":75},{"user_id":679,"name":"CHIPMUNCHER19","steam_id":76561198071557391,"connected_time":7630000000000,"state":"active","ping":114},{"user_id":780,"name":"chillpilled blankymoder","steam_id":76561198078721142,"connected_time":119000000000,"state":"active","ping":66},{"user_id":765,"name":"Hell's Reindeer","steam_id":76561198065310364,"connected_time":992000000000,"state":"active","ping":66},{"user_id":640,"name":"Blagoni","steam_id":76561198079134230,"connected_time":9879000000000,"state":"active","ping":114},{"user_id":757,"name":"Isles","steam_id":76561198036162511,"connected_time":1854000000000,"state":"active","ping":59},{"user_id":685,"name":"esoobac","steam_id":76561198010370396,"connected_time":7465000000000,"state":"active","ping":61},{"user_id":766,"name":"senorpapel","steam_id":76561198040507073,"connected_time":895000000000,"state":"active","ping":82},{"user_id":771,"name":"Fireballjr2011","steam_id":76561198135525450,"connected_time":616000000000,"state":"active","ping":126},{"user_id":768,"name":"Alfonso Molestro","steam_id":76561197998677099,"connected_time":847000000000,"state":"active","ping":65},{"user_id":781,"name":"wepry","steam_id":76561198114091417,"connected_time":64000000000,"state":"active","ping":97},{"user_id":782,"name":"earth","steam_id":76561198245109084,"connected_time":57000000000,"state":"connecting","ping":0},{"user_id":783,"name":"Insayne","steam_id":76561199237951955,"connected_time":32000000000,"state":"active","ping":58},{"user_id":772,"name":"TTV|Kaseiwrld","steam_id":76561199235093499,"connected_time":603000000000,"state":"active","ping":97},{"user_id":773,"name":"RICE A RONI JABRONI","steam_id":76561198251653444,"connected_time":594000000000,"state":"active","ping":66},{"user_id":742,"name":"Pugz","steam_id":76561198149362234,"connected_time":3148000000000,"state":"active","ping":81},{"user_id":784,"name":"Rodiisss","steam_id":76561198931321068,"connected_time":25000000000,"state":"spawning","ping":125},{"user_id":748,"name":"dirty shit gaming","steam_id":76561198038901145,"connected_time":2870000000000,"state":"active","ping":72},{"user_id":775,"name":"tensemars","steam_id":76561199043256972,"connected_time":581000000000,"state":"active","ping":65},{"user_id":777,"name":"m4xxi1","steam_id":76561198076460986,"connected_time":468000000000,"state":"active","ping":122}]},{"server_id":16,"name":"Uncletopia | New York City | 4 | Community","name_short":"nyc-4","host":"nyc-1.us.uncletopia.com","port":27045,"enabled":true,"region":"us-east","cc":"us","latitude":40.73061,"longitude":-73.93524,"reserved":0,"last_update":"0001-01-01T00:00:00Z","name_a2s":"Uncletopia | New York City | 4 | Community","protocol":17,"map":"workshop/koth_slaughter_rc1.ugc1712845210","folder":"tf","game":"Team Fortress","app_id":440,"player_count":0,"max_players":24,"Bots":0,"server_type":"Dedicated","server_os":"Linux","password":true,"vac":true,"version":"7723704","steam_id":85568392924742821,"keywords":["cp","nocrits","nodmgspread","uncletopia"],"game_id":440,"stv_port":27046,"stv_name":"Uncletopia | New York City | 4 | Community | STV","players":null},{"server_id":142,"name":"Uncletopia | São Paulo | 1 | All Maps","name_short":"sao-1","host":"sao-1.br.uncletopia.com","port":27015,"enabled":true,"region":"sa","cc":"br","latitude":-23.533773,"longitude":-46.62529,"reserved":0,"last_update":"0001-01-01T00:00:00Z","name_a2s":"Uncletopia | São Paulo | 1 | All Maps","protocol":17,"map":"cp_process_final","folder":"tf","game":"Team Fortress","app_id":440,"player_count":0,"max_players":24,"Bots":0,"server_type":"Dedicated","server_os":"Linux","password":true,"vac":true,"version":"7723704","steam_id":85568392924469996,"keywords":["cp","nocrits","nodmgspread","uncletopia"],"game_id":440,"stv_port":27016,"stv_name":"Uncletopia | São Paulo | 1 | All Maps | STV","players":null},{"server_id":143,"name":"Uncletopia | São Paulo | 2 | All Maps","name_short":"sao-2","host":"sao-2.br.uncletopia.com","port":27015,"enabled":true,"region":"sa","cc":"br","latitude":-23.533773,"longitude":-46.62529,"reserved":0,"last_update":"0001-01-01T00:00:00Z","name_a2s":"Uncletopia | São Paulo | 2 | All Maps","protocol":17,"map":"pl_swiftwater_final1","folder":"tf","game":"Team Fortress","app_id":440,"player_count":0,"max_players":24,"Bots":0,"server_type":"Dedicated","server_os":"Linux","password":true,"vac":true,"version":"7723704","steam_id":85568392924485349,"keywords":["nocrits","nodmgspread","payload","uncletopia"],"game_id":440,"stv_port":27016,"stv_name":"Uncletopia | São Paulo | 2 | All Maps | STV","players":null},{"server_id":7,"name":"Uncletopia | Seattle | 1 | All Maps","name_short":"sea-1","host":"sea-1.us.uncletopia.com","port":27015,"enabled":true,"region":"us-west","cc":"us","latitude":47.608013,"longitude":-122.33517,"reserved":0,"last_update":"0001-01-01T00:00:00Z","name_a2s":"Uncletopia | Seattle | 1 | All Maps","protocol":17,"map":"pl_swiftwater_final1","folder":"tf","game":"Team Fortress","app_id":440,"player_count":23,"max_players":24,"Bots":0,"server_type":"Dedicated","server_os":"Linux","password":true,"vac":true,"version":"7723704","steam_id":85568392924469997,"keywords":["nocrits","nodmgspread","payload","uncletopia"],"game_id":440,"stv_port":27016,"stv_name":"Uncletopia | Seattle | 1 | All Maps | STV","players":[{"user_id":571,"name":"KingTinkerer","steam_id":76561198226856548,"connected_time":33000000000,"state":"active","ping":69},{"user_id":405,"name":"Luca","steam_id":76561198125087140,"connected_time":9029000000000,"state":"active","ping":45},{"user_id":560,"name":"Sweets","steam_id":76561198998446307,"connected_time":845000000000,"state":"active","ping":126},{"user_id":413,"name":"MegaBron James","steam_id":76561198066091050,"connected_time":8166000000000,"state":"active","ping":56},{"user_id":380,"name":"Ayayahuasca","steam_id":76561199002906056,"connected_time":10339000000000,"state":"active","ping":50},{"user_id":548,"name":"Jade","steam_id":76561198151596927,"connected_time":2573000000000,"state":"active","ping":106},{"user_id":569,"name":"Brathic","steam_id":76561198966232163,"connected_time":48000000000,"state":"active","ping":76},{"user_id":567,"name":"Toasterduds","steam_id":76561198163477584,"connected_time":64000000000,"state":"active","ping":67},{"user_id":557,"name":"fwoov","steam_id":76561198129166260,"connected_time":964000000000,"state":"active","ping":79},{"user_id":565,"name":"bbbbb","steam_id":76561198095480838,"connected_time":90000000000,"state":"active","ping":53},{"user_id":562,"name":"Amateur Glaswegian","steam_id":76561198030851956,"connected_time":629000000000,"state":"active","ping":49},{"user_id":542,"name":"RecklessRoadRage","steam_id":76561199089562026,"connected_time":3149000000000,"state":"active","ping":45},{"user_id":568,"name":"gangstalker","steam_id":76561198363267009,"connected_time":58000000000,"state":"active","ping":93},{"user_id":417,"name":"lol","steam_id":76561198026491738,"connected_time":8157000000000,"state":"active","ping":84},{"user_id":564,"name":"Dr. Bodacious","steam_id":76561199122205825,"connected_time":340000000000,"state":"active","ping":63},{"user_id":449,"name":"shane","steam_id":76561198060491451,"connected_time":5282000000000,"state":"active","ping":101},{"user_id":544,"name":"DeadlyAnomalies","steam_id":76561198125818085,"connected_time":3034000000000,"state":"active","ping":79},{"user_id":570,"name":"Arsonist Goose","steam_id":76561198147441830,"connected_time":47000000000,"state":"active","ping":75},{"user_id":553,"name":"Crake","steam_id":76561198001959071,"connected_time":1004000000000,"state":"active","ping":56},{"user_id":429,"name":"moe","steam_id":76561198929586245,"connected_time":7230000000000,"state":"active","ping":86},{"user_id":563,"name":"Blizz","steam_id":76561199139715539,"connected_time":582000000000,"state":"active","ping":65},{"user_id":525,"name":"lavender","steam_id":76561199069518286,"connected_time":3509000000000,"state":"active","ping":76},{"user_id":438,"name":"tophawkyy","steam_id":76561199075934685,"connected_time":5810000000000,"state":"active","ping":85}]},{"server_id":119,"name":"Uncletopia | Seattle | 2 | All Maps","name_short":"sea-2","host":"sea-1.us.uncletopia.com","port":27025,"enabled":true,"region":"us-west","cc":"us","latitude":47.608013,"longitude":-122.33517,"reserved":0,"last_update":"0001-01-01T00:00:00Z","name_a2s":"Uncletopia | Seattle | 2 | All Maps","protocol":17,"map":"pl_swiftwater_final1","folder":"tf","game":"Team Fortress","app_id":440,"player_count":24,"max_players":24,"Bots":0,"server_type":"Dedicated","server_os":"Linux","password":true,"vac":true,"version":"7723704","steam_id":85568392924469998,"keywords":["nocrits","nodmgspread","payload","uncletopia"],"game_id":440,"stv_port":27026,"stv_name":"Uncletopia | Seattle | 2 | All Maps | STV","players":[{"user_id":538,"name":"R2 D24","steam_id":76561199108867901,"connected_time":12000000000,"state":"spawning","ping":90},{"user_id":493,"name":"rubi","steam_id":76561198215513247,"connected_time":3164000000000,"state":"active","ping":116},{"user_id":513,"name":"Not_a_war_criminal","steam_id":76561199254751475,"connected_time":1976000000000,"state":"active","ping":122},{"user_id":467,"name":"Best Bleach","steam_id":76561198090216348,"connected_time":4873000000000,"state":"active","ping":73},{"user_id":535,"name":"Sinn","steam_id":76561199013434543,"connected_time":403000000000,"state":"active","ping":76},{"user_id":492,"name":"PINGAS","steam_id":76561198966488979,"connected_time":3188000000000,"state":"active","ping":91},{"user_id":478,"name":"timmy","steam_id":76561198063322988,"connected_time":4095000000000,"state":"active","ping":54},{"user_id":522,"name":"3.dlc","steam_id":76561198234377776,"connected_time":1394000000000,"state":"active","ping":77},{"user_id":525,"name":"Chmiken","steam_id":76561199041966499,"connected_time":1127000000000,"state":"active","ping":51},{"user_id":526,"name":"benjamin","steam_id":76561198084679502,"connected_time":1119000000000,"state":"active","ping":121},{"user_id":530,"name":"comfycaffeine","steam_id":76561198058690096,"connected_time":991000000000,"state":"active","ping":55},{"user_id":475,"name":"Glue Gobbler","steam_id":76561198237034712,"connected_time":4144000000000,"state":"active","ping":48},{"user_id":494,"name":"Joy","steam_id":76561198338424715,"connected_time":3151000000000,"state":"active","ping":60},{"user_id":524,"name":"Brison","steam_id":76561197993377761,"connected_time":1250000000000,"state":"active","ping":61},{"user_id":325,"name":"colorfulg70","steam_id":76561199010363371,"connected_time":13941000000000,"state":"active","ping":89},{"user_id":527,"name":"wepeat","steam_id":76561198085943550,"connected_time":1099000000000,"state":"active","ping":65},{"user_id":531,"name":"Home Special","steam_id":76561198976391076,"connected_time":978000000000,"state":"active","ping":128},{"user_id":529,"name":"Powdered Milk Man","steam_id":76561199069024497,"connected_time":1087000000000,"state":"active","ping":116},{"user_id":536,"name":"Hina-san","steam_id":76561198152659161,"connected_time":363000000000,"state":"active","ping":86},{"user_id":532,"name":"visual comedy","steam_id":76561199224443704,"connected_time":978000000000,"state":"active","ping":88},{"user_id":508,"name":"Nope","steam_id":76561198068968616,"connected_time":2273000000000,"state":"active","ping":55},{"user_id":483,"name":"bingle","steam_id":76561198359413453,"connected_time":3971000000000,"state":"active","ping":137},{"user_id":507,"name":"Ayyyy","steam_id":76561198121729211,"connected_time":2296000000000,"state":"active","ping":78},{"user_id":534,"name":"PorgyPork","steam_id":76561198824399078,"connected_time":626000000000,"state":"active","ping":59}]},{"server_id":406,"name":"Uncletopia | Seattle | 3 | Stopwatch Beta","name_short":"sea-3","host":"sea-1.us.uncletopia.com","port":27035,"enabled":true,"region":"us-west","cc":"us","latitude":47.608013,"longitude":-122.33517,"reserved":0,"last_update":"0001-01-01T00:00:00Z","name_a2s":"Uncletopia | Seattle | 3 | Stopwatch Beta","protocol":17,"map":"cp_altitude","folder":"tf","game":"Team Fortress","app_id":440,"player_count":0,"max_players":24,"Bots":0,"server_type":"Dedicated","server_os":"Linux","password":true,"vac":false,"version":"7723704","steam_id":0,"keywords":["cp","nocrits","nodmgspread","uncletopia"],"game_id":440,"stv_port":27036,"stv_name":"Uncletopia | Seattle | 3 | Stopwatch Beta | STV","players":null},{"server_id":17,"name":"Uncletopia | San Francisco | 1 | All Maps","name_short":"sfo-1","host":"sfo-1.us.uncletopia.com","port":27015,"enabled":true,"region":"us-west","cc":"us","latitude":37.77397,"longitude":-122.4313,"reserved":0,"last_update":"0001-01-01T00:00:00Z","name_a2s":"Uncletopia | San Francisco | 1 | All Maps","protocol":17,"map":"pl_badwater","folder":"tf","game":"Team Fortress","app_id":440,"player_count":8,"max_players":24,"Bots":0,"server_type":"Dedicated","server_os":"Linux","password":true,"vac":true,"version":"7723704","steam_id":85568392924469999,"keywords":["nocrits","nodmgspread","payload","uncletopia"],"game_id":440,"stv_port":27016,"stv_name":"Uncletopia | San Francisco | 1 | All Maps | STV","players":[{"user_id":500,"name":"cloud","steam_id":76561198142185527,"connected_time":1317000000000,"state":"active","ping":46},{"user_id":502,"name":"Champagne Supernova","steam_id":76561198918114562,"connected_time":586000000000,"state":"active","ping":59},{"user_id":503,"name":"RAFA120","steam_id":76561198819150721,"connected_time":482000000000,"state":"active","ping":263},{"user_id":504,"name":"The Broken Lightbulb","steam_id":76561198141566312,"connected_time":430000000000,"state":"active","ping":62},{"user_id":505,"name":"SrJuasJuas","steam_id":76561198818361609,"connected_time":422000000000,"state":"active","ping":258},{"user_id":512,"name":"ZePazta","steam_id":76561198263901997,"connected_time":42000000000,"state":"active","ping":49},{"user_id":508,"name":"douglas4925","steam_id":76561198930342505,"connected_time":311000000000,"state":"active","ping":46},{"user_id":511,"name":"awesomedude9","steam_id":76561198335545405,"connected_time":149000000000,"state":"active","ping":34}]},{"server_id":18,"name":"Uncletopia | San Francisco | 2 | All Maps","name_short":"sfo-2","host":"sfo-1.us.uncletopia.com","port":27025,"enabled":true,"region":"us-west","cc":"us","latitude":37.77397,"longitude":-122.4313,"reserved":0,"last_update":"0001-01-01T00:00:00Z","name_a2s":"Uncletopia | San Francisco | 2 | All Maps","protocol":17,"map":"pl_pier","folder":"tf","game":"Team Fortress","app_id":440,"player_count":0,"max_players":24,"Bots":0,"server_type":"Dedicated","server_os":"Linux","password":true,"vac":true,"version":"7723704","steam_id":85568392924470000,"keywords":["nocrits","nodmgspread","payload","uncletopia"],"game_id":440,"stv_port":27026,"stv_name":"Uncletopia | San Francisco | 2 | All Maps | STV","players":null},{"server_id":19,"name":"Uncletopia | San Francisco | 3 | Stopwatch Beta","name_short":"sfo-3","host":"sfo-1.us.uncletopia.com","port":27035,"enabled":true,"region":"us-west","cc":"us","latitude":37.77397,"longitude":-122.4313,"reserved":0,"last_update":"0001-01-01T00:00:00Z","name_a2s":"Uncletopia | San Francisco | 3 | Stopwatch Beta","protocol":17,"map":"pl_pier","folder":"tf","game":"Team Fortress","app_id":440,"player_count":1,"max_players":24,"Bots":0,"server_type":"Dedicated","server_os":"Linux","password":true,"vac":true,"version":"7723704","steam_id":85568392924742824,"keywords":["nocrits","nodmgspread","payload","uncletopia"],"game_id":440,"stv_port":27036,"stv_name":"Uncletopia | San Francisco | 3 | Stopwatch Beta | STV","players":[{"user_id":18,"name":"kontractkiller","steam_id":76561198083199441,"connected_time":14000000000,"state":"active","ping":100}]},{"server_id":20,"name":"Uncletopia | San Francisco | 4 | Community","name_short":"sfo-4","host":"sfo-1.us.uncletopia.com","port":27045,"enabled":true,"region":"us-west","cc":"us","latitude":37.77397,"longitude":-122.4313,"reserved":0,"last_update":"0001-01-01T00:00:00Z","name_a2s":"Uncletopia | San Francisco | 4 | Community","protocol":17,"map":"koth_cascade","folder":"tf","game":"Team Fortress","app_id":440,"player_count":0,"max_players":24,"Bots":0,"server_type":"Dedicated","server_os":"Linux","password":true,"vac":true,"version":"7723704","steam_id":85568392924742826,"keywords":["cp","nocrits","nodmgspread","uncletopia"],"game_id":440,"stv_port":27046,"stv_name":"Uncletopia | San Francisco | 4 | Community | STV","players":null},{"server_id":141,"name":"Uncletopia | Sydney | 1 | All Maps","name_short":"syd-1","host":"syd-1.au.uncletopia.com","port":27015,"enabled":true,"region":"au","cc":"au","latitude":-33.865143,"longitude":151.2099,"reserved":0,"last_update":"0001-01-01T00:00:00Z","name_a2s":"Uncletopia | Sydney | 1 | All Maps","protocol":17,"map":"pl_badwater","folder":"tf","game":"Team Fortress","app_id":440,"player_count":23,"max_players":24,"Bots":0,"server_type":"Dedicated","server_os":"Linux","password":true,"vac":true,"version":"7723704","steam_id":85568392924470001,"keywords":["nocrits","nodmgspread","payload","uncletopia"],"game_id":440,"stv_port":27016,"stv_name":"Uncletopia | Sydney | 1 | All Maps | STV","players":[{"user_id":279,"name":"Kevinrulz2","steam_id":76561199445893884,"connected_time":1721000000000,"state":"active","ping":57},{"user_id":285,"name":"sat_","steam_id":76561198170693338,"connected_time":1460000000000,"state":"active","ping":83},{"user_id":301,"name":"RedEyes","steam_id":76561197973698135,"connected_time":364000000000,"state":"active","ping":70},{"user_id":281,"name":"lofty","steam_id":76561198380588357,"connected_time":1603000000000,"state":"active","ping":67},{"user_id":293,"name":"Mama Origami","steam_id":76561198330338645,"connected_time":822000000000,"state":"active","ping":68},{"user_id":307,"name":"Chocolate Lightning","steam_id":76561198213958971,"connected_time":137000000000,"state":"active","ping":89},{"user_id":289,"name":"P'pot","steam_id":76561198117278590,"connected_time":1129000000000,"state":"active","ping":53},{"user_id":287,"name":"o p t i v e","steam_id":76561198131756192,"connected_time":1431000000000,"state":"active","ping":74},{"user_id":302,"name":"iceage2","steam_id":76561198072382387,"connected_time":313000000000,"state":"active","ping":60},{"user_id":297,"name":"Kiwoo","steam_id":76561198097429186,"connected_time":694000000000,"state":"active","ping":86},{"user_id":292,"name":"Succa","steam_id":76561198398557124,"connected_time":945000000000,"state":"active","ping":52},{"user_id":308,"name":"Burger Man Chips","steam_id":76561198019107403,"connected_time":131000000000,"state":"active","ping":61},{"user_id":295,"name":"MineSweeper2048","steam_id":76561198338746543,"connected_time":799000000000,"state":"active","ping":55},{"user_id":298,"name":"carNgine","steam_id":76561198082140290,"connected_time":625000000000,"state":"active","ping":46},{"user_id":299,"name":"bird","steam_id":76561198258514103,"connected_time":479000000000,"state":"active","ping":56},{"user_id":300,"name":"hawk","steam_id":76561198135164277,"connected_time":437000000000,"state":"active","ping":47},{"user_id":303,"name":"xip","steam_id":76561198067871876,"connected_time":305000000000,"state":"active","ping":93},{"user_id":304,"name":"᠌᠌Bepis","steam_id":76561198160379809,"connected_time":297000000000,"state":"active","ping":87},{"user_id":256,"name":"man ahhh","steam_id":76561198129577552,"connected_time":2733000000000,"state":"active","ping":79},{"user_id":305,"name":"Kuneho","steam_id":76561198215306437,"connected_time":184000000000,"state":"active","ping":72},{"user_id":306,"name":"sweet","steam_id":76561198075311236,"connected_time":159000000000,"state":"active","ping":45},{"user_id":311,"name":"bweegus wagoogus glumbus","steam_id":76561198063481761,"connected_time":12000000000,"state":"active","ping":43},{"user_id":310,"name":"Darren","steam_id":76561198988128327,"connected_time":34000000000,"state":"active","ping":42}]},{"server_id":123,"name":"Uncletopia | Sydney | 2 | All Maps","name_short":"syd-2","host":"syd-1.au.uncletopia.com","port":27025,"enabled":true,"region":"au","cc":"au","latitude":-33.865143,"longitude":151.2099,"reserved":0,"last_update":"0001-01-01T00:00:00Z","name_a2s":"Uncletopia | Sydney | 2 | All Maps","protocol":17,"map":"koth_cascade","folder":"tf","game":"Team Fortress","app_id":440,"player_count":0,"max_players":24,"Bots":0,"server_type":"Dedicated","server_os":"Linux","password":true,"vac":true,"version":"7723704","steam_id":85568392924470002,"keywords":["cp","nocrits","nodmgspread","uncletopia"],"game_id":440,"stv_port":27026,"stv_name":"Uncletopia | Sydney | 2 | All Maps | STV","players":null},{"server_id":395,"name":"Uncletopia | Sydney | 3 | All Maps","name_short":"syd-3","host":"syd-1.au.uncletopia.com","port":27035,"enabled":true,"region":"au","cc":"au","latitude":-33.865143,"longitude":151.2099,"reserved":0,"last_update":"0001-01-01T00:00:00Z","name_a2s":"Uncletopia | Sydney | 3 | All Maps","protocol":17,"map":"cp_mountainlab","folder":"tf","game":"Team Fortress","app_id":440,"player_count":0,"max_players":24,"Bots":0,"server_type":"Dedicated","server_os":"Linux","password":true,"vac":true,"version":"7723704","steam_id":85568392925194467,"keywords":["cp","nocrits","nodmgspread","uncletopia"],"game_id":440,"stv_port":27036,"stv_name":"Uncletopia | Sydney | 3 | All Maps | STV","players":null},{"server_id":396,"name":"Uncletopia | Sydney | 4 | All Maps","name_short":"syd-4","host":"syd-1.au.uncletopia.com","port":27045,"enabled":true,"region":"au","cc":"au","latitude":-33.865143,"longitude":151.2099,"reserved":0,"last_update":"0001-01-01T00:00:00Z","name_a2s":"Uncletopia | Sydney | 4 | All Maps","protocol":17,"map":"koth_viaduct","folder":"tf","game":"Team Fortress","app_id":440,"player_count":0,"max_players":24,"Bots":0,"server_type":"Dedicated","server_os":"Linux","password":true,"vac":true,"version":"7723704","steam_id":85568392925397958,"keywords":["cp","nocrits","nodmgspread","uncletopia"],"game_id":440,"stv_port":27046,"stv_name":"Uncletopia | Sydney | 4 | All Maps | STV","players":null},{"server_id":58,"name":"Uncletopia | Sydney | 5 | Stopwatch Beta","name_short":"syd-5","host":"syd-1.au.uncletopia.com","port":27055,"enabled":true,"region":"au","cc":"au","latitude":-33.865143,"longitude":151.2099,"reserved":0,"last_update":"0001-01-01T00:00:00Z","name_a2s":"Uncletopia | Sydney | 5 | Stopwatch Beta","protocol":17,"map":"cp_altitude","folder":"tf","game":"Team Fortress","app_id":440,"player_count":0,"max_players":24,"Bots":0,"server_type":"Dedicated","server_os":"Linux","password":true,"vac":true,"version":"7723704","steam_id":85568392925397959,"keywords":["cp","nocrits","nodmgspread","uncletopia"],"game_id":440,"stv_port":27056,"stv_name":"Uncletopia | Sydney | 5 | Stopwatch Beta | STV","players":null},{"server_id":59,"name":"Uncletopia | Sydney | 6 | Community","name_short":"syd-6","host":"syd-1.au.uncletopia.com","port":27065,"enabled":true,"region":"au","cc":"au","latitude":-33.865143,"longitude":151.2099,"reserved":0,"last_update":"0001-01-01T00:00:00Z","name_a2s":"Uncletopia | Sydney | 6 | Community","protocol":17,"map":"workshop/cp_caldera_rc2.ugc2834196889","folder":"tf","game":"Team Fortress","app_id":440,"player_count":0,"max_players":24,"Bots":0,"server_type":"Dedicated","server_os":"Linux","password":true,"vac":true,"version":"7723704","steam_id":85568392925397960,"keywords":["cp","nocrits","nodmgspread","uncletopia"],"game_id":440,"stv_port":27066,"stv_name":"Uncletopia | Sydney | 6 | Community | STV","players":null},{"server_id":49,"name":"Uncletopia | Warsaw | 1 | All Maps","name_short":"waw-1","host":"waw-1.pl.uncletopia.com","port":27015,"enabled":true,"region":"eu","cc":"pl","latitude":52.2297,"longitude":21.017532,"reserved":0,"last_update":"0001-01-01T00:00:00Z","name_a2s":"Uncletopia | Warsaw | 1 | All Maps","protocol":17,"map":"cp_snakewater_final1","folder":"tf","game":"Team Fortress","app_id":440,"player_count":0,"max_players":24,"Bots":0,"server_type":"Dedicated","server_os":"Linux","password":true,"vac":true,"version":"7723704","steam_id":85568392925397850,"keywords":["cp","nocrits","nodmgspread","uncletopia"],"game_id":440,"stv_port":27016,"stv_name":"Uncletopia | Warsaw | 1 | All Maps | STV","players":null},{"server_id":50,"name":"Uncletopia | Warsaw | 2 | All Maps","name_short":"waw-2","host":"waw-1.pl.uncletopia.com","port":27025,"enabled":true,"region":"eu","cc":"pl","latitude":52.2297,"longitude":21.017532,"reserved":0,"last_update":"0001-01-01T00:00:00Z","name_a2s":"Uncletopia | Warsaw | 2 | All Maps","protocol":17,"map":"pl_barnblitz","folder":"tf","game":"Team Fortress","app_id":440,"player_count":0,"max_players":24,"Bots":0,"server_type":"Dedicated","server_os":"Linux","password":true,"vac":true,"version":"7723704","steam_id":85568392925397851,"keywords":["nocrits","nodmgspread","payload","uncletopia"],"game_id":440,"stv_port":27026,"stv_name":"Uncletopia | Warsaw | 2 | All Maps | STV","players":null},{"server_id":51,"name":"Uncletopia | Warsaw | 3 | All Maps","name_short":"waw-3","host":"waw-1.pl.uncletopia.com","port":27035,"enabled":true,"region":"eu","cc":"pl","latitude":52.2297,"longitude":21.017532,"reserved":0,"last_update":"0001-01-01T00:00:00Z","name_a2s":"Uncletopia | Warsaw | 3 | All Maps","protocol":17,"map":"pl_barnblitz","folder":"tf","game":"Team Fortress","app_id":440,"player_count":0,"max_players":24,"Bots":0,"server_type":"Dedicated","server_os":"Linux","password":true,"vac":true,"version":"7723704","steam_id":85568392925397852,"keywords":["nocrits","nodmgspread","payload","uncletopia"],"game_id":440,"stv_port":27036,"stv_name":"Uncletopia | Warsaw | 3 | All Maps | STV","players":null},{"server_id":52,"name":"Uncletopia | Warsaw | 4 | All Maps","name_short":"waw-4","host":"waw-1.pl.uncletopia.com","port":27045,"enabled":true,"region":"eu","cc":"pl","latitude":52.2297,"longitude":21.017532,"reserved":0,"last_update":"0001-01-01T00:00:00Z","name_a2s":"Uncletopia | Warsaw | 4 | All Maps","protocol":17,"map":"pl_upward","folder":"tf","game":"Team Fortress","app_id":440,"player_count":0,"max_players":24,"Bots":0,"server_type":"Dedicated","server_os":"Linux","password":true,"vac":true,"version":"7723704","steam_id":85568392925397853,"keywords":["nocrits","nodmgspread","payload","uncletopia"],"game_id":440,"stv_port":27046,"stv_name":"Uncletopia | Warsaw | 4 | All Maps | STV","players":null},{"server_id":53,"name":"Uncletopia | Warsaw | 5 | Stopwatch Beta","name_short":"waw-5","host":"waw-1.pl.uncletopia.com","port":27055,"enabled":true,"region":"eu","cc":"pl","latitude":52.2297,"longitude":21.017532,"reserved":0,"last_update":"0001-01-01T00:00:00Z","name_a2s":"Uncletopia | Warsaw | 5 | Stopwatch Beta","protocol":17,"map":"cp_sunshine","folder":"tf","game":"Team Fortress","app_id":440,"player_count":0,"max_players":24,"Bots":0,"server_type":"Dedicated","server_os":"Linux","password":true,"vac":true,"version":"7723704","steam_id":85568392925397854,"keywords":["cp","nocrits","nodmgspread","uncletopia"],"game_id":440,"stv_port":27056,"stv_name":"Uncletopia | Warsaw | 5 | Stopwatch Beta | STV","players":null},{"server_id":54,"name":"Uncletopia | Warsaw | 6 | Community","name_short":"waw-6","host":"waw-1.pl.uncletopia.com","port":27065,"enabled":true,"region":"eu","cc":"pl","latitude":52.2297,"longitude":21.017532,"reserved":0,"last_update":"0001-01-01T00:00:00Z","name_a2s":"Uncletopia | Warsaw | 6 | Community","protocol":17,"map":"pl_snowycoast","folder":"tf","game":"Team Fortress","app_id":440,"player_count":0,"max_players":24,"Bots":0,"server_type":"Dedicated","server_os":"Linux","password":true,"vac":true,"version":"7723704","steam_id":85568392925397856,"keywords":["nocrits","nodmgspread","payload","uncletopia"],"game_id":440,"stv_port":27066,"stv_name":"Uncletopia | Warsaw | 6 | Community | STV","players":null}]}