{"status":true,"message":"","result":[{"server_id":9,"name":"Uncletopia | Atlanta | 1 | All Maps","name_short":"atl-1","host":"atl-1.us.uncletopia.com","port":27015,"enabled":true,"region":"us-east","cc":"us","latitude":33.753746,"longitude":-84.38633,"reserved":0,"last_update":"0001-01-01T00:00:00Z","name_a2s":"Uncletopia | Atlanta | 1 | All Maps","protocol":17,"map":"pl_barnblitz","folder":"tf","game":"Team Fortress","app_id":440,"player_count":24,"max_players":24,"Bots":0,"server_type":"Dedicated","server_os":"Linux","password":true,"vac":true,"version":"7882260","steam_id":85568392924469982,"keywords":["nocrits","nodmgspread","payload","uncletopia"],"game_id":440,"stv_port":27016,"stv_name":"Uncletopia | Atlanta | 1 | All Maps | STV","players":[{"user_id":609,"name":"Sophie","steam_id":76561198170408057,"connected_time":1957000000000,"state":"active","ping":47},{"user_id":564,"name":"Albino Jellyfish","steam_id":76561198208561097,"connected_time":6439000000000,"state":"active","ping":64},{"user_id":403,"name":"Grand","steam_id":76561198290143399,"connected_time":15779000000000,"state":"active","ping":82},{"user_id":636,"name":":3 (rat star)","steam_id":76561198058890821,"connected_time":1222000000000,"state":"active","ping":67},{"user_id":637,"name":"crunchy obama","steam_id":76561198044485217,"connected_time":1181000000000,"state":"active","ping":115},{"user_id":603,"name":"AlcoholicDad454","steam_id":76561198157414556,"connected_time":2318000000000,"state":"active","ping":67},{"user_id":592,"name":"♥Bunny♥Slut♥","steam_id":76561198206376851,"connected_time":4207000000000,"state":"active","ping":391},{"user_id":589,"name":"Onyx","steam_id":76561198275349640,"connected_time":4610000000000,"state":"active","ping":74},{"user_id":631,"name":"rose","steam_id":76561198048882285,"connected_time":1496000000000,"state":"active","ping":60},{"user_id":596,"name":"Lifial","steam_id":76561198271885819,"connected_time":3376000000000,"state":"active","ping":80},{"user_id":627,"name":"Walt","steam_id":76561198964107245,"connected_time":1708000000000,"state":"active","ping":91},{"user_id":649,"name":"sharkbyt3","steam_id":76561197985793803,"connected_time":633000000000,"state":"active","ping":78},{"user_id":532,"name":"Hope","steam_id":76561199182558088,"connected_time":9278000000000,"state":"active","ping":88},{"user_id":586,"name":"Chip Skylark","steam_id":76561198148263717,"connected_time":5079000000000,"state":"active","ping":53},{"user_id":644,"name":"cola","steam_id":76561198374390458,"connected_time":775000000000,"state":"active","ping":53},{"user_id":602,"name":"Monkey Mode","steam_id":76561197961267543,"connected_time":3001000000000,"state":"active","ping":59},{"user_id":650,"name":"The CEO of cement","steam_id":76561199107177460,"connected_time":520000000000,"state":"active","ping":112},{"user_id":611,"name":"God's Sleepiest Puppy Girl","steam_id":76561198070315609,"connected_time":1921000000000,"state":"active","ping":45},{"user_id":651,"name":"basmati jarate","steam_id":76561198319442494,"connected_time":111000000000,"state":"active","ping":107},{"user_id":563,"name":"xX_HimboSwallower_Xx","steam_id":76561198016029965,"connected_time":6459000000000,"state":"active","ping":65},{"user_id":643,"name":"Ashes!","steam_id":76561197998475441,"connected_time":907000000000,"state":"active","ping":79},{"user_id":621,"name":"Gus","steam_id":76561198085203150,"connected_time":1750000000000,"state":"active","ping":68},{"user_id":599,"name":"Jesse","steam_id":76561198157305426,"connected_time":3227000000000,"state":"active","ping":47},{"user_id":575,"name":"WANNA SPOON TONIGHT?","steam_id":76561199039152146,"connected_time":6089000000000,"state":"active","ping":86}]},{"server_id":104,"name":"Uncletopia | Atlanta | 2 | All Maps","name_short":"atl-2","host":"atl-1.us.uncletopia.com","port":27025,"enabled":true,"region":"us-east","cc":"us","latitude":33.753746,"longitude":-84.38633,"reserved":0,"last_update":"0001-01-01T00:00:00Z","name_a2s":"Uncletopia | Atlanta | 2 | All Maps","protocol":17,"map":"pl_borneo","folder":"tf","game":"Team Fortress","app_id":440,"player_count":24,"max_players":24,"Bots":0,"server_type":"Dedicated","server_os":"Linux","password":true,"vac":true,"version":"7882260","steam_id":85568392924469983,"keywords":["nocrits","nodmgspread","payload","uncletopia"],"game_id":440,"stv_port":27026,"stv_name":"Uncletopia | Atlanta | 2 | All Maps | STV","players":[{"user_id":536,"name":"sock","steam_id":76561199117597830,"connected_time":5059000000000,"state":"active","ping":45},{"user_id":586,"name":"Cloud","steam_id":76561198954987128,"connected_time":1479000000000,"state":"active","ping":53},{"user_id":599,"name":"DanFango","steam_id":76561198078300753,"connected_time":55000000000,"state":"active","ping":58},{"user_id":584,"name":"SpaceLeezerd","steam_id":76561198171026678,"connected_time":2125000000000,"state":"active","ping":74},{"user_id":534,"name":"Hey","steam_id":76561198447517893,"connected_time":5114000000000,"state":"active","ping":62},{"user_id":537,"name":"INeverFold","steam_id":76561198285482224,"connected_time":5014000000000,"state":"active","ping":58},{"user_id":588,"name":"Flaxks","steam_id":76561198410260447,"connected_time":1335000000000,"state":"active","ping":76},{"user_id":539,"name":"Mentle","steam_id":76561198355007942,"connected_time":4995000000000,"state":"active","ping":83},{"user_id":595,"name":"Meowcenary","steam_id":76561197998566857,"connected_time":105000000000,"state":"active","ping":105},{"user_id":542,"name":"AncientMecha","steam_id":76561197984921885,"connected_time":4885000000000,"state":"active","ping":87},{"user_id":543,"name":"Sam","steam_id":76561197991129901,"connected_time":4880000000000,"state":"active","ping":74},{"user_id":545,"name":"Jonesy","steam_id":76561197972504789,"connected_time":4828000000000,"state":"active","ping":72},{"user_id":596,"name":"honk","steam_id":76561198050398028,"connected_time":98000000000,"state":"active","ping":74},{"user_id":591,"name":"veldt","steam_id":76561198056135308,"connected_time":1288000000000,"state":"active","ping":84},{"user_id":554,"name":"SAYORI GANG","steam_id":76561198828562719,"connected_time":4504000000000,"state":"active","ping":59},{"user_id":600,"name":"dipp","steam_id":76561198395577807,"connected_time":28000000000,"state":"active","ping":68},{"user_id":572,"name":"Tibbers802","steam_id":76561198126820813,"connected_time":3492000000000,"state":"active","ping":89},{"user_id":587,"name":"woohoo yeehaw","steam_id":76561198057076267,"connected_time":1355000000000,"state":"active","ping":73},{"user_id":570,"name":"Apsev","steam_id":76561198119867604,"connected_time":3522000000000,"state":"active","ping":83},{"user_id":577,"name":"KlulessKitsune","steam_id":76561198136903610,"connected_time":3286000000000,"state":"active","ping":55},{"user_id":592,"name":"Dr. Professor PJ, Ph.D","steam_id":76561198004429398,"connected_time":1092000000000,"state":"active","ping":32},{"user_id":601,"name":"Rin \"Hindwing\" Redtail","steam_id":76561199074865638,"connected_time":22000000000,"state":"active","ping":84},{"user_id":575,"name":"2Kawaii2Die","steam_id":76561197978670111,"connected_time":3446000000000,"state":"active","ping":90},{"user_id":564,"name":"ACOLYTE","steam_id":76561198058793778,"connected_time":4412000000000,"state":"active","ping":74}]},{"server_id":400,"name":"Uncletopia | Atlanta | 3 | Community","name_short":"atl-3","host":"atl-1.us.uncletopia.com","port":27035,"enabled":true,"region":"us-east","cc":"us","latitude":33.753746,"longitude":-84.38633,"reserved":0,"last_update":"0001-01-01T00:00:00Z","name_a2s":"Uncletopia | Atlanta | 3 | Community","protocol":17,"map":"workshop/pl_cactuscanyon_redux_final2.ugc2579644293","folder":"tf","game":"Team Fortress","app_id":440,"player_count":24,"max_players":24,"Bots":0,"server_type":"Dedicated","server_os":"Linux","password":true,"vac":true,"version":"7882260","steam_id":85568392924515187,"keywords":["nocrits","nodmgspread","payload","uncletopia"],"game_id":440,"stv_port":27036,"stv_name":"Uncletopia | Atlanta | 3 | Community | STV","players":[{"user_id":506,"name":"Gad","steam_id":76561198020792373,"connected_time":1466000000000,"state":"active","ping":53},{"user_id":508,"name":"AzuriousAlex","steam_id":76561198158026405,"connected_time":1070000000000,"state":"active","ping":90},{"user_id":458,"name":"Kawhi","steam_id":76561198063926342,"connected_time":6025000000000,"state":"active","ping":74},{"user_id":486,"name":"FlirtyFlora","steam_id":76561197972862623,"connected_time":4122000000000,"state":"active","ping":114},{"user_id":524,"name":"Sup m8","steam_id":76561198081659121,"connected_time":672000000000,"state":"active","ping":59},{"user_id":510,"name":"FamishedNinja","steam_id":76561198310786497,"connected_time":1055000000000,"state":"active","ping":97},{"user_id":511,"name":"Aldinach","steam_id":76561198079912615,"connected_time":1037000000000,"state":"active","ping":62},{"user_id":429,"name":"Brendan","steam_id":76561198041079914,"connected_time":8220000000000,"state":"active","ping":63},{"user_id":502,"name":"LordKirby","steam_id":76561198006938286,"connected_time":2508000000000,"state":"active","ping":115},{"user_id":512,"name":"Nephi","steam_id":76561198031525122,"connected_time":1014000000000,"state":"active","ping":97},{"user_id":513,"name":"DiscoTraveler","steam_id":76561199240168088,"connected_time":1000000000000,"state":"active","ping":71},{"user_id":514,"name":"Mr. Crispy Lips","steam_id":76561198028157625,"connected_time":988000000000,"state":"active","ping":104},{"user_id":503,"name":"Zeqna","steam_id":76561199054770509,"connected_time":2278000000000,"state":"active","ping":82},{"user_id":483,"name":"Mr_Frosty","steam_id":76561199380389079,"connected_time":4183000000000,"state":"active","ping":86},{"user_id":500,"name":"xerro","steam_id":76561198323340524,"connected_time":2640000000000,"state":"active","ping":146},{"user_id":497,"name":"I am a mooshroom","steam_id":76561198104198295,"connected_time":2923000000000,"state":"active","ping":82},{"user_id":507,"name":"Evenaris","steam_id":76561198087544319,"connected_time":1104000000000,"state":"active","ping":105},{"user_id":525,"name":"Crumpel","steam_id":76561198070408615,"connected_time":344000000000,"state":"active","ping":46},{"user_id":487,"name":"Intrusive Horse","steam_id":76561197982264970,"connected_time":4053000000000,"state":"active","ping":107},{"user_id":501,"name":"TTV Hunter","steam_id":76561198115812405,"connected_time":2531000000000,"state":"active","ping":86},{"user_id":516,"name":"Tots","steam_id":76561198027485007,"connected_time":911000000000,"state":"active","ping":49},{"user_id":526,"name":"jose_gonzalez2013","steam_id":76561198015445848,"connected_time":70000000000,"state":"active","ping":95},{"user_id":527,"name":"yeyoi","steam_id":76561198069821885,"connected_time":52000000000,"state":"active","ping":50},{"user_id":521,"name":"Hagane Miku Fan","steam_id":76561198377917071,"connected_time":816000000000,"state":"active","ping":53}]},{"server_id":401,"name":"Uncletopia | Atlanta | 4 | No Payload","name_short":"atl-4","host":"atl-1.us.uncletopia.com","port":27045,"enabled":true,"region":"us-east","cc":"us","latitude":33.753746,"longitude":-84.38633,"reserved":0,"last_update":"0001-01-01T00:00:00Z","name_a2s":"","protocol":0,"map":"","folder":"","game":"","app_id":0,"player_count":0,"max_players":0,"Bots":0,"server_type":"","server_os":"","password":false,"vac":false,"version":"","steam_id":0,"keywords":null,"game_id":0,"stv_port":0,"stv_name":"","players":null},{"server_id":2,"name":"Uncletopia | Chicago | 1 | All Maps","name_short":"chi-1","host":"chi-1.us.uncletopia.com","port":27015,"enabled":true,"region":"us-central","cc":"us","latitude":41.881832,"longitude":-87.62318,"reserved":0,"last_update":"0001-01-01T00:00:00Z","name_a2s":"Uncletopia | Chicago | 1 | All Maps","protocol":17,"map":"cp_snowplow","folder":"tf","game":"Team Fortress","app_id":440,"player_count":24,"max_players":24,"Bots":0,"server_type":"Dedicated","server_os":"Linux","password":true,"vac":true,"version":"7882260","steam_id":85568392924469984,"keywords":["nocrits","nodmgspread","payload","uncletopia"],"game_id":440,"stv_port":27016,"stv_name":"Uncletopia | Chicago | 1 | All Maps | STV","players":[{"user_id":603,"name":"Jamendithas","steam_id":76561198119537716,"connected_time":2801000000000,"state":"active","ping":85},{"user_id":553,"name":"Lia_Rein","steam_id":76561198151569597,"connected_time":9006000000000,"state":"active","ping":140},{"user_id":598,"name":"EmeraldCola","steam_id":76561198066663687,"connected_time":3092000000000,"state":"active","ping":71},{"user_id":594,"name":"Anthid","steam_id":76561198074493797,"connected_time":3305000000000,"state":"active","ping":71},{"user_id":620,"name":"[UHS] K24A4 2.4","steam_id":76561199072970627,"connected_time":197000000000,"state":"active","ping":44},{"user_id":565,"name":"Hooked","steam_id":76561198007302139,"connected_time":7266000000000,"state":"active","ping":77},{"user_id":573,"name":"Fudge_Cake","steam_id":76561198059218167,"connected_time":5982000000000,"state":"active","ping":77},{"user_id":609,"name":"underworld","steam_id":76561198173047169,"connected_time":2089000000000,"state":"active","ping":58},{"user_id":604,"name":"Thundermonkey (SMOKE)","steam_id":76561198017631728,"connected_time":2560000000000,"state":"active","ping":66},{"user_id":621,"name":"Acehay14","steam_id":76561198052373291,"connected_time":55000000000,"state":"spawning","ping":61},{"user_id":589,"name":"Hylic","steam_id":76561199051314589,"connected_time":3753000000000,"state":"active","ping":70},{"user_id":617,"name":"Mechilly","steam_id":76561198310272586,"connected_time":584000000000,"state":"active","ping":65},{"user_id":583,"name":"Your Local Queer Librarian","steam_id":76561198013077080,"connected_time":4021000000000,"state":"active","ping":59},{"user_id":618,"name":"tA.CHRONIC","steam_id":76561197960760990,"connected_time":311000000000,"state":"active","ping":53},{"user_id":610,"name":"Doublebagel47","steam_id":76561198832021744,"connected_time":1442000000000,"state":"active","ping":75},{"user_id":606,"name":"Wizard Raccoon","steam_id":76561198072562591,"connected_time":2509000000000,"state":"active","ping":84},{"user_id":613,"name":"DinkleBerg","steam_id":76561198891626233,"connected_time":800000000000,"state":"active","ping":74},{"user_id":586,"name":"Captain S. Forrest","steam_id":76561198062463029,"connected_time":4000000000000,"state":"active","ping":71},{"user_id":615,"name":"thecal","steam_id":76561198307893384,"connected_time":746000000000,"state":"active","ping":54},{"user_id":608,"name":"Der Krieger105","steam_id":76561197978384609,"connected_time":2429000000000,"state":"active","ping":85},{"user_id":614,"name":"RADIO","steam_id":76561198044489449,"connected_time":800000000000,"state":"active","ping":64},{"user_id":602,"name":"Swash","steam_id":76561197969421355,"connected_time":2816000000000,"state":"active","ping":65},{"user_id":612,"name":"E4Estrogen","steam_id":76561198085813708,"connected_time":1416000000000,"state":"active","ping":71},{"user_id":584,"name":"Glue Gulper","steam_id":76561198158014525,"connected_time":4021000000000,"state":"active","ping":61}]},{"server_id":106,"name":"Uncletopia | Chicago | 2 | All Maps","name_short":"chi-2","host":"chi-1.us.uncletopia.com","port":27025,"enabled":true,"region":"us-central","cc":"us","latitude":41.881832,"longitude":-87.62318,"reserved":0,"last_update":"0001-01-01T00:00:00Z","name_a2s":"Uncletopia | Chicago | 2 | All Maps","protocol":17,"map":"pl_barnblitz","folder":"tf","game":"Team Fortress","app_id":440,"player_count":24,"max_players":24,"Bots":0,"server_type":"Dedicated","server_os":"Linux","password":true,"vac":true,"version":"7882260","steam_id":85568392924469985,"keywords":["nocrits","nodmgspread","payload","uncletopia"],"game_id":440,"stv_port":27026,"stv_name":"Uncletopia | Chicago | 2 | All Maps | STV","players":[{"user_id":570,"name":"ShadowDragon0125","steam_id":76561198343849022,"connected_time":1117000000000,"state":"active","ping":78},{"user_id":566,"name":"jacob","steam_id":76561198414862905,"connected_time":1681000000000,"state":"active","ping":58},{"user_id":550,"name":"ʕ•ᴥ•ʔ the bear","steam_id":76561197989591976,"connected_time":3026000000000,"state":"active","ping":73},{"user_id":576,"name":"Peppino","steam_id":76561198189176634,"connected_time":577000000000,"state":"active","ping":98},{"user_id":562,"name":"koemu","steam_id":76561198077449460,"connected_time":1991000000000,"state":"active","ping":63},{"user_id":571,"name":"0","steam_id":76561198046055673,"connected_time":1109000000000,"state":"active","ping":73},{"user_id":578,"name":"Oopsie Daisy ❋","steam_id":76561198042144492,"connected_time":376000000000,"state":"active","ping":76},{"user_id":577,"name":"gundog","steam_id":76561198063240044,"connected_time":379000000000,"state":"active","ping":70},{"user_id":522,"name":"I AM Malik","steam_id":76561198322021485,"connected_time":5258000000000,"state":"active","ping":64},{"user_id":534,"name":"Paleo","steam_id":76561198053493855,"connected_time":4702000000000,"state":"active","ping":51},{"user_id":547,"name":"The Law","steam_id":76561198202209948,"connected_time":3181000000000,"state":"active","ping":47},{"user_id":564,"name":"Double Donk Gaming","steam_id":76561198209881263,"connected_time":1751000000000,"state":"active","ping":94},{"user_id":567,"name":"seldom","steam_id":76561198166193756,"connected_time":1150000000000,"state":"active","ping":71},{"user_id":553,"name":"PigPig","steam_id":76561198068190834,"connected_time":2994000000000,"state":"active","ping":115},{"user_id":538,"name":"♦","steam_id":76561198114471719,"connected_time":3965000000000,"state":"active","ping":56},{"user_id":536,"name":"EngarDew","steam_id":76561198052648471,"connected_time":3986000000000,"state":"active","ping":84},{"user_id":574,"name":"Pepsiman","steam_id":76561198046891909,"connected_time":844000000000,"state":"active","ping":43},{"user_id":453,"name":"Clean Lines","steam_id":76561197960691518,"connected_time":10460000000000,"state":"active","ping":60},{"user_id":561,"name":"Spaceman","steam_id":76561198349305249,"connected_time":2379000000000,"state":"active","ping":112},{"user_id":572,"name":"kksmrecker","steam_id":76561199122869459,"connected_time":1088000000000,"state":"active","ping":86},{"user_id":568,"name":"ClericsRose","steam_id":76561198011013806,"connected_time":1142000000000,"state":"active","ping":79},{"user_id":573,"name":"Swole Jesus","steam_id":76561199085545225,"connected_time":1087000000000,"state":"active","ping":56},{"user_id":575,"name":"Thy Stupid Rat","steam_id":76561198272075712,"connected_time":841000000000,"state":"active","ping":81},{"user_id":555,"name":"Cyclops_672","steam_id":76561198080169497,"connected_time":2988000000000,"state":"active","ping":61}]},{"server_id":402,"name":"Uncletopia | Chicago | 3 | All Maps","name_short":"chi-3","host":"chi-1.us.uncletopia.com","port":27035,"enabled":true,"region":"us-central","cc":"us","latitude":41.881832,"longitude":-87.62318,"reserved":0,"last_update":"0001-01-01T00:00:00Z","name_a2s":"Uncletopia | Chicago | 3 | All Maps","protocol":17,"map":"cp_sunshine","folder":"tf","game":"Team Fortress","app_id":440,"player_count":24,"max_players":24,"Bots":0,"server_type":"Dedicated","server_os":"Linux","password":true,"vac":true,"version":"7882260","steam_id":85568392924515191,"keywords":["cp","nocrits","nodmgspread","uncletopia"],"game_id":440,"stv_port":27036,"stv_name":"Uncletopia | Chicago | 3 | All Maps | STV","players":[{"user_id":718,"name":"ArnoldGamingﾠٴ","steam_id":76561198040140247,"connected_time":1212000000000,"state":"active","ping":99},{"user_id":712,"name":"Poyo Boyo","steam_id":76561198010201227,"connected_time":1771000000000,"state":"active","ping":74},{"user_id":723,"name":"CC","steam_id":76561198071226149,"connected_time":390000000000,"state":"active","ping":80},{"user_id":547,"name":"the headphones you lost","steam_id":76561199201098634,"connected_time":13128000000000,"state":"active","ping":62},{"user_id":706,"name":"8bean","steam_id":76561198239138132,"connected_time":2342000000000,"state":"active","ping":59},{"user_id":692,"name":"clavin_","steam_id":76561198046398447,"connected_time":2725000000000,"state":"active","ping":47},{"user_id":717,"name":"Neco-Arc","steam_id":76561198196211121,"connected_time":1228000000000,"state":"active","ping":88},{"user_id":694,"name":"Nihplod_","steam_id":76561199010320094,"connected_time":2712000000000,"state":"active","ping":54},{"user_id":703,"name":"Lumi","steam_id":76561198089978036,"connected_time":2470000000000,"state":"active","ping":70},{"user_id":697,"name":"kitarooni","steam_id":76561197995012442,"connected_time":2661000000000,"state":"active","ping":45},{"user_id":725,"name":"derdds","steam_id":76561198034339940,"connected_time":46000000000,"state":"active","ping":59},{"user_id":713,"name":"edgඞr","steam_id":76561198369967690,"connected_time":1770000000000,"state":"active","ping":68},{"user_id":698,"name":"Riandox","steam_id":76561198130577326,"connected_time":2621000000000,"state":"active","ping":76},{"user_id":677,"name":"El_Jackso","steam_id":76561198126121555,"connected_time":4772000000000,"state":"active","ping":53},{"user_id":720,"name":"krypt","steam_id":76561198056186750,"connected_time":1119000000000,"state":"active","ping":49},{"user_id":699,"name":"jorts","steam_id":76561199041179985,"connected_time":2617000000000,"state":"active","ping":115},{"user_id":721,"name":"AVOID EVERYONE","steam_id":76561198051852765,"connected_time":1116000000000,"state":"active","ping":178},{"user_id":700,"name":"tim-","steam_id":76561199119101315,"connected_time":2600000000000,"state":"active","ping":73},{"user_id":685,"name":"Shoeshocker","steam_id":76561198174302467,"connected_time":4090000000000,"state":"active","ping":69},{"user_id":724,"name":"ez$ 6'5\"","steam_id":76561198094027709,"connected_time":122000000000,"state":"active","ping":91},{"user_id":683,"name":"trash","steam_id":76561199069759034,"connected_time":4319000000000,"state":"active","ping":50},{"user_id":716,"name":"1","steam_id":76561199085984801,"connected_time":1325000000000,"state":"active","ping":166},{"user_id":684,"name":"GooniOoni","steam_id":76561198102154561,"connected_time":4310000000000,"state":"active","ping":44},{"user_id":705,"name":"AreYouMyMummy?","steam_id":76561197995101745,"connected_time":2427000000000,"state":"active","ping":67}]},{"server_id":403,"name":"Uncletopia | Chicago | 4 | All Maps","name_short":"chi-4","host":"chi-1.us.uncletopia.com","port":27045,"enabled":true,"region":"us-central","cc":"us","latitude":41.881832,"longitude":-87.62318,"reserved":0,"last_update":"0001-01-01T00:00:00Z","name_a2s":"Uncletopia | Chicago | 4 | All Maps","protocol":17,"map":"pl_pier","folder":"tf","game":"Team Fortress","app_id":440,"player_count":24,"max_players":24,"Bots":0,"server_type":"Dedicated","server_os":"Linux","password":true,"vac":true,"version":"7882260","steam_id":85568392924515193,"keywords":["nocrits","nodmgspread","payload","uncletopia"],"game_id":440,"stv_port":27046,"stv_name":"Uncletopia | Chicago | 4 | All Maps | STV","players":[{"user_id":354,"name":"TwelvePackofSaltyBones","steam_id":76561198224764664,"connected_time":305000000000,"state":"active","ping":55},{"user_id":310,"name":"TheGrassMan (He/Him)","steam_id":76561198118984048,"connected_time":3501000000000,"state":"active","ping":60},{"user_id":302,"name":"Baby gaming","steam_id":76561198867319323,"connected_time":3704000000000,"state":"active","ping":65},{"user_id":337,"name":"Timely","steam_id":76561198075066099,"connected_time":739000000000,"state":"active","ping":83},{"user_id":338,"name":"sweaver","steam_id":76561199156551835,"connected_time":721000000000,"state":"active","ping":54},{"user_id":339,"name":"Quillz","steam_id":76561197996567754,"connected_time":717000000000,"state":"active","ping":65},{"user_id":333,"name":"Hindmost","steam_id":76561199081837220,"connected_time":847000000000,"state":"active","ping":90},{"user_id":340,"name":"HanakoToast","steam_id":76561198045233131,"connected_time":710000000000,"state":"active","ping":119},{"user_id":288,"name":"Fstev ✘","steam_id":76561198358766202,"connected_time":5075000000000,"state":"active","ping":148},{"user_id":342,"name":"Gubbington","steam_id":76561198959381302,"connected_time":696000000000,"state":"active","ping":78},{"user_id":275,"name":"Scooter O'Boyl","steam_id":76561197971687069,"connected_time":6423000000000,"state":"active","ping":74},{"user_id":294,"name":"[Champ] Marssygurl","steam_id":76561198014928241,"connected_time":4618000000000,"state":"active","ping":92},{"user_id":355,"name":"farfalle","steam_id":76561198882758067,"connected_time":261000000000,"state":"active","ping":75},{"user_id":344,"name":"Dr Smeggman","steam_id":76561197966614845,"connected_time":680000000000,"state":"active","ping":135},{"user_id":331,"name":"goose","steam_id":76561198367551668,"connected_time":1026000000000,"state":"active","ping":51},{"user_id":306,"name":"k3ramb1t","steam_id":76561198097880352,"connected_time":3657000000000,"state":"active","ping":76},{"user_id":348,"name":"Lefty Schol Rides Again","steam_id":76561199405378993,"connected_time":563000000000,"state":"active","ping":71},{"user_id":353,"name":"not actually a farmer","steam_id":76561198075216115,"connected_time":472000000000,"state":"active","ping":137},{"user_id":334,"name":"jimmyfnaf172198yay","steam_id":76561198311446636,"connected_time":828000000000,"state":"active","ping":58},{"user_id":356,"name":"sadie420","steam_id":76561198096080503,"connected_time":84000000000,"state":"active","ping":65},{"user_id":304,"name":"Ducky","steam_id":76561198158624190,"connected_time":3666000000000,"state":"active","ping":56},{"user_id":281,"name":"Wolf Hat","steam_id":76561198099996051,"connected_time":6096000000000,"state":"active","ping":64},{"user_id":325,"name":"Zornplays","steam_id":76561199175292302,"connected_time":1854000000000,"state":"active","ping":132},{"user_id":309,"name":"Wiener Hole Paper Cut","steam_id":76561198000808203,"connected_time":3527000000000,"state":"active","ping":72}]},{"server_id":36,"name":"Uncletopia | Chicago | 5 | All Maps","name_short":"chi-5","host":"chi-2.us.uncletopia.com","port":27015,"enabled":true,"region":"us-central","cc":"us","latitude":41.881832,"longitude":-87.62318,"reserved":0,"last_update":"0001-01-01T00:00:00Z","name_a2s":"Uncletopia | Chicago | 5 | All Maps","protocol":17,"map":"pl_barnblitz","folder":"tf","game":"Team Fortress","app_id":440,"player_count":24,"max_players":24,"Bots":0,"server_type":"Dedicated","server_os":"Linux","password":true,"vac":true,"version":"7882260","steam_id":85568392924866362,"keywords":["nocrits","nodmgspread","payload","uncletopia"],"game_id":440,"stv_port":27016,"stv_name":"Uncletopia | Chicago | 5 | All Maps | STV","players":[{"user_id":542,"name":"Rat","steam_id":76561198128926034,"connected_time":964000000000,"state":"active","ping":75},{"user_id":543,"name":"finn","steam_id":76561198257531708,"connected_time":945000000000,"state":"active","ping":59},{"user_id":547,"name":"souljaboytellem.com","steam_id":76561198111975583,"connected_time":643000000000,"state":"active","ping":77},{"user_id":490,"name":"Retro Phoenix","steam_id":76561198077176271,"connected_time":3697000000000,"state":"active","ping":63},{"user_id":541,"name":"Pseudo","steam_id":76561198026679489,"connected_time":1080000000000,"state":"active","ping":69},{"user_id":544,"name":"stevert99","steam_id":76561198116762032,"connected_time":944000000000,"state":"active","ping":60},{"user_id":545,"name":"Shady Businessman","steam_id":76561198143855968,"connected_time":912000000000,"state":"active","ping":93},{"user_id":546,"name":"TastyWheat","steam_id":76561198855061918,"connected_time":818000000000,"state":"active","ping":114},{"user_id":559,"name":"Prsm","steam_id":76561198053344995,"connected_time":395000000000,"state":"active","ping":59},{"user_id":548,"name":"Bluedemon","steam_id":76561199212058684,"connected_time":626000000000,"state":"active","ping":106},{"user_id":555,"name":"Loogey03","steam_id":76561198155483586,"connected_time":489000000000,"state":"active","ping":52},{"user_id":566,"name":"laurencegabe","steam_id":76561199229727508,"connected_time":159000000000,"state":"active","ping":83},{"user_id":551,"name":"Veritox","steam_id":76561198075778026,"connected_time":592000000000,"state":"active","ping":108},{"user_id":552,"name":"squid","steam_id":76561198070236972,"connected_time":587000000000,"state":"active","ping":106},{"user_id":515,"name":"BorosLegate","steam_id":76561198058629882,"connected_time":3180000000000,"state":"active","ping":65},{"user_id":561,"name":"Clumsy","steam_id":76561198056345245,"connected_time":337000000000,"state":"active","ping":69},{"user_id":554,"name":"shadowknight","steam_id":76561198346998108,"connected_time":517000000000,"state":"active","ping":100},{"user_id":556,"name":"brroddyy","steam_id":76561198343540172,"connected_time":467000000000,"state":"active","ping":81},{"user_id":557,"name":"cfs._","steam_id":76561198052978969,"connected_time":461000000000,"state":"active","ping":69},{"user_id":558,"name":"Flan","steam_id":76561198806992589,"connected_time":446000000000,"state":"active","ping":117},{"user_id":562,"name":"lost in spaaaaace","steam_id":76561199085974120,"connected_time":325000000000,"state":"active","ping":84},{"user_id":563,"name":"Your Local NPR Station","steam_id":76561198143830279,"connected_time":323000000000,"state":"active","ping":62},{"user_id":564,"name":"SalTev","steam_id":76561198350069373,"connected_time":298000000000,"state":"active","ping":73},{"user_id":565,"name":"Owl Pacino","steam_id":76561197979970666,"connected_time":294000000000,"state":"active","ping":59}]},{"server_id":37,"name":"Uncletopia | Chicago | 6 | All Maps","name_short":"chi-6","host":"chi-2.us.uncletopia.com","port":27025,"enabled":true,"region":"us-central","cc":"us","latitude":41.881832,"longitude":-87.62318,"reserved":0,"last_update":"0001-01-01T00:00:00Z","name_a2s":"Uncletopia | Chicago | 6 | All Maps","protocol":17,"map":"pl_barnblitz","folder":"tf","game":"Team Fortress","app_id":440,"player_count":25,"max_players":24,"Bots":0,"server_type":"Dedicated","server_os":"Linux","password":true,"vac":true,"version":"7882260","steam_id":85568392924866363,"keywords":["nocrits","nodmgspread","payload","uncletopia"],"game_id":440,"stv_port":27026,"stv_name":"Uncletopia | Chicago | 6 | All Maps | STV","players":[{"user_id":211,"name":"Apricot","steam_id":76561198355699935,"connected_time":105000000000,"state":"active","ping":67},{"user_id":202,"name":"Toost","steam_id":76561199157709834,"connected_time":820000000000,"state":"active","ping":65},{"user_id":212,"name":"Vacket","steam_id":76561198161868015,"connected_time":92000000000,"state":"active","ping":72},{"user_id":208,"name":"Odyessy","steam_id":76561198051564419,"connected_time":398000000000,"state":"active","ping":81},{"user_id":213,"name":"Silvercoat's Stargazer","steam_id":76561198399525329,"connected_time":68000000000,"state":"active","ping":80},{"user_id":222,"name":"scrotal recall","steam_id":76561198135945598,"connected_time":1000000000,"state":"spawning","ping":62},{"user_id":209,"name":"whats an egg","steam_id":76561198991039398,"connected_time":395000000000,"state":"active","ping":75},{"user_id":159,"name":"Vapor Man","steam_id":76561198210173112,"connected_time":5328000000000,"state":"active","ping":161},{"user_id":210,"name":"Rick Assley","steam_id":76561198365019199,"connected_time":311000000000,"state":"active","ping":63},{"user_id":214,"name":"borzier","steam_id":76561198069190432,"connected_time":66000000000,"state":"active","ping":81},{"user_id":195,"name":"Fluff","steam_id":76561198255399052,"connected_time":1696000000000,"state":"active","ping":62},{"user_id":206,"name":"loader","steam_id":76561199196442823,"connected_time":564000000000,"state":"active","ping":129},{"user_id":178,"name":"it's peanut time","steam_id":76561198236028020,"connected_time":3937000000000,"state":"active","ping":127},{"user_id":215,"name":"gawab3","steam_id":76561198370459596,"connected_time":63000000000,"state":"active","ping":62},{"user_id":165,"name":"hookerfucker5000000000","steam_id":76561198063099828,"connected_time":4993000000000,"state":"active","ping":45},{"user_id":189,"name":"goobma","steam_id":76561198057017027,"connected_time":2406000000000,"state":"active","ping":75},{"user_id":83,"name":"jooby","steam_id":76561198131065492,"connected_time":10905000000000,"state":"active","ping":70},{"user_id":216,"name":"gruesome twosome","steam_id":76561198380018244,"connected_time":49000000000,"state":"active","ping":75},{"user_id":158,"name":"cinamin.kake","steam_id":76561199003171233,"connected_time":5361000000000,"state":"active","ping":76},{"user_id":182,"name":"BarrowBaron","steam_id":76561198013633236,"connected_time":3545000000000,"state":"active","ping":70},{"user_id":217,"name":"27lb Costco Mack N Cheese Bucke","steam_id":76561198070591328,"connected_time":39000000000,"state":"active","ping":56},{"user_id":150,"name":"smoking on bhutanese shadow pac","steam_id":76561198095313463,"connected_time":6544000000000,"state":"active","ping":84},{"user_id":207,"name":"LILOSAMA","steam_id":76561198316332462,"connected_time":486000000000,"state":"active","ping":70},{"user_id":220,"name":"PageBoiSkull","steam_id":76561198237353578,"connected_time":24000000000,"state":"active","ping":112},{"user_id":223,"name":"The Winter Medic","steam_id":76561198197112922,"connected_time":0,"state":"spawning","ping":27}]},{"server_id":38,"name":"Uncletopia | Chicago | 7 | Stopwatch Beta","name_short":"chi-7","host":"chi-2.us.uncletopia.com","port":27035,"enabled":true,"region":"us-central","cc":"us","latitude":41.881832,"longitude":-87.62318,"reserved":0,"last_update":"0001-01-01T00:00:00Z","name_a2s":"Uncletopia | Chicago | 7 | Stopwatch Beta","protocol":17,"map":"cp_process_final","folder":"tf","game":"Team Fortress","app_id":440,"player_count":21,"max_players":24,"Bots":0,"server_type":"Dedicated","server_os":"Linux","password":true,"vac":true,"version":"7882260","steam_id":85568392924866364,"keywords":["cp","nocrits","nodmgspread","uncletopia"],"game_id":440,"stv_port":27036,"stv_name":"Uncletopia | Chicago | 7 | Stopwatch Beta | STV","players":[{"user_id":76,"name":"6 million bees","steam_id":76561198400438007,"connected_time":807000000000,"state":"active","ping":51},{"user_id":69,"name":"Snoopy","steam_id":76561198273735974,"connected_time":1253000000000,"state":"active","ping":100},{"user_id":91,"name":"Plutaya","steam_id":76561198054538385,"connected_time":55000000000,"state":"active","ping":75},{"user_id":82,"name":"Bliss","steam_id":76561199238105890,"connected_time":542000000000,"state":"active","ping":404},{"user_id":83,"name":"Rick","steam_id":76561199150297078,"connected_time":536000000000,"state":"active","ping":119},{"user_id":18,"name":"hindo","steam_id":76561199190501445,"connected_time":3684000000000,"state":"active","ping":66},{"user_id":87,"name":"StuartBell511","steam_id":76561198060931721,"connected_time":403000000000,"state":"active","ping":74},{"user_id":84,"name":"bring back the goddamn mcrib","steam_id":76561198326083509,"connected_time":533000000000,"state":"active","ping":83},{"user_id":81,"name":"GodandTitans","steam_id":76561198070070155,"connected_time":653000000000,"state":"active","ping":93},{"user_id":63,"name":"fishy butters ♠","steam_id":76561198147453405,"connected_time":1612000000000,"state":"active","ping":77},{"user_id":88,"name":"T8Destroyer","steam_id":76561198125275486,"connected_time":313000000000,"state":"active","ping":84},{"user_id":89,"name":"neet","steam_id":76561197968115168,"connected_time":304000000000,"state":"active","ping":54},{"user_id":50,"name":"doodles210_8","steam_id":76561199094011869,"connected_time":1806000000000,"state":"active","ping":158},{"user_id":56,"name":"Pariah","steam_id":76561198300479600,"connected_time":1662000000000,"state":"active","ping":60},{"user_id":35,"name":"trobin120","steam_id":76561199122420273,"connected_time":2201000000000,"state":"active","ping":62},{"user_id":71,"name":"uzr","steam_id":76561198799343084,"connected_time":1098000000000,"state":"active","ping":109},{"user_id":74,"name":"Epha","steam_id":76561198079379951,"connected_time":1015000000000,"state":"active","ping":60},{"user_id":43,"name":"Thequirka #ForFountainMann","steam_id":76561198968058652,"connected_time":2056000000000,"state":"active","ping":101},{"user_id":61,"name":"suger1316","steam_id":76561199079999423,"connected_time":1626000000000,"state":"active","ping":85},{"user_id":62,"name":"only a spoonful","steam_id":76561198113180616,"connected_time":1625000000000,"state":"active","ping":71},{"user_id":67,"name":"JSlayz","steam_id":76561198853768655,"connected_time":1546000000000,"state":"active","ping":44}]},{"server_id":39,"name":"Uncletopia | Chicago | 8 | Community","name_short":"chi-8","host":"chi-2.us.uncletopia.com","port":27045,"enabled":true,"region":"us-central","cc":"us","latitude":41.881832,"longitude":-87.62318,"reserved":0,"last_update":"0001-01-01T00:00:00Z","name_a2s":"Uncletopia | Chicago | 8 | Community","protocol":17,"map":"workshop/cp_caldera_rc2.ugc2834196889","folder":"tf","game":"Team Fortress","app_id":440,"player_count":24,"max_players":24,"Bots":0,"server_type":"Dedicated","server_os":"Linux","password":true,"vac":true,"version":"7882260","steam_id":85568392924866365,"keywords":["cp","nocrits","nodmgspread","uncletopia"],"game_id":440,"stv_port":27046,"stv_name":"Uncletopia | Chicago | 8 | Community | STV","players":[{"user_id":196,"name":"S.N.A.F.U.","steam_id":76561197980128424,"connected_time":2067000000000,"state":"active","ping":66},{"user_id":207,"name":"Ray","steam_id":76561198241564722,"connected_time":1177000000000,"state":"active","ping":56},{"user_id":204,"name":"PinguEnjoyer6","steam_id":76561199186723516,"connected_time":1251000000000,"state":"active","ping":99},{"user_id":141,"name":"Cringe","steam_id":76561198128209614,"connected_time":4374000000000,"state":"active","ping":83},{"user_id":214,"name":"viper","steam_id":76561198839942937,"connected_time":397000000000,"state":"active","ping":67},{"user_id":121,"name":"carrion goat","steam_id":76561198262064871,"connected_time":5465000000000,"state":"active","ping":61},{"user_id":218,"name":"GoldtoothFour","steam_id":76561198055529332,"connected_time":183000000000,"state":"active","ping":60},{"user_id":192,"name":"zogs","steam_id":76561198323491654,"connected_time":2179000000000,"state":"active","ping":71},{"user_id":208,"name":"BooceMaster","steam_id":76561198148520318,"connected_time":981000000000,"state":"active","ping":78},{"user_id":185,"name":"[BU773T\u003e","steam_id":76561197991671942,"connected_time":2517000000000,"state":"active","ping":109},{"user_id":175,"name":"Wiggee","steam_id":76561197972792989,"connected_time":2720000000000,"state":"active","ping":75},{"user_id":212,"name":"Nothing▲","steam_id":76561198071152906,"connected_time":458000000000,"state":"active","ping":95},{"user_id":201,"name":"and why he eepy","steam_id":76561198109904512,"connected_time":1781000000000,"state":"active","ping":61},{"user_id":219,"name":"Dingolf","steam_id":76561198010127454,"connected_time":142000000000,"state":"active","ping":76},{"user_id":220,"name":"MagikarpEX","steam_id":76561198166172279,"connected_time":76000000000,"state":"active","ping":75},{"user_id":197,"name":"duneblaster0","steam_id":76561198040364680,"connected_time":1978000000000,"state":"active","ping":53},{"user_id":215,"name":"Swifgz","steam_id":76561198162875756,"connected_time":395000000000,"state":"active","ping":74},{"user_id":206,"name":"Antifa Supersoldier","steam_id":76561198141816516,"connected_time":1235000000000,"state":"active","ping":70},{"user_id":183,"name":"samb0","steam_id":76561198055876337,"connected_time":2529000000000,"state":"active","ping":89},{"user_id":211,"name":"honked off the bobo","steam_id":76561198123287268,"connected_time":664000000000,"state":"active","ping":55},{"user_id":216,"name":"Ocvember","steam_id":76561198206308152,"connected_time":387000000000,"state":"active","ping":162},{"user_id":205,"name":"Hoob.egfug","steam_id":76561197980557818,"connected_time":1247000000000,"state":"active","ping":81},{"user_id":202,"name":"Chagalicious","steam_id":76561198044128240,"connected_time":1543000000000,"state":"active","ping":79},{"user_id":195,"name":"Booty Woyer","steam_id":76561198168852050,"connected_time":2144000000000,"state":"active","ping":82}]},{"server_id":8,"name":"Uncletopia | Dallas | 1 | All Maps","name_short":"dal-1","host":"dal-1.us.uncletopia.com","port":27015,"enabled":true,"region":"us-central","cc":"us","latitude":32.779167,"longitude":-96.80889,"reserved":0,"last_update":"0001-01-01T00:00:00Z","name_a2s":"Uncletopia | Dallas | 1 | All Maps","protocol":17,"map":"pl_hoodoo_final","folder":"tf","game":"Team Fortress","app_id":440,"player_count":24,"max_players":24,"Bots":0,"server_type":"Dedicated","server_os":"Linux","password":true,"vac":true,"version":"7882260","steam_id":85568392924469986,"keywords":["nocrits","nodmgspread","payload","uncletopia"],"game_id":440,"stv_port":27016,"stv_name":"Uncletopia | Dallas | 1 | All Maps | STV","players":[{"user_id":585,"name":"justzukin","steam_id":76561197988955055,"connected_time":1432000000000,"state":"active","ping":67},{"user_id":598,"name":"Rusted Cake","steam_id":76561198209755931,"connected_time":523000000000,"state":"active","ping":91},{"user_id":599,"name":"Scrib Nibbler","steam_id":76561198042227832,"connected_time":517000000000,"state":"active","ping":78},{"user_id":579,"name":"Krypa","steam_id":76561198144307152,"connected_time":1952000000000,"state":"active","ping":81},{"user_id":576,"name":"Cliffigriff","steam_id":76561198121924499,"connected_time":2113000000000,"state":"active","ping":60},{"user_id":601,"name":"13£","steam_id":76561198425726464,"connected_time":403000000000,"state":"active","ping":55},{"user_id":557,"name":"CreativeName","steam_id":76561198853344895,"connected_time":4582000000000,"state":"active","ping":90},{"user_id":562,"name":"god's 10,000th gec","steam_id":76561198071775268,"connected_time":3687000000000,"state":"active","ping":95},{"user_id":553,"name":"CadenLCheese","steam_id":76561199105517435,"connected_time":4606000000000,"state":"active","ping":113},{"user_id":477,"name":"roast pig with apple in mouth","steam_id":76561198051353647,"connected_time":10602000000000,"state":"active","ping":83},{"user_id":552,"name":"Not A Rapper","steam_id":76561198077523537,"connected_time":4611000000000,"state":"active","ping":97},{"user_id":597,"name":"barker bill","steam_id":76561198018451994,"connected_time":693000000000,"state":"active","ping":66},{"user_id":566,"name":"momb","steam_id":76561198142234038,"connected_time":2716000000000,"state":"active","ping":84},{"user_id":568,"name":"Mediocre Gaming","steam_id":76561199230467980,"connected_time":2662000000000,"state":"active","ping":89},{"user_id":593,"name":"Dreysidel","steam_id":76561198056496183,"connected_time":857000000000,"state":"active","ping":98},{"user_id":559,"name":"King Sans","steam_id":76561198294198517,"connected_time":4558000000000,"state":"active","ping":76},{"user_id":586,"name":"Feels Good Man","steam_id":76561198353214634,"connected_time":1322000000000,"state":"active","ping":53},{"user_id":600,"name":"r8 revolver enjoyer","steam_id":76561199112874459,"connected_time":479000000000,"state":"active","ping":58},{"user_id":546,"name":"Kennith","steam_id":76561198126773032,"connected_time":4962000000000,"state":"active","ping":100},{"user_id":591,"name":"Dusklight","steam_id":76561198036982638,"connected_time":928000000000,"state":"active","ping":66},{"user_id":584,"name":"Johnny Sins","steam_id":76561199066101450,"connected_time":1499000000000,"state":"active","ping":67},{"user_id":580,"name":"dankalopacus","steam_id":76561198099254868,"connected_time":1942000000000,"state":"active","ping":87},{"user_id":583,"name":"kazoo2","steam_id":76561198260473504,"connected_time":1591000000000,"state":"active","ping":67},{"user_id":592,"name":"Element","steam_id":76561198079332317,"connected_time":927000000000,"state":"active","ping":132}]},{"server_id":108,"name":"Uncletopia | Dallas | 2 | All Maps","name_short":"dal-2","host":"dal-1.us.uncletopia.com","port":27025,"enabled":true,"region":"us-central","cc":"us","latitude":32.779167,"longitude":-96.80889,"reserved":0,"last_update":"0001-01-01T00:00:00Z","name_a2s":"Uncletopia | Dallas | 2 | All Maps","protocol":17,"map":"cp_dustbowl","folder":"tf","game":"Team Fortress","app_id":440,"player_count":24,"max_players":24,"Bots":0,"server_type":"Dedicated","server_os":"Linux","password":true,"vac":true,"version":"7882260","steam_id":85568392924469988,"keywords":["cp","nocrits","nodmgspread","uncletopia"],"game_id":440,"stv_port":27026,"stv_name":"Uncletopia | Dallas | 2 | All Maps | STV","players":[{"user_id":569,"name":"Apetometrist","steam_id":76561198045391635,"connected_time":3552000000000,"state":"active","ping":85},{"user_id":591,"name":"DragonHunter994","steam_id":76561199076203907,"connected_time":1597000000000,"state":"active","ping":69},{"user_id":574,"name":"OmniMoto","steam_id":76561198091298557,"connected_time":3237000000000,"state":"active","ping":68},{"user_id":586,"name":"Sinistral_","steam_id":76561197992263272,"connected_time":1782000000000,"state":"active","ping":81},{"user_id":603,"name":"Optimus lime","steam_id":76561198070770369,"connected_time":1380000000000,"state":"active","ping":94},{"user_id":590,"name":"Tideflat","steam_id":76561198179850851,"connected_time":1618000000000,"state":"active","ping":117},{"user_id":479,"name":"Tejo","steam_id":76561198200617911,"connected_time":9286000000000,"state":"active","ping":45},{"user_id":595,"name":"malarkeyman","steam_id":76561198844473584,"connected_time":1479000000000,"state":"active","ping":63},{"user_id":627,"name":"GඞMER","steam_id":76561198340389876,"connected_time":364000000000,"state":"active","ping":89},{"user_id":577,"name":"Shattered Glass","steam_id":76561198116835391,"connected_time":3220000000000,"state":"active","ping":95},{"user_id":593,"name":"Syzygy","steam_id":76561197970726166,"connected_time":1534000000000,"state":"active","ping":123},{"user_id":594,"name":"[BBW] Justario","steam_id":76561198016095410,"connected_time":1530000000000,"state":"active","ping":83},{"user_id":608,"name":"martyou41","steam_id":76561199129805975,"connected_time":819000000000,"state":"active","ping":94},{"user_id":531,"name":"Tinny","steam_id":76561198054683504,"connected_time":6640000000000,"state":"active","ping":124},{"user_id":605,"name":"RockMan","steam_id":76561199228684720,"connected_time":1113000000000,"state":"active","ping":59},{"user_id":596,"name":"Bhutch","steam_id":76561198145654275,"connected_time":1463000000000,"state":"active","ping":84},{"user_id":639,"name":"chad farthouse","steam_id":76561198086794229,"connected_time":52000000000,"state":"active","ping":76},{"user_id":598,"name":"lil homie gay ass","steam_id":76561198044804626,"connected_time":1447000000000,"state":"active","ping":59},{"user_id":600,"name":"Furious","steam_id":76561197960281467,"connected_time":1396000000000,"state":"active","ping":71},{"user_id":601,"name":"SQU1DDY","steam_id":76561198027757551,"connected_time":1392000000000,"state":"active","ping":92},{"user_id":602,"name":"W1CKEDY","steam_id":76561198353447602,"connected_time":1389000000000,"state":"active","ping":90},{"user_id":544,"name":"Pry","steam_id":76561198002957952,"connected_time":5298000000000,"state":"active","ping":145},{"user_id":604,"name":"Grilled Jizo","steam_id":76561199250875340,"connected_time":1354000000000,"state":"active","ping":106},{"user_id":607,"name":"aerosol_cheese","steam_id":76561198011333485,"connected_time":846000000000,"state":"active","ping":84}]},{"server_id":5,"name":"Uncletopia | Frankfurt | 1 | All Maps","name_short":"frk-1","host":"frk-1.de.uncletopia.com","port":27015,"enabled":true,"region":"eu","cc":"de","latitude":50.110924,"longitude":8.682127,"reserved":0,"last_update":"0001-01-01T00:00:00Z","name_a2s":"Uncletopia | Frankfurt | 1 | All Maps","protocol":17,"map":"pl_barnblitz","folder":"tf","game":"Team Fortress","app_id":440,"player_count":0,"max_players":24,"Bots":0,"server_type":"Dedicated","server_os":"Linux","password":true,"vac":true,"version":"7882260","steam_id":85568392924469989,"keywords":["nocrits","nodmgspread","payload","uncletopia"],"game_id":440,"stv_port":27016,"stv_name":"Uncletopia | Frankfurt | 1 | All Maps | STV","players":null},{"server_id":110,"name":"Uncletopia | Frankfurt | 2 | All Maps","name_short":"frk-2","host":"frk-1.de.uncletopia.com","port":27025,"enabled":true,"region":"eu","cc":"de","latitude":50.110924,"longitude":8.682127,"reserved":0,"last_update":"0001-01-01T00:00:00Z","name_a2s":"Uncletopia | Frankfurt | 2 | All Maps","protocol":17,"map":"cp_dustbowl","folder":"tf","game":"Team Fortress","app_id":440,"player_count":0,"max_players":24,"Bots":0,"server_type":"Dedicated","server_os":"Linux","password":true,"vac":true,"version":"7882260","steam_id":85568392924469990,"keywords":["cp","nocrits","nodmgspread","uncletopia"],"game_id":440,"stv_port":27026,"stv_name":"Uncletopia | Frankfurt | 2 | All Maps | STV","players":null},{"server_id":308,"name":"Uncletopia | Frankfurt | 3 | All Maps","name_short":"frk-3","host":"frk-1.de.uncletopia.com","port":27035,"enabled":true,"region":"eu","cc":"de","latitude":50.110924,"longitude":8.682127,"reserved":0,"last_update":"0001-01-01T00:00:00Z","name_a2s":"Uncletopia | Frankfurt | 3 | All Maps","protocol":17,"map":"pl_barnblitz","folder":"tf","game":"Team Fortress","app_id":440,"player_count":15,"max_players":24,"Bots":0,"server_type":"Dedicated","server_os":"Linux","password":true,"vac":true,"version":"7882260","steam_id":85568392924504274,"keywords":["nocrits","nodmgspread","payload","uncletopia"],"game_id":440,"stv_port":27036,"stv_name":"Uncletopia | Frankfurt | 3 | All Maps | STV","players":[{"user_id":607,"name":"Hard-working immigrant","steam_id":76561198079446133,"connected_time":8388000000000,"state":"active","ping":85},{"user_id":709,"name":"LiterallyRyanGosling","steam_id":76561199017856691,"connected_time":498000000000,"state":"active","ping":65},{"user_id":652,"name":"rozen","steam_id":76561198119167317,"connected_time":4459000000000,"state":"active","ping":59},{"user_id":685,"name":"Your childhood","steam_id":76561198799385466,"connected_time":2412000000000,"state":"active","ping":174},{"user_id":661,"name":"zoinks!","steam_id":76561198068645362,"connected_time":3766000000000,"state":"active","ping":56},{"user_id":703,"name":"☁⭍ qBowN∼","steam_id":76561198000980532,"connected_time":767000000000,"state":"active","ping":52},{"user_id":716,"name":"KrevTiz","steam_id":76561199043366861,"connected_time":4000000000,"state":"spawning","ping":84},{"user_id":700,"name":"Bobo","steam_id":76561198052308399,"connected_time":1026000000000,"state":"active","ping":57},{"user_id":702,"name":"Jucatron","steam_id":76561198044259577,"connected_time":821000000000,"state":"active","ping":87},{"user_id":704,"name":"tiia","steam_id":76561198046196005,"connected_time":709000000000,"state":"active","ping":40},{"user_id":707,"name":"The flaming soup","steam_id":76561198202815522,"connected_time":607000000000,"state":"active","ping":178},{"user_id":706,"name":"Russenluster","steam_id":76561198118016220,"connected_time":654000000000,"state":"active","ping":45},{"user_id":713,"name":"wG Domo","steam_id":76561198056790920,"connected_time":448000000000,"state":"active","ping":60},{"user_id":564,"name":"Doctor Marijuana","steam_id":76561198288289879,"connected_time":11805000000000,"state":"active","ping":61},{"user_id":576,"name":"kektuse","steam_id":76561198088426580,"connected_time":11187000000000,"state":"active","ping":59}]},{"server_id":309,"name":"Uncletopia | Frankfurt | 4 | All Maps","name_short":"frk-4","host":"frk-1.de.uncletopia.com","port":27045,"enabled":true,"region":"eu","cc":"de","latitude":50.110924,"longitude":8.682127,"reserved":0,"last_update":"0001-01-01T00:00:00Z","name_a2s":"Uncletopia | Frankfurt | 4 | All Maps","protocol":17,"map":"plr_hightower","folder":"tf","game":"Team Fortress","app_id":440,"player_count":3,"max_players":24,"Bots":0,"server_type":"Dedicated","server_os":"Linux","password":true,"vac":true,"version":"7882260","steam_id":85568392924504275,"keywords":["nocrits","nodmgspread","payload","uncletopia"],"game_id":440,"stv_port":27046,"stv_name":"Uncletopia | Frankfurt | 4 | All Maps | STV","players":[{"user_id":535,"name":"TheHiddenBlade","steam_id":76561199129787866,"connected_time":951000000000,"state":"active","ping":162},{"user_id":536,"name":"AddonFails","steam_id":76561199122241547,"connected_time":834000000000,"state":"active","ping":155},{"user_id":539,"name":"Cheesi","steam_id":76561199417190840,"connected_time":527000000000,"state":"active","ping":164}]},{"server_id":310,"name":"Uncletopia | Frankfurt | 5 | All Maps","name_short":"frk-5","host":"frk-1.de.uncletopia.com","port":27055,"enabled":true,"region":"eu","cc":"de","latitude":50.110924,"longitude":8.682127,"reserved":0,"last_update":"0001-01-01T00:00:00Z","name_a2s":"Uncletopia | Frankfurt | 5 | All Maps","protocol":17,"map":"koth_cascade","folder":"tf","game":"Team Fortress","app_id":440,"player_count":0,"max_players":24,"Bots":0,"server_type":"Dedicated","server_os":"Linux","password":true,"vac":true,"version":"7882260","steam_id":85568392924504277,"keywords":["cp","nocrits","nodmgspread","uncletopia"],"game_id":440,"stv_port":27056,"stv_name":"Uncletopia | Frankfurt | 5 | All Maps | STV","players":null},{"server_id":311,"name":"Uncletopia | Frankfurt | 6 | All Maps","name_short":"frk-6","host":"frk-1.de.uncletopia.com","port":27065,"enabled":true,"region":"eu","cc":"de","latitude":50.110924,"longitude":8.682127,"reserved":0,"last_update":"0001-01-01T00:00:00Z","name_a2s":"Uncletopia | Frankfurt | 6 | All Maps","protocol":17,"map":"koth_lakeside_final","folder":"tf","game":"Team Fortress","app_id":440,"player_count":0,"max_players":24,"Bots":0,"server_type":"Dedicated","server_os":"Linux","password":true,"vac":true,"version":"7882260","steam_id":85568392924504278,"keywords":["cp","nocrits","nodmgspread","uncletopia"],"game_id":440,"stv_port":27066,"stv_name":"Uncletopia | Frankfurt | 6 | All Maps | STV","players":null},{"server_id":23,"name":"Uncletopia | Frankfurt | 7 | Stopwatch Beta","name_short":"frk-7","host":"frk-1.de.uncletopia.com","port":27075,"enabled":true,"region":"eu","cc":"de","latitude":50.110924,"longitude":8.682127,"reserved":0,"last_update":"0001-01-01T00:00:00Z","name_a2s":"Uncletopia | Frankfurt | 7 | Stopwatch Beta","protocol":17,"map":"pl_borneo","folder":"tf","game":"Team Fortress","app_id":440,"player_count":0,"max_players":24,"Bots":0,"server_type":"Dedicated","server_os":"Linux","password":true,"vac":true,"version":"7882260","steam_id":85568392924742827,"keywords":["nocrits","nodmgspread","payload","uncletopia"],"game_id":440,"stv_port":27076,"stv_name":"Uncletopia | Frankfurt | 7 | Stopwatch Beta | STV","players":null},{"server_id":24,"name":"Uncletopia | Frankfurt | 8 | Community","name_short":"frk-8","host":"frk-1.de.uncletopia.com","port":27085,"enabled":true,"region":"eu","cc":"de","latitude":50.110924,"longitude":8.682127,"reserved":0,"last_update":"0001-01-01T00:00:00Z","name_a2s":"Uncletopia | Frankfurt | 8 | Community","protocol":17,"map":"workshop/koth_product_final.ugc454272353","folder":"tf","game":"Team Fortress","app_id":440,"player_count":0,"max_players":24,"Bots":0,"server_type":"Dedicated","server_os":"Linux","password":true,"vac":true,"version":"7882260","steam_id":85568392924742828,"keywords":["cp","nocrits","nodmgspread","uncletopia"],"game_id":440,"stv_port":27086,"stv_name":"Uncletopia | Frankfurt | 8 | Community | STV","players":null},{"server_id":202,"name":"Uncletopia | Hong Kong | 1 | All Maps","name_short":"hgk-1","host":"hgk-1.hk.uncletopia.com","port":27015,"enabled":true,"region":"asia","cc":"hk","latitude":22.302711,"longitude":114.177216,"reserved":0,"last_update":"0001-01-01T00:00:00Z","name_a2s":"Uncletopia | Hong Kong | 1 | All Maps","protocol":17,"map":"koth_viaduct","folder":"tf","game":"Team Fortress","app_id":440,"player_count":1,"max_players":24,"Bots":0,"server_type":"Dedicated","server_os":"Linux","password":true,"vac":true,"version":"7882260","steam_id":85568392924494504,"keywords":["cp","nocrits","nodmgspread","uncletopia"],"game_id":440,"stv_port":27016,"stv_name":"Uncletopia | Hong Kong | 1 | All Maps | STV","players":[{"user_id":41,"name":"3rwynM","steam_id":76561198288311270,"connected_time":85000000000,"state":"active","ping":105}]},{"server_id":1,"name":"Uncletopia | Los Angeles | 1 | All Maps","name_short":"lax-1","host":"lax-1.us.uncletopia.com","port":27015,"enabled":true,"region":"us-west","cc":"us","latitude":33.94279,"longitude":-118.41004,"reserved":0,"last_update":"0001-01-01T00:00:00Z","name_a2s":"Uncletopia | Los Angeles | 1 | All Maps","protocol":17,"map":"koth_harvest_final","folder":"tf","game":"Team Fortress","app_id":440,"player_count":21,"max_players":24,"Bots":0,"server_type":"Dedicated","server_os":"Linux","password":true,"vac":true,"version":"7882260","steam_id":85568392924469991,"keywords":["cp","nocrits","nodmgspread","uncletopia"],"game_id":440,"stv_port":27016,"stv_name":"Uncletopia | Los Angeles | 1 | All Maps | STV","players":[{"user_id":204,"name":"SCUD missile up your ass","steam_id":76561198066452726,"connected_time":710000000000,"state":"active","ping":46},{"user_id":208,"name":"Tech Deck","steam_id":76561199070437675,"connected_time":252000000000,"state":"active","ping":55},{"user_id":209,"name":"tam5tam_","steam_id":76561199192883108,"connected_time":252000000000,"state":"active","ping":90},{"user_id":192,"name":"reymundo","steam_id":76561197989412830,"connected_time":1542000000000,"state":"active","ping":60},{"user_id":217,"name":"caouette812000","steam_id":76561199472084347,"connected_time":7000000000,"state":"spawning","ping":123},{"user_id":172,"name":"Altruisticailuridae","steam_id":76561198335295596,"connected_time":2752000000000,"state":"active","ping":52},{"user_id":206,"name":"InvalidUserID","steam_id":76561198014177920,"connected_time":550000000000,"state":"active","ping":40},{"user_id":170,"name":"Taffy","steam_id":76561198276612538,"connected_time":3142000000000,"state":"active","ping":58},{"user_id":193,"name":"Mom","steam_id":76561198207936000,"connected_time":1537000000000,"state":"active","ping":45},{"user_id":216,"name":"MegaBitmap","steam_id":76561198086027059,"connected_time":39000000000,"state":"active","ping":60},{"user_id":181,"name":"Ice cream sandwich","steam_id":76561198172748357,"connected_time":1846000000000,"state":"active","ping":54},{"user_id":183,"name":"Life Grips (TRANS RIGHTS)","steam_id":76561198082089317,"connected_time":1789000000000,"state":"active","ping":62},{"user_id":184,"name":"rat obliterater","steam_id":76561199147385953,"connected_time":1784000000000,"state":"active","ping":78},{"user_id":185,"name":"Whoops!","steam_id":76561198151315898,"connected_time":1757000000000,"state":"active","ping":81},{"user_id":186,"name":"Tmiracle","steam_id":76561198052375275,"connected_time":1707000000000,"state":"active","ping":46},{"user_id":213,"name":"hatsune miku♡","steam_id":76561199445009981,"connected_time":179000000000,"state":"active","ping":76},{"user_id":188,"name":"gu_am","steam_id":76561198378312940,"connected_time":1684000000000,"state":"active","ping":78},{"user_id":214,"name":"LoFi","steam_id":76561197962448566,"connected_time":178000000000,"state":"active","ping":53},{"user_id":191,"name":"riSygneD","steam_id":76561198331618687,"connected_time":1563000000000,"state":"active","ping":32},{"user_id":168,"name":"TheWhiskeyMan","steam_id":76561198125180961,"connected_time":3256000000000,"state":"active","ping":55},{"user_id":207,"name":"confused","steam_id":76561199391930993,"connected_time":458000000000,"state":"active","ping":53}]},{"server_id":112,"name":"Uncletopia | Los Angeles | 2 | All Maps","name_short":"lax-2","host":"lax-1.us.uncletopia.com","port":27025,"enabled":true,"region":"us-west","cc":"us","latitude":33.94279,"longitude":-118.41004,"reserved":0,"last_update":"0001-01-01T00:00:00Z","name_a2s":"Uncletopia | Los Angeles | 2 | All Maps","protocol":17,"map":"pl_badwater","folder":"tf","game":"Team Fortress","app_id":440,"player_count":24,"max_players":24,"Bots":0,"server_type":"Dedicated","server_os":"Linux","password":true,"vac":true,"version":"7882260","steam_id":85568392924469992,"keywords":["nocrits","nodmgspread","payload","uncletopia"],"game_id":440,"stv_port":27026,"stv_name":"Uncletopia | Los Angeles | 2 | All Maps | STV","players":[{"user_id":436,"name":"Byte The Protogen","steam_id":76561199229871383,"connected_time":2672000000000,"state":"active","ping":58},{"user_id":460,"name":"V A R M I N T","steam_id":76561198417042268,"connected_time":1314000000000,"state":"active","ping":90},{"user_id":446,"name":"a firm hand","steam_id":76561198042913843,"connected_time":2424000000000,"state":"active","ping":88},{"user_id":466,"name":"flo rida","steam_id":76561198226169704,"connected_time":844000000000,"state":"active","ping":54},{"user_id":369,"name":"Jimmy","steam_id":76561198857959855,"connected_time":6905000000000,"state":"active","ping":47},{"user_id":387,"name":"Roosevelt Chadwick","steam_id":76561198278169311,"connected_time":6206000000000,"state":"active","ping":56},{"user_id":458,"name":"H _ N G M _ N","steam_id":76561198064662875,"connected_time":1583000000000,"state":"active","ping":55},{"user_id":470,"name":"a cat plushie","steam_id":76561198080046542,"connected_time":123000000000,"state":"active","ping":70},{"user_id":461,"name":"millie","steam_id":76561198008366811,"connected_time":1287000000000,"state":"active","ping":105},{"user_id":471,"name":"Infentdegree211","steam_id":76561198385234127,"connected_time":53000000000,"state":"active","ping":116},{"user_id":437,"name":"Ginger powder","steam_id":76561198057868006,"connected_time":2668000000000,"state":"active","ping":102},{"user_id":438,"name":"PKDarkness","steam_id":76561198103180140,"connected_time":2643000000000,"state":"active","ping":115},{"user_id":449,"name":"giveit5","steam_id":76561198030815437,"connected_time":2242000000000,"state":"active","ping":49},{"user_id":439,"name":"penis engineer","steam_id":76561198101203842,"connected_time":2614000000000,"state":"active","ping":84},{"user_id":456,"name":"Gundam Guy","steam_id":76561198178453993,"connected_time":1676000000000,"state":"active","ping":68},{"user_id":396,"name":"Nobody","steam_id":76561199352089107,"connected_time":5754000000000,"state":"active","ping":51},{"user_id":459,"name":"ArchFps","steam_id":76561198146469273,"connected_time":1462000000000,"state":"active","ping":106},{"user_id":452,"name":"gravy","steam_id":76561198089644778,"connected_time":2191000000000,"state":"active","ping":52},{"user_id":443,"name":"kr1tsurf3r","steam_id":76561198076402476,"connected_time":2518000000000,"state":"active","ping":66},{"user_id":416,"name":"[ØWQJØ]chubacaalatake","steam_id":76561198136201697,"connected_time":4310000000000,"state":"active","ping":89},{"user_id":467,"name":"squaggles!","steam_id":76561197994995011,"connected_time":492000000000,"state":"active","ping":78},{"user_id":444,"name":"PheebsyDeebsy","steam_id":76561198101509436,"connected_time":2492000000000,"state":"active","ping":61},{"user_id":465,"name":"Tritium","steam_id":76561198043305626,"connected_time":1139000000000,"state":"active","ping":69},{"user_id":463,"name":"P I S S","steam_id":76561199197497757,"connected_time":1279000000000,"state":"active","ping":121}]},{"server_id":324,"name":"Uncletopia | Los Angeles | 3 | All Maps","name_short":"lax-3","host":"lax-1.us.uncletopia.com","port":27035,"enabled":true,"region":"us-west","cc":"us","latitude":33.94279,"longitude":-118.41004,"reserved":0,"last_update":"0001-01-01T00:00:00Z","name_a2s":"Uncletopia | Los Angeles | 3 | All Maps","protocol":17,"map":"koth_lakeside_final","folder":"tf","game":"Team Fortress","app_id":440,"player_count":24,"max_players":24,"Bots":0,"server_type":"Dedicated","server_os":"Linux","password":true,"vac":true,"version":"7882260","steam_id":85568392924510198,"keywords":["cp","nocrits","nodmgspread","uncletopia"],"game_id":440,"stv_port":27036,"stv_name":"Uncletopia | Los Angeles | 3 | All Maps | STV","players":[{"user_id":538,"name":"Sugary","steam_id":76561198088267265,"connected_time":828000000000,"state":"active","ping":79},{"user_id":508,"name":"AllMyProblemsAreBecauseOfSociet","steam_id":76561198081617990,"connected_time":2352000000000,"state":"active","ping":118},{"user_id":545,"name":"ThisDOT","steam_id":76561199011823773,"connected_time":46000000000,"state":"active","ping":73},{"user_id":502,"name":"Nimro","steam_id":76561198049334200,"connected_time":2893000000000,"state":"active","ping":68},{"user_id":542,"name":"pupper","steam_id":76561198811818192,"connected_time":249000000000,"state":"active","ping":104},{"user_id":531,"name":"Patagonian Vest","steam_id":76561197979056451,"connected_time":1182000000000,"state":"active","ping":69},{"user_id":540,"name":"CPTforever","steam_id":76561198237767198,"connected_time":459000000000,"state":"active","ping":52},{"user_id":504,"name":"Wacks","steam_id":76561198079476100,"connected_time":2830000000000,"state":"active","ping":57},{"user_id":500,"name":"walrooos","steam_id":76561198024521839,"connected_time":3104000000000,"state":"active","ping":44},{"user_id":543,"name":"RIP LANCE REDDICK","steam_id":76561198099980149,"connected_time":160000000000,"state":"active","ping":55},{"user_id":512,"name":"..flop","steam_id":76561197989058876,"connected_time":2264000000000,"state":"active","ping":84},{"user_id":520,"name":"coolbust carti","steam_id":76561198065384345,"connected_time":1703000000000,"state":"active","ping":56},{"user_id":525,"name":"Newport1","steam_id":76561198074614044,"connected_time":1402000000000,"state":"active","ping":47},{"user_id":537,"name":"Shulky.png","steam_id":76561198135403153,"connected_time":902000000000,"state":"active","ping":94},{"user_id":514,"name":"Balerion the Black Dread","steam_id":76561198003728369,"connected_time":2063000000000,"state":"active","ping":55},{"user_id":526,"name":"ShadowZiki","steam_id":76561198145930013,"connected_time":1300000000000,"state":"active","ping":45},{"user_id":506,"name":"A tuna sub with extra mayo","steam_id":76561199043570426,"connected_time":2802000000000,"state":"active","ping":142},{"user_id":541,"name":"Ad3ptus","steam_id":76561198272045750,"connected_time":422000000000,"state":"active","ping":63},{"user_id":536,"name":"♦♣Quadric♥♠","steam_id":76561198061003853,"connected_time":961000000000,"state":"active","ping":113},{"user_id":527,"name":"✿ corecore² Matador","steam_id":76561198106938500,"connected_time":1235000000000,"state":"active","ping":46},{"user_id":428,"name":"brian.dahlmann","steam_id":76561198360431651,"connected_time":7929000000000,"state":"active","ping":137},{"user_id":544,"name":"Cel","steam_id":76561198119023653,"connected_time":145000000000,"state":"active","ping":40},{"user_id":518,"name":"JimmySquid","steam_id":76561198254242530,"connected_time":2025000000000,"state":"active","ping":97},{"user_id":535,"name":"Gerbias","steam_id":76561198001002427,"connected_time":1049000000000,"state":"active","ping":66}]},{"server_id":25,"name":"Uncletopia | Los Angeles | 4 | Stopwatch Beta","name_short":"lax-4","host":"lax-1.us.uncletopia.com","port":27045,"enabled":true,"region":"us-west","cc":"us","latitude":33.94279,"longitude":-118.41004,"reserved":0,"last_update":"0001-01-01T00:00:00Z","name_a2s":"Uncletopia | Los Angeles | 4 | Stopwatch Beta","protocol":17,"map":"koth_lakeside_final","folder":"tf","game":"Team Fortress","app_id":440,"player_count":0,"max_players":24,"Bots":0,"server_type":"Dedicated","server_os":"Linux","password":true,"vac":true,"version":"7882260","steam_id":85568392924510199,"keywords":["cp","nocrits","nodmgspread","uncletopia"],"game_id":440,"stv_port":27046,"stv_name":"Uncletopia | Los Angeles | 4 | Stopwatch Beta | STV","players":null},{"server_id":11,"name":"Uncletopia | London | 1 | All Maps","name_short":"lon-1","host":"lon-1.uk.uncletopia.com","port":27015,"enabled":true,"region":"eu","cc":"gb","latitude":51.509865,"longitude":-0.118092,"reserved":0,"last_update":"0001-01-01T00:00:00Z","name_a2s":"Uncletopia | London | 1 | All Maps","protocol":17,"map":"koth_viaduct","folder":"tf","game":"Team Fortress","app_id":440,"player_count":0,"max_players":24,"Bots":0,"server_type":"Dedicated","server_os":"Linux","password":true,"vac":true,"version":"7882260","steam_id":85568392924367362,"keywords":["cp","nocrits","nodmgspread","uncletopia"],"game_id":440,"stv_port":27016,"stv_name":"Uncletopia | London | 1 | All Maps | STV","players":null},{"server_id":114,"name":"Uncletopia | London | 2 | All Maps","name_short":"lon-2","host":"lon-1.uk.uncletopia.com","port":27025,"enabled":true,"region":"eu","cc":"gb","latitude":51.509865,"longitude":-0.118092,"reserved":0,"last_update":"0001-01-01T00:00:00Z","name_a2s":"Uncletopia | London | 2 | All Maps","protocol":17,"map":"koth_highpass","folder":"tf","game":"Team Fortress","app_id":440,"player_count":0,"max_players":24,"Bots":0,"server_type":"Dedicated","server_os":"Linux","password":true,"vac":true,"version":"7882260","steam_id":85568392924470941,"keywords":["cp","nocrits","nodmgspread","uncletopia"],"game_id":440,"stv_port":27026,"stv_name":"Uncletopia | London | 2 | All Maps | STV","players":null},{"server_id":320,"name":"Uncletopia | London | 3 | All Maps","name_short":"lon-3","host":"lon-1.uk.uncletopia.com","port":27035,"enabled":true,"region":"eu","cc":"gb","latitude":51.509865,"longitude":-0.118092,"reserved":0,"last_update":"0001-01-01T00:00:00Z","name_a2s":"Uncletopia | London | 3 | All Maps","protocol":17,"map":"koth_lakeside_final","folder":"tf","game":"Team Fortress","app_id":440,"player_count":0,"max_players":24,"Bots":0,"server_type":"Dedicated","server_os":"Linux","password":true,"vac":true,"version":"7882260","steam_id":85568392924510192,"keywords":["cp","nocrits","nodmgspread","uncletopia"],"game_id":440,"stv_port":27036,"stv_name":"Uncletopia | London | 3 | All Maps | STV","players":null},{"server_id":321,"name":"Uncletopia | London | 4 | All Maps","name_short":"lon-4","host":"lon-1.uk.uncletopia.com","port":27045,"enabled":true,"region":"eu","cc":"gb","latitude":51.509865,"longitude":-0.118092,"reserved":0,"last_update":"0001-01-01T00:00:00Z","name_a2s":"Uncletopia | London | 4 | All Maps","protocol":17,"map":"cp_dustbowl","folder":"tf","game":"Team Fortress","app_id":440,"player_count":0,"max_players":24,"Bots":0,"server_type":"Dedicated","server_os":"Linux","password":true,"vac":true,"version":"7882260","steam_id":85568392924510193,"keywords":["cp","nocrits","nodmgspread","uncletopia"],"game_id":440,"stv_port":27046,"stv_name":"Uncletopia | London | 4 | All Maps | STV","players":null},{"server_id":21,"name":"Uncletopia | London | 5 | All Maps","name_short":"lon-5","host":"lon-1.uk.uncletopia.com","port":27055,"enabled":true,"region":"eu","cc":"gb","latitude":51.509865,"longitude":-0.118092,"reserved":0,"last_update":"0001-01-01T00:00:00Z","name_a2s":"Uncletopia | London | 5 | All Maps","protocol":17,"map":"pl_swiftwater_final1","folder":"tf","game":"Team Fortress","app_id":440,"player_count":21,"max_players":24,"Bots":0,"server_type":"Dedicated","server_os":"Linux","password":true,"vac":true,"version":"7882260","steam_id":85568392924742829,"keywords":["nocrits","nodmgspread","payload","uncletopia"],"game_id":440,"stv_port":27056,"stv_name":"Uncletopia | London | 5 | All Maps | STV","players":[{"user_id":280,"name":"idarmed","steam_id":76561198420064361,"connected_time":3193000000000,"state":"active","ping":158},{"user_id":279,"name":"yuck","steam_id":76561197987249568,"connected_time":3362000000000,"state":"active","ping":102},{"user_id":320,"name":"zerg","steam_id":76561198305854178,"connected_time":194000000000,"state":"active","ping":75},{"user_id":316,"name":"VideoJames","steam_id":76561197970114051,"connected_time":698000000000,"state":"active","ping":41},{"user_id":302,"name":"Crack Academy","steam_id":76561198134512576,"connected_time":1781000000000,"state":"active","ping":158},{"user_id":321,"name":"H2n9","steam_id":76561198055811259,"connected_time":87000000000,"state":"active","ping":49},{"user_id":313,"name":"Quote","steam_id":76561198086271143,"connected_time":1127000000000,"state":"active","ping":68},{"user_id":314,"name":"Vezage","steam_id":76561198064916164,"connected_time":906000000000,"state":"active","ping":72},{"user_id":322,"name":"turn the fridge on","steam_id":76561199480942903,"connected_time":83000000000,"state":"active","ping":72},{"user_id":269,"name":"Winter","steam_id":76561198134805479,"connected_time":3992000000000,"state":"active","ping":55},{"user_id":238,"name":"Thunder","steam_id":76561198042433374,"connected_time":5863000000000,"state":"active","ping":31},{"user_id":283,"name":".moe","steam_id":76561198153974095,"connected_time":3123000000000,"state":"active","ping":41},{"user_id":150,"name":"Grey","steam_id":76561198187190267,"connected_time":12059000000000,"state":"active","ping":47},{"user_id":284,"name":"Geese Goose","steam_id":76561198070903248,"connected_time":3116000000000,"state":"active","ping":48},{"user_id":318,"name":"Rob","steam_id":76561198346638308,"connected_time":598000000000,"state":"active","ping":60},{"user_id":307,"name":"SynthBox3","steam_id":76561199094075745,"connected_time":1570000000000,"state":"active","ping":107},{"user_id":278,"name":"Valkyrie","steam_id":76561198998403448,"connected_time":3410000000000,"state":"active","ping":90},{"user_id":312,"name":"MewZe","steam_id":76561198293664673,"connected_time":1201000000000,"state":"active","ping":47},{"user_id":323,"name":"doli. jesus ?","steam_id":76561198126737859,"connected_time":14000000000,"state":"active","ping":47},{"user_id":261,"name":"Senka1","steam_id":76561198848670931,"connected_time":4333000000000,"state":"active","ping":99},{"user_id":288,"name":"Moonkey","steam_id":76561199013741389,"connected_time":2974000000000,"state":"active","ping":107}]},{"server_id":22,"name":"Uncletopia | London | 6 | All Maps","name_short":"lon-6","host":"lon-1.uk.uncletopia.com","port":27065,"enabled":true,"region":"eu","cc":"gb","latitude":51.509865,"longitude":-0.118092,"reserved":0,"last_update":"0001-01-01T00:00:00Z","name_a2s":"Uncletopia | London | 6 | All Maps","protocol":17,"map":"pl_upward","folder":"tf","game":"Team Fortress","app_id":440,"player_count":0,"max_players":24,"Bots":0,"server_type":"Dedicated","server_os":"Linux","password":true,"vac":true,"version":"7882260","steam_id":85568392924742830,"keywords":["nocrits","nodmgspread","payload","uncletopia"],"game_id":440,"stv_port":27066,"stv_name":"Uncletopia | London | 6 | All Maps | STV","players":null},{"server_id":40,"name":"Uncletopia | London | 7 | No Payload","name_short":"lon-7","host":"lon-1.uk.uncletopia.com","port":27075,"enabled":true,"region":"eu","cc":"gb","latitude":51.509865,"longitude":-0.118092,"reserved":0,"last_update":"0001-01-01T00:00:00Z","name_a2s":"Uncletopia | London | 7 | No Payload","protocol":17,"map":"koth_nucleus","folder":"tf","game":"Team Fortress","app_id":440,"player_count":0,"max_players":24,"Bots":0,"server_type":"Dedicated","server_os":"Linux","password":true,"vac":true,"version":"7882260","steam_id":85568392924964314,"keywords":["cp","nocrits","nodmgspread","uncletopia"],"game_id":440,"stv_port":27076,"stv_name":"Uncletopia | London | 7 | No Payload | STV","players":null},{"server_id":41,"name":"Uncletopia | London | 8 | Community","name_short":"lon-8","host":"lon-1.uk.uncletopia.com","port":27085,"enabled":true,"region":"eu","cc":"gb","latitude":51.509865,"longitude":-0.118092,"reserved":0,"last_update":"0001-01-01T00:00:00Z","name_a2s":"Uncletopia | London | 8 | Community","protocol":17,"map":"workshop/pl_emerge_rc2.ugc888027758","folder":"tf","game":"Team Fortress","app_id":440,"player_count":0,"max_players":24,"Bots":0,"server_type":"Dedicated","server_os":"Linux","password":true,"vac":true,"version":"7882260","steam_id":85568392924964315,"keywords":["nocrits","nodmgspread","payload","uncletopia"],"game_id":440,"stv_port":27086,"stv_name":"Uncletopia | London | 8 | Community | STV","players":null},{"server_id":300,"name":"Uncletopia | Montréal | 1 | All Maps","name_short":"mtl-1","host":"mtl-1.ca.uncletopia.com","port":27015,"enabled":true,"region":"us-east","cc":"ca","latitude":45.50889,"longitude":-73.56167,"reserved":0,"last_update":"0001-01-01T00:00:00Z","name_a2s":"Uncletopia | Montréal | 1 | All Maps","protocol":17,"map":"pl_snowycoast","folder":"tf","game":"Team Fortress","app_id":440,"player_count":0,"max_players":24,"Bots":0,"server_type":"Dedicated","server_os":"Linux","password":true,"vac":true,"version":"7882260","steam_id":85568392924500087,"keywords":["nocrits","nodmgspread","payload","uncletopia"],"game_id":440,"stv_port":27016,"stv_name":"Uncletopia | Montréal | 1 | All Maps | STV","players":null},{"server_id":301,"name":"Uncletopia | Montréal | 2 | All Maps","name_short":"mtl-2","host":"mtl-1.ca.uncletopia.com","port":27025,"enabled":true,"region":"us-east","cc":"ca","latitude":45.50889,"longitude":-73.56167,"reserved":0,"last_update":"0001-01-01T00:00:00Z","name_a2s":"Uncletopia | Montréal | 2 | All Maps","protocol":17,"map":"koth_cascade","folder":"tf","game":"Team Fortress","app_id":440,"player_count":0,"max_players":24,"Bots":0,"server_type":"Dedicated","server_os":"Linux","password":true,"vac":true,"version":"7882260","steam_id":85568392924500088,"keywords":["cp","nocrits","nodmgspread","uncletopia"],"game_id":440,"stv_port":27026,"stv_name":"Uncletopia | Montréal | 2 | All Maps | STV","players":null},{"server_id":302,"name":"Uncletopia | Montréal | 3 | All Maps","name_short":"mtl-3","host":"mtl-1.ca.uncletopia.com","port":27035,"enabled":true,"region":"us-east","cc":"ca","latitude":45.50889,"longitude":-73.56167,"reserved":0,"last_update":"0001-01-01T00:00:00Z","name_a2s":"Uncletopia | Montréal | 3 | All Maps","protocol":17,"map":"koth_viaduct","folder":"tf","game":"Team Fortress","app_id":440,"player_count":0,"max_players":24,"Bots":0,"server_type":"Dedicated","server_os":"Linux","password":true,"vac":true,"version":"7882260","steam_id":85568392924500089,"keywords":["cp","nocrits","nodmgspread","uncletopia"],"game_id":440,"stv_port":27036,"stv_name":"Uncletopia | Montréal | 3 | All Maps | STV","players":null},{"server_id":303,"name":"Uncletopia | Montréal | 4 | No Payload","name_short":"mtl-4","host":"mtl-1.ca.uncletopia.com","port":27045,"enabled":true,"region":"us-east","cc":"ca","latitude":45.50889,"longitude":-73.56167,"reserved":0,"last_update":"0001-01-01T00:00:00Z","name_a2s":"Uncletopia | Montréal | 4 | No Payload","protocol":17,"map":"koth_highpass","folder":"tf","game":"Team Fortress","app_id":440,"player_count":4,"max_players":24,"Bots":0,"server_type":"Dedicated","server_os":"Linux","password":true,"vac":true,"version":"7882260","steam_id":85568392924500090,"keywords":["cp","nocrits","nodmgspread","uncletopia"],"game_id":440,"stv_port":27046,"stv_name":"Uncletopia | Montréal | 4 | No Payload | STV","players":[{"user_id":13,"name":"Zalcannon","steam_id":76561198409950668,"connected_time":1959000000000,"state":"active","ping":63},{"user_id":14,"name":"Bungled","steam_id":76561199144068534,"connected_time":1848000000000,"state":"active","ping":117},{"user_id":15,"name":"the public","steam_id":76561198414004779,"connected_time":1772000000000,"state":"active","ping":53},{"user_id":19,"name":"FreonAddict9x19","steam_id":76561198060010824,"connected_time":35000000000,"state":"active","ping":65}]},{"server_id":13,"name":"Uncletopia | New York City | 1 | All Maps","name_short":"nyc-1","host":"nyc-1.us.uncletopia.com","port":27015,"enabled":true,"region":"us-east","cc":"us","latitude":40.73061,"longitude":-73.93524,"reserved":0,"last_update":"0001-01-01T00:00:00Z","name_a2s":"Uncletopia | New York City | 1 | All Maps","protocol":17,"map":"pl_frontier_final","folder":"tf","game":"Team Fortress","app_id":440,"player_count":24,"max_players":24,"Bots":0,"server_type":"Dedicated","server_os":"Linux","password":true,"vac":true,"version":"7882260","steam_id":85568392924469993,"keywords":["nocrits","nodmgspread","payload","uncletopia"],"game_id":440,"stv_port":27016,"stv_name":"Uncletopia | New York City | 1 | All Maps | STV","players":[{"user_id":652,"name":"Nerrrd_","steam_id":76561198870129960,"connected_time":1593000000000,"state":"active","ping":41},{"user_id":592,"name":"castlerock","steam_id":76561198857184966,"connected_time":6232000000000,"state":"active","ping":46},{"user_id":657,"name":"grate_warior-232","steam_id":76561198073424589,"connected_time":1538000000000,"state":"active","ping":48},{"user_id":621,"name":"G2 DamDam","steam_id":76561198173095997,"connected_time":4497000000000,"state":"active","ping":50},{"user_id":645,"name":"Crazy Insane Proboscis Monkey","steam_id":76561198061011176,"connected_time":2450000000000,"state":"active","ping":89},{"user_id":658,"name":"westy","steam_id":76561198083607304,"connected_time":1537000000000,"state":"active","ping":54},{"user_id":632,"name":"Samitch","steam_id":76561198038247982,"connected_time":3202000000000,"state":"active","ping":74},{"user_id":669,"name":"Magechaos","steam_id":76561198026852227,"connected_time":926000000000,"state":"active","ping":74},{"user_id":644,"name":"Urbanzpinapple","steam_id":76561198115426938,"connected_time":2512000000000,"state":"active","ping":70},{"user_id":574,"name":"WALL-E","steam_id":76561198154701370,"connected_time":7832000000000,"state":"active","ping":67},{"user_id":671,"name":"Irunman","steam_id":76561198058243536,"connected_time":727000000000,"state":"active","ping":56},{"user_id":633,"name":"a table","steam_id":76561198158461279,"connected_time":3191000000000,"state":"active","ping":65},{"user_id":625,"name":"MAXIMUS","steam_id":76561198085809453,"connected_time":4210000000000,"state":"active","ping":79},{"user_id":611,"name":"not shouleil","steam_id":76561198970370243,"connected_time":5147000000000,"state":"active","ping":34},{"user_id":650,"name":"JJ_80 TTV","steam_id":76561198195114443,"connected_time":1770000000000,"state":"active","ping":84},{"user_id":670,"name":"burgered lettuce","steam_id":76561197994492154,"connected_time":915000000000,"state":"active","ping":140},{"user_id":672,"name":"KING","steam_id":76561198122223730,"connected_time":718000000000,"state":"active","ping":91},{"user_id":675,"name":"The Spanked Monkey","steam_id":76561198128293111,"connected_time":507000000000,"state":"active","ping":56},{"user_id":677,"name":"❤ Ashley ❤","steam_id":76561198056428303,"connected_time":2000000000,"state":"spawning","ping":81},{"user_id":676,"name":"Vibe Check","steam_id":76561198087326826,"connected_time":289000000000,"state":"active","ping":66},{"user_id":646,"name":"bubbles","steam_id":76561198974276335,"connected_time":2445000000000,"state":"active","ping":75},{"user_id":674,"name":"Butters495","steam_id":76561197998689042,"connected_time":701000000000,"state":"active","ping":72},{"user_id":659,"name":"1001NinjaDucks","steam_id":76561198058169660,"connected_time":1522000000000,"state":"active","ping":45},{"user_id":656,"name":"Khmer Rouge Gaming","steam_id":76561198029417627,"connected_time":1554000000000,"state":"active","ping":56}]},{"server_id":14,"name":"Uncletopia | New York City | 2 | All Maps","name_short":"nyc-2","host":"nyc-1.us.uncletopia.com","port":27025,"enabled":true,"region":"us-east","cc":"us","latitude":40.73061,"longitude":-73.93524,"reserved":0,"last_update":"0001-01-01T00:00:00Z","name_a2s":"Uncletopia | New York City | 2 | All Maps","protocol":17,"map":"pl_snowycoast","folder":"tf","game":"Team Fortress","app_id":440,"player_count":24,"max_players":24,"Bots":0,"server_type":"Dedicated","server_os":"Linux","password":true,"vac":true,"version":"7882260","steam_id":85568392924469994,"keywords":["nocrits","nodmgspread","payload","uncletopia"],"game_id":440,"stv_port":27026,"stv_name":"Uncletopia | New York City | 2 | All Maps | STV","players":[{"user_id":565,"name":"Anamm","steam_id":76561198328762510,"connected_time":652000000000,"state":"active","ping":46},{"user_id":567,"name":"Terry Aki","steam_id":76561199212875471,"connected_time":419000000000,"state":"active","ping":83},{"user_id":568,"name":"sad man.","steam_id":76561198411264177,"connected_time":380000000000,"state":"active","ping":68},{"user_id":544,"name":"whoopsydoodle","steam_id":76561198045145360,"connected_time":1530000000000,"state":"active","ping":48},{"user_id":569,"name":"Colin102004","steam_id":76561198202384334,"connected_time":328000000000,"state":"active","ping":37},{"user_id":484,"name":"eWVra2Vy","steam_id":76561198453565942,"connected_time":6955000000000,"state":"active","ping":72},{"user_id":566,"name":"Diplodocus","steam_id":76561198023323121,"connected_time":465000000000,"state":"active","ping":89},{"user_id":570,"name":"joe","steam_id":76561198819471419,"connected_time":324000000000,"state":"active","ping":61},{"user_id":561,"name":"Queso2469","steam_id":76561197993024580,"connected_time":999000000000,"state":"active","ping":46},{"user_id":542,"name":"Mr.Bady","steam_id":76561199094651706,"connected_time":2128000000000,"state":"active","ping":64},{"user_id":562,"name":"SHADY SWEATER SALESMAN","steam_id":76561198014616865,"connected_time":996000000000,"state":"active","ping":49},{"user_id":563,"name":"Hertz","steam_id":76561198310927351,"connected_time":985000000000,"state":"active","ping":142},{"user_id":557,"name":"captain red","steam_id":76561198191587983,"connected_time":1278000000000,"state":"active","ping":104},{"user_id":497,"name":"Phil Collins","steam_id":76561198068868644,"connected_time":6108000000000,"state":"active","ping":109},{"user_id":554,"name":"sauce","steam_id":76561198068430673,"connected_time":1375000000000,"state":"active","ping":69},{"user_id":535,"name":"BeerPowder","steam_id":76561198058129400,"connected_time":3144000000000,"state":"active","ping":54},{"user_id":511,"name":"Pizza","steam_id":76561198118748364,"connected_time":5769000000000,"state":"active","ping":79},{"user_id":546,"name":"I HATE A.I ART I HATE A.I ART I","steam_id":76561199101373436,"connected_time":1508000000000,"state":"active","ping":63},{"user_id":572,"name":"RedBatman","steam_id":76561198064252016,"connected_time":39000000000,"state":"active","ping":69},{"user_id":540,"name":"Idiot Princess","steam_id":76561198048205270,"connected_time":2253000000000,"state":"active","ping":68},{"user_id":505,"name":"deadpixel","steam_id":76561198150249843,"connected_time":6042000000000,"state":"active","ping":76},{"user_id":571,"name":"PEKPEK","steam_id":76561198048797430,"connected_time":255000000000,"state":"active","ping":62},{"user_id":558,"name":"who ate the cheese","steam_id":76561198275408467,"connected_time":1216000000000,"state":"active","ping":56},{"user_id":510,"name":"concrete_car","steam_id":76561198388207363,"connected_time":5862000000000,"state":"active","ping":67}]},{"server_id":15,"name":"Uncletopia | New York City | 3 | Stopwatch Beta","name_short":"nyc-3","host":"nyc-1.us.uncletopia.com","port":27035,"enabled":true,"region":"us-east","cc":"us","latitude":40.73061,"longitude":-73.93524,"reserved":0,"last_update":"0001-01-01T00:00:00Z","name_a2s":"Uncletopia | New York City | 3 | Stopwatch Beta","protocol":17,"map":"workshop/pl_vigil_rc9.ugc1266210012","folder":"tf","game":"Team Fortress","app_id":440,"player_count":0,"max_players":24,"Bots":0,"server_type":"Dedicated","server_os":"Linux","password":true,"vac":true,"version":"7882260","steam_id":85568392924742820,"keywords":["nocrits","nodmgspread","payload","uncletopia"],"game_id":440,"stv_port":27036,"stv_name":"Uncletopia | New York City | 3 | Stopwatch Beta | STV","players":null},{"server_id":16,"name":"Uncletopia | New York City | 4 | Community","name_short":"nyc-4","host":"nyc-1.us.uncletopia.com","port":27045,"enabled":true,"region":"us-east","cc":"us","latitude":40.73061,"longitude":-73.93524,"reserved":0,"last_update":"0001-01-01T00:00:00Z","name_a2s":"Uncletopia | New York City | 4 | Community","protocol":17,"map":"workshop/cp_snowbase_b18.ugc2081770490","folder":"tf","game":"Team Fortress","app_id":440,"player_count":3,"max_players":24,"Bots":0,"server_type":"Dedicated","server_os":"Linux","password":true,"vac":true,"version":"7882260","steam_id":85568392924742821,"keywords":["cp","nocrits","nodmgspread","uncletopia"],"game_id":440,"stv_port":27046,"stv_name":"Uncletopia | New York City | 4 | Community | STV","players":[{"user_id":12,"name":"GargoyleTachypnoea","steam_id":76561198287823066,"connected_time":552000000000,"state":"active","ping":116},{"user_id":13,"name":"Fd_Nightwiing","steam_id":76561198338516901,"connected_time":516000000000,"state":"active","ping":110},{"user_id":14,"name":"T-Sparks and the Dashinator","steam_id":76561198947128065,"connected_time":456000000000,"state":"active","ping":103}]},{"server_id":142,"name":"Uncletopia | São Paulo | 1 | All Maps","name_short":"sao-1","host":"sao-1.br.uncletopia.com","port":27015,"enabled":true,"region":"sa","cc":"br","latitude":-23.533773,"longitude":-46.62529,"reserved":0,"last_update":"0001-01-01T00:00:00Z","name_a2s":"Uncletopia | São Paulo | 1 | All Maps","protocol":17,"map":"pl_borneo","folder":"tf","game":"Team Fortress","app_id":440,"player_count":0,"max_players":24,"Bots":0,"server_type":"Dedicated","server_os":"Linux","password":true,"vac":true,"version":"7882260","steam_id":85568392924469996,"keywords":["nocrits","nodmgspread","payload","uncletopia"],"game_id":440,"stv_port":27016,"stv_name":"Uncletopia | São Paulo | 1 | All Maps | STV","players":null},{"server_id":143,"name":"Uncletopia | São Paulo | 2 | All Maps","name_short":"sao-2","host":"sao-2.br.uncletopia.com","port":27015,"enabled":true,"region":"sa","cc":"br","latitude":-23.533773,"longitude":-46.62529,"reserved":0,"last_update":"0001-01-01T00:00:00Z","name_a2s":"Uncletopia | São Paulo | 2 | All Maps","protocol":17,"map":"cp_snakewater_final1","folder":"tf","game":"Team Fortress","app_id":440,"player_count":1,"max_players":24,"Bots":0,"server_type":"Dedicated","server_os":"Linux","password":true,"vac":true,"version":"7882260","steam_id":85568392924485349,"keywords":["cp","nocrits","nodmgspread","uncletopia"],"game_id":440,"stv_port":27016,"stv_name":"Uncletopia | São Paulo | 2 | All Maps | STV","players":[{"user_id":457,"name":"aperson234567890","steam_id":76561199385179619,"connected_time":82000000000,"state":"active","ping":185}]},{"server_id":7,"name":"Uncletopia | Seattle | 1 | All Maps","name_short":"sea-1","host":"sea-1.us.uncletopia.com","port":27015,"enabled":true,"region":"us-west","cc":"us","latitude":47.608013,"longitude":-122.33517,"reserved":0,"last_update":"0001-01-01T00:00:00Z","name_a2s":"Uncletopia | Seattle | 1 | All Maps","protocol":17,"map":"pl_goldrush","folder":"tf","game":"Team Fortress","app_id":440,"player_count":24,"max_players":24,"Bots":0,"server_type":"Dedicated","server_os":"Linux","password":true,"vac":true,"version":"7882260","steam_id":85568392924469997,"keywords":["nocrits","nodmgspread","payload","uncletopia"],"game_id":440,"stv_port":27016,"stv_name":"Uncletopia | Seattle | 1 | All Maps | STV","players":[{"user_id":337,"name":"quaq","steam_id":76561198059604047,"connected_time":7336000000000,"state":"active","ping":34},{"user_id":405,"name":"zzrat","steam_id":76561198014925415,"connected_time":22000000000,"state":"spawning","ping":52},{"user_id":394,"name":"Mignyanne :3","steam_id":76561198048754056,"connected_time":1102000000000,"state":"active","ping":62},{"user_id":385,"name":"mega","steam_id":76561198089520959,"connected_time":2079000000000,"state":"active","ping":93},{"user_id":383,"name":"MCman","steam_id":76561198412110305,"connected_time":2415000000000,"state":"active","ping":78},{"user_id":376,"name":"Ducks","steam_id":76561198130038345,"connected_time":3122000000000,"state":"active","ping":64},{"user_id":330,"name":"Arsonist Goose","steam_id":76561198147441830,"connected_time":7899000000000,"state":"active","ping":69},{"user_id":361,"name":"forest (italian)","steam_id":76561198157960257,"connected_time":4862000000000,"state":"active","ping":40},{"user_id":325,"name":"lusty","steam_id":76561198138478947,"connected_time":9281000000000,"state":"active","ping":33},{"user_id":384,"name":"MegumiTame","steam_id":76561198450280686,"connected_time":2375000000000,"state":"active","ping":54},{"user_id":372,"name":"Daz","steam_id":76561198041431938,"connected_time":3645000000000,"state":"active","ping":52},{"user_id":347,"name":"rat gets the cheese","steam_id":76561198031234032,"connected_time":6345000000000,"state":"active","ping":101},{"user_id":390,"name":"ed","steam_id":76561198080475712,"connected_time":1550000000000,"state":"active","ping":64},{"user_id":379,"name":"ʳᵒʸᵒ","steam_id":76561198155447646,"connected_time":3050000000000,"state":"active","ping":78},{"user_id":374,"name":"BLU3","steam_id":76561198059652670,"connected_time":3265000000000,"state":"active","ping":55},{"user_id":329,"name":"Neptune˖⁺｡˚⋆˙♥","steam_id":76561199054203198,"connected_time":7958000000000,"state":"active","ping":147},{"user_id":302,"name":"shiadyne","steam_id":76561198271939793,"connected_time":11190000000000,"state":"active","ping":50},{"user_id":400,"name":"The Scatman","steam_id":76561198071693469,"connected_time":527000000000,"state":"active","ping":49},{"user_id":333,"name":"ORANGE","steam_id":76561198000401769,"connected_time":7773000000000,"state":"active","ping":48},{"user_id":391,"name":"Ayayayayayahuasca","steam_id":76561199002906056,"connected_time":1397000000000,"state":"active","ping":46},{"user_id":403,"name":"♥haunti","steam_id":76561199235580556,"connected_time":444000000000,"state":"active","ping":46},{"user_id":396,"name":"reiidaya","steam_id":76561198325306660,"connected_time":804000000000,"state":"active","ping":49},{"user_id":397,"name":"Forty","steam_id":76561198257410181,"connected_time":804000000000,"state":"active","ping":49},{"user_id":362,"name":"evilOlive","steam_id":76561198106222025,"connected_time":4861000000000,"state":"active","ping":77}]},{"server_id":119,"name":"Uncletopia | Seattle | 2 | All Maps","name_short":"sea-2","host":"sea-1.us.uncletopia.com","port":27025,"enabled":true,"region":"us-west","cc":"us","latitude":47.608013,"longitude":-122.33517,"reserved":0,"last_update":"0001-01-01T00:00:00Z","name_a2s":"Uncletopia | Seattle | 2 | All Maps","protocol":17,"map":"pl_swiftwater_final1","folder":"tf","game":"Team Fortress","app_id":440,"player_count":24,"max_players":24,"Bots":0,"server_type":"Dedicated","server_os":"Linux","password":true,"vac":true,"version":"7882260","steam_id":85568392924469998,"keywords":["nocrits","nodmgspread","payload","uncletopia"],"game_id":440,"stv_port":27026,"stv_name":"Uncletopia | Seattle | 2 | All Maps | STV","players":[{"user_id":415,"name":"cassielee13","steam_id":76561198272718759,"connected_time":506000000000,"state":"active","ping":61},{"user_id":381,"name":"the","steam_id":76561198003226288,"connected_time":2883000000000,"state":"active","ping":118},{"user_id":374,"name":"Pill time","steam_id":76561198926151899,"connected_time":3656000000000,"state":"active","ping":45},{"user_id":322,"name":"Goldensliv","steam_id":76561198161673891,"connected_time":7899000000000,"state":"active","ping":71},{"user_id":414,"name":"MayaBon","steam_id":76561198797968261,"connected_time":516000000000,"state":"active","ping":60},{"user_id":417,"name":"SaltyManok","steam_id":76561198160082948,"connected_time":496000000000,"state":"active","ping":91},{"user_id":420,"name":"Keamy","steam_id":76561199471434875,"connected_time":447000000000,"state":"active","ping":44},{"user_id":411,"name":"gay opossum (Zoey)","steam_id":76561198010230351,"connected_time":1029000000000,"state":"active","ping":49},{"user_id":392,"name":"chicken","steam_id":76561198196998007,"connected_time":2407000000000,"state":"active","ping":87},{"user_id":379,"name":"MrYadaization","steam_id":76561198050770818,"connected_time":2969000000000,"state":"active","ping":66},{"user_id":384,"name":"chloé","steam_id":76561198858926895,"connected_time":2849000000000,"state":"active","ping":36},{"user_id":397,"name":"General Fisticuffs","steam_id":76561198255721392,"connected_time":2100000000000,"state":"active","ping":129},{"user_id":375,"name":"Strikerbolt","steam_id":76561199095622897,"connected_time":3542000000000,"state":"active","ping":81},{"user_id":402,"name":"TDOB","steam_id":76561198062701904,"connected_time":1700000000000,"state":"active","ping":131},{"user_id":386,"name":"[chef] iron","steam_id":76561197970888616,"connected_time":2841000000000,"state":"active","ping":78},{"user_id":328,"name":"Sprit ♥","steam_id":76561198268780781,"connected_time":7798000000000,"state":"active","ping":103},{"user_id":398,"name":"sinyeon","steam_id":76561198125363469,"connected_time":2098000000000,"state":"active","ping":160},{"user_id":413,"name":"Qas","steam_id":76561198067564482,"connected_time":519000000000,"state":"active","ping":86},{"user_id":399,"name":"Squiliam","steam_id":76561198025278006,"connected_time":2092000000000,"state":"active","ping":110},{"user_id":371,"name":"CasemanTheBlondeBear","steam_id":76561198144862404,"connected_time":3852000000000,"state":"active","ping":57},{"user_id":373,"name":"yosh.wav","steam_id":76561199127755834,"connected_time":3730000000000,"state":"active","ping":54},{"user_id":389,"name":"Truly Cryo","steam_id":76561198347497484,"connected_time":2814000000000,"state":"active","ping":150},{"user_id":421,"name":"the meat man","steam_id":76561198037921140,"connected_time":238000000000,"state":"active","ping":73},{"user_id":409,"name":"Roni1213","steam_id":76561198408533295,"connected_time":1199000000000,"state":"active","ping":56}]},{"server_id":406,"name":"Uncletopia | Seattle | 3 | Stopwatch Beta","name_short":"sea-3","host":"sea-1.us.uncletopia.com","port":27035,"enabled":true,"region":"us-west","cc":"us","latitude":47.608013,"longitude":-122.33517,"reserved":0,"last_update":"0001-01-01T00:00:00Z","name_a2s":"Uncletopia | Seattle | 3 | Stopwatch Beta","protocol":17,"map":"workshop/koth_ramjam_rc1.ugc459778887","folder":"tf","game":"Team Fortress","app_id":440,"player_count":3,"max_players":24,"Bots":0,"server_type":"Dedicated","server_os":"Linux","password":true,"vac":true,"version":"7882260","steam_id":85568392924515217,"keywords":["cp","nocrits","nodmgspread","uncletopia"],"game_id":440,"stv_port":27036,"stv_name":"Uncletopia | Seattle | 3 | Stopwatch Beta | STV","players":[{"user_id":17,"name":"Quarter Cheese","steam_id":76561198115814588,"connected_time":4831000000000,"state":"active","ping":40},{"user_id":18,"name":"club_ted","steam_id":76561197997180003,"connected_time":4808000000000,"state":"active","ping":49},{"user_id":30,"name":"DeesDeeds","steam_id":76561199244400513,"connected_time":633000000000,"state":"active","ping":200}]},{"server_id":17,"name":"Uncletopia | San Francisco | 1 | All Maps","name_short":"sfo-1","host":"sfo-1.us.uncletopia.com","port":27015,"enabled":true,"region":"us-west","cc":"us","latitude":37.77397,"longitude":-122.4313,"reserved":0,"last_update":"0001-01-01T00:00:00Z","name_a2s":"Uncletopia | San Francisco | 1 | All Maps","protocol":17,"map":"pl_borneo","folder":"tf","game":"Team Fortress","app_id":440,"player_count":21,"max_players":24,"Bots":0,"server_type":"Dedicated","server_os":"Linux","password":true,"vac":true,"version":"7882260","steam_id":85568392924469999,"keywords":["nocrits","nodmgspread","payload","uncletopia"],"game_id":440,"stv_port":27016,"stv_name":"Uncletopia | San Francisco | 1 | All Maps | STV","players":[{"user_id":162,"name":"Purlane","steam_id":76561198125608183,"connected_time":1214000000000,"state":"spawning","ping":48},{"user_id":177,"name":"Buuw","steam_id":76561198085707714,"connected_time":263000000000,"state":"spawning","ping":64},{"user_id":163,"name":"ForAPessimistImPrettyOptimistic","steam_id":76561198170128009,"connected_time":1210000000000,"state":"spawning","ping":54},{"user_id":173,"name":"Qみどり","steam_id":76561198304166877,"connected_time":1007000000000,"state":"spawning","ping":48},{"user_id":129,"name":"Feral Femboy","steam_id":76561198130714378,"connected_time":4092000000000,"state":"spawning","ping":69},{"user_id":81,"name":"The Next Pandemic","steam_id":76561199295525734,"connected_time":6409000000000,"state":"spawning","ping":64},{"user_id":106,"name":"\u003c3Elise\u003c3","steam_id":76561198146435005,"connected_time":5337000000000,"state":"spawning","ping":90},{"user_id":125,"name":"Weiner Cleaner","steam_id":76561198147514577,"connected_time":4690000000000,"state":"spawning","ping":69},{"user_id":171,"name":"GibbusGod","steam_id":76561199232436690,"connected_time":1050000000000,"state":"spawning","ping":106},{"user_id":170,"name":"Tying the knot","steam_id":76561198247794130,"connected_time":1061000000000,"state":"spawning","ping":105},{"user_id":134,"name":"zuna","steam_id":76561199038981515,"connected_time":3823000000000,"state":"spawning","ping":53},{"user_id":178,"name":"Slippy","steam_id":76561198334059206,"connected_time":261000000000,"state":"spawning","ping":76},{"user_id":62,"name":"LiveLongNote","steam_id":76561198138118635,"connected_time":7872000000000,"state":"spawning","ping":103},{"user_id":154,"name":"chuck","steam_id":76561198065428413,"connected_time":2276000000000,"state":"spawning","ping":63},{"user_id":159,"name":"Amogous Supreme","steam_id":76561198025476774,"connected_time":1468000000000,"state":"spawning","ping":47},{"user_id":166,"name":"Stapler","steam_id":76561198099295077,"connected_time":1116000000000,"state":"spawning","ping":38},{"user_id":143,"name":"Kazakami","steam_id":76561198074578849,"connected_time":3454000000000,"state":"spawning","ping":49},{"user_id":174,"name":"mechanicvirus","steam_id":76561198038161480,"connected_time":1003000000000,"state":"spawning","ping":54},{"user_id":176,"name":"Super Kaml","steam_id":76561198960775771,"connected_time":420000000000,"state":"spawning","ping":91},{"user_id":179,"name":"Manila Folders","steam_id":76561198212083128,"connected_time":176000000000,"state":"spawning","ping":89},{"user_id":153,"name":"Madeline (She/Her)","steam_id":76561198336551859,"connected_time":2563000000000,"state":"spawning","ping":32}]},{"server_id":18,"name":"Uncletopia | San Francisco | 2 | All Maps","name_short":"sfo-2","host":"sfo-1.us.uncletopia.com","port":27025,"enabled":true,"region":"us-west","cc":"us","latitude":37.77397,"longitude":-122.4313,"reserved":0,"last_update":"0001-01-01T00:00:00Z","name_a2s":"Uncletopia | San Francisco | 2 | All Maps","protocol":17,"map":"pl_snowycoast","folder":"tf","game":"Team Fortress","app_id":440,"player_count":1,"max_players":24,"Bots":0,"server_type":"Dedicated","server_os":"Linux","password":true,"vac":true,"version":"7882260","steam_id":85568392924470000,"keywords":["nocrits","nodmgspread","payload","uncletopia"],"game_id":440,"stv_port":27026,"stv_name":"Uncletopia | San Francisco | 2 | All Maps | STV","players":[{"user_id":707,"name":"litatjandra222486","steam_id":76561199348356482,"connected_time":48000000000,"state":"active","ping":250}]},{"server_id":19,"name":"Uncletopia | San Francisco | 3 | Stopwatch Beta","name_short":"sfo-3","host":"sfo-1.us.uncletopia.com","port":27035,"enabled":true,"region":"us-west","cc":"us","latitude":37.77397,"longitude":-122.4313,"reserved":0,"last_update":"0001-01-01T00:00:00Z","name_a2s":"Uncletopia | San Francisco | 3 | Stopwatch Beta","protocol":17,"map":"pl_snowycoast","folder":"tf","game":"Team Fortress","app_id":440,"player_count":0,"max_players":24,"Bots":0,"server_type":"Dedicated","server_os":"Linux","password":true,"vac":true,"version":"7882260","steam_id":85568392924742824,"keywords":["nocrits","nodmgspread","payload","uncletopia"],"game_id":440,"stv_port":27036,"stv_name":"Uncletopia | San Francisco | 3 | Stopwatch Beta | STV","players":null},{"server_id":20,"name":"Uncletopia | San Francisco | 4 | Community","name_short":"sfo-4","host":"sfo-1.us.uncletopia.com","port":27045,"enabled":true,"region":"us-west","cc":"us","latitude":37.77397,"longitude":-122.4313,"reserved":0,"last_update":"0001-01-01T00:00:00Z","name_a2s":"Uncletopia | San Francisco | 4 | Community","protocol":17,"map":"workshop/pl_cactuscanyon_redux_final2.ugc2579644293","folder":"tf","game":"Team Fortress","app_id":440,"player_count":9,"max_players":24,"Bots":0,"server_type":"Dedicated","server_os":"Linux","password":true,"vac":true,"version":"7882260","steam_id":85568392924742826,"keywords":["nocrits","nodmgspread","payload","uncletopia"],"game_id":440,"stv_port":27046,"stv_name":"Uncletopia | San Francisco | 4 | Community | STV","players":[{"user_id":101,"name":"❤ Dolphiniz ❤","steam_id":76561199093367765,"connected_time":462000000000,"state":"active","ping":52},{"user_id":47,"name":"transbian disaster","steam_id":76561198407600762,"connected_time":3509000000000,"state":"active","ping":63},{"user_id":103,"name":"TwoScore","steam_id":76561198024412148,"connected_time":296000000000,"state":"active","ping":78},{"user_id":104,"name":"Ratchet55","steam_id":76561198208655521,"connected_time":287000000000,"state":"active","ping":68},{"user_id":105,"name":"NanoBlob","steam_id":76561199105982144,"connected_time":54000000000,"state":"active","ping":74},{"user_id":38,"name":"Linkedfurhire","steam_id":76561198149363268,"connected_time":4469000000000,"state":"active","ping":65},{"user_id":48,"name":"A Commodore 64®","steam_id":76561198156203733,"connected_time":3502000000000,"state":"active","ping":80},{"user_id":93,"name":"Westwood","steam_id":76561199387699252,"connected_time":1358000000000,"state":"active","ping":116},{"user_id":88,"name":"deep web microwave popcorn","steam_id":76561198065662025,"connected_time":1651000000000,"state":"active","ping":48}]},{"server_id":141,"name":"Uncletopia | Sydney | 1 | All Maps","name_short":"syd-1","host":"syd-1.au.uncletopia.com","port":27015,"enabled":true,"region":"au","cc":"au","latitude":-33.865143,"longitude":151.2099,"reserved":0,"last_update":"0001-01-01T00:00:00Z","name_a2s":"Uncletopia | Sydney | 1 | All Maps","protocol":17,"map":"pl_barnblitz","folder":"tf","game":"Team Fortress","app_id":440,"player_count":7,"max_players":24,"Bots":0,"server_type":"Dedicated","server_os":"Linux","password":true,"vac":true,"version":"7882260","steam_id":85568392924470001,"keywords":["nocrits","nodmgspread","payload","uncletopia"],"game_id":440,"stv_port":27016,"stv_name":"Uncletopia | Sydney | 1 | All Maps | STV","players":[{"user_id":18,"name":"FiendHalo205","steam_id":76561198828041485,"connected_time":2178000000000,"state":"active","ping":89},{"user_id":19,"name":"sju","steam_id":76561199484831234,"connected_time":1551000000000,"state":"active","ping":60},{"user_id":29,"name":"Brisbane Sleeper","steam_id":76561198362165581,"connected_time":152000000000,"state":"active","ping":72},{"user_id":21,"name":"727coolbro","steam_id":76561199134912651,"connected_time":1483000000000,"state":"active","ping":347},{"user_id":23,"name":"Donfen","steam_id":76561199076889222,"connected_time":930000000000,"state":"active","ping":56},{"user_id":24,"name":"RagedPlague","steam_id":76561198208507111,"connected_time":929000000000,"state":"active","ping":46},{"user_id":27,"name":"A lizard","steam_id":76561198301643498,"connected_time":844000000000,"state":"active","ping":69}]},{"server_id":123,"name":"Uncletopia | Sydney | 2 | All Maps","name_short":"syd-2","host":"syd-1.au.uncletopia.com","port":27025,"enabled":true,"region":"au","cc":"au","latitude":-33.865143,"longitude":151.2099,"reserved":0,"last_update":"0001-01-01T00:00:00Z","name_a2s":"Uncletopia | Sydney | 2 | All Maps","protocol":17,"map":"koth_highpass","folder":"tf","game":"Team Fortress","app_id":440,"player_count":0,"max_players":24,"Bots":0,"server_type":"Dedicated","server_os":"Linux","password":true,"vac":true,"version":"7882260","steam_id":85568392924470002,"keywords":["cp","nocrits","nodmgspread","uncletopia"],"game_id":440,"stv_port":27026,"stv_name":"Uncletopia | Sydney | 2 | All Maps | STV","players":null},{"server_id":395,"name":"Uncletopia | Sydney | 3 | All Maps","name_short":"syd-3","host":"syd-1.au.uncletopia.com","port":27035,"enabled":true,"region":"au","cc":"au","latitude":-33.865143,"longitude":151.2099,"reserved":0,"last_update":"0001-01-01T00:00:00Z","name_a2s":"Uncletopia | Sydney | 3 | All Maps","protocol":17,"map":"pl_badwater","folder":"tf","game":"Team Fortress","app_id":440,"player_count":21,"max_players":24,"Bots":0,"server_type":"Dedicated","server_os":"Linux","password":true,"vac":true,"version":"7882260","steam_id":85568392925194467,"keywords":["nocrits","nodmgspread","payload","uncletopia"],"game_id":440,"stv_port":27036,"stv_name":"Uncletopia | Sydney | 3 | All Maps | STV","players":[{"user_id":111,"name":"Gnat","steam_id":76561198109747863,"connected_time":1654000000000,"state":"active","ping":101},{"user_id":102,"name":"Yowie","steam_id":76561199380809901,"connected_time":2208000000000,"state":"active","ping":109},{"user_id":142,"name":"cakey_127","steam_id":76561199011472417,"connected_time":34000000000,"state":"active","ping":63},{"user_id":107,"name":"i put a new forgis on the jeep","steam_id":76561198831069486,"connected_time":1919000000000,"state":"active","ping":50},{"user_id":78,"name":"you've left me be Wilbur'd","steam_id":76561198301282416,"connected_time":3245000000000,"state":"active","ping":60},{"user_id":127,"name":"Johnny Fairplay","steam_id":76561198121757287,"connected_time":856000000000,"state":"active","ping":44},{"user_id":77,"name":"melissasweeney888","steam_id":76561199199072275,"connected_time":3258000000000,"state":"active","ping":67},{"user_id":117,"name":"lavanderpumpernickle","steam_id":76561199093611800,"connected_time":1358000000000,"state":"active","ping":71},{"user_id":104,"name":"Phobia²","steam_id":76561198038833524,"connected_time":2121000000000,"state":"active","ping":52},{"user_id":128,"name":"Alphandiscobean","steam_id":76561198025845937,"connected_time":697000000000,"state":"active","ping":59},{"user_id":108,"name":"perturb (feed/seed)","steam_id":76561198085124297,"connected_time":1866000000000,"state":"active","ping":57},{"user_id":130,"name":"multi","steam_id":76561198060664832,"connected_time":580000000000,"state":"active","ping":57},{"user_id":129,"name":"summer fun","steam_id":76561198289852805,"connected_time":641000000000,"state":"active","ping":79},{"user_id":133,"name":"Louis","steam_id":76561198013395847,"connected_time":387000000000,"state":"active","ping":45},{"user_id":134,"name":"Dom","steam_id":76561198846401809,"connected_time":356000000000,"state":"active","ping":52},{"user_id":135,"name":"kisses you","steam_id":76561198288970258,"connected_time":346000000000,"state":"active","ping":46},{"user_id":137,"name":"Decrafted says hi","steam_id":76561198316597003,"connected_time":279000000000,"state":"active","ping":174},{"user_id":138,"name":"picav","steam_id":76561198994859835,"connected_time":240000000000,"state":"active","ping":67},{"user_id":139,"name":"wom","steam_id":76561199375834537,"connected_time":225000000000,"state":"active","ping":132},{"user_id":140,"name":"Hungry for thumbtacks","steam_id":76561198059129270,"connected_time":156000000000,"state":"active","ping":67},{"user_id":141,"name":"the fella","steam_id":76561198015032342,"connected_time":137000000000,"state":"active","ping":45}]},{"server_id":396,"name":"Uncletopia | Sydney | 4 | All Maps","name_short":"syd-4","host":"syd-1.au.uncletopia.com","port":27045,"enabled":true,"region":"au","cc":"au","latitude":-33.865143,"longitude":151.2099,"reserved":0,"last_update":"0001-01-01T00:00:00Z","name_a2s":"Uncletopia | Sydney | 4 | All Maps","protocol":17,"map":"pl_badwater","folder":"tf","game":"Team Fortress","app_id":440,"player_count":0,"max_players":24,"Bots":0,"server_type":"Dedicated","server_os":"Linux","password":true,"vac":true,"version":"7882260","steam_id":85568392925397958,"keywords":["nocrits","nodmgspread","payload","uncletopia"],"game_id":440,"stv_port":27046,"stv_name":"Uncletopia | Sydney | 4 | All Maps | STV","players":null},{"server_id":58,"name":"Uncletopia | Sydney | 5 | Stopwatch Beta","name_short":"syd-5","host":"syd-1.au.uncletopia.com","port":27055,"enabled":true,"region":"au","cc":"au","latitude":-33.865143,"longitude":151.2099,"reserved":0,"last_update":"0001-01-01T00:00:00Z","name_a2s":"Uncletopia | Sydney | 5 | Stopwatch Beta","protocol":17,"map":"koth_viaduct","folder":"tf","game":"Team Fortress","app_id":440,"player_count":0,"max_players":24,"Bots":0,"server_type":"Dedicated","server_os":"Linux","password":true,"vac":true,"version":"7882260","steam_id":85568392925397959,"keywords":["cp","nocrits","nodmgspread","uncletopia"],"game_id":440,"stv_port":27056,"stv_name":"Uncletopia | Sydney | 5 | Stopwatch Beta | STV","players":null},{"server_id":59,"name":"Uncletopia | Sydney | 6 | Community","name_short":"syd-6","host":"syd-1.au.uncletopia.com","port":27065,"enabled":true,"region":"au","cc":"au","latitude":-33.865143,"longitude":151.2099,"reserved":0,"last_update":"0001-01-01T00:00:00Z","name_a2s":"Uncletopia | Sydney | 6 | Community","protocol":17,"map":"workshop/cp_kalinka_rc6a.ugc1272700588","folder":"tf","game":"Team Fortress","app_id":440,"player_count":0,"max_players":24,"Bots":0,"server_type":"Dedicated","server_os":"Linux","password":true,"vac":true,"version":"7882260","steam_id":85568392925397960,"keywords":["cp","nocrits","nodmgspread","uncletopia"],"game_id":440,"stv_port":27066,"stv_name":"Uncletopia | Sydney | 6 | Community | STV","players":null},{"server_id":49,"name":"Uncletopia | Warsaw | 1 | All Maps","name_short":"waw-1","host":"waw-1.pl.uncletopia.com","port":27015,"enabled":true,"region":"eu","cc":"pl","latitude":52.2297,"longitude":21.017532,"reserved":0,"last_update":"0001-01-01T00:00:00Z","name_a2s":"","protocol":0,"map":"","folder":"","game":"","app_id":0,"player_count":0,"max_players":0,"Bots":0,"server_type":"","server_os":"","password":false,"vac":false,"version":"","steam_id":0,"keywords":null,"game_id":0,"stv_port":0,"stv_name":"","players":null},{"server_id":50,"name":"Uncletopia | Warsaw | 2 | All Maps","name_short":"waw-2","host":"waw-1.pl.uncletopia.com","port":27025,"enabled":true,"region":"eu","cc":"pl","latitude":52.2297,"longitude":21.017532,"reserved":0,"last_update":"0001-01-01T00:00:00Z","name_a2s":"Uncletopia | Warsaw | 2 | All Maps","protocol":17,"map":"koth_viaduct","folder":"tf","game":"Team Fortress","app_id":440,"player_count":0,"max_players":24,"Bots":0,"server_type":"Dedicated","server_os":"Linux","password":true,"vac":true,"version":"7882260","steam_id":85568392925397851,"keywords":["cp","nocrits","nodmgspread","uncletopia"],"game_id":440,"stv_port":27026,"stv_name":"Uncletopia | Warsaw | 2 | All Maps | STV","players":null},{"server_id":51,"name":"Uncletopia | Warsaw | 3 | All Maps","name_short":"waw-3","host":"waw-1.pl.uncletopia.com","port":27035,"enabled":true,"region":"eu","cc":"pl","latitude":52.2297,"longitude":21.017532,"reserved":0,"last_update":"0001-01-01T00:00:00Z","name_a2s":"Uncletopia | Warsaw | 3 | All Maps","protocol":17,"map":"pl_swiftwater_final1","folder":"tf","game":"Team Fortress","app_id":440,"player_count":0,"max_players":24,"Bots":0,"server_type":"Dedicated","server_os":"Linux","password":true,"vac":true,"version":"7882260","steam_id":85568392925397852,"keywords":["nocrits","nodmgspread","payload","uncletopia"],"game_id":440,"stv_port":27036,"stv_name":"Uncletopia | Warsaw | 3 | All Maps | STV","players":null},{"server_id":52,"name":"Uncletopia | Warsaw | 4 | All Maps","name_short":"waw-4","host":"waw-1.pl.uncletopia.com","port":27045,"enabled":true,"region":"eu","cc":"pl","latitude":52.2297,"longitude":21.017532,"reserved":0,"last_update":"0001-01-01T00:00:00Z","name_a2s":"Uncletopia | Warsaw | 4 | All Maps","protocol":17,"map":"koth_cascade","folder":"tf","game":"Team Fortress","app_id":440,"player_count":0,"max_players":24,"Bots":0,"server_type":"Dedicated","server_os":"Linux","password":true,"vac":true,"version":"7882260","steam_id":85568392925397853,"keywords":["cp","nocrits","nodmgspread","uncletopia"],"game_id":440,"stv_port":27046,"stv_name":"Uncletopia | Warsaw | 4 | All Maps | STV","players":null},{"server_id":53,"name":"Uncletopia | Warsaw | 5 | Stopwatch Beta","name_short":"waw-5","host":"waw-1.pl.uncletopia.com","port":27055,"enabled":true,"region":"eu","cc":"pl","latitude":52.2297,"longitude":21.017532,"reserved":0,"last_update":"0001-01-01T00:00:00Z","name_a2s":"Uncletopia | Warsaw | 5 | Stopwatch Beta","protocol":17,"map":"cp_granary","folder":"tf","game":"Team Fortress","app_id":440,"player_count":0,"max_players":24,"Bots":0,"server_type":"Dedicated","server_os":"Linux","password":true,"vac":true,"version":"7882260","steam_id":85568392925397854,"keywords":["cp","nocrits","nodmgspread","uncletopia"],"game_id":440,"stv_port":27056,"stv_name":"Uncletopia | Warsaw | 5 | Stopwatch Beta | STV","players":null},{"server_id":54,"name":"Uncletopia | Warsaw | 6 | Community","name_short":"waw-6","host":"waw-1.pl.uncletopia.com","port":27065,"enabled":true,"region":"eu","cc":"pl","latitude":52.2297,"longitude":21.017532,"reserved":0,"last_update":"0001-01-01T00:00:00Z","name_a2s":"Uncletopia | Warsaw | 6 | Community","protocol":17,"map":"workshop/koth_bagel_rc6.ugc2514036946","folder":"tf","game":"Team Fortress","app_id":440,"player_count":0,"max_players":24,"Bots":0,"server_type":"Dedicated","server_os":"Linux","password":true,"vac":true,"version":"7882260","steam_id":85568392925397856,"keywords":["cp","nocrits","nodmgspread","uncletopia"],"game_id":440,"stv_port":27066,"stv_name":"Uncletopia | Warsaw | 6 | Community | STV","players":null}]}