{"status":true,"message":"","result":[{"server_id":9,"name":"Uncletopia | Atlanta | 1 | All Maps","name_short":"atl-1","host":"atl-1.us.uncletopia.com","port":27015,"enabled":true,"region":"us-east","cc":"us","latitude":33.753746,"longitude":-84.38633,"reserved":0,"last_update":"0001-01-01T00:00:00Z","name_a2s":"Uncletopia | Atlanta | 1 | All Maps","protocol":17,"map":"koth_cascade","folder":"tf","game":"Team Fortress","app_id":440,"player_count":23,"max_players":24,"Bots":0,"server_type":"Dedicated","server_os":"Linux","password":true,"vac":true,"version":"7961495","steam_id":85568392924469982,"keywords":["cp","nocrits","nodmgspread","uncletopia"],"game_id":440,"stv_port":27016,"stv_name":"Uncletopia | Atlanta | 1 | All Maps | STV","players":null},{"server_id":104,"name":"Uncletopia | Atlanta | 2 | All Maps","name_short":"atl-2","host":"atl-1.us.uncletopia.com","port":27025,"enabled":true,"region":"us-east","cc":"us","latitude":33.753746,"longitude":-84.38633,"reserved":0,"last_update":"0001-01-01T00:00:00Z","name_a2s":"Uncletopia | Atlanta | 2 | All Maps","protocol":17,"map":"pl_snowycoast","folder":"tf","game":"Team Fortress","app_id":440,"player_count":0,"max_players":24,"Bots":0,"server_type":"Dedicated","server_os":"Linux","password":true,"vac":true,"version":"7961495","steam_id":85568392924469983,"keywords":["nocrits","nodmgspread","payload","uncletopia"],"game_id":440,"stv_port":27026,"stv_name":"Uncletopia | Atlanta | 2 | All Maps | STV","players":null},{"server_id":400,"name":"Uncletopia | Atlanta | 3 | Stopwatch","name_short":"atl-3","host":"atl-1.us.uncletopia.com","port":27035,"enabled":true,"region":"us-east","cc":"us","latitude":33.753746,"longitude":-84.38633,"reserved":0,"last_update":"0001-01-01T00:00:00Z","name_a2s":"Uncletopia | Atlanta | 3 | Stopwatch","protocol":17,"map":"koth_highpass","folder":"tf","game":"Team Fortress","app_id":440,"player_count":0,"max_players":24,"Bots":0,"server_type":"Dedicated","server_os":"Linux","password":true,"vac":true,"version":"7961495","steam_id":85568392924515187,"keywords":["cp","nocrits","nodmgspread","uncletopia"],"game_id":440,"stv_port":27036,"stv_name":"Uncletopia | Atlanta | 3 | Stopwatch | STV","players":null},{"server_id":401,"name":"Uncletopia | Atlanta | 4 | Community","name_short":"atl-4","host":"atl-1.us.uncletopia.com","port":27045,"enabled":true,"region":"us-east","cc":"us","latitude":33.753746,"longitude":-84.38633,"reserved":0,"last_update":"0001-01-01T00:00:00Z","name_a2s":"Uncletopia | Atlanta | 4 | Community","protocol":17,"map":"koth_kemptown_rc1","folder":"tf","game":"Team Fortress","app_id":440,"player_count":0,"max_players":24,"Bots":0,"server_type":"Dedicated","server_os":"Linux","password":true,"vac":true,"version":"7961495","steam_id":85568392924515188,"keywords":["cp","nocrits","nodmgspread","uncletopia"],"game_id":440,"stv_port":27046,"stv_name":"Uncletopia | Atlanta | 4 | Community | STV","players":null},{"server_id":2,"name":"Uncletopia | Chicago | 1 | All Maps","name_short":"chi-1","host":"chi-1.us.uncletopia.com","port":27015,"enabled":true,"region":"us-central","cc":"us","latitude":41.881832,"longitude":-87.62318,"reserved":0,"last_update":"0001-01-01T00:00:00Z","name_a2s":"Uncletopia | Chicago | 1 | All Maps","protocol":17,"map":"pl_upward","folder":"tf","game":"Team Fortress","app_id":440,"player_count":0,"max_players":24,"Bots":0,"server_type":"Dedicated","server_os":"Linux","password":true,"vac":true,"version":"7961495","steam_id":85568392924469984,"keywords":["nocrits","nodmgspread","payload","uncletopia"],"game_id":440,"stv_port":27016,"stv_name":"Uncletopia | Chicago | 1 | All Maps | STV","players":null},{"server_id":106,"name":"Uncletopia | Chicago | 2 | All Maps","name_short":"chi-2","host":"chi-1.us.uncletopia.com","port":27025,"enabled":true,"region":"us-central","cc":"us","latitude":41.881832,"longitude":-87.62318,"reserved":0,"last_update":"0001-01-01T00:00:00Z","name_a2s":"Uncletopia | Chicago | 2 | All Maps","protocol":17,"map":"pl_snowycoast","folder":"tf","game":"Team Fortress","app_id":440,"player_count":0,"max_players":24,"Bots":0,"server_type":"Dedicated","server_os":"Linux","password":true,"vac":true,"version":"7961495","steam_id":85568392924469985,"keywords":["nocrits","nodmgspread","payload","uncletopia"],"game_id":440,"stv_port":27026,"stv_name":"Uncletopia | Chicago | 2 | All Maps | STV","players":null},{"server_id":402,"name":"Uncletopia | Chicago | 3 | All Maps","name_short":"chi-3","host":"chi-1.us.uncletopia.com","port":27035,"enabled":true,"region":"us-central","cc":"us","latitude":41.881832,"longitude":-87.62318,"reserved":0,"last_update":"0001-01-01T00:00:00Z","name_a2s":"Uncletopia | Chicago | 3 | All Maps","protocol":17,"map":"pl_swiftwater_final1","folder":"tf","game":"Team Fortress","app_id":440,"player_count":24,"max_players":24,"Bots":0,"server_type":"Dedicated","server_os":"Linux","password":true,"vac":true,"version":"7961495","steam_id":85568392924515191,"keywords":["nocrits","nodmgspread","payload","uncletopia"],"game_id":440,"stv_port":27036,"stv_name":"Uncletopia | Chicago | 3 | All Maps | STV","players":[{"user_id":833,"name":"xd?","steam_id":76561198339644583,"connected_time":852000000000,"state":"active","ping":54},{"user_id":803,"name":"Archie","steam_id":76561198073498063,"connected_time":3196000000000,"state":"active","ping":168},{"user_id":785,"name":"Gammaplex","steam_id":76561198981228176,"connected_time":4124000000000,"state":"active","ping":58},{"user_id":808,"name":"PyroEagle","steam_id":76561198296434231,"connected_time":2860000000000,"state":"active","ping":69},{"user_id":809,"name":"Tech Deck","steam_id":76561199070437675,"connected_time":2808000000000,"state":"active","ping":119},{"user_id":816,"name":"im the beef","steam_id":76561198069506128,"connected_time":2255000000000,"state":"active","ping":65},{"user_id":820,"name":"Missing Minus","steam_id":76561198120822928,"connected_time":1675000000000,"state":"active","ping":61},{"user_id":817,"name":"Bobby Ray","steam_id":76561198044131188,"connected_time":2239000000000,"state":"active","ping":74},{"user_id":824,"name":"Nero","steam_id":76561198449565973,"connected_time":1586000000000,"state":"active","ping":83},{"user_id":823,"name":"K","steam_id":76561198171446177,"connected_time":1627000000000,"state":"active","ping":94},{"user_id":783,"name":"H.","steam_id":76561198074951179,"connected_time":4432000000000,"state":"active","ping":61},{"user_id":793,"name":"Conibun","steam_id":76561198066389567,"connected_time":3566000000000,"state":"active","ping":93},{"user_id":825,"name":"jfrizzle420","steam_id":76561198105544691,"connected_time":1555000000000,"state":"active","ping":89},{"user_id":826,"name":"ToddieToxic","steam_id":76561198419353276,"connected_time":1499000000000,"state":"active","ping":86},{"user_id":813,"name":"mwee machine","steam_id":76561198047126327,"connected_time":2759000000000,"state":"active","ping":75},{"user_id":827,"name":"cotton candy ghooost","steam_id":76561198058998371,"connected_time":1461000000000,"state":"active","ping":65},{"user_id":805,"name":"bobkattbro","steam_id":76561199009438984,"connected_time":3105000000000,"state":"active","ping":100},{"user_id":832,"name":"pigswill","steam_id":76561197999081865,"connected_time":1084000000000,"state":"active","ping":88},{"user_id":828,"name":"celery","steam_id":76561199004451589,"connected_time":1460000000000,"state":"active","ping":68},{"user_id":829,"name":"LNRPdeadshot","steam_id":76561199160013540,"connected_time":1460000000000,"state":"active","ping":89},{"user_id":801,"name":"feudal","steam_id":76561198057374871,"connected_time":3303000000000,"state":"active","ping":61},{"user_id":830,"name":"shirtless eddie","steam_id":76561198074838093,"connected_time":1456000000000,"state":"active","ping":63},{"user_id":831,"name":"dunk","steam_id":76561198132476501,"connected_time":1341000000000,"state":"active","ping":46},{"user_id":834,"name":"tim allen fanboy","steam_id":76561198167910869,"connected_time":606000000000,"state":"active","ping":47}]},{"server_id":403,"name":"Uncletopia | Chicago | 4 | All Maps","name_short":"chi-4","host":"chi-1.us.uncletopia.com","port":27045,"enabled":true,"region":"us-central","cc":"us","latitude":41.881832,"longitude":-87.62318,"reserved":0,"last_update":"0001-01-01T00:00:00Z","name_a2s":"Uncletopia | Chicago | 4 | All Maps","protocol":17,"map":"koth_lakeside_final","folder":"tf","game":"Team Fortress","app_id":440,"player_count":0,"max_players":24,"Bots":0,"server_type":"Dedicated","server_os":"Linux","password":true,"vac":true,"version":"7961495","steam_id":85568392924515193,"keywords":["cp","nocrits","nodmgspread","uncletopia"],"game_id":440,"stv_port":27046,"stv_name":"Uncletopia | Chicago | 4 | All Maps | STV","players":null},{"server_id":36,"name":"Uncletopia | Chicago | 5 | All Maps","name_short":"chi-5","host":"chi-2.us.uncletopia.com","port":27015,"enabled":true,"region":"us-central","cc":"us","latitude":41.881832,"longitude":-87.62318,"reserved":0,"last_update":"0001-01-01T00:00:00Z","name_a2s":"Uncletopia | Chicago | 5 | All Maps","protocol":17,"map":"pl_barnblitz","folder":"tf","game":"Team Fortress","app_id":440,"player_count":23,"max_players":24,"Bots":0,"server_type":"Dedicated","server_os":"Linux","password":true,"vac":true,"version":"7961495","steam_id":85568392924866362,"keywords":["nocrits","nodmgspread","payload","uncletopia"],"game_id":440,"stv_port":27016,"stv_name":"Uncletopia | Chicago | 5 | All Maps | STV","players":[{"user_id":610,"name":"Chazbaca","steam_id":76561198107913652,"connected_time":1280000000000,"state":"active","ping":74},{"user_id":606,"name":"PurplePanda","steam_id":76561198076484653,"connected_time":1344000000000,"state":"active","ping":71},{"user_id":613,"name":"B U N G U S","steam_id":76561198079242127,"connected_time":868000000000,"state":"active","ping":104},{"user_id":614,"name":"pol","steam_id":76561198032656359,"connected_time":848000000000,"state":"active","ping":98},{"user_id":592,"name":"Ichthyology Enthusiast","steam_id":76561198854662187,"connected_time":2086000000000,"state":"active","ping":73},{"user_id":584,"name":"moomin","steam_id":76561198336244269,"connected_time":2653000000000,"state":"active","ping":115},{"user_id":583,"name":"Slappy","steam_id":76561198397724177,"connected_time":2765000000000,"state":"active","ping":83},{"user_id":618,"name":"ColdTooth","steam_id":76561197994963901,"connected_time":531000000000,"state":"active","ping":78},{"user_id":594,"name":"little_neb","steam_id":76561198117396733,"connected_time":2016000000000,"state":"active","ping":86},{"user_id":527,"name":"Cosmo","steam_id":76561198042147273,"connected_time":6966000000000,"state":"active","ping":92},{"user_id":586,"name":"Goober","steam_id":76561198988863807,"connected_time":2612000000000,"state":"active","ping":74},{"user_id":615,"name":"Big Tobacco","steam_id":76561198053752790,"connected_time":807000000000,"state":"active","ping":68},{"user_id":597,"name":"ropesnek","steam_id":76561198140591498,"connected_time":1936000000000,"state":"active","ping":76},{"user_id":598,"name":"◊ú◊°◊ë◊ï◊ú ◊õ◊û◊ï ◊©◊ê◊†◊ô ◊°◊ë","steam_id":76561198021308963,"connected_time":1936000000000,"state":"active","ping":68},{"user_id":599,"name":"7__2","steam_id":76561198074184077,"connected_time":1912000000000,"state":"active","ping":71},{"user_id":578,"name":"Back On The Worksite","steam_id":76561198084095912,"connected_time":3316000000000,"state":"active","ping":96},{"user_id":620,"name":"ClusterMorph","steam_id":76561198054026496,"connected_time":69000000000,"state":"active","ping":56},{"user_id":601,"name":"Weh","steam_id":76561198325912228,"connected_time":1817000000000,"state":"active","ping":60},{"user_id":602,"name":"Owl Men From Planet P","steam_id":76561198167810011,"connected_time":1803000000000,"state":"active","ping":61},{"user_id":619,"name":"Gormless_Shlorm","steam_id":76561198085043975,"connected_time":133000000000,"state":"active","ping":104},{"user_id":622,"name":"ethereal sludge","steam_id":76561198978665598,"connected_time":40000000000,"state":"active","ping":77},{"user_id":612,"name":"Kazul","steam_id":76561198014925555,"connected_time":985000000000,"state":"active","ping":58},{"user_id":617,"name":"One Horned Bitch Destroyer","steam_id":76561198045810191,"connected_time":786000000000,"state":"active","ping":90}]},{"server_id":37,"name":"Uncletopia | Chicago | 6 | All Maps","name_short":"chi-6","host":"chi-2.us.uncletopia.com","port":27025,"enabled":true,"region":"us-central","cc":"us","latitude":41.881832,"longitude":-87.62318,"reserved":0,"last_update":"0001-01-01T00:00:00Z","name_a2s":"Uncletopia | Chicago | 6 | All Maps","protocol":17,"map":"pl_snowycoast","folder":"tf","game":"Team Fortress","app_id":440,"player_count":0,"max_players":24,"Bots":0,"server_type":"Dedicated","server_os":"Linux","password":true,"vac":true,"version":"7961495","steam_id":85568392924866363,"keywords":["nocrits","nodmgspread","payload","uncletopia"],"game_id":440,"stv_port":27026,"stv_name":"Uncletopia | Chicago | 6 | All Maps | STV","players":null},{"server_id":38,"name":"Uncletopia | Chicago | 7 | Stopwatch","name_short":"chi-7","host":"chi-2.us.uncletopia.com","port":27035,"enabled":true,"region":"us-central","cc":"us","latitude":41.881832,"longitude":-87.62318,"reserved":0,"last_update":"0001-01-01T00:00:00Z","name_a2s":"Uncletopia | Chicago | 7 | Stopwatch","protocol":17,"map":"workshop/koth_product_final.ugc454272353","folder":"tf","game":"Team Fortress","app_id":440,"player_count":0,"max_players":24,"Bots":0,"server_type":"Dedicated","server_os":"Linux","password":true,"vac":true,"version":"7961495","steam_id":85568392924866364,"keywords":["cp","nocrits","nodmgspread","uncletopia"],"game_id":440,"stv_port":27036,"stv_name":"Uncletopia | Chicago | 7 | Stopwatch | STV","players":null},{"server_id":39,"name":"Uncletopia | Chicago | 8 | Community","name_short":"chi-8","host":"chi-2.us.uncletopia.com","port":27045,"enabled":true,"region":"us-central","cc":"us","latitude":41.881832,"longitude":-87.62318,"reserved":0,"last_update":"0001-01-01T00:00:00Z","name_a2s":"Uncletopia | Chicago | 8 | Community","protocol":17,"map":"workshop/koth_kemptown_rc1.ugc767410655","folder":"tf","game":"Team Fortress","app_id":440,"player_count":0,"max_players":24,"Bots":0,"server_type":"Dedicated","server_os":"Linux","password":true,"vac":true,"version":"7961495","steam_id":85568392924866365,"keywords":["cp","nocrits","nodmgspread","uncletopia"],"game_id":440,"stv_port":27046,"stv_name":"Uncletopia | Chicago | 8 | Community | STV","players":null},{"server_id":8,"name":"Uncletopia | Dallas | 1 | All Maps","name_short":"dal-1","host":"dal-1.us.uncletopia.com","port":27015,"enabled":true,"region":"us-central","cc":"us","latitude":32.779167,"longitude":-96.80889,"reserved":0,"last_update":"0001-01-01T00:00:00Z","name_a2s":"Uncletopia | Dallas | 1 | All Maps","protocol":17,"map":"koth_lakeside_final","folder":"tf","game":"Team Fortress","app_id":440,"player_count":0,"max_players":24,"Bots":0,"server_type":"Dedicated","server_os":"Linux","password":true,"vac":true,"version":"7961495","steam_id":85568392924469986,"keywords":["cp","nocrits","nodmgspread","uncletopia"],"game_id":440,"stv_port":27016,"stv_name":"Uncletopia | Dallas | 1 | All Maps | STV","players":null},{"server_id":108,"name":"Uncletopia | Dallas | 2 | All Maps","name_short":"dal-2","host":"dal-1.us.uncletopia.com","port":27025,"enabled":true,"region":"us-central","cc":"us","latitude":32.779167,"longitude":-96.80889,"reserved":0,"last_update":"0001-01-01T00:00:00Z","name_a2s":"Uncletopia | Dallas | 2 | All Maps","protocol":17,"map":"pl_swiftwater_final1","folder":"tf","game":"Team Fortress","app_id":440,"player_count":22,"max_players":24,"Bots":0,"server_type":"Dedicated","server_os":"Linux","password":true,"vac":true,"version":"7961495","steam_id":85568392924469988,"keywords":["nocrits","nodmgspread","payload","uncletopia"],"game_id":440,"stv_port":27026,"stv_name":"Uncletopia | Dallas | 2 | All Maps | STV","players":[{"user_id":739,"name":"Trollstoy","steam_id":76561198072017175,"connected_time":275000000000,"state":"active","ping":175},{"user_id":731,"name":"Latedawns82","steam_id":76561199196300397,"connected_time":558000000000,"state":"active","ping":73},{"user_id":732,"name":"üçíbutaüçí","steam_id":76561198135538212,"connected_time":499000000000,"state":"active","ping":75},{"user_id":706,"name":"jellybeans up my ass","steam_id":76561198819255576,"connected_time":2533000000000,"state":"active","ping":72},{"user_id":586,"name":"the bottomest transfem","steam_id":76561199328635967,"connected_time":10393000000000,"state":"active","ping":49},{"user_id":733,"name":"KYLE KYLESON","steam_id":76561198021920887,"connected_time":498000000000,"state":"active","ping":68},{"user_id":743,"name":"Sir_Mr_The_3rd_Esq","steam_id":76561198354417220,"connected_time":130000000000,"state":"active","ping":64},{"user_id":737,"name":"felicities","steam_id":76561199446921772,"connected_time":372000000000,"state":"active","ping":85},{"user_id":736,"name":"Ecliptica","steam_id":76561198171951333,"connected_time":434000000000,"state":"active","ping":72},{"user_id":525,"name":"Smash","steam_id":76561198085813708,"connected_time":14964000000000,"state":"active","ping":73},{"user_id":742,"name":"ahab","steam_id":76561198087712736,"connected_time":143000000000,"state":"active","ping":100},{"user_id":720,"name":"START PRAYIN BOY","steam_id":76561198089173996,"connected_time":1588000000000,"state":"active","ping":91},{"user_id":740,"name":"PyroTechno","steam_id":76561198060929872,"connected_time":262000000000,"state":"active","ping":74},{"user_id":722,"name":"CowMilkingMoth","steam_id":76561198047607935,"connected_time":1555000000000,"state":"active","ping":73},{"user_id":744,"name":"HalfGuest","steam_id":76561199045682328,"connected_time":91000000000,"state":"active","ping":221},{"user_id":745,"name":"TylerKai421","steam_id":76561198207428583,"connected_time":54000000000,"state":"active","ping":113},{"user_id":746,"name":"Sheep","steam_id":76561198161218914,"connected_time":40000000000,"state":"active","ping":87},{"user_id":747,"name":"H2OBourne","steam_id":76561198396293109,"connected_time":7000000000,"state":"spawning","ping":42},{"user_id":599,"name":"SleepyScotoplanesTTV","steam_id":76561198968140914,"connected_time":9677000000000,"state":"active","ping":63},{"user_id":701,"name":"dumbest girl alive","steam_id":76561198062263639,"connected_time":2703000000000,"state":"active","ping":50},{"user_id":676,"name":"soft and wet","steam_id":76561198081974528,"connected_time":5245000000000,"state":"active","ping":73},{"user_id":716,"name":"VixianUwU","steam_id":76561198948815060,"connected_time":1882000000000,"state":"active","ping":75}]},{"server_id":404,"name":"Uncletopia | Dallas | 3 | All Maps","name_short":"dal-3","host":"dal-1.us.uncletopia.com","port":27035,"enabled":true,"region":"us-central","cc":"us","latitude":32.779167,"longitude":-96.80889,"reserved":0,"last_update":"0001-01-01T00:00:00Z","name_a2s":"Uncletopia | Dallas | 3 | All Maps","protocol":17,"map":"koth_suijin","folder":"tf","game":"Team Fortress","app_id":440,"player_count":0,"max_players":24,"Bots":0,"server_type":"Dedicated","server_os":"Linux","password":true,"vac":true,"version":"7961495","steam_id":85568392924515219,"keywords":["cp","nocrits","nodmgspread","uncletopia"],"game_id":440,"stv_port":27036,"stv_name":"Uncletopia | Dallas | 3 | All Maps | STV","players":null},{"server_id":405,"name":"Uncletopia | Dallas | 4 | Community","name_short":"dal-4","host":"dal-1.us.uncletopia.com","port":27045,"enabled":true,"region":"us-central","cc":"us","latitude":32.779167,"longitude":-96.80889,"reserved":0,"last_update":"0001-01-01T00:00:00Z","name_a2s":"Uncletopia | Dallas | 4 | Community","protocol":17,"map":"workshop/cp_villa_b19.ugc2113052569","folder":"tf","game":"Team Fortress","app_id":440,"player_count":0,"max_players":24,"Bots":0,"server_type":"Dedicated","server_os":"Linux","password":true,"vac":true,"version":"7961495","steam_id":85568392924515220,"keywords":["cp","nocrits","nodmgspread","uncletopia"],"game_id":440,"stv_port":27046,"stv_name":"Uncletopia | Dallas | 4 | Community | STV","players":null},{"server_id":5,"name":"Uncletopia | Frankfurt | 1 | All Maps","name_short":"frk-1","host":"frk-1.de.uncletopia.com","port":27015,"enabled":true,"region":"eu","cc":"de","latitude":50.110924,"longitude":8.682127,"reserved":0,"last_update":"0001-01-01T00:00:00Z","name_a2s":"Uncletopia | Frankfurt | 1 | All Maps","protocol":17,"map":"pl_badwater","folder":"tf","game":"Team Fortress","app_id":440,"player_count":24,"max_players":24,"Bots":0,"server_type":"Dedicated","server_os":"Linux","password":true,"vac":true,"version":"7961495","steam_id":85568392924469989,"keywords":["nocrits","nodmgspread","payload","uncletopia"],"game_id":440,"stv_port":27016,"stv_name":"Uncletopia | Frankfurt | 1 | All Maps | STV","players":[{"user_id":55,"name":"VORTEX(COMMS OPEN)","steam_id":76561199074746528,"connected_time":1993000000000,"state":"active","ping":68},{"user_id":6,"name":"Zulik92","steam_id":76561198152442373,"connected_time":5541000000000,"state":"active","ping":59},{"user_id":87,"name":"Dommy","steam_id":76561197990864747,"connected_time":432000000000,"state":"active","ping":54},{"user_id":77,"name":"Seb","steam_id":76561198262273233,"connected_time":789000000000,"state":"active","ping":62},{"user_id":82,"name":"hej","steam_id":76561198110530761,"connected_time":634000000000,"state":"active","ping":60},{"user_id":72,"name":"beardeath","steam_id":76561199064688448,"connected_time":808000000000,"state":"active","ping":100},{"user_id":39,"name":"Kepucz","steam_id":76561197977634244,"connected_time":3209000000000,"state":"active","ping":64},{"user_id":89,"name":"Coomer","steam_id":76561198186808027,"connected_time":153000000000,"state":"active","ping":46},{"user_id":73,"name":"dunduu","steam_id":76561198875240717,"connected_time":803000000000,"state":"active","ping":67},{"user_id":69,"name":"Cum flicker","steam_id":76561198304771597,"connected_time":821000000000,"state":"active","ping":77},{"user_id":74,"name":"noseb","steam_id":76561199480942903,"connected_time":801000000000,"state":"active","ping":71},{"user_id":75,"name":"Leibeigener","steam_id":76561199275478305,"connected_time":800000000000,"state":"active","ping":38},{"user_id":52,"name":"Qdarks","steam_id":76561198013391340,"connected_time":2252000000000,"state":"active","ping":153},{"user_id":62,"name":"Curls","steam_id":76561198079039937,"connected_time":1026000000000,"state":"active","ping":75},{"user_id":84,"name":"big_frog_hoe (real)","steam_id":76561197987562652,"connected_time":586000000000,"state":"active","ping":58},{"user_id":78,"name":"Qwerty","steam_id":76561198023525894,"connected_time":771000000000,"state":"active","ping":76},{"user_id":80,"name":"QR code 78","steam_id":76561198073749509,"connected_time":769000000000,"state":"active","ping":66},{"user_id":79,"name":"spy among us","steam_id":76561198392537090,"connected_time":771000000000,"state":"active","ping":56},{"user_id":63,"name":"bleeeeh :P","steam_id":76561198139729249,"connected_time":1015000000000,"state":"active","ping":81},{"user_id":36,"name":"Largo","steam_id":76561198844368927,"connected_time":3237000000000,"state":"active","ping":84},{"user_id":44,"name":"Rin-Nakaret","steam_id":76561197971051188,"connected_time":2902000000000,"state":"active","ping":64},{"user_id":81,"name":"DunkleG","steam_id":76561198053816186,"connected_time":758000000000,"state":"active","ping":58},{"user_id":88,"name":"ExotiiC ‚òØ","steam_id":76561198046149866,"connected_time":367000000000,"state":"active","ping":76},{"user_id":66,"name":"im tired","steam_id":76561198812159557,"connected_time":948000000000,"state":"active","ping":72}]},{"server_id":110,"name":"Uncletopia | Frankfurt | 2 | All Maps","name_short":"frk-2","host":"frk-1.de.uncletopia.com","port":27025,"enabled":true,"region":"eu","cc":"de","latitude":50.110924,"longitude":8.682127,"reserved":0,"last_update":"0001-01-01T00:00:00Z","name_a2s":"Uncletopia | Frankfurt | 2 | All Maps","protocol":17,"map":"cp_dustbowl","folder":"tf","game":"Team Fortress","app_id":440,"player_count":0,"max_players":24,"Bots":0,"server_type":"Dedicated","server_os":"Linux","password":true,"vac":true,"version":"7961495","steam_id":85568392924469990,"keywords":["cp","nocrits","nodmgspread","uncletopia"],"game_id":440,"stv_port":27026,"stv_name":"Uncletopia | Frankfurt | 2 | All Maps | STV","players":null},{"server_id":308,"name":"Uncletopia | Frankfurt | 3 | All Maps","name_short":"frk-3","host":"frk-1.de.uncletopia.com","port":27035,"enabled":true,"region":"eu","cc":"de","latitude":50.110924,"longitude":8.682127,"reserved":0,"last_update":"0001-01-01T00:00:00Z","name_a2s":"Uncletopia | Frankfurt | 3 | All Maps","protocol":17,"map":"pl_barnblitz","folder":"tf","game":"Team Fortress","app_id":440,"player_count":0,"max_players":24,"Bots":0,"server_type":"Dedicated","server_os":"Linux","password":true,"vac":true,"version":"7961495","steam_id":85568392924504274,"keywords":["nocrits","nodmgspread","payload","uncletopia"],"game_id":440,"stv_port":27036,"stv_name":"Uncletopia | Frankfurt | 3 | All Maps | STV","players":null},{"server_id":309,"name":"Uncletopia | Frankfurt | 4 | All Maps","name_short":"frk-4","host":"frk-1.de.uncletopia.com","port":27045,"enabled":true,"region":"eu","cc":"de","latitude":50.110924,"longitude":8.682127,"reserved":0,"last_update":"0001-01-01T00:00:00Z","name_a2s":"Uncletopia | Frankfurt | 4 | All Maps","protocol":17,"map":"koth_highpass","folder":"tf","game":"Team Fortress","app_id":440,"player_count":1,"max_players":24,"Bots":0,"server_type":"Dedicated","server_os":"Linux","password":true,"vac":true,"version":"7961495","steam_id":85568392924504275,"keywords":["cp","nocrits","nodmgspread","uncletopia"],"game_id":440,"stv_port":27046,"stv_name":"Uncletopia | Frankfurt | 4 | All Maps | STV","players":[{"user_id":4,"name":"Kili","steam_id":76561198138456346,"connected_time":122000000000,"state":"active","ping":61}]},{"server_id":310,"name":"Uncletopia | Frankfurt | 5 | All Maps","name_short":"frk-5","host":"frk-1.de.uncletopia.com","port":27055,"enabled":true,"region":"eu","cc":"de","latitude":50.110924,"longitude":8.682127,"reserved":0,"last_update":"0001-01-01T00:00:00Z","name_a2s":"Uncletopia | Frankfurt | 5 | All Maps","protocol":17,"map":"pl_barnblitz","folder":"tf","game":"Team Fortress","app_id":440,"player_count":0,"max_players":24,"Bots":0,"server_type":"Dedicated","server_os":"Linux","password":true,"vac":true,"version":"7961495","steam_id":85568392924504277,"keywords":["nocrits","nodmgspread","payload","uncletopia"],"game_id":440,"stv_port":27056,"stv_name":"Uncletopia | Frankfurt | 5 | All Maps | STV","players":null},{"server_id":311,"name":"Uncletopia | Frankfurt | 6 | All Maps","name_short":"frk-6","host":"frk-1.de.uncletopia.com","port":27065,"enabled":true,"region":"eu","cc":"de","latitude":50.110924,"longitude":8.682127,"reserved":0,"last_update":"0001-01-01T00:00:00Z","name_a2s":"Uncletopia | Frankfurt | 6 | All Maps","protocol":17,"map":"cp_altitude","folder":"tf","game":"Team Fortress","app_id":440,"player_count":0,"max_players":24,"Bots":0,"server_type":"Dedicated","server_os":"Linux","password":true,"vac":true,"version":"7961495","steam_id":85568392924504278,"keywords":["cp","nocrits","nodmgspread","uncletopia"],"game_id":440,"stv_port":27066,"stv_name":"Uncletopia | Frankfurt | 6 | All Maps | STV","players":null},{"server_id":23,"name":"Uncletopia | Frankfurt | 7 | Stopwatch","name_short":"frk-7","host":"frk-1.de.uncletopia.com","port":27075,"enabled":true,"region":"eu","cc":"de","latitude":50.110924,"longitude":8.682127,"reserved":0,"last_update":"0001-01-01T00:00:00Z","name_a2s":"Uncletopia | Frankfurt | 7 | Stopwatch","protocol":17,"map":"pl_frontier_final","folder":"tf","game":"Team Fortress","app_id":440,"player_count":0,"max_players":24,"Bots":0,"server_type":"Dedicated","server_os":"Linux","password":true,"vac":true,"version":"7961495","steam_id":85568392924742827,"keywords":["nocrits","nodmgspread","payload","uncletopia"],"game_id":440,"stv_port":27076,"stv_name":"Uncletopia | Frankfurt | 7 | Stopwatch | STV","players":null},{"server_id":24,"name":"Uncletopia | Frankfurt | 8 | Community","name_short":"frk-8","host":"frk-1.de.uncletopia.com","port":27085,"enabled":true,"region":"eu","cc":"de","latitude":50.110924,"longitude":8.682127,"reserved":0,"last_update":"0001-01-01T00:00:00Z","name_a2s":"Uncletopia | Frankfurt | 8 | Community","protocol":17,"map":"cp_mountainlab","folder":"tf","game":"Team Fortress","app_id":440,"player_count":0,"max_players":24,"Bots":0,"server_type":"Dedicated","server_os":"Linux","password":true,"vac":true,"version":"7961495","steam_id":85568392924742828,"keywords":["cp","nocrits","nodmgspread","uncletopia"],"game_id":440,"stv_port":27086,"stv_name":"Uncletopia | Frankfurt | 8 | Community | STV","players":null},{"server_id":202,"name":"Uncletopia | Hong Kong | 1 | All Maps","name_short":"hgk-1","host":"hgk-1.hk.uncletopia.com","port":27015,"enabled":true,"region":"asia","cc":"hk","latitude":22.302711,"longitude":114.177216,"reserved":0,"last_update":"0001-01-01T00:00:00Z","name_a2s":"Uncletopia | Hong Kong | 1 | All Maps","protocol":17,"map":"cp_gravelpit","folder":"tf","game":"Team Fortress","app_id":440,"player_count":24,"max_players":24,"Bots":0,"server_type":"Dedicated","server_os":"Linux","password":true,"vac":true,"version":"7961495","steam_id":85568392924494504,"keywords":["cp","nocrits","nodmgspread","uncletopia"],"game_id":440,"stv_port":27016,"stv_name":"Uncletopia | Hong Kong | 1 | All Maps | STV","players":[{"user_id":228,"name":"Con Con","steam_id":76561198380495088,"connected_time":1084000000000,"state":"active","ping":108},{"user_id":218,"name":"Goldy","steam_id":76561199008543001,"connected_time":2409000000000,"state":"active","ping":54},{"user_id":236,"name":"Username","steam_id":76561198285831999,"connected_time":698000000000,"state":"active","ping":139},{"user_id":241,"name":"to the top","steam_id":76561199443938682,"connected_time":35000000000,"state":"active","ping":76},{"user_id":221,"name":"Battery","steam_id":76561198004583032,"connected_time":2244000000000,"state":"active","ping":97},{"user_id":211,"name":"p1st0n","steam_id":76561198992723983,"connected_time":3358000000000,"state":"active","ping":90},{"user_id":213,"name":"human696982","steam_id":76561199496222946,"connected_time":3000000000000,"state":"active","ping":98},{"user_id":233,"name":"Telekhine","steam_id":76561198387120618,"connected_time":979000000000,"state":"active","ping":55},{"user_id":219,"name":"SICSIN","steam_id":76561198083923462,"connected_time":2405000000000,"state":"active","ping":79},{"user_id":196,"name":"ArcticDolphin","steam_id":76561198203626319,"connected_time":4544000000000,"state":"active","ping":118},{"user_id":182,"name":"wishin i was fishin","steam_id":76561199474092971,"connected_time":5323000000000,"state":"active","ping":101},{"user_id":206,"name":"Nephew Nate","steam_id":76561199137872034,"connected_time":3614000000000,"state":"active","ping":91},{"user_id":207,"name":"terrybel","steam_id":76561198055553140,"connected_time":3494000000000,"state":"active","ping":73},{"user_id":238,"name":"xPhid","steam_id":76561199080808930,"connected_time":452000000000,"state":"active","ping":84},{"user_id":153,"name":"hakos balls","steam_id":76561198074339034,"connected_time":7301000000000,"state":"active","ping":78},{"user_id":208,"name":"Bottom G","steam_id":76561199137927625,"connected_time":3492000000000,"state":"active","ping":91},{"user_id":227,"name":"Â∏ï","steam_id":76561198439343999,"connected_time":1519000000000,"state":"active","ping":81},{"user_id":237,"name":"corpse_cadaver","steam_id":76561199225360457,"connected_time":649000000000,"state":"active","ping":70},{"user_id":165,"name":"ÍπÄÍ¥ëÎßå","steam_id":76561198295279503,"connected_time":6428000000000,"state":"connecting","ping":931},{"user_id":239,"name":"Bilbo Baggins","steam_id":76561198417870350,"connected_time":399000000000,"state":"active","ping":137},{"user_id":231,"name":"icryinbed","steam_id":76561198084027826,"connected_time":1005000000000,"state":"active","ping":110},{"user_id":214,"name":"\"SKS\"","steam_id":76561198187995386,"connected_time":2931000000000,"state":"active","ping":87},{"user_id":181,"name":"https://bad-dragon.com","steam_id":76561198086760958,"connected_time":5499000000000,"state":"active","ping":161},{"user_id":232,"name":"Stewb","steam_id":76561198131423270,"connected_time":1005000000000,"state":"active","ping":61}]},{"server_id":1,"name":"Uncletopia | Los Angeles | 1 | All Maps","name_short":"lax-1","host":"lax-1.us.uncletopia.com","port":27015,"enabled":true,"region":"us-west","cc":"us","latitude":33.94279,"longitude":-118.41004,"reserved":0,"last_update":"0001-01-01T00:00:00Z","name_a2s":"Uncletopia | Los Angeles | 1 | All Maps","protocol":17,"map":"pl_borneo","folder":"tf","game":"Team Fortress","app_id":440,"player_count":24,"max_players":24,"Bots":0,"server_type":"Dedicated","server_os":"Linux","password":true,"vac":true,"version":"7961495","steam_id":85568392924469991,"keywords":["nocrits","nodmgspread","payload","uncletopia"],"game_id":440,"stv_port":27016,"stv_name":"Uncletopia | Los Angeles | 1 | All Maps | STV","players":[{"user_id":730,"name":"Drapph","steam_id":76561199384213314,"connected_time":560000000000,"state":"active","ping":127},{"user_id":717,"name":"A Parliament of Owls","steam_id":76561197996200417,"connected_time":1278000000000,"state":"active","ping":57},{"user_id":680,"name":"Engineer gaming","steam_id":76561199155717525,"connected_time":4336000000000,"state":"active","ping":184},{"user_id":735,"name":"DALKurumiTokisaki","steam_id":76561198872867732,"connected_time":165000000000,"state":"active","ping":53},{"user_id":718,"name":"Ian","steam_id":76561198159334435,"connected_time":1275000000000,"state":"active","ping":171},{"user_id":727,"name":"Amish Car Accident","steam_id":76561198026941076,"connected_time":651000000000,"state":"active","ping":60},{"user_id":733,"name":"kx","steam_id":76561198088952425,"connected_time":252000000000,"state":"active","ping":49},{"user_id":736,"name":"lana_del_Rei.com","steam_id":76561198172447621,"connected_time":141000000000,"state":"active","ping":42},{"user_id":711,"name":"Chilled","steam_id":76561199079011336,"connected_time":2102000000000,"state":"active","ping":44},{"user_id":728,"name":"Poladroid","steam_id":76561198032005291,"connected_time":651000000000,"state":"active","ping":58},{"user_id":734,"name":"vvitch","steam_id":76561198279661941,"connected_time":251000000000,"state":"active","ping":46},{"user_id":699,"name":"rmbl (fork eater)","steam_id":76561198150137369,"connected_time":2946000000000,"state":"active","ping":54},{"user_id":737,"name":"Shnakes","steam_id":76561198201649518,"connected_time":134000000000,"state":"active","ping":59},{"user_id":720,"name":"Aerospine","steam_id":76561198021438134,"connected_time":1244000000000,"state":"active","ping":45},{"user_id":738,"name":"bengineer","steam_id":76561198171912174,"connected_time":128000000000,"state":"active","ping":75},{"user_id":721,"name":"......","steam_id":76561198067612741,"connected_time":1216000000000,"state":"active","ping":75},{"user_id":723,"name":"tie dye die guy","steam_id":76561198049845337,"connected_time":1095000000000,"state":"active","ping":63},{"user_id":697,"name":"Creature","steam_id":76561198194585781,"connected_time":3423000000000,"state":"active","ping":50},{"user_id":715,"name":"Seshreb","steam_id":76561198846614634,"connected_time":1341000000000,"state":"active","ping":66},{"user_id":739,"name":"philio2010","steam_id":76561199086384636,"connected_time":103000000000,"state":"active","ping":62},{"user_id":698,"name":"Weed Dealer","steam_id":76561198418604400,"connected_time":3423000000000,"state":"active","ping":78},{"user_id":706,"name":"Francis Gaming","steam_id":76561198295173122,"connected_time":2415000000000,"state":"active","ping":90},{"user_id":725,"name":"roach","steam_id":76561198354811369,"connected_time":962000000000,"state":"active","ping":48},{"user_id":709,"name":"Bald Vegeta","steam_id":76561198844143746,"connected_time":2180000000000,"state":"active","ping":72}]},{"server_id":112,"name":"Uncletopia | Los Angeles | 2 | All Maps","name_short":"lax-2","host":"lax-1.us.uncletopia.com","port":27025,"enabled":true,"region":"us-west","cc":"us","latitude":33.94279,"longitude":-118.41004,"reserved":0,"last_update":"0001-01-01T00:00:00Z","name_a2s":"Uncletopia | Los Angeles | 2 | All Maps","protocol":17,"map":"koth_highpass","folder":"tf","game":"Team Fortress","app_id":440,"player_count":0,"max_players":24,"Bots":0,"server_type":"Dedicated","server_os":"Linux","password":true,"vac":true,"version":"7961495","steam_id":85568392924469992,"keywords":["cp","nocrits","nodmgspread","uncletopia"],"game_id":440,"stv_port":27026,"stv_name":"Uncletopia | Los Angeles | 2 | All Maps | STV","players":null},{"server_id":324,"name":"Uncletopia | Los Angeles | 3 | All Maps","name_short":"lax-3","host":"lax-1.us.uncletopia.com","port":27035,"enabled":true,"region":"us-west","cc":"us","latitude":33.94279,"longitude":-118.41004,"reserved":0,"last_update":"0001-01-01T00:00:00Z","name_a2s":"Uncletopia | Los Angeles | 3 | All Maps","protocol":17,"map":"pl_borneo","folder":"tf","game":"Team Fortress","app_id":440,"player_count":0,"max_players":24,"Bots":0,"server_type":"Dedicated","server_os":"Linux","password":true,"vac":true,"version":"7961495","steam_id":85568392924510198,"keywords":["nocrits","nodmgspread","payload","uncletopia"],"game_id":440,"stv_port":27036,"stv_name":"Uncletopia | Los Angeles | 3 | All Maps | STV","players":null},{"server_id":25,"name":"Uncletopia | Los Angeles | 4 | Stopwatch","name_short":"lax-4","host":"lax-1.us.uncletopia.com","port":27045,"enabled":true,"region":"us-west","cc":"us","latitude":33.94279,"longitude":-118.41004,"reserved":0,"last_update":"0001-01-01T00:00:00Z","name_a2s":"Uncletopia | Los Angeles | 4 | Stopwatch","protocol":17,"map":"workshop/koth_ashville_final.ugc2130459942","folder":"tf","game":"Team Fortress","app_id":440,"player_count":0,"max_players":24,"Bots":0,"server_type":"Dedicated","server_os":"Linux","password":true,"vac":true,"version":"7961495","steam_id":85568392924510199,"keywords":["cp","nocrits","nodmgspread","uncletopia"],"game_id":440,"stv_port":27046,"stv_name":"Uncletopia | Los Angeles | 4 | Stopwatch | STV","players":null},{"server_id":11,"name":"Uncletopia | London | 1 | All Maps","name_short":"lon-1","host":"lon-1.uk.uncletopia.com","port":27015,"enabled":true,"region":"eu","cc":"gb","latitude":51.509865,"longitude":-0.118092,"reserved":0,"last_update":"0001-01-01T00:00:00Z","name_a2s":"Uncletopia | London | 1 | All Maps","protocol":17,"map":"koth_highpass","folder":"tf","game":"Team Fortress","app_id":440,"player_count":0,"max_players":24,"Bots":0,"server_type":"Dedicated","server_os":"Linux","password":true,"vac":true,"version":"7961495","steam_id":85568392924367362,"keywords":["cp","nocrits","nodmgspread","uncletopia"],"game_id":440,"stv_port":27016,"stv_name":"Uncletopia | London | 1 | All Maps | STV","players":null},{"server_id":114,"name":"Uncletopia | London | 2 | All Maps","name_short":"lon-2","host":"lon-1.uk.uncletopia.com","port":27025,"enabled":true,"region":"eu","cc":"gb","latitude":51.509865,"longitude":-0.118092,"reserved":0,"last_update":"0001-01-01T00:00:00Z","name_a2s":"Uncletopia | London | 2 | All Maps","protocol":17,"map":"koth_lakeside_final","folder":"tf","game":"Team Fortress","app_id":440,"player_count":0,"max_players":24,"Bots":0,"server_type":"Dedicated","server_os":"Linux","password":true,"vac":true,"version":"7961495","steam_id":85568392924470941,"keywords":["cp","nocrits","nodmgspread","uncletopia"],"game_id":440,"stv_port":27026,"stv_name":"Uncletopia | London | 2 | All Maps | STV","players":null},{"server_id":320,"name":"Uncletopia | London | 3 | All Maps","name_short":"lon-3","host":"lon-1.uk.uncletopia.com","port":27035,"enabled":true,"region":"eu","cc":"gb","latitude":51.509865,"longitude":-0.118092,"reserved":0,"last_update":"0001-01-01T00:00:00Z","name_a2s":"Uncletopia | London | 3 | All Maps","protocol":17,"map":"cp_process_final","folder":"tf","game":"Team Fortress","app_id":440,"player_count":0,"max_players":24,"Bots":0,"server_type":"Dedicated","server_os":"Linux","password":true,"vac":true,"version":"7961495","steam_id":85568392924510192,"keywords":["cp","nocrits","nodmgspread","uncletopia"],"game_id":440,"stv_port":27036,"stv_name":"Uncletopia | London | 3 | All Maps | STV","players":null},{"server_id":321,"name":"Uncletopia | London | 4 | All Maps","name_short":"lon-4","host":"lon-1.uk.uncletopia.com","port":27045,"enabled":true,"region":"eu","cc":"gb","latitude":51.509865,"longitude":-0.118092,"reserved":0,"last_update":"0001-01-01T00:00:00Z","name_a2s":"Uncletopia | London | 4 | All Maps","protocol":17,"map":"koth_cascade","folder":"tf","game":"Team Fortress","app_id":440,"player_count":0,"max_players":24,"Bots":0,"server_type":"Dedicated","server_os":"Linux","password":true,"vac":true,"version":"7961495","steam_id":85568392924510193,"keywords":["cp","nocrits","nodmgspread","uncletopia"],"game_id":440,"stv_port":27046,"stv_name":"Uncletopia | London | 4 | All Maps | STV","players":null},{"server_id":21,"name":"Uncletopia | London | 5 | All Maps","name_short":"lon-5","host":"lon-1.uk.uncletopia.com","port":27055,"enabled":true,"region":"eu","cc":"gb","latitude":51.509865,"longitude":-0.118092,"reserved":0,"last_update":"0001-01-01T00:00:00Z","name_a2s":"Uncletopia | London | 5 | All Maps","protocol":17,"map":"koth_lakeside_final","folder":"tf","game":"Team Fortress","app_id":440,"player_count":0,"max_players":24,"Bots":0,"server_type":"Dedicated","server_os":"Linux","password":true,"vac":true,"version":"7961495","steam_id":85568392924742829,"keywords":["cp","nocrits","nodmgspread","uncletopia"],"game_id":440,"stv_port":27056,"stv_name":"Uncletopia | London | 5 | All Maps | STV","players":null},{"server_id":22,"name":"Uncletopia | London | 6 | All Maps","name_short":"lon-6","host":"lon-1.uk.uncletopia.com","port":27065,"enabled":true,"region":"eu","cc":"gb","latitude":51.509865,"longitude":-0.118092,"reserved":0,"last_update":"0001-01-01T00:00:00Z","name_a2s":"Uncletopia | London | 6 | All Maps","protocol":17,"map":"cp_dustbowl","folder":"tf","game":"Team Fortress","app_id":440,"player_count":0,"max_players":24,"Bots":0,"server_type":"Dedicated","server_os":"Linux","password":true,"vac":true,"version":"7961495","steam_id":85568392924742830,"keywords":["cp","nocrits","nodmgspread","uncletopia"],"game_id":440,"stv_port":27066,"stv_name":"Uncletopia | London | 6 | All Maps | STV","players":null},{"server_id":40,"name":"Uncletopia | London | 7 | Stopwatch","name_short":"lon-7","host":"lon-1.uk.uncletopia.com","port":27075,"enabled":true,"region":"eu","cc":"gb","latitude":51.509865,"longitude":-0.118092,"reserved":0,"last_update":"0001-01-01T00:00:00Z","name_a2s":"Uncletopia | London | 7 | Stopwatch","protocol":17,"map":"koth_lakeside_final","folder":"tf","game":"Team Fortress","app_id":440,"player_count":0,"max_players":24,"Bots":0,"server_type":"Dedicated","server_os":"Linux","password":true,"vac":true,"version":"7961495","steam_id":85568392924964314,"keywords":["cp","nocrits","nodmgspread","uncletopia"],"game_id":440,"stv_port":27076,"stv_name":"Uncletopia | London | 7 | Stopwatch | STV","players":null},{"server_id":41,"name":"Uncletopia | London | 8 | Community","name_short":"lon-8","host":"lon-1.uk.uncletopia.com","port":27085,"enabled":true,"region":"eu","cc":"gb","latitude":51.509865,"longitude":-0.118092,"reserved":0,"last_update":"0001-01-01T00:00:00Z","name_a2s":"Uncletopia | London | 8 | Community","protocol":17,"map":"cp_snakewater_final1","folder":"tf","game":"Team Fortress","app_id":440,"player_count":0,"max_players":24,"Bots":0,"server_type":"Dedicated","server_os":"Linux","password":true,"vac":true,"version":"7961495","steam_id":85568392924964315,"keywords":["cp","nocrits","nodmgspread","uncletopia"],"game_id":440,"stv_port":27086,"stv_name":"Uncletopia | London | 8 | Community | STV","players":null},{"server_id":300,"name":"Uncletopia | Montr√©al | 1 | One Thousand Uncles","name_short":"mtl-1","host":"mtl-1.ca.uncletopia.com","port":27015,"enabled":true,"region":"us-east","cc":"ca","latitude":45.50889,"longitude":-73.56167,"reserved":0,"last_update":"0001-01-01T00:00:00Z","name_a2s":"","protocol":0,"map":"","folder":"","game":"","app_id":0,"player_count":0,"max_players":0,"Bots":0,"server_type":"","server_os":"","password":false,"vac":false,"version":"","steam_id":0,"keywords":null,"game_id":0,"stv_port":0,"stv_name":"","players":null},{"server_id":301,"name":"Uncletopia | Montr√©al | 2 | One Thousand Uncles","name_short":"mtl-2","host":"mtl-1.ca.uncletopia.com","port":27025,"enabled":true,"region":"us-east","cc":"ca","latitude":45.50889,"longitude":-73.56167,"reserved":0,"last_update":"0001-01-01T00:00:00Z","name_a2s":"","protocol":0,"map":"","folder":"","game":"","app_id":0,"player_count":1,"max_players":0,"Bots":0,"server_type":"","server_os":"","password":false,"vac":false,"version":"","steam_id":0,"keywords":null,"game_id":0,"stv_port":0,"stv_name":"","players":[{"user_id":386,"name":"Amber","steam_id":76561198031298701,"connected_time":5903000000000,"state":"active","ping":56}]},{"server_id":302,"name":"Uncletopia | Montr√©al | 3 | One Thousand Uncles","name_short":"mtl-3","host":"mtl-1.ca.uncletopia.com","port":27035,"enabled":true,"region":"us-east","cc":"ca","latitude":45.50889,"longitude":-73.56167,"reserved":0,"last_update":"0001-01-01T00:00:00Z","name_a2s":"","protocol":0,"map":"","folder":"","game":"","app_id":0,"player_count":1,"max_players":0,"Bots":0,"server_type":"","server_os":"","password":false,"vac":false,"version":"","steam_id":0,"keywords":null,"game_id":0,"stv_port":0,"stv_name":"","players":[{"user_id":379,"name":"tf2 gaming #savetf2","steam_id":76561198077063691,"connected_time":1360000000000,"state":"active","ping":287}]},{"server_id":13,"name":"Uncletopia | New York City | 1 | All Maps","name_short":"nyc-1","host":"nyc-1.us.uncletopia.com","port":27015,"enabled":true,"region":"us-east","cc":"us","latitude":40.73061,"longitude":-73.93524,"reserved":0,"last_update":"0001-01-01T00:00:00Z","name_a2s":"Uncletopia | New York City | 1 | All Maps","protocol":17,"map":"cp_dustbowl","folder":"tf","game":"Team Fortress","app_id":440,"player_count":21,"max_players":24,"Bots":0,"server_type":"Dedicated","server_os":"Linux","password":true,"vac":true,"version":"7961495","steam_id":85568392924469993,"keywords":["cp","nocrits","nodmgspread","uncletopia"],"game_id":440,"stv_port":27016,"stv_name":"Uncletopia | New York City | 1 | All Maps | STV","players":[{"user_id":746,"name":"Jnet","steam_id":76561198001282720,"connected_time":1628000000000,"state":"active","ping":158},{"user_id":715,"name":"Lane","steam_id":76561197965828506,"connected_time":4391000000000,"state":"active","ping":59},{"user_id":759,"name":"schmink90","steam_id":76561199131248103,"connected_time":657000000000,"state":"active","ping":144},{"user_id":658,"name":"Whyamidoingthisaaaa","steam_id":76561199168837342,"connected_time":7706000000000,"state":"active","ping":55},{"user_id":761,"name":"Meh Good Enough","steam_id":76561199012646173,"connected_time":469000000000,"state":"active","ping":145},{"user_id":745,"name":"Rickzy Rantz","steam_id":76561199092198614,"connected_time":1797000000000,"state":"active","ping":104},{"user_id":758,"name":"Len","steam_id":76561199141913673,"connected_time":736000000000,"state":"active","ping":75},{"user_id":762,"name":"pim","steam_id":76561198095163441,"connected_time":30000000000,"state":"active","ping":75},{"user_id":757,"name":"Ripping Heads","steam_id":76561198006146062,"connected_time":943000000000,"state":"active","ping":62},{"user_id":741,"name":"Bubble Bass","steam_id":76561198058753054,"connected_time":2051000000000,"state":"active","ping":84},{"user_id":749,"name":"diego brando","steam_id":76561198162618469,"connected_time":1553000000000,"state":"active","ping":38},{"user_id":742,"name":"toasty weber","steam_id":76561198037746805,"connected_time":2047000000000,"state":"active","ping":50},{"user_id":736,"name":"Weerk","steam_id":76561199209543551,"connected_time":2177000000000,"state":"active","ping":78},{"user_id":751,"name":"IMM0RTAL","steam_id":76561198013747901,"connected_time":1532000000000,"state":"active","ping":63},{"user_id":699,"name":"Uncle Majic the Hip Hop Magicia","steam_id":76561198107924303,"connected_time":5590000000000,"state":"active","ping":35},{"user_id":726,"name":":3","steam_id":76561198058574934,"connected_time":3161000000000,"state":"active","ping":74},{"user_id":727,"name":"Great","steam_id":76561198895516433,"connected_time":3152000000000,"state":"active","ping":52},{"user_id":716,"name":"hipster_doofus","steam_id":76561197970902697,"connected_time":4157000000000,"state":"active","ping":132},{"user_id":689,"name":"CRAZY engineer","steam_id":76561198887937902,"connected_time":6332000000000,"state":"active","ping":47},{"user_id":754,"name":"hoos","steam_id":76561198045985910,"connected_time":1345000000000,"state":"active","ping":55},{"user_id":756,"name":"RaixaR","steam_id":76561198025289430,"connected_time":1288000000000,"state":"active","ping":92}]},{"server_id":14,"name":"Uncletopia | New York City | 2 | All Maps","name_short":"nyc-2","host":"nyc-1.us.uncletopia.com","port":27025,"enabled":true,"region":"us-east","cc":"us","latitude":40.73061,"longitude":-73.93524,"reserved":0,"last_update":"0001-01-01T00:00:00Z","name_a2s":"Uncletopia | New York City | 2 | All Maps","protocol":17,"map":"koth_lakeside_final","folder":"tf","game":"Team Fortress","app_id":440,"player_count":0,"max_players":24,"Bots":0,"server_type":"Dedicated","server_os":"Linux","password":true,"vac":true,"version":"7961495","steam_id":85568392924469994,"keywords":["cp","nocrits","nodmgspread","uncletopia"],"game_id":440,"stv_port":27026,"stv_name":"Uncletopia | New York City | 2 | All Maps | STV","players":null},{"server_id":15,"name":"Uncletopia | New York City | 3 | Stopwatch","name_short":"nyc-3","host":"nyc-1.us.uncletopia.com","port":27035,"enabled":true,"region":"us-east","cc":"us","latitude":40.73061,"longitude":-73.93524,"reserved":0,"last_update":"0001-01-01T00:00:00Z","name_a2s":"Uncletopia | New York City | 3 | Stopwatch","protocol":17,"map":"workshop/koth_ramjam_rc1.ugc459778887","folder":"tf","game":"Team Fortress","app_id":440,"player_count":0,"max_players":24,"Bots":0,"server_type":"Dedicated","server_os":"Linux","password":true,"vac":true,"version":"7961495","steam_id":85568392924742820,"keywords":["cp","nocrits","nodmgspread","uncletopia"],"game_id":440,"stv_port":27036,"stv_name":"Uncletopia | New York City | 3 | Stopwatch | STV","players":null},{"server_id":16,"name":"Uncletopia | New York City | 4 | Community","name_short":"nyc-4","host":"nyc-1.us.uncletopia.com","port":27045,"enabled":true,"region":"us-east","cc":"us","latitude":40.73061,"longitude":-73.93524,"reserved":0,"last_update":"0001-01-01T00:00:00Z","name_a2s":"Uncletopia | New York City | 4 | Community","protocol":17,"map":"workshop/koth_trenchfoot_b1a.ugc731436616","folder":"tf","game":"Team Fortress","app_id":440,"player_count":0,"max_players":24,"Bots":0,"server_type":"Dedicated","server_os":"Linux","password":true,"vac":true,"version":"7961495","steam_id":85568392924742821,"keywords":["cp","nocrits","nodmgspread","uncletopia"],"game_id":440,"stv_port":27046,"stv_name":"Uncletopia | New York City | 4 | Community | STV","players":null},{"server_id":142,"name":"Uncletopia | S√£o Paulo | 1 | All Maps","name_short":"sao-1","host":"sao-1.br.uncletopia.com","port":27015,"enabled":true,"region":"sa","cc":"br","latitude":-23.533773,"longitude":-46.62529,"reserved":0,"last_update":"0001-01-01T00:00:00Z","name_a2s":"Uncletopia | S√£o Paulo | 1 | All Maps","protocol":17,"map":"koth_lakeside_final","folder":"tf","game":"Team Fortress","app_id":440,"player_count":0,"max_players":24,"Bots":0,"server_type":"Dedicated","server_os":"Linux","password":true,"vac":true,"version":"7961495","steam_id":85568392924469996,"keywords":["cp","nocrits","nodmgspread","uncletopia"],"game_id":440,"stv_port":27016,"stv_name":"Uncletopia | S√£o Paulo | 1 | All Maps | STV","players":null},{"server_id":143,"name":"Uncletopia | S√£o Paulo | 2 | Community","name_short":"sao-2","host":"sao-2.br.uncletopia.com","port":27015,"enabled":true,"region":"sa","cc":"br","latitude":-23.533773,"longitude":-46.62529,"reserved":0,"last_update":"0001-01-01T00:00:00Z","name_a2s":"Uncletopia | S√£o Paulo | 2 | Community","protocol":17,"map":"workshop/cp_logjam_rc12.ugc454812035","folder":"tf","game":"Team Fortress","app_id":440,"player_count":0,"max_players":24,"Bots":0,"server_type":"Dedicated","server_os":"Linux","password":true,"vac":true,"version":"7961495","steam_id":85568392924485349,"keywords":["cp","nocrits","nodmgspread","uncletopia"],"game_id":440,"stv_port":27016,"stv_name":"Uncletopia | S√£o Paulo | 2 | Community | STV","players":null},{"server_id":7,"name":"Uncletopia | Seattle | 1 | All Maps","name_short":"sea-1","host":"sea-1.us.uncletopia.com","port":27015,"enabled":true,"region":"us-west","cc":"us","latitude":47.608013,"longitude":-122.33517,"reserved":0,"last_update":"0001-01-01T00:00:00Z","name_a2s":"Uncletopia | Seattle | 1 | All Maps","protocol":17,"map":"pl_upward","folder":"tf","game":"Team Fortress","app_id":440,"player_count":24,"max_players":24,"Bots":0,"server_type":"Dedicated","server_os":"Linux","password":true,"vac":true,"version":"7961495","steam_id":85568392924469997,"keywords":["nocrits","nodmgspread","payload","uncletopia"],"game_id":440,"stv_port":27016,"stv_name":"Uncletopia | Seattle | 1 | All Maps | STV","players":[{"user_id":672,"name":"Toaster (Hamilton Beach)","steam_id":76561198039891934,"connected_time":1718000000000,"state":"active","ping":60},{"user_id":630,"name":"Tom Skirrett","steam_id":76561198014600788,"connected_time":4528000000000,"state":"active","ping":62},{"user_id":684,"name":"orbisg","steam_id":76561198004133638,"connected_time":199000000000,"state":"active","ping":197},{"user_id":634,"name":"Wormy of bad luck","steam_id":76561198054539200,"connected_time":4513000000000,"state":"active","ping":56},{"user_id":660,"name":"Lucerne‚òÖFlower","steam_id":76561198264105406,"connected_time":3177000000000,"state":"active","ping":128},{"user_id":664,"name":"gorlab","steam_id":76561198025089694,"connected_time":2785000000000,"state":"active","ping":53},{"user_id":679,"name":"Mitchell","steam_id":76561197972922328,"connected_time":1075000000000,"state":"active","ping":59},{"user_id":680,"name":"Finkly","steam_id":76561198049828110,"connected_time":1074000000000,"state":"active","ping":45},{"user_id":586,"name":"Choom","steam_id":76561197972654816,"connected_time":9285000000000,"state":"active","ping":45},{"user_id":637,"name":"Daz","steam_id":76561198041431938,"connected_time":4316000000000,"state":"active","ping":52},{"user_id":681,"name":"Arsonist Goose","steam_id":76561198147441830,"connected_time":695000000000,"state":"active","ping":72},{"user_id":673,"name":"lasky","steam_id":76561198017030029,"connected_time":1430000000000,"state":"active","ping":68},{"user_id":674,"name":"Grand","steam_id":76561198290143399,"connected_time":1410000000000,"state":"active","ping":76},{"user_id":609,"name":"slushy :))","steam_id":76561198135281802,"connected_time":7097000000000,"state":"active","ping":36},{"user_id":678,"name":"Kaiga","steam_id":76561198044052046,"connected_time":1160000000000,"state":"active","ping":126},{"user_id":632,"name":"Translucent‡´Æ‚Çç ‚Ä¢ ·¥• ‚Ä¢","steam_id":76561199212057076,"connected_time":4524000000000,"state":"active","ping":76},{"user_id":617,"name":"ilun","steam_id":76561198042913843,"connected_time":6682000000000,"state":"active","ping":59},{"user_id":676,"name":"Sweets(?)","steam_id":76561198998446307,"connected_time":1365000000000,"state":"active","ping":63},{"user_id":648,"name":"SadFapping","steam_id":76561198076651049,"connected_time":3401000000000,"state":"active","ping":49},{"user_id":683,"name":"Octopus","steam_id":76561198114639980,"connected_time":665000000000,"state":"active","ping":66},{"user_id":662,"name":"digitaldisorder","steam_id":76561198041841128,"connected_time":3101000000000,"state":"active","ping":91},{"user_id":508,"name":"lili winters","steam_id":76561199488457138,"connected_time":14478000000000,"state":"active","ping":54},{"user_id":652,"name":"zooted fartstreaks","steam_id":76561198046073848,"connected_time":3366000000000,"state":"active","ping":46},{"user_id":663,"name":"rushy :))","steam_id":76561198065825165,"connected_time":2990000000000,"state":"active","ping":101}]},{"server_id":119,"name":"Uncletopia | Seattle | 2 | All Maps","name_short":"sea-2","host":"sea-1.us.uncletopia.com","port":27025,"enabled":true,"region":"us-west","cc":"us","latitude":47.608013,"longitude":-122.33517,"reserved":0,"last_update":"0001-01-01T00:00:00Z","name_a2s":"Uncletopia | Seattle | 2 | All Maps","protocol":17,"map":"cp_sunshine","folder":"tf","game":"Team Fortress","app_id":440,"player_count":24,"max_players":24,"Bots":0,"server_type":"Dedicated","server_os":"Linux","password":true,"vac":true,"version":"7961495","steam_id":85568392924469998,"keywords":["cp","nocrits","nodmgspread","uncletopia"],"game_id":440,"stv_port":27026,"stv_name":"Uncletopia | Seattle | 2 | All Maps | STV","players":[{"user_id":388,"name":"Lambchop","steam_id":76561198043900363,"connected_time":1161000000000,"state":"active","ping":75},{"user_id":351,"name":"Orthros","steam_id":76561198164819613,"connected_time":3154000000000,"state":"active","ping":75},{"user_id":380,"name":"Xyvanereth","steam_id":76561198844137326,"connected_time":1420000000000,"state":"active","ping":48},{"user_id":399,"name":"mike","steam_id":76561198163265338,"connected_time":645000000000,"state":"active","ping":52},{"user_id":384,"name":"b","steam_id":76561198156336213,"connected_time":1274000000000,"state":"active","ping":30},{"user_id":365,"name":"Seriously Bruh","steam_id":76561198070408485,"connected_time":2477000000000,"state":"active","ping":45},{"user_id":354,"name":"Transformouse","steam_id":76561198004669368,"connected_time":3027000000000,"state":"active","ping":123},{"user_id":402,"name":"Grill Skills","steam_id":76561198053575147,"connected_time":3000000000,"state":"spawning","ping":51},{"user_id":390,"name":"IonicMist","steam_id":76561198047105563,"connected_time":842000000000,"state":"active","ping":45},{"user_id":401,"name":"ami","steam_id":76561198072781633,"connected_time":521000000000,"state":"active","ping":75},{"user_id":393,"name":"BOOBA","steam_id":76561198046333363,"connected_time":802000000000,"state":"active","ping":106},{"user_id":357,"name":"OneMisguidedSlyGuy","steam_id":76561198372243261,"connected_time":2933000000000,"state":"active","ping":77},{"user_id":396,"name":"Cyndaquil Fan","steam_id":76561198799205521,"connected_time":717000000000,"state":"active","ping":117},{"user_id":389,"name":"Engineer Gaming Live","steam_id":76561198045914603,"connected_time":905000000000,"state":"active","ping":60},{"user_id":385,"name":"aidanisokay","steam_id":76561199212189747,"connected_time":1244000000000,"state":"active","ping":45},{"user_id":397,"name":"HanakoToast","steam_id":76561198045233131,"connected_time":704000000000,"state":"active","ping":82},{"user_id":363,"name":"octane infused rabies7","steam_id":76561198309010627,"connected_time":2572000000000,"state":"active","ping":79},{"user_id":348,"name":"NormalManPerson","steam_id":76561198007436312,"connected_time":3857000000000,"state":"active","ping":53},{"user_id":398,"name":"skao","steam_id":76561198133360797,"connected_time":657000000000,"state":"active","ping":85},{"user_id":400,"name":"Meepster","steam_id":76561198146305159,"connected_time":588000000000,"state":"active","ping":50},{"user_id":337,"name":"laggy mcstab","steam_id":76561198106379962,"connected_time":4598000000000,"state":"active","ping":61},{"user_id":349,"name":"090-nsalih","steam_id":76561199467467873,"connected_time":3651000000000,"state":"active","ping":52},{"user_id":372,"name":"Niiko","steam_id":76561199482672725,"connected_time":2116000000000,"state":"active","ping":65},{"user_id":387,"name":"rat who can kickflip","steam_id":76561198073620027,"connected_time":1171000000000,"state":"active","ping":45}]},{"server_id":406,"name":"Uncletopia | Seattle | 3 | Stopwatch","name_short":"sea-3","host":"sea-1.us.uncletopia.com","port":27035,"enabled":true,"region":"us-west","cc":"us","latitude":47.608013,"longitude":-122.33517,"reserved":0,"last_update":"0001-01-01T00:00:00Z","name_a2s":"Uncletopia | Seattle | 3 | Stopwatch","protocol":17,"map":"cp_snakewater_final1","folder":"tf","game":"Team Fortress","app_id":440,"player_count":0,"max_players":24,"Bots":0,"server_type":"Dedicated","server_os":"Linux","password":true,"vac":true,"version":"7961495","steam_id":85568392924515217,"keywords":["cp","nocrits","nodmgspread","uncletopia"],"game_id":440,"stv_port":27036,"stv_name":"Uncletopia | Seattle | 3 | Stopwatch | STV","players":null},{"server_id":17,"name":"Uncletopia | San Francisco | 1 | All Maps","name_short":"sfo-1","host":"sfo-1.us.uncletopia.com","port":27015,"enabled":true,"region":"us-west","cc":"us","latitude":37.77397,"longitude":-122.4313,"reserved":0,"last_update":"0001-01-01T00:00:00Z","name_a2s":"Uncletopia | San Francisco | 1 | All Maps","protocol":17,"map":"koth_harvest_final","folder":"tf","game":"Team Fortress","app_id":440,"player_count":19,"max_players":24,"Bots":0,"server_type":"Dedicated","server_os":"Linux","password":true,"vac":true,"version":"7961495","steam_id":85568392924469999,"keywords":["cp","nocrits","nodmgspread","uncletopia"],"game_id":440,"stv_port":27016,"stv_name":"Uncletopia | San Francisco | 1 | All Maps | STV","players":[{"user_id":359,"name":"Amogous Supreme","steam_id":76561198025476774,"connected_time":2253000000000,"state":"active","ping":56},{"user_id":400,"name":"Cornsauce","steam_id":76561198085007342,"connected_time":29000000000,"state":"active","ping":45},{"user_id":323,"name":"Wick","steam_id":76561198062996360,"connected_time":5033000000000,"state":"active","ping":60},{"user_id":401,"name":"blast a hoe","steam_id":76561198294281809,"connected_time":22000000000,"state":"active","ping":63},{"user_id":391,"name":"whorgampus","steam_id":76561198043610132,"connected_time":735000000000,"state":"active","ping":70},{"user_id":381,"name":"cran","steam_id":76561198178840075,"connected_time":1175000000000,"state":"active","ping":82},{"user_id":399,"name":"Maxx","steam_id":76561198045405304,"connected_time":148000000000,"state":"active","ping":70},{"user_id":377,"name":"Sterling Nano","steam_id":76561198048580088,"connected_time":1219000000000,"state":"active","ping":58},{"user_id":398,"name":"drevott74","steam_id":76561199262592779,"connected_time":162000000000,"state":"active","ping":94},{"user_id":397,"name":"jadeite","steam_id":76561198022298676,"connected_time":174000000000,"state":"active","ping":53},{"user_id":394,"name":"blue duck the 2nd","steam_id":76561198263142765,"connected_time":464000000000,"state":"active","ping":109},{"user_id":383,"name":"Funkmaster yee","steam_id":76561198037738918,"connected_time":1151000000000,"state":"active","ping":60},{"user_id":384,"name":"mogwaihudson","steam_id":76561199486770715,"connected_time":1123000000000,"state":"active","ping":187},{"user_id":385,"name":"Super Saiyan Bear","steam_id":76561198063118280,"connected_time":1123000000000,"state":"active","ping":66},{"user_id":386,"name":"Cave Dweller","steam_id":76561198374825685,"connected_time":1113000000000,"state":"active","ping":59},{"user_id":393,"name":"triph","steam_id":76561198067196509,"connected_time":538000000000,"state":"active","ping":38},{"user_id":388,"name":"VELOURIA","steam_id":76561198116550170,"connected_time":1108000000000,"state":"active","ping":45},{"user_id":390,"name":"Fajita Master","steam_id":76561198329150962,"connected_time":873000000000,"state":"active","ping":90},{"user_id":371,"name":"011sra","steam_id":76561199489542125,"connected_time":1964000000000,"state":"active","ping":74}]},{"server_id":18,"name":"Uncletopia | San Francisco | 2 | All Maps","name_short":"sfo-2","host":"sfo-1.us.uncletopia.com","port":27025,"enabled":true,"region":"us-west","cc":"us","latitude":37.77397,"longitude":-122.4313,"reserved":0,"last_update":"0001-01-01T00:00:00Z","name_a2s":"Uncletopia | San Francisco | 2 | All Maps","protocol":17,"map":"pl_frontier_final","folder":"tf","game":"Team Fortress","app_id":440,"player_count":0,"max_players":24,"Bots":0,"server_type":"Dedicated","server_os":"Linux","password":true,"vac":true,"version":"7961495","steam_id":85568392924470000,"keywords":["nocrits","nodmgspread","payload","uncletopia"],"game_id":440,"stv_port":27026,"stv_name":"Uncletopia | San Francisco | 2 | All Maps | STV","players":null},{"server_id":19,"name":"Uncletopia | San Francisco | 3 | Stopwatch","name_short":"sfo-3","host":"sfo-1.us.uncletopia.com","port":27035,"enabled":true,"region":"us-west","cc":"us","latitude":37.77397,"longitude":-122.4313,"reserved":0,"last_update":"0001-01-01T00:00:00Z","name_a2s":"Uncletopia | San Francisco | 3 | Stopwatch","protocol":17,"map":"workshop/koth_bagel_rc6.ugc2514036946","folder":"tf","game":"Team Fortress","app_id":440,"player_count":0,"max_players":24,"Bots":0,"server_type":"Dedicated","server_os":"Linux","password":true,"vac":true,"version":"7961495","steam_id":85568392924742824,"keywords":["cp","nocrits","nodmgspread","uncletopia"],"game_id":440,"stv_port":27036,"stv_name":"Uncletopia | San Francisco | 3 | Stopwatch | STV","players":null},{"server_id":20,"name":"Uncletopia | San Francisco | 4 | Community","name_short":"sfo-4","host":"sfo-1.us.uncletopia.com","port":27045,"enabled":true,"region":"us-west","cc":"us","latitude":37.77397,"longitude":-122.4313,"reserved":0,"last_update":"0001-01-01T00:00:00Z","name_a2s":"Uncletopia | San Francisco | 4 | Community","protocol":17,"map":"workshop/cp_overgrown_rc8.ugc503939302","folder":"tf","game":"Team Fortress","app_id":440,"player_count":0,"max_players":24,"Bots":0,"server_type":"Dedicated","server_os":"Linux","password":true,"vac":true,"version":"7961495","steam_id":85568392924742826,"keywords":["cp","nocrits","nodmgspread","uncletopia"],"game_id":440,"stv_port":27046,"stv_name":"Uncletopia | San Francisco | 4 | Community | STV","players":null},{"server_id":141,"name":"Uncletopia | Sydney | 1 | All Maps","name_short":"syd-1","host":"syd-1.au.uncletopia.com","port":27015,"enabled":true,"region":"au","cc":"au","latitude":-33.865143,"longitude":151.2099,"reserved":0,"last_update":"0001-01-01T00:00:00Z","name_a2s":"Uncletopia | Sydney | 1 | All Maps","protocol":17,"map":"pl_swiftwater_final1","folder":"tf","game":"Team Fortress","app_id":440,"player_count":24,"max_players":24,"Bots":0,"server_type":"Dedicated","server_os":"Linux","password":true,"vac":true,"version":"7961495","steam_id":85568392924470001,"keywords":["nocrits","nodmgspread","payload","uncletopia"],"game_id":440,"stv_port":27016,"stv_name":"Uncletopia | Sydney | 1 | All Maps | STV","players":[{"user_id":129,"name":"garnish master","steam_id":76561197996551827,"connected_time":856000000000,"state":"active","ping":53},{"user_id":143,"name":"electro599","steam_id":76561198058148858,"connected_time":106000000000,"state":"active","ping":59},{"user_id":53,"name":"Phobia¬≤","steam_id":76561198038833524,"connected_time":7546000000000,"state":"active","ping":54},{"user_id":120,"name":"michael","steam_id":76561198052848358,"connected_time":1995000000000,"state":"active","ping":67},{"user_id":133,"name":"whiteshaq","steam_id":76561198131988811,"connected_time":731000000000,"state":"active","ping":47},{"user_id":111,"name":"cakey","steam_id":76561198173746761,"connected_time":3023000000000,"state":"active","ping":46},{"user_id":131,"name":"JP","steam_id":76561198026221737,"connected_time":835000000000,"state":"active","ping":57},{"user_id":127,"name":"reClyde beans","steam_id":76561198301282416,"connected_time":958000000000,"state":"active","ping":51},{"user_id":134,"name":"hired goon(er)","steam_id":76561198048064049,"connected_time":731000000000,"state":"active","ping":68},{"user_id":50,"name":"Turbo_dip","steam_id":76561198446508846,"connected_time":7597000000000,"state":"active","ping":64},{"user_id":116,"name":"Mouse Balls","steam_id":76561199037470627,"connected_time":2403000000000,"state":"active","ping":108},{"user_id":119,"name":"saturation","steam_id":76561199457046392,"connected_time":1996000000000,"state":"active","ping":80},{"user_id":96,"name":"dr. sne","steam_id":76561198022485319,"connected_time":4418000000000,"state":"active","ping":59},{"user_id":118,"name":"thrognoiblus blipfroogy","steam_id":76561198063481761,"connected_time":2070000000000,"state":"active","ping":44},{"user_id":136,"name":"Louis","steam_id":76561198013395847,"connected_time":679000000000,"state":"active","ping":50},{"user_id":142,"name":"Saturn-Based Hooliganism","steam_id":76561198072845816,"connected_time":157000000000,"state":"active","ping":52},{"user_id":137,"name":"P. Ness","steam_id":76561198037664265,"connected_time":581000000000,"state":"active","ping":61},{"user_id":60,"name":"Paper","steam_id":76561198041517737,"connected_time":7384000000000,"state":"active","ping":44},{"user_id":114,"name":"Bob Katter","steam_id":76561198181119629,"connected_time":2778000000000,"state":"active","ping":71},{"user_id":91,"name":"horrid webbon ·òõ‚ÅêÃ§·ïê·ê∑","steam_id":76561198061998379,"connected_time":5049000000000,"state":"active","ping":49},{"user_id":123,"name":"Big Spooky Uncle 2","steam_id":76561198051986402,"connected_time":1904000000000,"state":"active","ping":56},{"user_id":95,"name":"Tantei Rotana","steam_id":76561198041204323,"connected_time":4531000000000,"state":"active","ping":64},{"user_id":140,"name":"Woopdycow","steam_id":76561198008975606,"connected_time":325000000000,"state":"active","ping":58},{"user_id":141,"name":"Vaconcovat","steam_id":76561198024284041,"connected_time":324000000000,"state":"active","ping":65}]},{"server_id":123,"name":"Uncletopia | Sydney | 2 | All Maps","name_short":"syd-2","host":"syd-1.au.uncletopia.com","port":27025,"enabled":true,"region":"au","cc":"au","latitude":-33.865143,"longitude":151.2099,"reserved":0,"last_update":"0001-01-01T00:00:00Z","name_a2s":"Uncletopia | Sydney | 2 | All Maps","protocol":17,"map":"koth_viaduct","folder":"tf","game":"Team Fortress","app_id":440,"player_count":16,"max_players":24,"Bots":0,"server_type":"Dedicated","server_os":"Linux","password":true,"vac":true,"version":"7961495","steam_id":85568392924470002,"keywords":["cp","nocrits","nodmgspread","uncletopia"],"game_id":440,"stv_port":27026,"stv_name":"Uncletopia | Sydney | 2 | All Maps | STV","players":[{"user_id":16,"name":"PACO","steam_id":76561198090675094,"connected_time":1899000000000,"state":"active","ping":54},{"user_id":17,"name":"plunderphonic","steam_id":76561198844330940,"connected_time":1891000000000,"state":"active","ping":60},{"user_id":18,"name":"tim88435","steam_id":76561198089653987,"connected_time":1886000000000,"state":"active","ping":48},{"user_id":19,"name":"miyamoto is daddy","steam_id":76561199483818230,"connected_time":1776000000000,"state":"active","ping":73},{"user_id":20,"name":"PuppetMaster251","steam_id":76561198095212019,"connected_time":1761000000000,"state":"active","ping":54},{"user_id":42,"name":"Meerkat","steam_id":76561198298662979,"connected_time":176000000000,"state":"active","ping":37},{"user_id":22,"name":"covenofbats","steam_id":76561198152117315,"connected_time":1654000000000,"state":"active","ping":41},{"user_id":40,"name":"TimmyTrumpet","steam_id":76561199069729213,"connected_time":301000000000,"state":"active","ping":69},{"user_id":25,"name":"amps","steam_id":76561198060894632,"connected_time":1426000000000,"state":"active","ping":73},{"user_id":36,"name":"Decoy","steam_id":76561198026845870,"connected_time":397000000000,"state":"active","ping":73},{"user_id":34,"name":"Breadnought","steam_id":76561198116436923,"connected_time":664000000000,"state":"active","ping":78},{"user_id":44,"name":"ShiftAU","steam_id":76561198036359969,"connected_time":95000000000,"state":"active","ping":106},{"user_id":32,"name":"Bait Monkey","steam_id":76561198085392224,"connected_time":1014000000000,"state":"active","ping":55},{"user_id":41,"name":"Sparky","steam_id":76561198117687688,"connected_time":287000000000,"state":"active","ping":63},{"user_id":43,"name":"Vortex Swagger","steam_id":76561198833527091,"connected_time":119000000000,"state":"active","ping":155},{"user_id":45,"name":"voxii","steam_id":76561198099698281,"connected_time":93000000000,"state":"active","ping":65}]},{"server_id":395,"name":"Uncletopia | Sydney | 3 | All Maps","name_short":"syd-3","host":"syd-1.au.uncletopia.com","port":27035,"enabled":true,"region":"au","cc":"au","latitude":-33.865143,"longitude":151.2099,"reserved":0,"last_update":"0001-01-01T00:00:00Z","name_a2s":"Uncletopia | Sydney | 3 | All Maps","protocol":17,"map":"cp_snakewater_final1","folder":"tf","game":"Team Fortress","app_id":440,"player_count":0,"max_players":24,"Bots":0,"server_type":"Dedicated","server_os":"Linux","password":true,"vac":true,"version":"7961495","steam_id":85568392925194467,"keywords":["cp","nocrits","nodmgspread","uncletopia"],"game_id":440,"stv_port":27036,"stv_name":"Uncletopia | Sydney | 3 | All Maps | STV","players":null},{"server_id":396,"name":"Uncletopia | Sydney | 4 | All Maps","name_short":"syd-4","host":"syd-1.au.uncletopia.com","port":27045,"enabled":true,"region":"au","cc":"au","latitude":-33.865143,"longitude":151.2099,"reserved":0,"last_update":"0001-01-01T00:00:00Z","name_a2s":"Uncletopia | Sydney | 4 | All Maps","protocol":17,"map":"cp_snakewater_final1","folder":"tf","game":"Team Fortress","app_id":440,"player_count":0,"max_players":24,"Bots":0,"server_type":"Dedicated","server_os":"Linux","password":true,"vac":true,"version":"7961495","steam_id":85568392925397958,"keywords":["cp","nocrits","nodmgspread","uncletopia"],"game_id":440,"stv_port":27046,"stv_name":"Uncletopia | Sydney | 4 | All Maps | STV","players":null},{"server_id":58,"name":"Uncletopia | Sydney | 5 | Stopwatch","name_short":"syd-5","host":"syd-1.au.uncletopia.com","port":27055,"enabled":true,"region":"au","cc":"au","latitude":-33.865143,"longitude":151.2099,"reserved":0,"last_update":"0001-01-01T00:00:00Z","name_a2s":"Uncletopia | Sydney | 5 | Stopwatch","protocol":17,"map":"workshop/cp_reckoner_rc6.ugc674719999","folder":"tf","game":"Team Fortress","app_id":440,"player_count":0,"max_players":24,"Bots":0,"server_type":"Dedicated","server_os":"Linux","password":true,"vac":true,"version":"7961495","steam_id":85568392925397959,"keywords":["cp","nocrits","nodmgspread","uncletopia"],"game_id":440,"stv_port":27056,"stv_name":"Uncletopia | Sydney | 5 | Stopwatch | STV","players":null},{"server_id":59,"name":"Uncletopia | Sydney | 6 | Community","name_short":"syd-6","host":"syd-1.au.uncletopia.com","port":27065,"enabled":true,"region":"au","cc":"au","latitude":-33.865143,"longitude":151.2099,"reserved":0,"last_update":"0001-01-01T00:00:00Z","name_a2s":"Uncletopia | Sydney | 6 | Community","protocol":17,"map":"workshop/pl_vigil_rc10.ugc1266210012","folder":"tf","game":"Team Fortress","app_id":440,"player_count":0,"max_players":24,"Bots":0,"server_type":"Dedicated","server_os":"Linux","password":true,"vac":true,"version":"7961495","steam_id":85568392925397960,"keywords":["nocrits","nodmgspread","payload","uncletopia"],"game_id":440,"stv_port":27066,"stv_name":"Uncletopia | Sydney | 6 | Community | STV","players":null},{"server_id":49,"name":"Uncletopia | Warsaw | 1 | One Thousand Uncles","name_short":"waw-1","host":"waw-1.pl.uncletopia.com","port":27015,"enabled":true,"region":"eu","cc":"pl","latitude":52.2297,"longitude":21.017532,"reserved":0,"last_update":"0001-01-01T00:00:00Z","name_a2s":"Uncletopia | Warsaw | 1 | One Thousand Uncles","protocol":17,"map":"pl_hoodoo_final","folder":"tf","game":"Team Fortress","app_id":440,"player_count":28,"max_players":32,"Bots":16,"server_type":"Dedicated","server_os":"Linux","password":true,"vac":true,"version":"7961495","steam_id":85568392925397850,"keywords":["alltalk","bots","danepve","increased_maxplayers","nocrits","norespawntime","payload","uncletopia"],"game_id":440,"stv_port":0,"stv_name":"","players":[{"user_id":20,"name":"Ankmar le Touffu","steam_id":76561198169381436,"connected_time":2339000000000,"state":"active","ping":69},{"user_id":30,"name":"aberrato","steam_id":76561198047206994,"connected_time":950000000000,"state":"active","ping":87},{"user_id":23,"name":"Flint","steam_id":76561197995920776,"connected_time":1497000000000,"state":"active","ping":61},{"user_id":56,"name":"aolkdi","steam_id":76561198025479415,"connected_time":477000000000,"state":"active","ping":136},{"user_id":57,"name":"autistic luigi","steam_id":76561199218285040,"connected_time":268000000000,"state":"active","ping":59},{"user_id":58,"name":"Tomfool","steam_id":76561197993256481,"connected_time":133000000000,"state":"active","ping":92},{"user_id":28,"name":"Juno4","steam_id":76561198034518616,"connected_time":1070000000000,"state":"active","ping":67},{"user_id":39,"name":"Pakistan International Airlines","steam_id":76561198870340075,"connected_time":549000000000,"state":"active","ping":105},{"user_id":33,"name":"9221669701","steam_id":76561199221669701,"connected_time":904000000000,"state":"active","ping":215},{"user_id":60,"name":"[SQ UA] MartianDill","steam_id":76561198405382822,"connected_time":66000000000,"state":"active","ping":56},{"user_id":35,"name":"chgivan","steam_id":76561198060010064,"connected_time":860000000000,"state":"active","ping":89},{"user_id":61,"name":"Starve","steam_id":76561199090019697,"connected_time":30000000000,"state":"active","ping":61}]},{"server_id":50,"name":"Uncletopia | Warsaw | 2 | One Thousand Uncles","name_short":"waw-2","host":"waw-1.pl.uncletopia.com","port":27025,"enabled":true,"region":"eu","cc":"pl","latitude":52.2297,"longitude":21.017532,"reserved":0,"last_update":"0001-01-01T00:00:00Z","name_a2s":"Uncletopia | Warsaw | 2 | One Thousand Uncles","protocol":17,"map":"pl_goldrush","folder":"tf","game":"Team Fortress","app_id":440,"player_count":0,"max_players":32,"Bots":0,"server_type":"Dedicated","server_os":"Linux","password":true,"vac":true,"version":"7961495","steam_id":85568392925397851,"keywords":["alltalk","danepve","increased_maxplayers","nocrits","norespawntime","payload","uncletopia"],"game_id":440,"stv_port":0,"stv_name":"","players":null},{"server_id":51,"name":"Uncletopia | Warsaw | 3 | All Maps","name_short":"waw-3","host":"waw-1.pl.uncletopia.com","port":27035,"enabled":true,"region":"eu","cc":"pl","latitude":52.2297,"longitude":21.017532,"reserved":0,"last_update":"0001-01-01T00:00:00Z","name_a2s":"Uncletopia | Warsaw | 3 | All Maps","protocol":17,"map":"plr_pipeline","folder":"tf","game":"Team Fortress","app_id":440,"player_count":0,"max_players":24,"Bots":0,"server_type":"Dedicated","server_os":"Linux","password":true,"vac":true,"version":"7961495","steam_id":85568392925397852,"keywords":["nocrits","nodmgspread","payload","uncletopia"],"game_id":440,"stv_port":27036,"stv_name":"Uncletopia | Warsaw | 3 | All Maps | STV","players":null},{"server_id":52,"name":"Uncletopia | Warsaw | 4 | All Maps","name_short":"waw-4","host":"waw-1.pl.uncletopia.com","port":27045,"enabled":true,"region":"eu","cc":"pl","latitude":52.2297,"longitude":21.017532,"reserved":0,"last_update":"0001-01-01T00:00:00Z","name_a2s":"Uncletopia | Warsaw | 4 | All Maps","protocol":17,"map":"cp_altitude","folder":"tf","game":"Team Fortress","app_id":440,"player_count":0,"max_players":24,"Bots":0,"server_type":"Dedicated","server_os":"Linux","password":true,"vac":true,"version":"7961495","steam_id":85568392925397853,"keywords":["cp","nocrits","nodmgspread","uncletopia"],"game_id":440,"stv_port":27046,"stv_name":"Uncletopia | Warsaw | 4 | All Maps | STV","players":null},{"server_id":53,"name":"Uncletopia | Warsaw | 5 | Stopwatch","name_short":"waw-5","host":"waw-1.pl.uncletopia.com","port":27055,"enabled":true,"region":"eu","cc":"pl","latitude":52.2297,"longitude":21.017532,"reserved":0,"last_update":"0001-01-01T00:00:00Z","name_a2s":"Uncletopia | Warsaw | 5 | Stopwatch","protocol":17,"map":"workshop/koth_bagel_rc6.ugc2514036946","folder":"tf","game":"Team Fortress","app_id":440,"player_count":0,"max_players":24,"Bots":0,"server_type":"Dedicated","server_os":"Linux","password":true,"vac":true,"version":"7961495","steam_id":85568392925397854,"keywords":["cp","nocrits","nodmgspread","uncletopia"],"game_id":440,"stv_port":27056,"stv_name":"Uncletopia | Warsaw | 5 | Stopwatch | STV","players":null},{"server_id":54,"name":"Uncletopia | Warsaw | 6 | Community","name_short":"waw-6","host":"waw-1.pl.uncletopia.com","port":27065,"enabled":true,"region":"eu","cc":"pl","latitude":52.2297,"longitude":21.017532,"reserved":0,"last_update":"0001-01-01T00:00:00Z","name_a2s":"Uncletopia | Warsaw | 6 | Community","protocol":17,"map":"workshop/pl_badwater_pro_v12.ugc2142942074","folder":"tf","game":"Team Fortress","app_id":440,"player_count":0,"max_players":24,"Bots":0,"server_type":"Dedicated","server_os":"Linux","password":true,"vac":true,"version":"7961495","steam_id":85568392925397856,"keywords":["nocrits","nodmgspread","payload","uncletopia"],"game_id":440,"stv_port":27066,"stv_name":"Uncletopia | Warsaw | 6 | Community | STV","players":null}]}