{"status":true,"message":"","result":[{"server_id":9,"name":"Uncletopia | Atlanta | 1 | All Maps","name_short":"atl-1","host":"atl-1.us.uncletopia.com","port":27015,"enabled":true,"region":"us-east","cc":"us","latitude":33.753746,"longitude":-84.38633,"reserved":0,"last_update":"0001-01-01T00:00:00Z","name_a2s":"Uncletopia | Atlanta | 1 | All Maps","protocol":17,"map":"pl_snowycoast","folder":"tf","game":"Team Fortress","app_id":440,"player_count":24,"max_players":24,"Bots":0,"server_type":"Dedicated","server_os":"Linux","password":true,"vac":true,"version":"7757534","steam_id":85568392924469982,"keywords":["nocrits","nodmgspread","payload","uncletopia"],"game_id":440,"stv_port":27016,"stv_name":"Uncletopia | Atlanta | 1 | All Maps | STV","players":[{"user_id":686,"name":"Broken Cereal√","steam_id":76561198087489795,"connected_time":3658000000000,"state":"active","ping":63},{"user_id":505,"name":"cheeks","steam_id":76561197993371179,"connected_time":14583000000000,"state":"active","ping":45},{"user_id":708,"name":"eish","steam_id":76561198089463603,"connected_time":1271000000000,"state":"active","ping":120},{"user_id":689,"name":"DuckMann","steam_id":76561198197058638,"connected_time":3626000000000,"state":"active","ping":49},{"user_id":705,"name":"STEVE","steam_id":76561198063475894,"connected_time":2243000000000,"state":"active","ping":51},{"user_id":701,"name":"white ray","steam_id":76561198026664629,"connected_time":2499000000000,"state":"active","ping":59},{"user_id":725,"name":"Femcel Fornicator","steam_id":76561198336584447,"connected_time":47000000000,"state":"spawning","ping":218},{"user_id":715,"name":"Shame","steam_id":76561198100490994,"connected_time":1207000000000,"state":"active","ping":60},{"user_id":720,"name":"iceman","steam_id":76561198135397441,"connected_time":1019000000000,"state":"active","ping":76},{"user_id":702,"name":"kametro4","steam_id":76561198835430429,"connected_time":2484000000000,"state":"active","ping":104},{"user_id":710,"name":"bogginwater","steam_id":76561198155547142,"connected_time":1257000000000,"state":"active","ping":64},{"user_id":697,"name":"♥Bunny♥Slut♥","steam_id":76561198206376851,"connected_time":2608000000000,"state":"active","ping":101},{"user_id":717,"name":"Ryan","steam_id":76561198397037834,"connected_time":1171000000000,"state":"active","ping":83},{"user_id":711,"name":"Nolan (Femboy)","steam_id":76561198082534795,"connected_time":1249000000000,"state":"active","ping":85},{"user_id":724,"name":"BambuBabyPackRunner","steam_id":76561198320866421,"connected_time":291000000000,"state":"active","ping":54},{"user_id":707,"name":"ATL 1 | Save your wifi","steam_id":76561198286147372,"connected_time":1283000000000,"state":"active","ping":54},{"user_id":690,"name":"cola","steam_id":76561198374390458,"connected_time":3625000000000,"state":"active","ping":58},{"user_id":704,"name":"Pascal","steam_id":76561198902657591,"connected_time":2446000000000,"state":"active","ping":46},{"user_id":712,"name":"Dreamzapp","steam_id":76561199084936632,"connected_time":1248000000000,"state":"active","ping":129},{"user_id":706,"name":"SeaBass","steam_id":76561198278914206,"connected_time":2003000000000,"state":"active","ping":56},{"user_id":719,"name":"stapler","steam_id":76561198145380652,"connected_time":1086000000000,"state":"active","ping":70},{"user_id":654,"name":"Onyx","steam_id":76561198275349640,"connected_time":7370000000000,"state":"active","ping":76},{"user_id":698,"name":"FemboyNate","steam_id":76561198146636410,"connected_time":2604000000000,"state":"active","ping":60},{"user_id":723,"name":"façade","steam_id":76561199157009256,"connected_time":612000000000,"state":"active","ping":101}]},{"server_id":400,"name":"Uncletopia | Atlanta | 3 | Community","name_short":"atl-3","host":"atl-1.us.uncletopia.com","port":27035,"enabled":true,"region":"us-east","cc":"us","latitude":33.753746,"longitude":-84.38633,"reserved":0,"last_update":"0001-01-01T00:00:00Z","name_a2s":"Uncletopia | Atlanta | 3 | Community","protocol":17,"map":"workshop/cp_logjam_rc12.ugc454812035","folder":"tf","game":"Team Fortress","app_id":440,"player_count":24,"max_players":24,"Bots":0,"server_type":"Dedicated","server_os":"Linux","password":true,"vac":true,"version":"7757534","steam_id":85568392924515187,"keywords":["cp","nocrits","nodmgspread","uncletopia"],"game_id":440,"stv_port":27036,"stv_name":"Uncletopia | Atlanta | 3 | Community | STV","players":[{"user_id":112,"name":"ChIck3n","steam_id":76561197999023274,"connected_time":1316000000000,"state":"active","ping":57},{"user_id":90,"name":"federal agent","steam_id":76561198136278172,"connected_time":3058000000000,"state":"active","ping":67},{"user_id":123,"name":"psihog","steam_id":76561197975797700,"connected_time":972000000000,"state":"active","ping":99},{"user_id":105,"name":"BurnN8or101","steam_id":76561198132668224,"connected_time":2444000000000,"state":"active","ping":72},{"user_id":94,"name":"MrrPickle","steam_id":76561198122046514,"connected_time":2946000000000,"state":"active","ping":81},{"user_id":111,"name":"Poptart From Mars","steam_id":76561197979930960,"connected_time":1452000000000,"state":"active","ping":92},{"user_id":80,"name":"Chris Pratt's pocket spaghetti","steam_id":76561198138347045,"connected_time":4309000000000,"state":"active","ping":62},{"user_id":132,"name":"fruitymario","steam_id":76561198047190430,"connected_time":397000000000,"state":"active","ping":57},{"user_id":107,"name":"♦♣Quadric♥♠","steam_id":76561198061003853,"connected_time":2180000000000,"state":"active","ping":70},{"user_id":55,"name":"Scalie with Soup","steam_id":76561198126745958,"connected_time":5610000000000,"state":"active","ping":91},{"user_id":113,"name":"jimmy skillet","steam_id":76561198067232126,"connected_time":1276000000000,"state":"active","ping":76},{"user_id":128,"name":"TheTruthOfTheCessationOfDukkha","steam_id":76561198214370515,"connected_time":657000000000,"state":"active","ping":69},{"user_id":56,"name":"Bad Joke","steam_id":76561198047716749,"connected_time":5587000000000,"state":"active","ping":70},{"user_id":115,"name":"iTellYouHwhut","steam_id":76561198024984121,"connected_time":1234000000000,"state":"active","ping":93},{"user_id":116,"name":"Chucklenuts","steam_id":76561198043284253,"connected_time":1225000000000,"state":"active","ping":58},{"user_id":129,"name":"lu","steam_id":76561198080731872,"connected_time":639000000000,"state":"active","ping":63},{"user_id":120,"name":"justcallmedoctorchu","steam_id":76561198134843196,"connected_time":1067000000000,"state":"active","ping":93},{"user_id":67,"name":"pylot","steam_id":76561198119460618,"connected_time":5040000000000,"state":"active","ping":89},{"user_id":121,"name":"Spookiest Breakfast","steam_id":76561198995031387,"connected_time":1051000000000,"state":"active","ping":78},{"user_id":133,"name":"Nukalaunch","steam_id":76561199255653942,"connected_time":345000000000,"state":"active","ping":113},{"user_id":122,"name":"pluto","steam_id":76561198199079731,"connected_time":1022000000000,"state":"active","ping":68},{"user_id":134,"name":"Bakucon","steam_id":76561198153667638,"connected_time":77000000000,"state":"active","ping":77},{"user_id":130,"name":"Brick","steam_id":76561198967058748,"connected_time":550000000000,"state":"active","ping":78},{"user_id":101,"name":"HatCat","steam_id":76561198976144813,"connected_time":2777000000000,"state":"active","ping":75}]},{"server_id":401,"name":"Uncletopia | Atlanta | 4 | No Payload","name_short":"atl-4","host":"atl-1.us.uncletopia.com","port":27045,"enabled":true,"region":"us-east","cc":"us","latitude":33.753746,"longitude":-84.38633,"reserved":0,"last_update":"0001-01-01T00:00:00Z","name_a2s":"","protocol":0,"map":"","folder":"","game":"","app_id":0,"player_count":0,"max_players":0,"Bots":0,"server_type":"","server_os":"","password":false,"vac":false,"version":"","steam_id":0,"keywords":null,"game_id":0,"stv_port":0,"stv_name":"","players":null},{"server_id":2,"name":"Uncletopia | Chicago | 1 | All Maps","name_short":"chi-1","host":"chi-1.us.uncletopia.com","port":27015,"enabled":true,"region":"us-central","cc":"us","latitude":41.881832,"longitude":-87.62318,"reserved":0,"last_update":"0001-01-01T00:00:00Z","name_a2s":"Uncletopia | Chicago | 1 | All Maps","protocol":17,"map":"cp_sunshine","folder":"tf","game":"Team Fortress","app_id":440,"player_count":24,"max_players":24,"Bots":0,"server_type":"Dedicated","server_os":"Linux","password":true,"vac":true,"version":"7757534","steam_id":85568392924469984,"keywords":["cp","nocrits","nodmgspread","uncletopia"],"game_id":440,"stv_port":27016,"stv_name":"Uncletopia | Chicago | 1 | All Maps | STV","players":[{"user_id":496,"name":"Bloodx","steam_id":76561197971439068,"connected_time":606000000000,"state":"active","ping":59},{"user_id":482,"name":"Rainbow Stainless Steel Sporks","steam_id":76561198869221421,"connected_time":1424000000000,"state":"active","ping":128},{"user_id":487,"name":"Pegway","steam_id":76561198044303814,"connected_time":1074000000000,"state":"active","ping":58},{"user_id":486,"name":"Mitchu The Bidness Man","steam_id":76561198102494381,"connected_time":1102000000000,"state":"active","ping":68},{"user_id":495,"name":"MosBlunted","steam_id":76561198259380127,"connected_time":710000000000,"state":"active","ping":71},{"user_id":497,"name":"Smack Ass","steam_id":76561198065902690,"connected_time":516000000000,"state":"active","ping":58},{"user_id":264,"name":"Edited Atom","steam_id":76561198210844957,"connected_time":20186000000000,"state":"active","ping":73},{"user_id":465,"name":"Boogie","steam_id":76561198043626626,"connected_time":2359000000000,"state":"active","ping":59},{"user_id":464,"name":"AAGooseman","steam_id":76561198378941369,"connected_time":2541000000000,"state":"active","ping":111},{"user_id":478,"name":"Pixelloader","steam_id":76561198218618819,"connected_time":1909000000000,"state":"active","ping":75},{"user_id":466,"name":"FallenTrinity487","steam_id":76561198331953704,"connected_time":2289000000000,"state":"active","ping":66},{"user_id":442,"name":"Captain S. Forrest","steam_id":76561198062463029,"connected_time":4894000000000,"state":"active","ping":70},{"user_id":500,"name":"wildfire","steam_id":76561197994242246,"connected_time":393000000000,"state":"active","ping":75},{"user_id":470,"name":"FETTUCCINE GANG","steam_id":76561198398722419,"connected_time":2242000000000,"state":"active","ping":91},{"user_id":479,"name":"[UHS] K24A4 2.4","steam_id":76561199072970627,"connected_time":1767000000000,"state":"active","ping":45},{"user_id":492,"name":"FHC | D9","steam_id":76561198149666258,"connected_time":1011000000000,"state":"active","ping":55},{"user_id":444,"name":"Astoriae!","steam_id":76561199090168858,"connected_time":4613000000000,"state":"active","ping":65},{"user_id":502,"name":"Tobacco","steam_id":76561198022282756,"connected_time":302000000000,"state":"active","ping":89},{"user_id":499,"name":"Primrose","steam_id":76561198031708819,"connected_time":404000000000,"state":"active","ping":59},{"user_id":449,"name":"M@verick","steam_id":76561198006363519,"connected_time":4275000000000,"state":"active","ping":73},{"user_id":493,"name":"crayonnipple","steam_id":76561198070253331,"connected_time":1002000000000,"state":"active","ping":80},{"user_id":494,"name":"The Cool Man","steam_id":76561198096420556,"connected_time":990000000000,"state":"active","ping":96},{"user_id":416,"name":"Man Time","steam_id":76561198151147218,"connected_time":8595000000000,"state":"active","ping":84},{"user_id":456,"name":"Krome","steam_id":76561198087317232,"connected_time":3948000000000,"state":"active","ping":76}]},{"server_id":106,"name":"Uncletopia | Chicago | 2 | All Maps","name_short":"chi-2","host":"chi-1.us.uncletopia.com","port":27025,"enabled":true,"region":"us-central","cc":"us","latitude":41.881832,"longitude":-87.62318,"reserved":0,"last_update":"0001-01-01T00:00:00Z","name_a2s":"Uncletopia | Chicago | 2 | All Maps","protocol":17,"map":"koth_highpass","folder":"tf","game":"Team Fortress","app_id":440,"player_count":22,"max_players":24,"Bots":0,"server_type":"Dedicated","server_os":"Linux","password":true,"vac":true,"version":"7757534","steam_id":85568392924469985,"keywords":["cp","nocrits","nodmgspread","uncletopia"],"game_id":440,"stv_port":27026,"stv_name":"Uncletopia | Chicago | 2 | All Maps | STV","players":[{"user_id":229,"name":"Eternal Eunuch","steam_id":76561198001195423,"connected_time":845000000000,"state":"active","ping":81},{"user_id":261,"name":"piebluedog","steam_id":76561198141362745,"connected_time":18000000000,"state":"spawning","ping":68},{"user_id":252,"name":"kobold gaymer","steam_id":76561198207260719,"connected_time":103000000000,"state":"active","ping":81},{"user_id":236,"name":"Nephs","steam_id":76561198136763403,"connected_time":541000000000,"state":"active","ping":69},{"user_id":218,"name":"uluna","steam_id":76561198284102821,"connected_time":1346000000000,"state":"active","ping":65},{"user_id":219,"name":"EMP","steam_id":76561198874125258,"connected_time":1337000000000,"state":"active","ping":72},{"user_id":256,"name":"Dr Smeggman","steam_id":76561197966614845,"connected_time":63000000000,"state":"active","ping":134},{"user_id":255,"name":"Mad dog of Shimano","steam_id":76561198797266817,"connected_time":89000000000,"state":"active","ping":79},{"user_id":168,"name":"Metbol","steam_id":76561198001362410,"connected_time":4551000000000,"state":"active","ping":82},{"user_id":183,"name":"TheGreatBeep","steam_id":76561198185301837,"connected_time":3566000000000,"state":"active","ping":78},{"user_id":240,"name":"Kremit","steam_id":76561198102023542,"connected_time":337000000000,"state":"active","ping":82},{"user_id":243,"name":"frost atronach","steam_id":76561198804901722,"connected_time":291000000000,"state":"active","ping":66},{"user_id":244,"name":"cālyx","steam_id":76561198212382937,"connected_time":279000000000,"state":"active","ping":53},{"user_id":245,"name":"temmssmdisnas","steam_id":76561198269445775,"connected_time":238000000000,"state":"active","ping":127},{"user_id":247,"name":"Gay Cowboy","steam_id":76561198151549658,"connected_time":202000000000,"state":"active","ping":76},{"user_id":249,"name":"Gilgamesh","steam_id":76561198317113179,"connected_time":183000000000,"state":"active","ping":60},{"user_id":250,"name":"B-Roaskie","steam_id":76561198210039575,"connected_time":180000000000,"state":"active","ping":58},{"user_id":251,"name":"The big broski","steam_id":76561198347675302,"connected_time":172000000000,"state":"active","ping":91},{"user_id":259,"name":"Godfinger","steam_id":76561198426346549,"connected_time":50000000000,"state":"active","ping":181},{"user_id":217,"name":"Infinity","steam_id":76561199134919099,"connected_time":1433000000000,"state":"active","ping":73},{"user_id":257,"name":"superwarm07","steam_id":76561199196313157,"connected_time":63000000000,"state":"active","ping":128},{"user_id":258,"name":"Jammer","steam_id":76561198435691014,"connected_time":59000000000,"state":"active","ping":84}]},{"server_id":402,"name":"Uncletopia | Chicago | 3 | All Maps","name_short":"chi-3","host":"chi-1.us.uncletopia.com","port":27035,"enabled":true,"region":"us-central","cc":"us","latitude":41.881832,"longitude":-87.62318,"reserved":0,"last_update":"0001-01-01T00:00:00Z","name_a2s":"Uncletopia | Chicago | 3 | All Maps","protocol":17,"map":"pl_borneo","folder":"tf","game":"Team Fortress","app_id":440,"player_count":20,"max_players":24,"Bots":0,"server_type":"Dedicated","server_os":"Linux","password":true,"vac":true,"version":"7757534","steam_id":85568392924515191,"keywords":["nocrits","nodmgspread","payload","uncletopia"],"game_id":440,"stv_port":27036,"stv_name":"Uncletopia | Chicago | 3 | All Maps | STV","players":[{"user_id":480,"name":"BernardBull","steam_id":76561198036138813,"connected_time":2377000000000,"state":"active","ping":80},{"user_id":492,"name":"Glass Joe","steam_id":76561198317365741,"connected_time":1198000000000,"state":"active","ping":88},{"user_id":489,"name":"Iggy Dogg","steam_id":76561198059602545,"connected_time":1277000000000,"state":"active","ping":52},{"user_id":515,"name":"FROYO donovin","steam_id":76561198045679387,"connected_time":497000000000,"state":"active","ping":45},{"user_id":507,"name":"JHLO","steam_id":76561198074359967,"connected_time":748000000000,"state":"active","ping":83},{"user_id":522,"name":"dog (real)","steam_id":76561198041770884,"connected_time":36000000000,"state":"active","ping":103},{"user_id":496,"name":"LaunchpadMcQuack","steam_id":76561198022302377,"connected_time":1149000000000,"state":"active","ping":60},{"user_id":497,"name":"postgres","steam_id":76561198011204750,"connected_time":1122000000000,"state":"active","ping":85},{"user_id":446,"name":"SpinetinglingToast","steam_id":76561198099470670,"connected_time":5185000000000,"state":"active","ping":72},{"user_id":499,"name":"Nightingale von Carstein","steam_id":76561198382793308,"connected_time":1110000000000,"state":"active","ping":84},{"user_id":516,"name":"Lore","steam_id":76561198098407538,"connected_time":397000000000,"state":"active","ping":45},{"user_id":517,"name":"Riske","steam_id":76561198115840568,"connected_time":360000000000,"state":"active","ping":66},{"user_id":518,"name":"Major Coom","steam_id":76561198038371512,"connected_time":351000000000,"state":"active","ping":88},{"user_id":519,"name":"whitey gotta pay","steam_id":76561198125947844,"connected_time":326000000000,"state":"active","ping":90},{"user_id":484,"name":"Pourpel","steam_id":76561198059125470,"connected_time":2133000000000,"state":"active","ping":74},{"user_id":511,"name":"What The Hell Fried Chicken","steam_id":76561198117434605,"connected_time":595000000000,"state":"active","ping":72},{"user_id":523,"name":"rats.org","steam_id":76561198060921894,"connected_time":9000000000,"state":"spawning","ping":47},{"user_id":513,"name":"redindy","steam_id":76561198070154445,"connected_time":582000000000,"state":"active","ping":81},{"user_id":521,"name":"Dr. Adolf Sponge","steam_id":76561198072573105,"connected_time":184000000000,"state":"active","ping":86},{"user_id":514,"name":"wokky bin laddn","steam_id":76561198265200834,"connected_time":577000000000,"state":"active","ping":70}]},{"server_id":403,"name":"Uncletopia | Chicago | 4 | All Maps","name_short":"chi-4","host":"chi-1.us.uncletopia.com","port":27045,"enabled":true,"region":"us-central","cc":"us","latitude":41.881832,"longitude":-87.62318,"reserved":0,"last_update":"0001-01-01T00:00:00Z","name_a2s":"Uncletopia | Chicago | 4 | All Maps","protocol":17,"map":"cp_dustbowl","folder":"tf","game":"Team Fortress","app_id":440,"player_count":10,"max_players":24,"Bots":0,"server_type":"Dedicated","server_os":"Linux","password":true,"vac":true,"version":"7757534","steam_id":85568392924515193,"keywords":["cp","nocrits","nodmgspread","uncletopia"],"game_id":440,"stv_port":27046,"stv_name":"Uncletopia | Chicago | 4 | All Maps | STV","players":[{"user_id":982,"name":"Chappy","steam_id":76561198069167687,"connected_time":22000000000,"state":"active","ping":131},{"user_id":966,"name":"DoodleCultist","steam_id":76561198306927279,"connected_time":1581000000000,"state":"active","ping":72},{"user_id":983,"name":"Dzhoshua","steam_id":76561198071915251,"connected_time":22000000000,"state":"active","ping":60},{"user_id":925,"name":"Take the L","steam_id":76561198379223875,"connected_time":4075000000000,"state":"active","ping":56},{"user_id":984,"name":"BigDeac","steam_id":76561198091237274,"connected_time":9000000000,"state":"spawning","ping":34},{"user_id":934,"name":"Harold","steam_id":76561198057317770,"connected_time":3073000000000,"state":"active","ping":79},{"user_id":676,"name":"Temujin","steam_id":76561198030936583,"connected_time":20329000000000,"state":"active","ping":57},{"user_id":976,"name":"captainskullet","steam_id":76561198314597170,"connected_time":757000000000,"state":"active","ping":65},{"user_id":936,"name":"DAS SCHNITZELSTIEN","steam_id":76561198051137159,"connected_time":3056000000000,"state":"active","ping":86},{"user_id":939,"name":"still bad at video games","steam_id":76561198328675913,"connected_time":2964000000000,"state":"active","ping":91}]},{"server_id":36,"name":"Uncletopia | Chicago | 5 | All Maps","name_short":"chi-5","host":"chi-2.us.uncletopia.com","port":27015,"enabled":true,"region":"us-central","cc":"us","latitude":41.881832,"longitude":-87.62318,"reserved":0,"last_update":"0001-01-01T00:00:00Z","name_a2s":"Uncletopia | Chicago | 5 | All Maps","protocol":17,"map":"cp_altitude","folder":"tf","game":"Team Fortress","app_id":440,"player_count":24,"max_players":24,"Bots":0,"server_type":"Dedicated","server_os":"Linux","password":true,"vac":true,"version":"7757534","steam_id":85568392924866362,"keywords":["cp","nocrits","nodmgspread","uncletopia"],"game_id":440,"stv_port":27016,"stv_name":"Uncletopia | Chicago | 5 | All Maps | STV","players":[{"user_id":274,"name":"Soju","steam_id":76561198044130442,"connected_time":1871000000000,"state":"active","ping":78},{"user_id":289,"name":"Golumpus","steam_id":76561198053549635,"connected_time":385000000000,"state":"active","ping":94},{"user_id":280,"name":"Oddjob","steam_id":76561198976160793,"connected_time":1649000000000,"state":"active","ping":78},{"user_id":249,"name":"Freyesh","steam_id":76561198126946022,"connected_time":3467000000000,"state":"active","ping":100},{"user_id":221,"name":"Baka!⑨⑨⑨⑨","steam_id":76561198152948254,"connected_time":5176000000000,"state":"active","ping":70},{"user_id":223,"name":"Monsterjessy","steam_id":76561198035630985,"connected_time":5089000000000,"state":"active","ping":69},{"user_id":187,"name":"Unlock The Shock (She/They)","steam_id":76561198823616667,"connected_time":7370000000000,"state":"active","ping":79},{"user_id":259,"name":"Voodo133","steam_id":76561198042670351,"connected_time":2922000000000,"state":"active","ping":91},{"user_id":250,"name":"cjip","steam_id":76561198261703372,"connected_time":3413000000000,"state":"active","ping":109},{"user_id":290,"name":"shadowjango","steam_id":76561198001475833,"connected_time":362000000000,"state":"active","ping":69},{"user_id":277,"name":"kr1tsurf3r","steam_id":76561198076402476,"connected_time":1686000000000,"state":"active","ping":115},{"user_id":282,"name":"Viokik","steam_id":76561198408846602,"connected_time":1545000000000,"state":"active","ping":69},{"user_id":288,"name":"faxxy","steam_id":76561198079621240,"connected_time":458000000000,"state":"active","ping":85},{"user_id":283,"name":"threethree","steam_id":76561198177354155,"connected_time":1519000000000,"state":"active","ping":47},{"user_id":291,"name":"Tusk","steam_id":76561199066977033,"connected_time":346000000000,"state":"active","ping":75},{"user_id":271,"name":"pipis","steam_id":76561198140971525,"connected_time":2627000000000,"state":"active","ping":60},{"user_id":292,"name":"Brock Obama","steam_id":76561198094643755,"connected_time":303000000000,"state":"active","ping":85},{"user_id":266,"name":"boo_thefeared","steam_id":76561198127967685,"connected_time":2729000000000,"state":"active","ping":145},{"user_id":235,"name":"Eden","steam_id":76561198075587475,"connected_time":4659000000000,"state":"active","ping":53},{"user_id":293,"name":"Fredrick","steam_id":76561197981419964,"connected_time":275000000000,"state":"active","ping":72},{"user_id":294,"name":"BOT Positronic♥June (they/she","steam_id":76561198042556857,"connected_time":157000000000,"state":"active","ping":53},{"user_id":272,"name":"An Erect Penis :)","steam_id":76561198086477485,"connected_time":2542000000000,"state":"active","ping":40},{"user_id":269,"name":"Korota","steam_id":76561198095891641,"connected_time":2722000000000,"state":"active","ping":53},{"user_id":287,"name":"PhaserLazer","steam_id":76561198407341298,"connected_time":482000000000,"state":"active","ping":76}]},{"server_id":37,"name":"Uncletopia | Chicago | 6 | All Maps","name_short":"chi-6","host":"chi-2.us.uncletopia.com","port":27025,"enabled":true,"region":"us-central","cc":"us","latitude":41.881832,"longitude":-87.62318,"reserved":0,"last_update":"0001-01-01T00:00:00Z","name_a2s":"Uncletopia | Chicago | 6 | All Maps","protocol":17,"map":"cp_dustbowl","folder":"tf","game":"Team Fortress","app_id":440,"player_count":24,"max_players":24,"Bots":0,"server_type":"Dedicated","server_os":"Linux","password":true,"vac":true,"version":"7757534","steam_id":85568392924866363,"keywords":["cp","nocrits","nodmgspread","uncletopia"],"game_id":440,"stv_port":27026,"stv_name":"Uncletopia | Chicago | 6 | All Maps | STV","players":[{"user_id":393,"name":"pete_the_cat_2014","steam_id":76561198199266047,"connected_time":2153000000000,"state":"active","ping":56},{"user_id":381,"name":"quasar","steam_id":76561198864400935,"connected_time":3253000000000,"state":"active","ping":92},{"user_id":325,"name":"Dr. Dick","steam_id":76561198138011922,"connected_time":7424000000000,"state":"active","ping":72},{"user_id":382,"name":"stfu im vibin rn","steam_id":76561198069407799,"connected_time":3217000000000,"state":"active","ping":74},{"user_id":418,"name":"Samsung Galaxy S22","steam_id":76561198319442494,"connected_time":277000000000,"state":"active","ping":104},{"user_id":419,"name":"Salium","steam_id":76561197961546093,"connected_time":127000000000,"state":"active","ping":103},{"user_id":409,"name":"Capt.Swag","steam_id":76561198088340994,"connected_time":1332000000000,"state":"active","ping":78},{"user_id":395,"name":"Piyono","steam_id":76561197962188504,"connected_time":2128000000000,"state":"active","ping":67},{"user_id":408,"name":"Universe Man","steam_id":76561197997710655,"connected_time":1388000000000,"state":"active","ping":85},{"user_id":396,"name":"James","steam_id":76561198055687973,"connected_time":2121000000000,"state":"active","ping":59},{"user_id":416,"name":"rlty","steam_id":76561198009395055,"connected_time":590000000000,"state":"active","ping":65},{"user_id":387,"name":"God's not dead, I am.","steam_id":76561198840484105,"connected_time":2856000000000,"state":"active","ping":77},{"user_id":415,"name":"hud_saytext_time 0","steam_id":76561198010327228,"connected_time":654000000000,"state":"active","ping":173},{"user_id":397,"name":"THIRDPIERCE","steam_id":76561198405366314,"connected_time":2119000000000,"state":"active","ping":86},{"user_id":404,"name":"Soda","steam_id":76561198219209367,"connected_time":1687000000000,"state":"active","ping":65},{"user_id":406,"name":"Doc","steam_id":76561198044196439,"connected_time":1473000000000,"state":"active","ping":135},{"user_id":412,"name":"girlpeen supreme","steam_id":76561198031242903,"connected_time":1212000000000,"state":"active","ping":67},{"user_id":398,"name":"Oops","steam_id":76561198015032646,"connected_time":2104000000000,"state":"active","ping":100},{"user_id":380,"name":"Mr.YoYo","steam_id":76561198988717854,"connected_time":3269000000000,"state":"active","ping":70},{"user_id":410,"name":"Billybob7712","steam_id":76561199000291076,"connected_time":1324000000000,"state":"active","ping":106},{"user_id":417,"name":"The_Skull_boy","steam_id":76561198227692664,"connected_time":542000000000,"state":"active","ping":114},{"user_id":363,"name":"B/S/SuperBoofOG","steam_id":76561197992030936,"connected_time":5040000000000,"state":"active","ping":69},{"user_id":371,"name":"moe5x","steam_id":76561198316877833,"connected_time":4331000000000,"state":"active","ping":98},{"user_id":369,"name":"AcidBat3","steam_id":76561198169389335,"connected_time":4808000000000,"state":"active","ping":90}]},{"server_id":38,"name":"Uncletopia | Chicago | 7 | Stopwatch Beta","name_short":"chi-7","host":"chi-2.us.uncletopia.com","port":27035,"enabled":true,"region":"us-central","cc":"us","latitude":41.881832,"longitude":-87.62318,"reserved":0,"last_update":"0001-01-01T00:00:00Z","name_a2s":"Uncletopia | Chicago | 7 | Stopwatch Beta","protocol":17,"map":"koth_viaduct","folder":"tf","game":"Team Fortress","app_id":440,"player_count":0,"max_players":24,"Bots":0,"server_type":"Dedicated","server_os":"Linux","password":true,"vac":true,"version":"7757534","steam_id":85568392924866364,"keywords":["cp","nocrits","nodmgspread","uncletopia"],"game_id":440,"stv_port":27036,"stv_name":"Uncletopia | Chicago | 7 | Stopwatch Beta | STV","players":null},{"server_id":39,"name":"Uncletopia | Chicago | 8 | Community","name_short":"chi-8","host":"chi-2.us.uncletopia.com","port":27045,"enabled":true,"region":"us-central","cc":"us","latitude":41.881832,"longitude":-87.62318,"reserved":0,"last_update":"0001-01-01T00:00:00Z","name_a2s":"Uncletopia | Chicago | 8 | Community","protocol":17,"map":"workshop/pl_cashworks_final1.ugc2904065412","folder":"tf","game":"Team Fortress","app_id":440,"player_count":0,"max_players":24,"Bots":0,"server_type":"Dedicated","server_os":"Linux","password":true,"vac":true,"version":"7757534","steam_id":85568392924866365,"keywords":["nocrits","nodmgspread","payload","uncletopia"],"game_id":440,"stv_port":27046,"stv_name":"Uncletopia | Chicago | 8 | Community | STV","players":null},{"server_id":8,"name":"Uncletopia | Dallas | 1 | All Maps","name_short":"dal-1","host":"dal-1.us.uncletopia.com","port":27015,"enabled":true,"region":"us-central","cc":"us","latitude":32.779167,"longitude":-96.80889,"reserved":0,"last_update":"0001-01-01T00:00:00Z","name_a2s":"Uncletopia | Dallas | 1 | All Maps","protocol":17,"map":"cp_sunshine","folder":"tf","game":"Team Fortress","app_id":440,"player_count":24,"max_players":24,"Bots":0,"server_type":"Dedicated","server_os":"Linux","password":true,"vac":true,"version":"7757534","steam_id":85568392924469986,"keywords":["cp","nocrits","nodmgspread","uncletopia"],"game_id":440,"stv_port":27016,"stv_name":"Uncletopia | Dallas | 1 | All Maps | STV","players":[{"user_id":725,"name":"God Robert's Cousin","steam_id":76561198022189909,"connected_time":94000000000,"state":"active","ping":66},{"user_id":718,"name":"derdds","steam_id":76561198034339940,"connected_time":760000000000,"state":"active","ping":82},{"user_id":638,"name":"Sup m8","steam_id":76561198081659121,"connected_time":3794000000000,"state":"active","ping":38},{"user_id":716,"name":"Psychosis","steam_id":76561198078659070,"connected_time":1097000000000,"state":"active","ping":77},{"user_id":708,"name":"McNamJam","steam_id":76561198028128686,"connected_time":1801000000000,"state":"active","ping":93},{"user_id":672,"name":"finger","steam_id":76561198068558572,"connected_time":3174000000000,"state":"active","ping":68},{"user_id":714,"name":"Lazulf","steam_id":76561198041410859,"connected_time":1589000000000,"state":"active","ping":75},{"user_id":721,"name":"errant","steam_id":76561197961758410,"connected_time":394000000000,"state":"active","ping":40},{"user_id":710,"name":"bringanotebook","steam_id":76561198838822605,"connected_time":1794000000000,"state":"active","ping":90},{"user_id":705,"name":"Treeckogeek","steam_id":76561198453328078,"connected_time":2299000000000,"state":"active","ping":74},{"user_id":711,"name":"soupy","steam_id":76561197974283797,"connected_time":1781000000000,"state":"active","ping":66},{"user_id":600,"name":"Foomfa","steam_id":76561198007033616,"connected_time":5026000000000,"state":"active","ping":93},{"user_id":620,"name":"Not A Rapper","steam_id":76561198077523537,"connected_time":4123000000000,"state":"active","ping":96},{"user_id":726,"name":"tim-","steam_id":76561199119101315,"connected_time":75000000000,"state":"active","ping":90},{"user_id":715,"name":"DiabetesMan","steam_id":76561198075668940,"connected_time":1489000000000,"state":"active","ping":88},{"user_id":727,"name":"lynt","steam_id":76561198988333976,"connected_time":72000000000,"state":"active","ping":60},{"user_id":728,"name":"adolf tickler","steam_id":76561198163120788,"connected_time":59000000000,"state":"active","ping":74},{"user_id":461,"name":"[ØWQJØ]chubacaalatake","steam_id":76561198136201697,"connected_time":15654000000000,"state":"active","ping":124},{"user_id":723,"name":"Ġ1 ♦ Synth","steam_id":76561198058660228,"connected_time":163000000000,"state":"active","ping":45},{"user_id":719,"name":"lag","steam_id":76561197963872739,"connected_time":759000000000,"state":"active","ping":74},{"user_id":730,"name":"littengamer1112","steam_id":76561198992690060,"connected_time":12000000000,"state":"spawning","ping":61},{"user_id":729,"name":"reverie","steam_id":76561198168158637,"connected_time":50000000000,"state":"active","ping":97},{"user_id":722,"name":"mel","steam_id":76561198215559840,"connected_time":232000000000,"state":"active","ping":60},{"user_id":591,"name":"Yuurg","steam_id":76561198057035968,"connected_time":5289000000000,"state":"active","ping":92}]},{"server_id":108,"name":"Uncletopia | Dallas | 2 | All Maps","name_short":"dal-2","host":"dal-1.us.uncletopia.com","port":27025,"enabled":true,"region":"us-central","cc":"us","latitude":32.779167,"longitude":-96.80889,"reserved":0,"last_update":"0001-01-01T00:00:00Z","name_a2s":"Uncletopia | Dallas | 2 | All Maps","protocol":17,"map":"koth_nucleus","folder":"tf","game":"Team Fortress","app_id":440,"player_count":23,"max_players":24,"Bots":0,"server_type":"Dedicated","server_os":"Linux","password":true,"vac":true,"version":"7757534","steam_id":85568392924469988,"keywords":["cp","nocrits","nodmgspread","uncletopia"],"game_id":440,"stv_port":27026,"stv_name":"Uncletopia | Dallas | 2 | All Maps | STV","players":[{"user_id":504,"name":"Careful Demon (she/they)","steam_id":76561198354263156,"connected_time":617000000000,"state":"active","ping":102},{"user_id":515,"name":"Christmas Ham","steam_id":76561198119601623,"connected_time":346000000000,"state":"active","ping":157},{"user_id":516,"name":"Protocal","steam_id":76561198054813588,"connected_time":342000000000,"state":"active","ping":77},{"user_id":506,"name":"Hiryuu","steam_id":76561198025267260,"connected_time":554000000000,"state":"active","ping":85},{"user_id":517,"name":"Elongated Muskrat","steam_id":76561198314501346,"connected_time":293000000000,"state":"active","ping":113},{"user_id":502,"name":"FIRE IN TACO BELL","steam_id":76561198084019893,"connected_time":803000000000,"state":"active","ping":77},{"user_id":344,"name":"plink","steam_id":76561198057829889,"connected_time":8630000000000,"state":"active","ping":107},{"user_id":468,"name":"Orca?","steam_id":76561198164341099,"connected_time":2746000000000,"state":"active","ping":74},{"user_id":520,"name":"Fuzzycoco","steam_id":76561198154714679,"connected_time":25000000000,"state":"active","ping":83},{"user_id":518,"name":"Darakrish","steam_id":76561198133126686,"connected_time":166000000000,"state":"active","ping":88},{"user_id":519,"name":"Arthur","steam_id":76561198075996414,"connected_time":120000000000,"state":"active","ping":112},{"user_id":510,"name":"Way Nomura","steam_id":76561198066004229,"connected_time":435000000000,"state":"active","ping":86},{"user_id":469,"name":"Si1entSn1pa","steam_id":76561198170095479,"connected_time":2741000000000,"state":"active","ping":91},{"user_id":491,"name":"Powerpuker","steam_id":76561198034620567,"connected_time":1404000000000,"state":"active","ping":89},{"user_id":439,"name":"Rifter","steam_id":76561198077430698,"connected_time":3484000000000,"state":"active","ping":60},{"user_id":511,"name":"jturner1nm","steam_id":76561198344493652,"connected_time":428000000000,"state":"active","ping":245},{"user_id":449,"name":"super","steam_id":76561198800358844,"connected_time":3298000000000,"state":"active","ping":68},{"user_id":405,"name":"FunnyMan with FunnyPlan","steam_id":76561198281495705,"connected_time":4281000000000,"state":"active","ping":79},{"user_id":505,"name":"Sassy Ass Kitty Kat (She/her)","steam_id":76561198300550692,"connected_time":606000000000,"state":"active","ping":131},{"user_id":500,"name":"any ladies keeping it hairy?","steam_id":76561198081220016,"connected_time":871000000000,"state":"active","ping":74},{"user_id":507,"name":"The Great Karizma!","steam_id":76561198346191193,"connected_time":540000000000,"state":"active","ping":76},{"user_id":497,"name":"邪恶的巫师","steam_id":76561198165212575,"connected_time":1087000000000,"state":"active","ping":81},{"user_id":513,"name":"Training Arc","steam_id":76561198038832034,"connected_time":419000000000,"state":"active","ping":105}]},{"server_id":5,"name":"Uncletopia | Frankfurt | 1 | All Maps","name_short":"frk-1","host":"frk-1.de.uncletopia.com","port":27015,"enabled":true,"region":"eu","cc":"de","latitude":50.110924,"longitude":8.682127,"reserved":0,"last_update":"0001-01-01T00:00:00Z","name_a2s":"Uncletopia | Frankfurt | 1 | All Maps","protocol":17,"map":"koth_viaduct","folder":"tf","game":"Team Fortress","app_id":440,"player_count":0,"max_players":24,"Bots":0,"server_type":"Dedicated","server_os":"Linux","password":true,"vac":true,"version":"7757534","steam_id":85568392924469989,"keywords":["cp","nocrits","nodmgspread","uncletopia"],"game_id":440,"stv_port":27016,"stv_name":"Uncletopia | Frankfurt | 1 | All Maps | STV","players":null},{"server_id":110,"name":"Uncletopia | Frankfurt | 2 | All Maps","name_short":"frk-2","host":"frk-1.de.uncletopia.com","port":27025,"enabled":true,"region":"eu","cc":"de","latitude":50.110924,"longitude":8.682127,"reserved":0,"last_update":"0001-01-01T00:00:00Z","name_a2s":"Uncletopia | Frankfurt | 2 | All Maps","protocol":17,"map":"cp_altitude","folder":"tf","game":"Team Fortress","app_id":440,"player_count":0,"max_players":24,"Bots":0,"server_type":"Dedicated","server_os":"Linux","password":true,"vac":true,"version":"7757534","steam_id":85568392924469990,"keywords":["cp","nocrits","nodmgspread","uncletopia"],"game_id":440,"stv_port":27026,"stv_name":"Uncletopia | Frankfurt | 2 | All Maps | STV","players":null},{"server_id":308,"name":"Uncletopia | Frankfurt | 3 | All Maps","name_short":"frk-3","host":"frk-1.de.uncletopia.com","port":27035,"enabled":true,"region":"eu","cc":"de","latitude":50.110924,"longitude":8.682127,"reserved":0,"last_update":"0001-01-01T00:00:00Z","name_a2s":"Uncletopia | Frankfurt | 3 | All Maps","protocol":17,"map":"koth_lakeside_final","folder":"tf","game":"Team Fortress","app_id":440,"player_count":0,"max_players":24,"Bots":0,"server_type":"Dedicated","server_os":"Linux","password":true,"vac":true,"version":"7757534","steam_id":85568392924504274,"keywords":["cp","nocrits","nodmgspread","uncletopia"],"game_id":440,"stv_port":27036,"stv_name":"Uncletopia | Frankfurt | 3 | All Maps | STV","players":null},{"server_id":309,"name":"Uncletopia | Frankfurt | 4 | All Maps","name_short":"frk-4","host":"frk-1.de.uncletopia.com","port":27045,"enabled":true,"region":"eu","cc":"de","latitude":50.110924,"longitude":8.682127,"reserved":0,"last_update":"0001-01-01T00:00:00Z","name_a2s":"Uncletopia | Frankfurt | 4 | All Maps","protocol":17,"map":"koth_viaduct","folder":"tf","game":"Team Fortress","app_id":440,"player_count":0,"max_players":24,"Bots":0,"server_type":"Dedicated","server_os":"Linux","password":true,"vac":true,"version":"7757534","steam_id":85568392924504275,"keywords":["cp","nocrits","nodmgspread","uncletopia"],"game_id":440,"stv_port":27046,"stv_name":"Uncletopia | Frankfurt | 4 | All Maps | STV","players":null},{"server_id":310,"name":"Uncletopia | Frankfurt | 5 | All Maps","name_short":"frk-5","host":"frk-1.de.uncletopia.com","port":27055,"enabled":true,"region":"eu","cc":"de","latitude":50.110924,"longitude":8.682127,"reserved":0,"last_update":"0001-01-01T00:00:00Z","name_a2s":"Uncletopia | Frankfurt | 5 | All Maps","protocol":17,"map":"koth_viaduct","folder":"tf","game":"Team Fortress","app_id":440,"player_count":0,"max_players":24,"Bots":0,"server_type":"Dedicated","server_os":"Linux","password":true,"vac":true,"version":"7757534","steam_id":85568392924504277,"keywords":["cp","nocrits","nodmgspread","uncletopia"],"game_id":440,"stv_port":27056,"stv_name":"Uncletopia | Frankfurt | 5 | All Maps | STV","players":null},{"server_id":311,"name":"Uncletopia | Frankfurt | 6 | All Maps","name_short":"frk-6","host":"frk-1.de.uncletopia.com","port":27065,"enabled":true,"region":"eu","cc":"de","latitude":50.110924,"longitude":8.682127,"reserved":0,"last_update":"0001-01-01T00:00:00Z","name_a2s":"Uncletopia | Frankfurt | 6 | All Maps","protocol":17,"map":"koth_cascade","folder":"tf","game":"Team Fortress","app_id":440,"player_count":0,"max_players":24,"Bots":0,"server_type":"Dedicated","server_os":"Linux","password":true,"vac":true,"version":"7757534","steam_id":85568392924504278,"keywords":["cp","nocrits","nodmgspread","uncletopia"],"game_id":440,"stv_port":27066,"stv_name":"Uncletopia | Frankfurt | 6 | All Maps | STV","players":null},{"server_id":23,"name":"Uncletopia | Frankfurt | 7 | Stopwatch Beta","name_short":"frk-7","host":"frk-1.de.uncletopia.com","port":27075,"enabled":true,"region":"eu","cc":"de","latitude":50.110924,"longitude":8.682127,"reserved":0,"last_update":"0001-01-01T00:00:00Z","name_a2s":"Uncletopia | Frankfurt | 7 | Stopwatch Beta","protocol":17,"map":"pl_borneo","folder":"tf","game":"Team Fortress","app_id":440,"player_count":0,"max_players":24,"Bots":0,"server_type":"Dedicated","server_os":"Linux","password":true,"vac":true,"version":"7757534","steam_id":85568392924742827,"keywords":["nocrits","nodmgspread","payload","uncletopia"],"game_id":440,"stv_port":27076,"stv_name":"Uncletopia | Frankfurt | 7 | Stopwatch Beta | STV","players":null},{"server_id":24,"name":"Uncletopia | Frankfurt | 8 | Community","name_short":"frk-8","host":"frk-1.de.uncletopia.com","port":27085,"enabled":true,"region":"eu","cc":"de","latitude":50.110924,"longitude":8.682127,"reserved":0,"last_update":"0001-01-01T00:00:00Z","name_a2s":"Uncletopia | Frankfurt | 8 | Community","protocol":17,"map":"workshop/koth_ashville_final.ugc2130459942","folder":"tf","game":"Team Fortress","app_id":440,"player_count":0,"max_players":24,"Bots":0,"server_type":"Dedicated","server_os":"Linux","password":true,"vac":true,"version":"7757534","steam_id":85568392924742828,"keywords":["cp","nocrits","nodmgspread","uncletopia"],"game_id":440,"stv_port":27086,"stv_name":"Uncletopia | Frankfurt | 8 | Community | STV","players":null},{"server_id":202,"name":"Uncletopia | Hong Kong | 1 | All Maps","name_short":"hgk-1","host":"hgk-1.hk.uncletopia.com","port":27015,"enabled":true,"region":"asia","cc":"hk","latitude":22.302711,"longitude":114.177216,"reserved":0,"last_update":"0001-01-01T00:00:00Z","name_a2s":"Uncletopia | Hong Kong | 1 | All Maps","protocol":17,"map":"pl_badwater","folder":"tf","game":"Team Fortress","app_id":440,"player_count":0,"max_players":24,"Bots":0,"server_type":"Dedicated","server_os":"Linux","password":true,"vac":true,"version":"7757534","steam_id":85568392924494504,"keywords":["nocrits","nodmgspread","payload","uncletopia"],"game_id":440,"stv_port":27016,"stv_name":"Uncletopia | Hong Kong | 1 | All Maps | STV","players":null},{"server_id":1,"name":"Uncletopia | Los Angeles | 1 | All Maps","name_short":"lax-1","host":"lax-1.us.uncletopia.com","port":27015,"enabled":true,"region":"us-west","cc":"us","latitude":33.94279,"longitude":-118.41004,"reserved":0,"last_update":"0001-01-01T00:00:00Z","name_a2s":"Uncletopia | Los Angeles | 1 | All Maps","protocol":17,"map":"cp_altitude","folder":"tf","game":"Team Fortress","app_id":440,"player_count":23,"max_players":24,"Bots":0,"server_type":"Dedicated","server_os":"Linux","password":true,"vac":true,"version":"7757534","steam_id":85568392924469991,"keywords":["cp","nocrits","nodmgspread","uncletopia"],"game_id":440,"stv_port":27016,"stv_name":"Uncletopia | Los Angeles | 1 | All Maps | STV","players":[{"user_id":207,"name":"Dagoth","steam_id":76561198100896443,"connected_time":482000000000,"state":"active","ping":107},{"user_id":211,"name":"Tam Honks","steam_id":76561198044347961,"connected_time":421000000000,"state":"active","ping":63},{"user_id":203,"name":"M3tr0idPrim3","steam_id":76561198138329107,"connected_time":803000000000,"state":"active","ping":57},{"user_id":201,"name":"rmbl","steam_id":76561198150137369,"connected_time":1280000000000,"state":"active","ping":51},{"user_id":208,"name":"ghostglitch","steam_id":76561197991608573,"connected_time":465000000000,"state":"active","ping":56},{"user_id":190,"name":"Joshzu","steam_id":76561198200521137,"connected_time":2403000000000,"state":"active","ping":77},{"user_id":213,"name":"LX-24","steam_id":76561198016168993,"connected_time":346000000000,"state":"active","ping":80},{"user_id":209,"name":"Loans","steam_id":76561198204683565,"connected_time":460000000000,"state":"active","ping":100},{"user_id":194,"name":"eau:","steam_id":76561198110020262,"connected_time":2013000000000,"state":"active","ping":38},{"user_id":191,"name":"chanoc","steam_id":76561198026734746,"connected_time":2339000000000,"state":"active","ping":60},{"user_id":179,"name":"Uluyo","steam_id":76561198065857148,"connected_time":3106000000000,"state":"active","ping":65},{"user_id":205,"name":"i am off oxycontins","steam_id":76561198389005732,"connected_time":788000000000,"state":"active","ping":55},{"user_id":196,"name":"walrooos","steam_id":76561198024521839,"connected_time":1779000000000,"state":"active","ping":44},{"user_id":204,"name":"Madcows","steam_id":76561198021695614,"connected_time":800000000000,"state":"active","ping":61},{"user_id":175,"name":"Measured Moth","steam_id":76561198043220089,"connected_time":3162000000000,"state":"active","ping":47},{"user_id":212,"name":"Chaplin Grimuldis","steam_id":76561198160369788,"connected_time":395000000000,"state":"active","ping":70},{"user_id":176,"name":"nothowon","steam_id":76561198937601452,"connected_time":3160000000000,"state":"active","ping":105},{"user_id":210,"name":"El pandora","steam_id":76561198075490385,"connected_time":459000000000,"state":"active","ping":51},{"user_id":214,"name":"FROYO b4nny","steam_id":76561197970669109,"connected_time":273000000000,"state":"active","ping":46},{"user_id":97,"name":"triple$ix","steam_id":76561198327156787,"connected_time":8837000000000,"state":"active","ping":108},{"user_id":182,"name":"Crafty","steam_id":76561199217624073,"connected_time":2930000000000,"state":"active","ping":52},{"user_id":215,"name":"Firedude","steam_id":76561198852497745,"connected_time":198000000000,"state":"active","ping":90},{"user_id":218,"name":"Fractured_Mango","steam_id":76561199013113268,"connected_time":171000000000,"state":"active","ping":71}]},{"server_id":112,"name":"Uncletopia | Los Angeles | 2 | All Maps","name_short":"lax-2","host":"lax-1.us.uncletopia.com","port":27025,"enabled":true,"region":"us-west","cc":"us","latitude":33.94279,"longitude":-118.41004,"reserved":0,"last_update":"0001-01-01T00:00:00Z","name_a2s":"Uncletopia | Los Angeles | 2 | All Maps","protocol":17,"map":"pl_snowycoast","folder":"tf","game":"Team Fortress","app_id":440,"player_count":0,"max_players":24,"Bots":0,"server_type":"Dedicated","server_os":"Linux","password":true,"vac":true,"version":"7757534","steam_id":85568392924469992,"keywords":["nocrits","nodmgspread","payload","uncletopia"],"game_id":440,"stv_port":27026,"stv_name":"Uncletopia | Los Angeles | 2 | All Maps | STV","players":null},{"server_id":324,"name":"Uncletopia | Los Angeles | 3 | All Maps","name_short":"lax-3","host":"lax-1.us.uncletopia.com","port":27035,"enabled":true,"region":"us-west","cc":"us","latitude":33.94279,"longitude":-118.41004,"reserved":0,"last_update":"0001-01-01T00:00:00Z","name_a2s":"Uncletopia | Los Angeles | 3 | All Maps","protocol":17,"map":"cp_snakewater_final1","folder":"tf","game":"Team Fortress","app_id":440,"player_count":0,"max_players":24,"Bots":0,"server_type":"Dedicated","server_os":"Linux","password":true,"vac":true,"version":"7757534","steam_id":85568392924510198,"keywords":["cp","nocrits","nodmgspread","uncletopia"],"game_id":440,"stv_port":27036,"stv_name":"Uncletopia | Los Angeles | 3 | All Maps | STV","players":null},{"server_id":25,"name":"Uncletopia | Los Angeles | 4 | Stopwatch Beta","name_short":"lax-4","host":"lax-1.us.uncletopia.com","port":27045,"enabled":true,"region":"us-west","cc":"us","latitude":33.94279,"longitude":-118.41004,"reserved":0,"last_update":"0001-01-01T00:00:00Z","name_a2s":"Uncletopia | Los Angeles | 4 | Stopwatch Beta","protocol":17,"map":"workshop/koth_product_final.ugc454272353","folder":"tf","game":"Team Fortress","app_id":440,"player_count":0,"max_players":24,"Bots":0,"server_type":"Dedicated","server_os":"Linux","password":true,"vac":true,"version":"7757534","steam_id":85568392924510199,"keywords":["cp","nocrits","nodmgspread","uncletopia"],"game_id":440,"stv_port":27046,"stv_name":"Uncletopia | Los Angeles | 4 | Stopwatch Beta | STV","players":null},{"server_id":11,"name":"Uncletopia | London | 1 | All Maps","name_short":"lon-1","host":"lon-1.uk.uncletopia.com","port":27015,"enabled":true,"region":"eu","cc":"gb","latitude":51.509865,"longitude":-0.118092,"reserved":0,"last_update":"0001-01-01T00:00:00Z","name_a2s":"Uncletopia | London | 1 | All Maps","protocol":17,"map":"koth_lakeside_final","folder":"tf","game":"Team Fortress","app_id":440,"player_count":10,"max_players":24,"Bots":0,"server_type":"Dedicated","server_os":"Linux","password":true,"vac":true,"version":"7757534","steam_id":85568392924367362,"keywords":["cp","nocrits","nodmgspread","uncletopia"],"game_id":440,"stv_port":27016,"stv_name":"Uncletopia | London | 1 | All Maps | STV","players":[{"user_id":823,"name":"ax","steam_id":76561199216923710,"connected_time":932000000000,"state":"active","ping":145},{"user_id":822,"name":"Bod Dog","steam_id":76561198080631634,"connected_time":1001000000000,"state":"active","ping":56},{"user_id":825,"name":"XfarisGamerX","steam_id":76561198367579380,"connected_time":892000000000,"state":"active","ping":126},{"user_id":826,"name":"Frog","steam_id":76561198131977071,"connected_time":733000000000,"state":"active","ping":42},{"user_id":788,"name":"quake","steam_id":76561198046135811,"connected_time":5372000000000,"state":"active","ping":75},{"user_id":817,"name":"Truegr","steam_id":76561198811912339,"connected_time":2374000000000,"state":"active","ping":61},{"user_id":827,"name":"SW[Allow]_Come","steam_id":76561199403761201,"connected_time":580000000000,"state":"active","ping":132},{"user_id":832,"name":"dorak","steam_id":76561198818037965,"connected_time":174000000000,"state":"active","ping":102},{"user_id":833,"name":"OfficialP3","steam_id":76561198060567791,"connected_time":76000000000,"state":"active","ping":70},{"user_id":782,"name":"мало тебя","steam_id":76561198129153029,"connected_time":5567000000000,"state":"active","ping":70}]},{"server_id":114,"name":"Uncletopia | London | 2 | All Maps","name_short":"lon-2","host":"lon-1.uk.uncletopia.com","port":27025,"enabled":true,"region":"eu","cc":"gb","latitude":51.509865,"longitude":-0.118092,"reserved":0,"last_update":"0001-01-01T00:00:00Z","name_a2s":"Uncletopia | London | 2 | All Maps","protocol":17,"map":"pl_upward","folder":"tf","game":"Team Fortress","app_id":440,"player_count":0,"max_players":24,"Bots":0,"server_type":"Dedicated","server_os":"Linux","password":true,"vac":true,"version":"7757534","steam_id":85568392924470941,"keywords":["nocrits","nodmgspread","payload","uncletopia"],"game_id":440,"stv_port":27026,"stv_name":"Uncletopia | London | 2 | All Maps | STV","players":null},{"server_id":320,"name":"Uncletopia | London | 3 | All Maps","name_short":"lon-3","host":"lon-1.uk.uncletopia.com","port":27035,"enabled":true,"region":"eu","cc":"gb","latitude":51.509865,"longitude":-0.118092,"reserved":0,"last_update":"0001-01-01T00:00:00Z","name_a2s":"Uncletopia | London | 3 | All Maps","protocol":17,"map":"koth_cascade","folder":"tf","game":"Team Fortress","app_id":440,"player_count":0,"max_players":24,"Bots":0,"server_type":"Dedicated","server_os":"Linux","password":true,"vac":true,"version":"7757534","steam_id":85568392924510192,"keywords":["cp","nocrits","nodmgspread","uncletopia"],"game_id":440,"stv_port":27036,"stv_name":"Uncletopia | London | 3 | All Maps | STV","players":null},{"server_id":321,"name":"Uncletopia | London | 4 | All Maps","name_short":"lon-4","host":"lon-1.uk.uncletopia.com","port":27045,"enabled":true,"region":"eu","cc":"gb","latitude":51.509865,"longitude":-0.118092,"reserved":0,"last_update":"0001-01-01T00:00:00Z","name_a2s":"Uncletopia | London | 4 | All Maps","protocol":17,"map":"pl_frontier_final","folder":"tf","game":"Team Fortress","app_id":440,"player_count":0,"max_players":24,"Bots":0,"server_type":"Dedicated","server_os":"Linux","password":true,"vac":true,"version":"7757534","steam_id":85568392924510193,"keywords":["nocrits","nodmgspread","payload","uncletopia"],"game_id":440,"stv_port":27046,"stv_name":"Uncletopia | London | 4 | All Maps | STV","players":null},{"server_id":21,"name":"Uncletopia | London | 5 | All Maps","name_short":"lon-5","host":"lon-1.uk.uncletopia.com","port":27055,"enabled":true,"region":"eu","cc":"gb","latitude":51.509865,"longitude":-0.118092,"reserved":0,"last_update":"0001-01-01T00:00:00Z","name_a2s":"Uncletopia | London | 5 | All Maps","protocol":17,"map":"koth_highpass","folder":"tf","game":"Team Fortress","app_id":440,"player_count":0,"max_players":24,"Bots":0,"server_type":"Dedicated","server_os":"Linux","password":true,"vac":true,"version":"7757534","steam_id":85568392924742829,"keywords":["cp","nocrits","nodmgspread","uncletopia"],"game_id":440,"stv_port":27056,"stv_name":"Uncletopia | London | 5 | All Maps | STV","players":null},{"server_id":22,"name":"Uncletopia | London | 6 | All Maps","name_short":"lon-6","host":"lon-1.uk.uncletopia.com","port":27065,"enabled":true,"region":"eu","cc":"gb","latitude":51.509865,"longitude":-0.118092,"reserved":0,"last_update":"0001-01-01T00:00:00Z","name_a2s":"Uncletopia | London | 6 | All Maps","protocol":17,"map":"koth_highpass","folder":"tf","game":"Team Fortress","app_id":440,"player_count":0,"max_players":24,"Bots":0,"server_type":"Dedicated","server_os":"Linux","password":true,"vac":true,"version":"7757534","steam_id":85568392924742830,"keywords":["cp","nocrits","nodmgspread","uncletopia"],"game_id":440,"stv_port":27066,"stv_name":"Uncletopia | London | 6 | All Maps | STV","players":null},{"server_id":40,"name":"Uncletopia | London | 7 | No Payload","name_short":"lon-7","host":"lon-1.uk.uncletopia.com","port":27075,"enabled":true,"region":"eu","cc":"gb","latitude":51.509865,"longitude":-0.118092,"reserved":0,"last_update":"0001-01-01T00:00:00Z","name_a2s":"Uncletopia | London | 7 | No Payload","protocol":17,"map":"cp_vanguard","folder":"tf","game":"Team Fortress","app_id":440,"player_count":0,"max_players":24,"Bots":0,"server_type":"Dedicated","server_os":"Linux","password":true,"vac":true,"version":"7757534","steam_id":85568392924964314,"keywords":["cp","nocrits","nodmgspread","uncletopia"],"game_id":440,"stv_port":27076,"stv_name":"Uncletopia | London | 7 | No Payload | STV","players":null},{"server_id":41,"name":"Uncletopia | London | 8 | Community","name_short":"lon-8","host":"lon-1.uk.uncletopia.com","port":27085,"enabled":true,"region":"eu","cc":"gb","latitude":51.509865,"longitude":-0.118092,"reserved":0,"last_update":"0001-01-01T00:00:00Z","name_a2s":"Uncletopia | London | 8 | Community","protocol":17,"map":"workshop/koth_product_final.ugc454272353","folder":"tf","game":"Team Fortress","app_id":440,"player_count":0,"max_players":24,"Bots":0,"server_type":"Dedicated","server_os":"Linux","password":true,"vac":true,"version":"7757534","steam_id":85568392924964315,"keywords":["cp","nocrits","nodmgspread","uncletopia"],"game_id":440,"stv_port":27086,"stv_name":"Uncletopia | London | 8 | Community | STV","players":null},{"server_id":300,"name":"Uncletopia | Montréal | 1 | All Maps","name_short":"mtl-1","host":"mtl-1.ca.uncletopia.com","port":27015,"enabled":true,"region":"us-east","cc":"ca","latitude":45.50889,"longitude":-73.56167,"reserved":0,"last_update":"0001-01-01T00:00:00Z","name_a2s":"Uncletopia | Montréal | 1 | All Maps","protocol":17,"map":"cp_snakewater_final1","folder":"tf","game":"Team Fortress","app_id":440,"player_count":1,"max_players":24,"Bots":0,"server_type":"Dedicated","server_os":"Linux","password":true,"vac":true,"version":"7757534","steam_id":85568392924500087,"keywords":["cp","nocrits","nodmgspread","uncletopia"],"game_id":440,"stv_port":27016,"stv_name":"Uncletopia | Montréal | 1 | All Maps | STV","players":[{"user_id":508,"name":"NEVER!","steam_id":76561198043199380,"connected_time":9000000000,"state":"spawning","ping":59}]},{"server_id":301,"name":"Uncletopia | Montréal | 2 | All Maps","name_short":"mtl-2","host":"mtl-1.ca.uncletopia.com","port":27025,"enabled":true,"region":"us-east","cc":"ca","latitude":45.50889,"longitude":-73.56167,"reserved":0,"last_update":"0001-01-01T00:00:00Z","name_a2s":"Uncletopia | Montréal | 2 | All Maps","protocol":17,"map":"cp_dustbowl","folder":"tf","game":"Team Fortress","app_id":440,"player_count":0,"max_players":24,"Bots":0,"server_type":"Dedicated","server_os":"Linux","password":true,"vac":true,"version":"7757534","steam_id":85568392924500088,"keywords":["cp","nocrits","nodmgspread","uncletopia"],"game_id":440,"stv_port":27026,"stv_name":"Uncletopia | Montréal | 2 | All Maps | STV","players":null},{"server_id":302,"name":"Uncletopia | Montréal | 3 | All Maps","name_short":"mtl-3","host":"mtl-1.ca.uncletopia.com","port":27035,"enabled":true,"region":"us-east","cc":"ca","latitude":45.50889,"longitude":-73.56167,"reserved":0,"last_update":"0001-01-01T00:00:00Z","name_a2s":"Uncletopia | Montréal | 3 | All Maps","protocol":17,"map":"pl_frontier_final","folder":"tf","game":"Team Fortress","app_id":440,"player_count":14,"max_players":24,"Bots":0,"server_type":"Dedicated","server_os":"Linux","password":true,"vac":true,"version":"7757534","steam_id":85568392924500089,"keywords":["nocrits","nodmgspread","payload","uncletopia"],"game_id":440,"stv_port":27036,"stv_name":"Uncletopia | Montréal | 3 | All Maps | STV","players":[{"user_id":385,"name":"Krellah","steam_id":76561198287045069,"connected_time":48000000000,"state":"active","ping":49},{"user_id":386,"name":"Nickorea","steam_id":76561198025784788,"connected_time":40000000000,"state":"active","ping":49},{"user_id":344,"name":"dddumb510","steam_id":76561198030793492,"connected_time":4005000000000,"state":"active","ping":139},{"user_id":381,"name":"Mall","steam_id":76561198436085386,"connected_time":472000000000,"state":"active","ping":108},{"user_id":340,"name":"(TTV) The_Astrum_Guardian","steam_id":76561198130134103,"connected_time":4077000000000,"state":"active","ping":57},{"user_id":387,"name":"matkaster","steam_id":76561197998546486,"connected_time":32000000000,"state":"active","ping":72},{"user_id":388,"name":"Part-Time Pybro","steam_id":76561198079508595,"connected_time":23000000000,"state":"active","ping":132},{"user_id":345,"name":"Nicejoshua48","steam_id":76561198068277321,"connected_time":4002000000000,"state":"active","ping":81},{"user_id":361,"name":"alpharuby","steam_id":76561198051638462,"connected_time":2681000000000,"state":"active","ping":112},{"user_id":216,"name":"_hooded_","steam_id":76561198023595873,"connected_time":12811000000000,"state":"active","ping":71},{"user_id":374,"name":"papa guacamole","steam_id":76561198167665608,"connected_time":1209000000000,"state":"active","ping":57},{"user_id":303,"name":"deadpixel","steam_id":76561198150249843,"connected_time":7503000000000,"state":"active","ping":61},{"user_id":352,"name":"uhooter","steam_id":76561198007829078,"connected_time":3751000000000,"state":"active","ping":44},{"user_id":304,"name":"Phil Collins","steam_id":76561198068868644,"connected_time":7488000000000,"state":"active","ping":125}]},{"server_id":303,"name":"Uncletopia | Montréal | 4 | No Payload","name_short":"mtl-4","host":"mtl-1.ca.uncletopia.com","port":27045,"enabled":true,"region":"us-east","cc":"ca","latitude":45.50889,"longitude":-73.56167,"reserved":0,"last_update":"0001-01-01T00:00:00Z","name_a2s":"Uncletopia | Montréal | 4 | No Payload","protocol":17,"map":"pl_pier","folder":"tf","game":"Team Fortress","app_id":440,"player_count":0,"max_players":24,"Bots":0,"server_type":"Dedicated","server_os":"Linux","password":true,"vac":true,"version":"7757534","steam_id":85568392924500090,"keywords":["nocrits","nodmgspread","payload","uncletopia"],"game_id":440,"stv_port":27046,"stv_name":"Uncletopia | Montréal | 4 | No Payload | STV","players":null},{"server_id":13,"name":"Uncletopia | New York City | 1 | All Maps","name_short":"nyc-1","host":"nyc-1.us.uncletopia.com","port":27015,"enabled":true,"region":"us-east","cc":"us","latitude":40.73061,"longitude":-73.93524,"reserved":0,"last_update":"0001-01-01T00:00:00Z","name_a2s":"Uncletopia | New York City | 1 | All Maps","protocol":17,"map":"cp_dustbowl","folder":"tf","game":"Team Fortress","app_id":440,"player_count":25,"max_players":24,"Bots":0,"server_type":"Dedicated","server_os":"Linux","password":true,"vac":true,"version":"7757534","steam_id":85568392924469993,"keywords":["cp","nocrits","nodmgspread","uncletopia"],"game_id":440,"stv_port":27016,"stv_name":"Uncletopia | New York City | 1 | All Maps | STV","players":[{"user_id":435,"name":"✬ Nandoca ✬","steam_id":76561198943802545,"connected_time":318000000000,"state":"active","ping":172},{"user_id":432,"name":"|AG| Level","steam_id":76561198063633592,"connected_time":518000000000,"state":"active","ping":68},{"user_id":418,"name":"random g6 habib event","steam_id":76561198201259645,"connected_time":1783000000000,"state":"active","ping":60},{"user_id":430,"name":"DSM-IVCE","steam_id":76561199438515797,"connected_time":731000000000,"state":"active","ping":124},{"user_id":390,"name":"Uncle Majic the Hip Hop Magicia","steam_id":76561198107924303,"connected_time":2752000000000,"state":"active","ping":39},{"user_id":375,"name":"SpidercaxeZeGamer","steam_id":76561199189075618,"connected_time":4200000000000,"state":"active","ping":90},{"user_id":391,"name":"Gandalf Gaming","steam_id":76561198368151490,"connected_time":2730000000000,"state":"active","ping":44},{"user_id":422,"name":"BasicPeaches","steam_id":76561198190890150,"connected_time":1584000000000,"state":"active","ping":63},{"user_id":433,"name":"OpossumStyle","steam_id":76561199230107171,"connected_time":518000000000,"state":"active","ping":88},{"user_id":412,"name":"The Drunk Clown","steam_id":76561197986850426,"connected_time":2023000000000,"state":"active","ping":74},{"user_id":413,"name":"kitten","steam_id":76561198094801861,"connected_time":2013000000000,"state":"active","ping":87},{"user_id":437,"name":"U of SC Office of Financial Aid","steam_id":76561198182294378,"connected_time":19000000000,"state":"spawning","ping":119},{"user_id":399,"name":"Error 4 Oh Four","steam_id":76561198121637567,"connected_time":2201000000000,"state":"active","ping":75},{"user_id":414,"name":"ow#n","steam_id":76561198048969516,"connected_time":2008000000000,"state":"active","ping":82},{"user_id":402,"name":"Professor Shaggy","steam_id":76561198276926724,"connected_time":2096000000000,"state":"active","ping":55},{"user_id":436,"name":"dhgheadshots56","steam_id":76561198451192031,"connected_time":163000000000,"state":"active","ping":104},{"user_id":434,"name":"Chicken Joe","steam_id":76561198278185182,"connected_time":488000000000,"state":"active","ping":56},{"user_id":405,"name":"reanimator","steam_id":76561198085830470,"connected_time":2088000000000,"state":"active","ping":50},{"user_id":343,"name":"X_Sniper7","steam_id":76561198081097640,"connected_time":6435000000000,"state":"active","ping":73},{"user_id":406,"name":"Plague Doctor","steam_id":76561198898152709,"connected_time":2083000000000,"state":"active","ping":99},{"user_id":423,"name":"FUSION","steam_id":76561197972659738,"connected_time":1481000000000,"state":"active","ping":35},{"user_id":428,"name":"Team Fartpiss Poo","steam_id":76561199163591880,"connected_time":1063000000000,"state":"active","ping":102},{"user_id":431,"name":"『YARE』","steam_id":76561198158421145,"connected_time":682000000000,"state":"active","ping":79},{"user_id":417,"name":"A Shiny Meat Bicycle","steam_id":76561198358757709,"connected_time":1949000000000,"state":"active","ping":90},{"user_id":438,"name":"Matt_311","steam_id":76561198117967722,"connected_time":4000000000,"state":"spawning","ping":70}]},{"server_id":14,"name":"Uncletopia | New York City | 2 | All Maps","name_short":"nyc-2","host":"nyc-1.us.uncletopia.com","port":27025,"enabled":true,"region":"us-east","cc":"us","latitude":40.73061,"longitude":-73.93524,"reserved":0,"last_update":"0001-01-01T00:00:00Z","name_a2s":"Uncletopia | New York City | 2 | All Maps","protocol":17,"map":"cp_dustbowl","folder":"tf","game":"Team Fortress","app_id":440,"player_count":22,"max_players":24,"Bots":0,"server_type":"Dedicated","server_os":"Linux","password":true,"vac":true,"version":"7757534","steam_id":85568392924469994,"keywords":["cp","nocrits","nodmgspread","uncletopia"],"game_id":440,"stv_port":27026,"stv_name":"Uncletopia | New York City | 2 | All Maps | STV","players":[{"user_id":280,"name":"Big G","steam_id":76561198067496197,"connected_time":1365000000000,"state":"active","ping":45},{"user_id":68,"name":"Analogy != Definition","steam_id":76561197999657118,"connected_time":14371000000000,"state":"active","ping":90},{"user_id":239,"name":"Speedy","steam_id":76561198080761661,"connected_time":3462000000000,"state":"active","ping":63},{"user_id":286,"name":"McLovin","steam_id":76561198044778715,"connected_time":1165000000000,"state":"active","ping":63},{"user_id":287,"name":"5Rivers`","steam_id":76561197967432094,"connected_time":1112000000000,"state":"active","ping":55},{"user_id":293,"name":"DPC | JigglyBuff","steam_id":76561198168330697,"connected_time":856000000000,"state":"active","ping":48},{"user_id":276,"name":"f28c28","steam_id":76561197962607364,"connected_time":1645000000000,"state":"active","ping":61},{"user_id":244,"name":"Nice21","steam_id":76561199427548141,"connected_time":3183000000000,"state":"active","ping":72},{"user_id":289,"name":"El Viejo Paulino","steam_id":76561198211944169,"connected_time":1056000000000,"state":"active","ping":128},{"user_id":291,"name":"Nerdin4Life","steam_id":76561198138417387,"connected_time":879000000000,"state":"active","ping":118},{"user_id":224,"name":"Kohaku","steam_id":76561198358814557,"connected_time":4046000000000,"state":"active","ping":64},{"user_id":294,"name":"Bobbn","steam_id":76561198876124683,"connected_time":851000000000,"state":"active","ping":78},{"user_id":260,"name":"PandaStick","steam_id":76561198005613207,"connected_time":2241000000000,"state":"active","ping":91},{"user_id":295,"name":"hwh8","steam_id":76561198150982973,"connected_time":850000000000,"state":"active","ping":87},{"user_id":261,"name":"Kthulu Mike","steam_id":76561198014026963,"connected_time":2235000000000,"state":"active","ping":99},{"user_id":262,"name":"𝕊𝕠𝕦𝕡🥣GOᗪ","steam_id":76561198015230837,"connected_time":2226000000000,"state":"active","ping":93},{"user_id":227,"name":"QueenPinharam","steam_id":76561199015626409,"connected_time":4024000000000,"state":"active","ping":90},{"user_id":241,"name":"Van","steam_id":76561198073518712,"connected_time":3414000000000,"state":"active","ping":46},{"user_id":299,"name":"weedcat","steam_id":76561198346054736,"connected_time":277000000000,"state":"active","ping":87},{"user_id":296,"name":"p i n e ↟ ↟","steam_id":76561198058199952,"connected_time":778000000000,"state":"active","ping":52},{"user_id":297,"name":"LAGGING FRIEND","steam_id":76561198046870291,"connected_time":772000000000,"state":"active","ping":74},{"user_id":298,"name":"chrisd149","steam_id":76561198018710480,"connected_time":725000000000,"state":"active","ping":92}]},{"server_id":15,"name":"Uncletopia | New York City | 3 | Stopwatch Beta","name_short":"nyc-3","host":"nyc-1.us.uncletopia.com","port":27035,"enabled":true,"region":"us-east","cc":"us","latitude":40.73061,"longitude":-73.93524,"reserved":0,"last_update":"0001-01-01T00:00:00Z","name_a2s":"Uncletopia | New York City | 3 | Stopwatch Beta","protocol":17,"map":"workshop/pl_barnblitz_pro7.ugc582280235","folder":"tf","game":"Team Fortress","app_id":440,"player_count":0,"max_players":24,"Bots":0,"server_type":"Dedicated","server_os":"Linux","password":true,"vac":true,"version":"7757534","steam_id":85568392924742820,"keywords":["nocrits","nodmgspread","payload","uncletopia"],"game_id":440,"stv_port":27036,"stv_name":"Uncletopia | New York City | 3 | Stopwatch Beta | STV","players":null},{"server_id":16,"name":"Uncletopia | New York City | 4 | Community","name_short":"nyc-4","host":"nyc-1.us.uncletopia.com","port":27045,"enabled":true,"region":"us-east","cc":"us","latitude":40.73061,"longitude":-73.93524,"reserved":0,"last_update":"0001-01-01T00:00:00Z","name_a2s":"Uncletopia | New York City | 4 | Community","protocol":17,"map":"workshop/koth_ramjam_rc1.ugc459778887","folder":"tf","game":"Team Fortress","app_id":440,"player_count":0,"max_players":24,"Bots":0,"server_type":"Dedicated","server_os":"Linux","password":true,"vac":true,"version":"7757534","steam_id":85568392924742821,"keywords":["cp","nocrits","nodmgspread","uncletopia"],"game_id":440,"stv_port":27046,"stv_name":"Uncletopia | New York City | 4 | Community | STV","players":null},{"server_id":142,"name":"Uncletopia | São Paulo | 1 | All Maps","name_short":"sao-1","host":"sao-1.br.uncletopia.com","port":27015,"enabled":true,"region":"sa","cc":"br","latitude":-23.533773,"longitude":-46.62529,"reserved":0,"last_update":"0001-01-01T00:00:00Z","name_a2s":"Uncletopia | São Paulo | 1 | All Maps","protocol":17,"map":"koth_lakeside_final","folder":"tf","game":"Team Fortress","app_id":440,"player_count":0,"max_players":24,"Bots":0,"server_type":"Dedicated","server_os":"Linux","password":true,"vac":true,"version":"7757534","steam_id":85568392924469996,"keywords":["cp","nocrits","nodmgspread","uncletopia"],"game_id":440,"stv_port":27016,"stv_name":"Uncletopia | São Paulo | 1 | All Maps | STV","players":null},{"server_id":143,"name":"Uncletopia | São Paulo | 2 | All Maps","name_short":"sao-2","host":"sao-2.br.uncletopia.com","port":27015,"enabled":true,"region":"sa","cc":"br","latitude":-23.533773,"longitude":-46.62529,"reserved":0,"last_update":"0001-01-01T00:00:00Z","name_a2s":"Uncletopia | São Paulo | 2 | All Maps","protocol":17,"map":"koth_highpass","folder":"tf","game":"Team Fortress","app_id":440,"player_count":0,"max_players":24,"Bots":0,"server_type":"Dedicated","server_os":"Linux","password":true,"vac":true,"version":"7757534","steam_id":85568392924485349,"keywords":["cp","nocrits","nodmgspread","uncletopia"],"game_id":440,"stv_port":27016,"stv_name":"Uncletopia | São Paulo | 2 | All Maps | STV","players":null},{"server_id":7,"name":"Uncletopia | Seattle | 1 | All Maps","name_short":"sea-1","host":"sea-1.us.uncletopia.com","port":27015,"enabled":true,"region":"us-west","cc":"us","latitude":47.608013,"longitude":-122.33517,"reserved":0,"last_update":"0001-01-01T00:00:00Z","name_a2s":"Uncletopia | Seattle | 1 | All Maps","protocol":17,"map":"pl_badwater","folder":"tf","game":"Team Fortress","app_id":440,"player_count":24,"max_players":24,"Bots":0,"server_type":"Dedicated","server_os":"Linux","password":true,"vac":true,"version":"7757534","steam_id":85568392924469997,"keywords":["nocrits","nodmgspread","payload","uncletopia"],"game_id":440,"stv_port":27016,"stv_name":"Uncletopia | Seattle | 1 | All Maps | STV","players":[{"user_id":1092,"name":"o o o o o o o o o","steam_id":76561197993757506,"connected_time":2211000000000,"state":"active","ping":69},{"user_id":1075,"name":"tekan","steam_id":76561199077174231,"connected_time":2735000000000,"state":"active","ping":101},{"user_id":1120,"name":"Sam","steam_id":76561198207568264,"connected_time":282000000000,"state":"active","ping":121},{"user_id":682,"name":"Tom Skirrett","steam_id":76561198014600788,"connected_time":4300000000000,"state":"active","ping":68},{"user_id":1011,"name":"Harry","steam_id":76561199130035197,"connected_time":3314000000000,"state":"active","ping":56},{"user_id":653,"name":"mub","steam_id":76561197961943948,"connected_time":6761000000000,"state":"active","ping":45},{"user_id":680,"name":"TROY","steam_id":76561197983852176,"connected_time":4431000000000,"state":"active","ping":80},{"user_id":1094,"name":"mooney","steam_id":76561199110622484,"connected_time":1936000000000,"state":"active","ping":70},{"user_id":641,"name":"snowycoast247","steam_id":76561198801612899,"connected_time":7438000000000,"state":"active","ping":54},{"user_id":1097,"name":"town.midi","steam_id":76561198059041027,"connected_time":1571000000000,"state":"active","ping":67},{"user_id":1118,"name":"kodynotcody","steam_id":76561198340685758,"connected_time":324000000000,"state":"active","ping":58},{"user_id":674,"name":"jungus","steam_id":76561198129862008,"connected_time":4714000000000,"state":"active","ping":76},{"user_id":1112,"name":"A RudeRubyRube","steam_id":76561198073288744,"connected_time":1186000000000,"state":"active","ping":135},{"user_id":677,"name":"Mignyanne :3","steam_id":76561198048754056,"connected_time":4704000000000,"state":"active","ping":66},{"user_id":1088,"name":"General Fisticuffs","steam_id":76561198255721392,"connected_time":2484000000000,"state":"active","ping":115},{"user_id":1093,"name":"beam dreamer","steam_id":76561198131166135,"connected_time":1988000000000,"state":"active","ping":44},{"user_id":1121,"name":"Bubbamanme","steam_id":76561198119778504,"connected_time":137000000000,"state":"active","ping":55},{"user_id":1119,"name":"Klone","steam_id":76561198854485605,"connected_time":312000000000,"state":"active","ping":125},{"user_id":1124,"name":"Combustionaut","steam_id":76561198164877813,"connected_time":47000000000,"state":"active","ping":51},{"user_id":1123,"name":"exephur","steam_id":76561198135763234,"connected_time":68000000000,"state":"active","ping":73},{"user_id":1117,"name":"TheCowledWiz","steam_id":76561198016735868,"connected_time":929000000000,"state":"active","ping":52},{"user_id":664,"name":"Pesky Bee","steam_id":76561198042679485,"connected_time":5775000000000,"state":"active","ping":71},{"user_id":1107,"name":"Cresty","steam_id":76561199118643461,"connected_time":1366000000000,"state":"active","ping":72},{"user_id":1115,"name":"nuh uh","steam_id":76561198984612489,"connected_time":1134000000000,"state":"active","ping":90}]},{"server_id":119,"name":"Uncletopia | Seattle | 2 | All Maps","name_short":"sea-2","host":"sea-1.us.uncletopia.com","port":27025,"enabled":true,"region":"us-west","cc":"us","latitude":47.608013,"longitude":-122.33517,"reserved":0,"last_update":"0001-01-01T00:00:00Z","name_a2s":"Uncletopia | Seattle | 2 | All Maps","protocol":17,"map":"pl_snowycoast","folder":"tf","game":"Team Fortress","app_id":440,"player_count":24,"max_players":24,"Bots":0,"server_type":"Dedicated","server_os":"Linux","password":true,"vac":true,"version":"7757534","steam_id":85568392924469998,"keywords":["nocrits","nodmgspread","payload","uncletopia"],"game_id":440,"stv_port":27026,"stv_name":"Uncletopia | Seattle | 2 | All Maps | STV","players":[{"user_id":626,"name":"Tyler, the Creator","steam_id":76561198149919360,"connected_time":622000000000,"state":"active","ping":77},{"user_id":608,"name":"Admiral Crumbs","steam_id":76561198108791583,"connected_time":2175000000000,"state":"active","ping":54},{"user_id":578,"name":"arachnakat","steam_id":76561198986095433,"connected_time":3606000000000,"state":"active","ping":105},{"user_id":597,"name":"lili.winters","steam_id":76561199391478575,"connected_time":2591000000000,"state":"active","ping":80},{"user_id":583,"name":"Mr8bittripper","steam_id":76561198133894229,"connected_time":3557000000000,"state":"active","ping":62},{"user_id":610,"name":"eldin","steam_id":76561198292352586,"connected_time":1996000000000,"state":"active","ping":55},{"user_id":627,"name":"Jshoe","steam_id":76561198128252048,"connected_time":591000000000,"state":"active","ping":82},{"user_id":624,"name":"早上好CHINA#1WARRIOR冰淇\ufffd\ufffd","steam_id":76561198964722163,"connected_time":788000000000,"state":"active","ping":57},{"user_id":620,"name":"Algibruh","steam_id":76561199221599415,"connected_time":1589000000000,"state":"active","ping":46},{"user_id":604,"name":"Ompaloompa","steam_id":76561199022594810,"connected_time":2296000000000,"state":"active","ping":63},{"user_id":603,"name":"raggy","steam_id":76561198121767390,"connected_time":2339000000000,"state":"active","ping":112},{"user_id":579,"name":"Blitzy","steam_id":76561198149472890,"connected_time":3582000000000,"state":"active","ping":66},{"user_id":611,"name":"D0VE","steam_id":76561198151618566,"connected_time":1990000000000,"state":"active","ping":53},{"user_id":580,"name":"ratie","steam_id":76561198059399661,"connected_time":3577000000000,"state":"active","ping":89},{"user_id":588,"name":"Hawksgamer","steam_id":76561198152405941,"connected_time":3291000000000,"state":"active","ping":60},{"user_id":622,"name":"Killer_Bite_","steam_id":76561198153259922,"connected_time":1226000000000,"state":"active","ping":72},{"user_id":595,"name":"Path To Victory","steam_id":76561198026958898,"connected_time":2718000000000,"state":"active","ping":121},{"user_id":625,"name":"forg","steam_id":76561199475739960,"connected_time":752000000000,"state":"active","ping":49},{"user_id":584,"name":"Shazzy","steam_id":76561198145460523,"connected_time":3552000000000,"state":"active","ping":44},{"user_id":619,"name":"Bandit","steam_id":76561198328421159,"connected_time":1779000000000,"state":"active","ping":117},{"user_id":609,"name":"Crazy Hungarian","steam_id":76561198025498172,"connected_time":2156000000000,"state":"active","ping":52},{"user_id":628,"name":"shy guy","steam_id":76561198151246059,"connected_time":140000000000,"state":"active","ping":56},{"user_id":598,"name":"sora","steam_id":76561198094256973,"connected_time":2584000000000,"state":"active","ping":68},{"user_id":623,"name":"i pee naked","steam_id":76561198984374561,"connected_time":1113000000000,"state":"active","ping":63}]},{"server_id":406,"name":"Uncletopia | Seattle | 3 | Stopwatch Beta","name_short":"sea-3","host":"sea-1.us.uncletopia.com","port":27035,"enabled":true,"region":"us-west","cc":"us","latitude":47.608013,"longitude":-122.33517,"reserved":0,"last_update":"0001-01-01T00:00:00Z","name_a2s":"Uncletopia | Seattle | 3 | Stopwatch Beta","protocol":17,"map":"workshop/koth_ashville_final.ugc2130459942","folder":"tf","game":"Team Fortress","app_id":440,"player_count":0,"max_players":24,"Bots":0,"server_type":"Dedicated","server_os":"Linux","password":true,"vac":true,"version":"7757534","steam_id":85568392924515217,"keywords":["cp","nocrits","nodmgspread","uncletopia"],"game_id":440,"stv_port":27036,"stv_name":"Uncletopia | Seattle | 3 | Stopwatch Beta | STV","players":null},{"server_id":17,"name":"Uncletopia | San Francisco | 1 | All Maps","name_short":"sfo-1","host":"sfo-1.us.uncletopia.com","port":27015,"enabled":true,"region":"us-west","cc":"us","latitude":37.77397,"longitude":-122.4313,"reserved":0,"last_update":"0001-01-01T00:00:00Z","name_a2s":"Uncletopia | San Francisco | 1 | All Maps","protocol":17,"map":"koth_viaduct","folder":"tf","game":"Team Fortress","app_id":440,"player_count":24,"max_players":24,"Bots":0,"server_type":"Dedicated","server_os":"Linux","password":true,"vac":true,"version":"7757534","steam_id":85568392924469999,"keywords":["cp","nocrits","nodmgspread","uncletopia"],"game_id":440,"stv_port":27016,"stv_name":"Uncletopia | San Francisco | 1 | All Maps | STV","players":[{"user_id":505,"name":"A Glazed Donut","steam_id":76561198297536267,"connected_time":468000000000,"state":"active","ping":57},{"user_id":506,"name":"Box","steam_id":76561198880013848,"connected_time":460000000000,"state":"active","ping":59},{"user_id":499,"name":"fiend","steam_id":76561198122159645,"connected_time":1242000000000,"state":"active","ping":62},{"user_id":502,"name":"Shy'dynasty","steam_id":76561197982458516,"connected_time":926000000000,"state":"active","ping":79},{"user_id":504,"name":"berserker_tf2 yt","steam_id":76561198303464488,"connected_time":481000000000,"state":"active","ping":64},{"user_id":500,"name":"Amateur Glaswegian","steam_id":76561198030851956,"connected_time":1241000000000,"state":"active","ping":73},{"user_id":457,"name":"Gallimaufry@buglan23","steam_id":76561198072515851,"connected_time":4136000000000,"state":"active","ping":61},{"user_id":469,"name":"Shamrock Shake Oct.10.2020 @8pm","steam_id":76561198833313201,"connected_time":3843000000000,"state":"active","ping":61},{"user_id":507,"name":"Heavy","steam_id":76561198437794740,"connected_time":401000000000,"state":"active","ping":174},{"user_id":409,"name":"Candy-Man","steam_id":76561198051702098,"connected_time":7150000000000,"state":"active","ping":66},{"user_id":475,"name":"Nahvee","steam_id":76561198119759695,"connected_time":3143000000000,"state":"active","ping":72},{"user_id":512,"name":"nicolai","steam_id":76561198030654668,"connected_time":158000000000,"state":"spawning","ping":69},{"user_id":477,"name":"R5-D4","steam_id":76561198025196439,"connected_time":2819000000000,"state":"active","ping":76},{"user_id":398,"name":"ZeFizzyPop™","steam_id":76561198258104981,"connected_time":7737000000000,"state":"active","ping":90},{"user_id":426,"name":"shawarma.lord007","steam_id":76561198115458307,"connected_time":5838000000000,"state":"active","ping":56},{"user_id":375,"name":"Resh420","steam_id":76561198066619792,"connected_time":8433000000000,"state":"active","ping":75},{"user_id":498,"name":"Stupid Horse","steam_id":76561198120866763,"connected_time":1274000000000,"state":"active","ping":116},{"user_id":491,"name":"Nuk3","steam_id":76561198798608026,"connected_time":2082000000000,"state":"active","ping":56},{"user_id":462,"name":"years","steam_id":76561197994098627,"connected_time":4049000000000,"state":"active","ping":72},{"user_id":508,"name":"FREE PALESTINE","steam_id":76561197990511314,"connected_time":384000000000,"state":"active","ping":52},{"user_id":509,"name":"Lilmaggedon","steam_id":76561198072393166,"connected_time":351000000000,"state":"active","ping":105},{"user_id":510,"name":"Jayne","steam_id":76561198043934448,"connected_time":298000000000,"state":"active","ping":60},{"user_id":513,"name":"flycargodash1010","steam_id":76561199456589841,"connected_time":135000000000,"state":"active","ping":74},{"user_id":464,"name":"Big Sloppy","steam_id":76561198431729750,"connected_time":4027000000000,"state":"active","ping":79}]},{"server_id":18,"name":"Uncletopia | San Francisco | 2 | All Maps","name_short":"sfo-2","host":"sfo-1.us.uncletopia.com","port":27025,"enabled":true,"region":"us-west","cc":"us","latitude":37.77397,"longitude":-122.4313,"reserved":0,"last_update":"0001-01-01T00:00:00Z","name_a2s":"Uncletopia | San Francisco | 2 | All Maps","protocol":17,"map":"koth_viaduct","folder":"tf","game":"Team Fortress","app_id":440,"player_count":0,"max_players":24,"Bots":0,"server_type":"Dedicated","server_os":"Linux","password":true,"vac":true,"version":"7757534","steam_id":85568392924470000,"keywords":["cp","nocrits","nodmgspread","uncletopia"],"game_id":440,"stv_port":27026,"stv_name":"Uncletopia | San Francisco | 2 | All Maps | STV","players":null},{"server_id":19,"name":"Uncletopia | San Francisco | 3 | Stopwatch Beta","name_short":"sfo-3","host":"sfo-1.us.uncletopia.com","port":27035,"enabled":true,"region":"us-west","cc":"us","latitude":37.77397,"longitude":-122.4313,"reserved":0,"last_update":"0001-01-01T00:00:00Z","name_a2s":"Uncletopia | San Francisco | 3 | Stopwatch Beta","protocol":17,"map":"koth_lakeside_final","folder":"tf","game":"Team Fortress","app_id":440,"player_count":0,"max_players":24,"Bots":0,"server_type":"Dedicated","server_os":"Linux","password":true,"vac":true,"version":"7757534","steam_id":85568392924742824,"keywords":["cp","nocrits","nodmgspread","uncletopia"],"game_id":440,"stv_port":27036,"stv_name":"Uncletopia | San Francisco | 3 | Stopwatch Beta | STV","players":null},{"server_id":20,"name":"Uncletopia | San Francisco | 4 | Community","name_short":"sfo-4","host":"sfo-1.us.uncletopia.com","port":27045,"enabled":true,"region":"us-west","cc":"us","latitude":37.77397,"longitude":-122.4313,"reserved":0,"last_update":"0001-01-01T00:00:00Z","name_a2s":"Uncletopia | San Francisco | 4 | Community","protocol":17,"map":"workshop/pl_badwater_pro_v12.ugc2142942074","folder":"tf","game":"Team Fortress","app_id":440,"player_count":25,"max_players":24,"Bots":0,"server_type":"Dedicated","server_os":"Linux","password":true,"vac":true,"version":"7757534","steam_id":85568392924742826,"keywords":["nocrits","nodmgspread","payload","uncletopia"],"game_id":440,"stv_port":27046,"stv_name":"Uncletopia | San Francisco | 4 | Community | STV","players":[{"user_id":120,"name":"Deacon","steam_id":76561197998532724,"connected_time":1663000000000,"state":"active","ping":77},{"user_id":135,"name":"Brando","steam_id":76561198078306678,"connected_time":1216000000000,"state":"active","ping":70},{"user_id":139,"name":"24dustin1","steam_id":76561198059506390,"connected_time":838000000000,"state":"active","ping":70},{"user_id":140,"name":"MasterGoop","steam_id":76561198285594777,"connected_time":829000000000,"state":"active","ping":70},{"user_id":128,"name":"alex033","steam_id":76561198063627683,"connected_time":1305000000000,"state":"active","ping":118},{"user_id":138,"name":"A UsedNom","steam_id":76561198402832756,"connected_time":1024000000000,"state":"active","ping":44},{"user_id":81,"name":"Communist Killing Candy Cactus\ufffd","steam_id":76561198074980635,"connected_time":3778000000000,"state":"active","ping":84},{"user_id":106,"name":"shady","steam_id":76561198058098509,"connected_time":2809000000000,"state":"active","ping":75},{"user_id":125,"name":"Dauntless Duelist","steam_id":76561198025056018,"connected_time":1418000000000,"state":"active","ping":63},{"user_id":126,"name":"13OO13IES_HEHE","steam_id":76561199323636718,"connected_time":1392000000000,"state":"active","ping":177},{"user_id":127,"name":"some random europeon","steam_id":76561198913057497,"connected_time":1327000000000,"state":"active","ping":108},{"user_id":141,"name":"Groys mlkhmh","steam_id":76561199008953886,"connected_time":809000000000,"state":"active","ping":125},{"user_id":114,"name":"Superman123389","steam_id":76561198267472539,"connected_time":2391000000000,"state":"active","ping":96},{"user_id":130,"name":"Unbind E","steam_id":76561199163159040,"connected_time":1291000000000,"state":"active","ping":113},{"user_id":142,"name":"asaron","steam_id":76561198027341670,"connected_time":798000000000,"state":"active","ping":62},{"user_id":85,"name":"jj874181","steam_id":76561199455124144,"connected_time":3547000000000,"state":"active","ping":352},{"user_id":143,"name":"Limendime","steam_id":76561198276011722,"connected_time":773000000000,"state":"active","ping":56},{"user_id":132,"name":"Andres026","steam_id":76561198067322740,"connected_time":1262000000000,"state":"active","ping":111},{"user_id":144,"name":"Diego Sandals","steam_id":76561198854221260,"connected_time":766000000000,"state":"active","ping":104},{"user_id":136,"name":"KillerBruhStar","steam_id":76561198401858258,"connected_time":1211000000000,"state":"active","ping":80},{"user_id":146,"name":"Double Tapp","steam_id":76561197993847700,"connected_time":728000000000,"state":"active","ping":77},{"user_id":147,"name":"Sam","steam_id":76561198033407837,"connected_time":614000000000,"state":"active","ping":57},{"user_id":151,"name":"Pookz","steam_id":76561198043996573,"connected_time":5000000000,"state":"spawning","ping":161},{"user_id":77,"name":"Kiwimpediment","steam_id":76561198322781400,"connected_time":4026000000000,"state":"active","ping":131},{"user_id":119,"name":"Leftshadows","steam_id":76561199089515791,"connected_time":1868000000000,"state":"active","ping":67}]},{"server_id":141,"name":"Uncletopia | Sydney | 1 | All Maps","name_short":"syd-1","host":"syd-1.au.uncletopia.com","port":27015,"enabled":true,"region":"au","cc":"au","latitude":-33.865143,"longitude":151.2099,"reserved":0,"last_update":"0001-01-01T00:00:00Z","name_a2s":"Uncletopia | Sydney | 1 | All Maps","protocol":17,"map":"koth_viaduct","folder":"tf","game":"Team Fortress","app_id":440,"player_count":0,"max_players":24,"Bots":0,"server_type":"Dedicated","server_os":"Linux","password":true,"vac":true,"version":"7757534","steam_id":85568392924470001,"keywords":["cp","nocrits","nodmgspread","uncletopia"],"game_id":440,"stv_port":27016,"stv_name":"Uncletopia | Sydney | 1 | All Maps | STV","players":null},{"server_id":123,"name":"Uncletopia | Sydney | 2 | All Maps","name_short":"syd-2","host":"syd-1.au.uncletopia.com","port":27025,"enabled":true,"region":"au","cc":"au","latitude":-33.865143,"longitude":151.2099,"reserved":0,"last_update":"0001-01-01T00:00:00Z","name_a2s":"Uncletopia | Sydney | 2 | All Maps","protocol":17,"map":"pl_swiftwater_final1","folder":"tf","game":"Team Fortress","app_id":440,"player_count":0,"max_players":24,"Bots":0,"server_type":"Dedicated","server_os":"Linux","password":true,"vac":true,"version":"7757534","steam_id":85568392924470002,"keywords":["nocrits","nodmgspread","payload","uncletopia"],"game_id":440,"stv_port":27026,"stv_name":"Uncletopia | Sydney | 2 | All Maps | STV","players":null},{"server_id":395,"name":"Uncletopia | Sydney | 3 | All Maps","name_short":"syd-3","host":"syd-1.au.uncletopia.com","port":27035,"enabled":true,"region":"au","cc":"au","latitude":-33.865143,"longitude":151.2099,"reserved":0,"last_update":"0001-01-01T00:00:00Z","name_a2s":"Uncletopia | Sydney | 3 | All Maps","protocol":17,"map":"koth_highpass","folder":"tf","game":"Team Fortress","app_id":440,"player_count":2,"max_players":24,"Bots":0,"server_type":"Dedicated","server_os":"Linux","password":true,"vac":true,"version":"7757534","steam_id":85568392925194467,"keywords":["cp","nocrits","nodmgspread","uncletopia"],"game_id":440,"stv_port":27036,"stv_name":"Uncletopia | Sydney | 3 | All Maps | STV","players":[{"user_id":46,"name":"DIY Miracle","steam_id":76561198046228152,"connected_time":45000000000,"state":"active","ping":53},{"user_id":44,"name":"TheTophatterOfTophats","steam_id":76561199142504761,"connected_time":864000000000,"state":"active","ping":32}]},{"server_id":396,"name":"Uncletopia | Sydney | 4 | All Maps","name_short":"syd-4","host":"syd-1.au.uncletopia.com","port":27045,"enabled":true,"region":"au","cc":"au","latitude":-33.865143,"longitude":151.2099,"reserved":0,"last_update":"0001-01-01T00:00:00Z","name_a2s":"Uncletopia | Sydney | 4 | All Maps","protocol":17,"map":"cp_snakewater_final1","folder":"tf","game":"Team Fortress","app_id":440,"player_count":0,"max_players":24,"Bots":0,"server_type":"Dedicated","server_os":"Linux","password":true,"vac":true,"version":"7757534","steam_id":85568392925397958,"keywords":["cp","nocrits","nodmgspread","uncletopia"],"game_id":440,"stv_port":27046,"stv_name":"Uncletopia | Sydney | 4 | All Maps | STV","players":null},{"server_id":58,"name":"Uncletopia | Sydney | 5 | Stopwatch Beta","name_short":"syd-5","host":"syd-1.au.uncletopia.com","port":27055,"enabled":true,"region":"au","cc":"au","latitude":-33.865143,"longitude":151.2099,"reserved":0,"last_update":"0001-01-01T00:00:00Z","name_a2s":"Uncletopia | Sydney | 5 | Stopwatch Beta","protocol":17,"map":"cp_gullywash_final1","folder":"tf","game":"Team Fortress","app_id":440,"player_count":0,"max_players":24,"Bots":0,"server_type":"Dedicated","server_os":"Linux","password":true,"vac":true,"version":"7757534","steam_id":85568392925397959,"keywords":["cp","nocrits","nodmgspread","uncletopia"],"game_id":440,"stv_port":27056,"stv_name":"Uncletopia | Sydney | 5 | Stopwatch Beta | STV","players":null},{"server_id":59,"name":"Uncletopia | Sydney | 6 | Community","name_short":"syd-6","host":"syd-1.au.uncletopia.com","port":27065,"enabled":true,"region":"au","cc":"au","latitude":-33.865143,"longitude":151.2099,"reserved":0,"last_update":"0001-01-01T00:00:00Z","name_a2s":"Uncletopia | Sydney | 6 | Community","protocol":17,"map":"pl_badwater","folder":"tf","game":"Team Fortress","app_id":440,"player_count":0,"max_players":24,"Bots":0,"server_type":"Dedicated","server_os":"Linux","password":true,"vac":true,"version":"7757534","steam_id":85568392925397960,"keywords":["nocrits","nodmgspread","payload","uncletopia"],"game_id":440,"stv_port":27066,"stv_name":"Uncletopia | Sydney | 6 | Community | STV","players":null},{"server_id":49,"name":"Uncletopia | Warsaw | 1 | All Maps","name_short":"waw-1","host":"waw-1.pl.uncletopia.com","port":27015,"enabled":true,"region":"eu","cc":"pl","latitude":52.2297,"longitude":21.017532,"reserved":0,"last_update":"0001-01-01T00:00:00Z","name_a2s":"","protocol":0,"map":"","folder":"","game":"","app_id":0,"player_count":0,"max_players":0,"Bots":0,"server_type":"","server_os":"","password":false,"vac":false,"version":"","steam_id":0,"keywords":null,"game_id":0,"stv_port":0,"stv_name":"","players":null},{"server_id":50,"name":"Uncletopia | Warsaw | 2 | All Maps","name_short":"waw-2","host":"waw-1.pl.uncletopia.com","port":27025,"enabled":true,"region":"eu","cc":"pl","latitude":52.2297,"longitude":21.017532,"reserved":0,"last_update":"0001-01-01T00:00:00Z","name_a2s":"Uncletopia | Warsaw | 2 | All Maps","protocol":17,"map":"pl_borneo","folder":"tf","game":"Team Fortress","app_id":440,"player_count":0,"max_players":24,"Bots":0,"server_type":"Dedicated","server_os":"Linux","password":true,"vac":true,"version":"7757534","steam_id":85568392925397851,"keywords":["nocrits","nodmgspread","payload","uncletopia"],"game_id":440,"stv_port":27026,"stv_name":"Uncletopia | Warsaw | 2 | All Maps | STV","players":null},{"server_id":51,"name":"Uncletopia | Warsaw | 3 | All Maps","name_short":"waw-3","host":"waw-1.pl.uncletopia.com","port":27035,"enabled":true,"region":"eu","cc":"pl","latitude":52.2297,"longitude":21.017532,"reserved":0,"last_update":"0001-01-01T00:00:00Z","name_a2s":"Uncletopia | Warsaw | 3 | All Maps","protocol":17,"map":"pl_barnblitz","folder":"tf","game":"Team Fortress","app_id":440,"player_count":0,"max_players":24,"Bots":0,"server_type":"Dedicated","server_os":"Linux","password":true,"vac":true,"version":"7757534","steam_id":85568392925397852,"keywords":["nocrits","nodmgspread","payload","uncletopia"],"game_id":440,"stv_port":27036,"stv_name":"Uncletopia | Warsaw | 3 | All Maps | STV","players":null},{"server_id":52,"name":"Uncletopia | Warsaw | 4 | All Maps","name_short":"waw-4","host":"waw-1.pl.uncletopia.com","port":27045,"enabled":true,"region":"eu","cc":"pl","latitude":52.2297,"longitude":21.017532,"reserved":0,"last_update":"0001-01-01T00:00:00Z","name_a2s":"Uncletopia | Warsaw | 4 | All Maps","protocol":17,"map":"pl_swiftwater_final1","folder":"tf","game":"Team Fortress","app_id":440,"player_count":0,"max_players":24,"Bots":0,"server_type":"Dedicated","server_os":"Linux","password":true,"vac":true,"version":"7757534","steam_id":85568392925397853,"keywords":["nocrits","nodmgspread","payload","uncletopia"],"game_id":440,"stv_port":27046,"stv_name":"Uncletopia | Warsaw | 4 | All Maps | STV","players":null},{"server_id":53,"name":"Uncletopia | Warsaw | 5 | Stopwatch Beta","name_short":"waw-5","host":"waw-1.pl.uncletopia.com","port":27055,"enabled":true,"region":"eu","cc":"pl","latitude":52.2297,"longitude":21.017532,"reserved":0,"last_update":"0001-01-01T00:00:00Z","name_a2s":"Uncletopia | Warsaw | 5 | Stopwatch Beta","protocol":17,"map":"pl_pier","folder":"tf","game":"Team Fortress","app_id":440,"player_count":0,"max_players":24,"Bots":0,"server_type":"Dedicated","server_os":"Linux","password":true,"vac":true,"version":"7757534","steam_id":85568392925397854,"keywords":["nocrits","nodmgspread","payload","uncletopia"],"game_id":440,"stv_port":27056,"stv_name":"Uncletopia | Warsaw | 5 | Stopwatch Beta | STV","players":null},{"server_id":54,"name":"Uncletopia | Warsaw | 6 | Community","name_short":"waw-6","host":"waw-1.pl.uncletopia.com","port":27065,"enabled":true,"region":"eu","cc":"pl","latitude":52.2297,"longitude":21.017532,"reserved":0,"last_update":"0001-01-01T00:00:00Z","name_a2s":"Uncletopia | Warsaw | 6 | Community","protocol":17,"map":"koth_highpass","folder":"tf","game":"Team Fortress","app_id":440,"player_count":0,"max_players":24,"Bots":0,"server_type":"Dedicated","server_os":"Linux","password":true,"vac":true,"version":"7757534","steam_id":85568392925397856,"keywords":["cp","nocrits","nodmgspread","uncletopia"],"game_id":440,"stv_port":27066,"stv_name":"Uncletopia | Warsaw | 6 | Community | STV","players":null}]}