{"status":true,"message":"","result":[{"server_id":9,"name":"Uncletopia | Atlanta | 1 | All Maps","name_short":"atl-1","host":"atl-1.us.uncletopia.com","port":27015,"enabled":true,"region":"us-east","cc":"us","latitude":33.753746,"longitude":-84.38633,"reserved":0,"last_update":"0001-01-01T00:00:00Z","name_a2s":"Uncletopia | Atlanta | 1 | All Maps","protocol":17,"map":"pl_badwater","folder":"tf","game":"Team Fortress","app_id":440,"player_count":0,"max_players":24,"Bots":0,"server_type":"Dedicated","server_os":"Linux","password":true,"vac":true,"version":"7757534","steam_id":85568392924469982,"keywords":["nocrits","nodmgspread","payload","uncletopia"],"game_id":440,"stv_port":27016,"stv_name":"Uncletopia | Atlanta | 1 | All Maps | STV","players":null},{"server_id":400,"name":"Uncletopia | Atlanta | 3 | Stopwatch Beta","name_short":"atl-3","host":"atl-1.us.uncletopia.com","port":27035,"enabled":true,"region":"us-east","cc":"us","latitude":33.753746,"longitude":-84.38633,"reserved":0,"last_update":"0001-01-01T00:00:00Z","name_a2s":"Uncletopia | Atlanta | 3 | Stopwatch Beta","protocol":17,"map":"koth_highpass","folder":"tf","game":"Team Fortress","app_id":440,"player_count":24,"max_players":24,"Bots":0,"server_type":"Dedicated","server_os":"Linux","password":true,"vac":true,"version":"7757534","steam_id":85568392924515187,"keywords":["cp","nocrits","nodmgspread","uncletopia"],"game_id":440,"stv_port":27036,"stv_name":"Uncletopia | Atlanta | 3 | Stopwatch Beta | STV","players":[{"user_id":112,"name":"RaT","steam_id":76561198383498049,"connected_time":17000000000,"state":"spawning","ping":50},{"user_id":56,"name":"xenolith","steam_id":76561198041496496,"connected_time":2544000000000,"state":"active","ping":89},{"user_id":72,"name":"That70sDog","steam_id":76561198119396142,"connected_time":1442000000000,"state":"active","ping":78},{"user_id":102,"name":"Maitre Poulet","steam_id":76561198995260426,"connected_time":420000000000,"state":"active","ping":95},{"user_id":107,"name":"StarManMatt","steam_id":76561198125513574,"connected_time":195000000000,"state":"active","ping":88},{"user_id":24,"name":"El Bondin","steam_id":76561198820792434,"connected_time":3808000000000,"state":"active","ping":86},{"user_id":113,"name":"DPC | JigglyBuff","steam_id":76561198168330697,"connected_time":4000000000,"state":"spawning","ping":46},{"user_id":35,"name":"Kartyac","steam_id":76561197991069005,"connected_time":3374000000000,"state":"active","ping":82},{"user_id":105,"name":"[„èà] Bumpercars","steam_id":76561198061591743,"connected_time":307000000000,"state":"active","ping":92},{"user_id":65,"name":"Motreir","steam_id":76561198151717946,"connected_time":1725000000000,"state":"active","ping":75},{"user_id":89,"name":"breakfast 98","steam_id":76561198810469767,"connected_time":660000000000,"state":"active","ping":59},{"user_id":109,"name":"Fishstall","steam_id":76561198038126034,"connected_time":89000000000,"state":"active","ping":91},{"user_id":99,"name":"Lennu","steam_id":76561198060730154,"connected_time":467000000000,"state":"active","ping":61},{"user_id":106,"name":"scrapheap","steam_id":76561198202407087,"connected_time":246000000000,"state":"active","ping":96},{"user_id":63,"name":"Wahooka (Manrobics Instructor)","steam_id":76561197962240925,"connected_time":2049000000000,"state":"active","ping":59},{"user_id":90,"name":"uncle kringle gaming","steam_id":76561198063024859,"connected_time":629000000000,"state":"active","ping":81},{"user_id":48,"name":"limegrass619","steam_id":76561198167789909,"connected_time":2671000000000,"state":"active","ping":117},{"user_id":108,"name":"volta","steam_id":76561199214283884,"connected_time":193000000000,"state":"active","ping":110},{"user_id":74,"name":"1998 Volvo S70 T5","steam_id":76561198258615044,"connected_time":1337000000000,"state":"active","ping":79},{"user_id":103,"name":"energem beholder","steam_id":76561197998344127,"connected_time":404000000000,"state":"active","ping":72},{"user_id":91,"name":"raspy","steam_id":76561198027298961,"connected_time":608000000000,"state":"active","ping":75},{"user_id":101,"name":"F0restFerret","steam_id":76561199112458876,"connected_time":453000000000,"state":"active","ping":69},{"user_id":111,"name":"w a l k  q u i e t","steam_id":76561198143453873,"connected_time":53000000000,"state":"active","ping":75},{"user_id":80,"name":"Mury","steam_id":76561198069743049,"connected_time":970000000000,"state":"active","ping":81}]},{"server_id":401,"name":"Uncletopia | Atlanta | 4 | No Payload","name_short":"atl-4","host":"atl-1.us.uncletopia.com","port":27045,"enabled":true,"region":"us-east","cc":"us","latitude":33.753746,"longitude":-84.38633,"reserved":0,"last_update":"0001-01-01T00:00:00Z","name_a2s":"Uncletopia | Atlanta | 4 | No Payload","protocol":17,"map":"pl_pier","folder":"tf","game":"Team Fortress","app_id":440,"player_count":0,"max_players":24,"Bots":0,"server_type":"Dedicated","server_os":"Linux","password":true,"vac":true,"version":"7723704","steam_id":85568392924515188,"keywords":["nocrits","nodmgspread","payload","uncletopia"],"game_id":440,"stv_port":27046,"stv_name":"Uncletopia | Atlanta | 4 | No Payload | STV","players":null},{"server_id":2,"name":"Uncletopia | Chicago | 1 | All Maps","name_short":"chi-1","host":"chi-1.us.uncletopia.com","port":27015,"enabled":true,"region":"us-central","cc":"us","latitude":41.881832,"longitude":-87.62318,"reserved":0,"last_update":"0001-01-01T00:00:00Z","name_a2s":"Uncletopia | Chicago | 1 | All Maps","protocol":17,"map":"koth_highpass","folder":"tf","game":"Team Fortress","app_id":440,"player_count":0,"max_players":24,"Bots":0,"server_type":"Dedicated","server_os":"Linux","password":true,"vac":true,"version":"7757534","steam_id":85568392924469984,"keywords":["cp","nocrits","nodmgspread","uncletopia"],"game_id":440,"stv_port":27016,"stv_name":"Uncletopia | Chicago | 1 | All Maps | STV","players":null},{"server_id":106,"name":"Uncletopia | Chicago | 2 | All Maps","name_short":"chi-2","host":"chi-1.us.uncletopia.com","port":27025,"enabled":true,"region":"us-central","cc":"us","latitude":41.881832,"longitude":-87.62318,"reserved":0,"last_update":"0001-01-01T00:00:00Z","name_a2s":"Uncletopia | Chicago | 2 | All Maps","protocol":17,"map":"koth_lakeside_final","folder":"tf","game":"Team Fortress","app_id":440,"player_count":0,"max_players":24,"Bots":0,"server_type":"Dedicated","server_os":"Linux","password":true,"vac":true,"version":"7757534","steam_id":85568392924469985,"keywords":["cp","nocrits","nodmgspread","uncletopia"],"game_id":440,"stv_port":27026,"stv_name":"Uncletopia | Chicago | 2 | All Maps | STV","players":null},{"server_id":402,"name":"Uncletopia | Chicago | 3 | All Maps","name_short":"chi-3","host":"chi-1.us.uncletopia.com","port":27035,"enabled":true,"region":"us-central","cc":"us","latitude":41.881832,"longitude":-87.62318,"reserved":0,"last_update":"0001-01-01T00:00:00Z","name_a2s":"Uncletopia | Chicago | 3 | All Maps","protocol":17,"map":"pl_snowycoast","folder":"tf","game":"Team Fortress","app_id":440,"player_count":0,"max_players":24,"Bots":0,"server_type":"Dedicated","server_os":"Linux","password":true,"vac":true,"version":"7757534","steam_id":85568392924515191,"keywords":["nocrits","nodmgspread","payload","uncletopia"],"game_id":440,"stv_port":27036,"stv_name":"Uncletopia | Chicago | 3 | All Maps | STV","players":null},{"server_id":403,"name":"Uncletopia | Chicago | 4 | All Maps","name_short":"chi-4","host":"chi-1.us.uncletopia.com","port":27045,"enabled":true,"region":"us-central","cc":"us","latitude":41.881832,"longitude":-87.62318,"reserved":0,"last_update":"0001-01-01T00:00:00Z","name_a2s":"Uncletopia | Chicago | 4 | All Maps","protocol":17,"map":"pl_upward","folder":"tf","game":"Team Fortress","app_id":440,"player_count":24,"max_players":24,"Bots":0,"server_type":"Dedicated","server_os":"Linux","password":true,"vac":true,"version":"7757534","steam_id":85568392924515193,"keywords":["nocrits","nodmgspread","payload","uncletopia"],"game_id":440,"stv_port":27046,"stv_name":"Uncletopia | Chicago | 4 | All Maps | STV","players":[{"user_id":45,"name":"kyriakos gaming","steam_id":76561198022838929,"connected_time":682000000000,"state":"active","ping":72},{"user_id":58,"name":"Waterboy","steam_id":76561197989347906,"connected_time":101000000000,"state":"active","ping":79},{"user_id":6,"name":"battle man","steam_id":76561198103202719,"connected_time":2480000000000,"state":"active","ping":79},{"user_id":60,"name":"a real gummy krabby patty","steam_id":76561198238842076,"connected_time":10000000000,"state":"spawning","ping":76},{"user_id":13,"name":"MLG BOOTMAN","steam_id":76561198234179320,"connected_time":2084000000000,"state":"active","ping":63},{"user_id":14,"name":"Clanker","steam_id":76561198164315915,"connected_time":1998000000000,"state":"active","ping":78},{"user_id":15,"name":"gremlin (real)","steam_id":76561199062414681,"connected_time":1994000000000,"state":"active","ping":68},{"user_id":17,"name":"blobb","steam_id":76561198950448488,"connected_time":1948000000000,"state":"active","ping":54},{"user_id":33,"name":"Ser.Herpiman","steam_id":76561198314165728,"connected_time":1389000000000,"state":"active","ping":149},{"user_id":53,"name":"Null","steam_id":76561198895762836,"connected_time":428000000000,"state":"active","ping":97},{"user_id":31,"name":"Amogous Supreme","steam_id":76561198025476774,"connected_time":1482000000000,"state":"active","ping":104},{"user_id":21,"name":"nicholaswilkinson421","steam_id":76561199441952029,"connected_time":1687000000000,"state":"active","ping":95},{"user_id":51,"name":"ThreatLvl9","steam_id":76561198079410533,"connected_time":557000000000,"state":"active","ping":78},{"user_id":59,"name":"ATL1 | Pango","steam_id":76561198069811545,"connected_time":23000000000,"state":"spawning","ping":128},{"user_id":55,"name":"Quentin","steam_id":76561198032941413,"connected_time":417000000000,"state":"active","ping":78},{"user_id":44,"name":"axfty","steam_id":76561198000359738,"connected_time":829000000000,"state":"active","ping":71},{"user_id":27,"name":"frid","steam_id":76561198005806915,"connected_time":1537000000000,"state":"active","ping":57},{"user_id":39,"name":"Furry Saul Goodman","steam_id":76561198069580305,"connected_time":1170000000000,"state":"active","ping":52},{"user_id":49,"name":"n world","steam_id":76561198017945920,"connected_time":627000000000,"state":"active","ping":58},{"user_id":35,"name":"MasterGeek.MX","steam_id":76561198063355220,"connected_time":1355000000000,"state":"active","ping":119},{"user_id":54,"name":"Jw. www.vaticancatholic.com","steam_id":76561198190170075,"connected_time":427000000000,"state":"active","ping":58},{"user_id":47,"name":"·πΩ‚ßâ cookie","steam_id":76561197998884823,"connected_time":680000000000,"state":"active","ping":60},{"user_id":38,"name":"Mystary Reborn","steam_id":76561199221425966,"connected_time":1258000000000,"state":"active","ping":73},{"user_id":42,"name":"Jim Teacher","steam_id":76561198246170448,"connected_time":1134000000000,"state":"active","ping":57}]},{"server_id":36,"name":"Uncletopia | Chicago | 5 | All Maps","name_short":"chi-5","host":"chi-2.us.uncletopia.com","port":27015,"enabled":true,"region":"us-central","cc":"us","latitude":41.881832,"longitude":-87.62318,"reserved":0,"last_update":"0001-01-01T00:00:00Z","name_a2s":"Uncletopia | Chicago | 5 | All Maps","protocol":17,"map":"koth_cascade","folder":"tf","game":"Team Fortress","app_id":440,"player_count":0,"max_players":24,"Bots":0,"server_type":"Dedicated","server_os":"Linux","password":true,"vac":true,"version":"7757534","steam_id":85568392924866362,"keywords":["cp","nocrits","nodmgspread","uncletopia"],"game_id":440,"stv_port":27016,"stv_name":"Uncletopia | Chicago | 5 | All Maps | STV","players":null},{"server_id":37,"name":"Uncletopia | Chicago | 6 | All Maps","name_short":"chi-6","host":"chi-2.us.uncletopia.com","port":27025,"enabled":true,"region":"us-central","cc":"us","latitude":41.881832,"longitude":-87.62318,"reserved":0,"last_update":"0001-01-01T00:00:00Z","name_a2s":"Uncletopia | Chicago | 6 | All Maps","protocol":17,"map":"cp_mountainlab","folder":"tf","game":"Team Fortress","app_id":440,"player_count":0,"max_players":24,"Bots":0,"server_type":"Dedicated","server_os":"Linux","password":true,"vac":true,"version":"7757534","steam_id":85568392924866363,"keywords":["cp","nocrits","nodmgspread","uncletopia"],"game_id":440,"stv_port":27026,"stv_name":"Uncletopia | Chicago | 6 | All Maps | STV","players":null},{"server_id":38,"name":"Uncletopia | Chicago | 7 | Stopwatch Beta","name_short":"chi-7","host":"chi-2.us.uncletopia.com","port":27035,"enabled":true,"region":"us-central","cc":"us","latitude":41.881832,"longitude":-87.62318,"reserved":0,"last_update":"0001-01-01T00:00:00Z","name_a2s":"Uncletopia | Chicago | 7 | Stopwatch Beta","protocol":17,"map":"cp_sunshine","folder":"tf","game":"Team Fortress","app_id":440,"player_count":0,"max_players":24,"Bots":0,"server_type":"Dedicated","server_os":"Linux","password":true,"vac":true,"version":"7757534","steam_id":85568392924866364,"keywords":["cp","nocrits","nodmgspread","uncletopia"],"game_id":440,"stv_port":27036,"stv_name":"Uncletopia | Chicago | 7 | Stopwatch Beta | STV","players":null},{"server_id":39,"name":"Uncletopia | Chicago | 8 | Community","name_short":"chi-8","host":"chi-2.us.uncletopia.com","port":27045,"enabled":true,"region":"us-central","cc":"us","latitude":41.881832,"longitude":-87.62318,"reserved":0,"last_update":"0001-01-01T00:00:00Z","name_a2s":"Uncletopia | Chicago | 8 | Community","protocol":17,"map":"workshop/cp_caldera_rc2.ugc2834196889","folder":"tf","game":"Team Fortress","app_id":440,"player_count":0,"max_players":24,"Bots":0,"server_type":"Dedicated","server_os":"Linux","password":true,"vac":true,"version":"7757534","steam_id":85568392924866365,"keywords":["cp","nocrits","nodmgspread","uncletopia"],"game_id":440,"stv_port":27046,"stv_name":"Uncletopia | Chicago | 8 | Community | STV","players":null},{"server_id":8,"name":"Uncletopia | Dallas | 1 | All Maps","name_short":"dal-1","host":"dal-1.us.uncletopia.com","port":27015,"enabled":true,"region":"us-central","cc":"us","latitude":32.779167,"longitude":-96.80889,"reserved":0,"last_update":"0001-01-01T00:00:00Z","name_a2s":"Uncletopia | Dallas | 1 | All Maps","protocol":17,"map":"pl_badwater","folder":"tf","game":"Team Fortress","app_id":440,"player_count":0,"max_players":24,"Bots":0,"server_type":"Dedicated","server_os":"Linux","password":true,"vac":true,"version":"7757534","steam_id":85568392924469986,"keywords":["nocrits","nodmgspread","payload","uncletopia"],"game_id":440,"stv_port":27016,"stv_name":"Uncletopia | Dallas | 1 | All Maps | STV","players":null},{"server_id":108,"name":"Uncletopia | Dallas | 2 | All Maps","name_short":"dal-2","host":"dal-1.us.uncletopia.com","port":27025,"enabled":true,"region":"us-central","cc":"us","latitude":32.779167,"longitude":-96.80889,"reserved":0,"last_update":"0001-01-01T00:00:00Z","name_a2s":"Uncletopia | Dallas | 2 | All Maps","protocol":17,"map":"koth_highpass","folder":"tf","game":"Team Fortress","app_id":440,"player_count":0,"max_players":24,"Bots":0,"server_type":"Dedicated","server_os":"Linux","password":true,"vac":true,"version":"7757534","steam_id":85568392924469988,"keywords":["cp","nocrits","nodmgspread","uncletopia"],"game_id":440,"stv_port":27026,"stv_name":"Uncletopia | Dallas | 2 | All Maps | STV","players":null},{"server_id":5,"name":"Uncletopia | Frankfurt | 1 | All Maps","name_short":"frk-1","host":"frk-1.de.uncletopia.com","port":27015,"enabled":true,"region":"eu","cc":"de","latitude":50.110924,"longitude":8.682127,"reserved":0,"last_update":"0001-01-01T00:00:00Z","name_a2s":"Uncletopia | Frankfurt | 1 | All Maps","protocol":17,"map":"pl_badwater","folder":"tf","game":"Team Fortress","app_id":440,"player_count":24,"max_players":24,"Bots":0,"server_type":"Dedicated","server_os":"Linux","password":true,"vac":true,"version":"7757534","steam_id":85568392924469989,"keywords":["nocrits","nodmgspread","payload","uncletopia"],"game_id":440,"stv_port":27016,"stv_name":"Uncletopia | Frankfurt | 1 | All Maps | STV","players":[{"user_id":242,"name":"Santa's Little Helper","steam_id":76561197961070825,"connected_time":3705000000000,"state":"active","ping":71},{"user_id":288,"name":"Valoxi","steam_id":76561197995042938,"connected_time":99000000000,"state":"active","ping":62},{"user_id":284,"name":"Here you go your majesty.","steam_id":76561199368478153,"connected_time":612000000000,"state":"active","ping":151},{"user_id":289,"name":"Lemon","steam_id":76561198188535947,"connected_time":73000000000,"state":"active","ping":74},{"user_id":280,"name":"goktwoxd","steam_id":76561198065114415,"connected_time":1124000000000,"state":"active","ping":75},{"user_id":183,"name":"CarBombEnthusiast","steam_id":76561199448185434,"connected_time":7148000000000,"state":"active","ping":66},{"user_id":268,"name":"Cobb Salads","steam_id":76561197971140507,"connected_time":1505000000000,"state":"active","ping":61},{"user_id":267,"name":"Bruschetta","steam_id":76561198251927162,"connected_time":1530000000000,"state":"active","ping":57},{"user_id":269,"name":"jack's vitamin d","steam_id":76561198036032168,"connected_time":1500000000000,"state":"active","ping":135},{"user_id":291,"name":"lupus","steam_id":76561198019146522,"connected_time":70000000000,"state":"active","ping":46},{"user_id":172,"name":"Matznmilian","steam_id":76561198024358403,"connected_time":7781000000000,"state":"active","ping":74},{"user_id":270,"name":"zeppa114","steam_id":76561198065192734,"connected_time":1469000000000,"state":"active","ping":65},{"user_id":283,"name":"Mercori","steam_id":76561198826005248,"connected_time":755000000000,"state":"active","ping":88},{"user_id":251,"name":"Cars","steam_id":76561198173329977,"connected_time":3406000000000,"state":"active","ping":63},{"user_id":265,"name":"Mean Green Peen","steam_id":76561198228455736,"connected_time":1870000000000,"state":"active","ping":61},{"user_id":271,"name":"Bloop","steam_id":76561198152645636,"connected_time":1453000000000,"state":"active","ping":50},{"user_id":272,"name":"Kalypso","steam_id":76561198241519562,"connected_time":1447000000000,"state":"active","ping":85},{"user_id":281,"name":"VEH-DEH-VEH","steam_id":76561198010978989,"connected_time":1077000000000,"state":"active","ping":64},{"user_id":246,"name":"Sticky Spammer Mcgee","steam_id":76561198993305746,"connected_time":3628000000000,"state":"active","ping":100},{"user_id":276,"name":"Preyzen","steam_id":76561199043448824,"connected_time":1384000000000,"state":"active","ping":60},{"user_id":277,"name":"De Ruitert","steam_id":76561198103313356,"connected_time":1380000000000,"state":"active","ping":62},{"user_id":278,"name":"KFC Enjoyer","steam_id":76561198840259819,"connected_time":1377000000000,"state":"active","ping":45},{"user_id":282,"name":"Mr_Gamr211","steam_id":76561198960079818,"connected_time":765000000000,"state":"active","ping":120},{"user_id":257,"name":"ÍßÅ‡ºíXenon‡ºíÍßÇ","steam_id":76561198120502313,"connected_time":2809000000000,"state":"active","ping":80}]},{"server_id":110,"name":"Uncletopia | Frankfurt | 2 | All Maps","name_short":"frk-2","host":"frk-1.de.uncletopia.com","port":27025,"enabled":true,"region":"eu","cc":"de","latitude":50.110924,"longitude":8.682127,"reserved":0,"last_update":"0001-01-01T00:00:00Z","name_a2s":"Uncletopia | Frankfurt | 2 | All Maps","protocol":17,"map":"pl_thundermountain","folder":"tf","game":"Team Fortress","app_id":440,"player_count":24,"max_players":24,"Bots":0,"server_type":"Dedicated","server_os":"Linux","password":true,"vac":true,"version":"7757534","steam_id":85568392924469990,"keywords":["nocrits","nodmgspread","payload","uncletopia"],"game_id":440,"stv_port":27026,"stv_name":"Uncletopia | Frankfurt | 2 | All Maps | STV","players":[{"user_id":227,"name":"Sacreshiea","steam_id":76561198169853697,"connected_time":1208000000000,"state":"active","ping":56},{"user_id":174,"name":"Critz!","steam_id":76561197998110417,"connected_time":5343000000000,"state":"active","ping":73},{"user_id":134,"name":"txrracxtta","steam_id":76561198073478010,"connected_time":8132000000000,"state":"active","ping":45},{"user_id":123,"name":"Alin","steam_id":76561198059679991,"connected_time":8612000000000,"state":"active","ping":99},{"user_id":228,"name":"SynthBox3","steam_id":76561199094075745,"connected_time":1198000000000,"state":"active","ping":89},{"user_id":210,"name":"MagicMarmot (@TTV)","steam_id":76561198248510508,"connected_time":1735000000000,"state":"active","ping":178},{"user_id":245,"name":"Mega Saturn","steam_id":76561198024750500,"connected_time":381000000000,"state":"active","ping":99},{"user_id":204,"name":"tallen","steam_id":76561198061708595,"connected_time":2371000000000,"state":"active","ping":76},{"user_id":215,"name":"Johnny Gas","steam_id":76561198119561148,"connected_time":1616000000000,"state":"active","ping":85},{"user_id":247,"name":"Maximus","steam_id":76561198032472655,"connected_time":2000000000,"state":"spawning","ping":45},{"user_id":229,"name":"Asocial","steam_id":76561198328594578,"connected_time":1182000000000,"state":"active","ping":100},{"user_id":212,"name":"◊ú◊ï","steam_id":76561198170332885,"connected_time":1696000000000,"state":"active","ping":111},{"user_id":239,"name":"Orville Wilcox","steam_id":76561198210512053,"connected_time":738000000000,"state":"active","ping":51},{"user_id":233,"name":"Acidpets","steam_id":76561198875421227,"connected_time":1128000000000,"state":"active","ping":64},{"user_id":217,"name":"Feelin' Supersonic","steam_id":76561198005738407,"connected_time":1567000000000,"state":"active","ping":80},{"user_id":166,"name":"Windows Vista Cruiser","steam_id":76561198064102233,"connected_time":6089000000000,"state":"active","ping":69},{"user_id":30,"name":"marcus","steam_id":76561198053429589,"connected_time":14529000000000,"state":"active","ping":63},{"user_id":200,"name":"ambatukam","steam_id":76561198175433731,"connected_time":3381000000000,"state":"active","ping":68},{"user_id":242,"name":"Tataffe","steam_id":76561198042048259,"connected_time":540000000000,"state":"active","ping":64},{"user_id":231,"name":"MajorKlebstoff","steam_id":76561198035489363,"connected_time":1157000000000,"state":"active","ping":48},{"user_id":240,"name":"Mr.Dies a lot","steam_id":76561199061602946,"connected_time":717000000000,"state":"active","ping":90},{"user_id":232,"name":"nem≈õs","steam_id":76561198134203031,"connected_time":1153000000000,"state":"active","ping":61},{"user_id":244,"name":"i \u003c3 poptarts #saveTF2","steam_id":76561199057354397,"connected_time":499000000000,"state":"active","ping":156},{"user_id":225,"name":"Carrot","steam_id":76561198119340863,"connected_time":1334000000000,"state":"active","ping":65}]},{"server_id":308,"name":"Uncletopia | Frankfurt | 3 | All Maps","name_short":"frk-3","host":"frk-1.de.uncletopia.com","port":27035,"enabled":true,"region":"eu","cc":"de","latitude":50.110924,"longitude":8.682127,"reserved":0,"last_update":"0001-01-01T00:00:00Z","name_a2s":"Uncletopia | Frankfurt | 3 | All Maps","protocol":17,"map":"pl_frontier_final","folder":"tf","game":"Team Fortress","app_id":440,"player_count":24,"max_players":24,"Bots":0,"server_type":"Dedicated","server_os":"Linux","password":true,"vac":true,"version":"7757534","steam_id":85568392924504274,"keywords":["nocrits","nodmgspread","payload","uncletopia"],"game_id":440,"stv_port":27036,"stv_name":"Uncletopia | Frankfurt | 3 | All Maps | STV","players":[{"user_id":160,"name":"Nassu","steam_id":76561198147367577,"connected_time":962000000000,"state":"active","ping":194},{"user_id":133,"name":"Trollface [·¥ô-Œº]","steam_id":76561198418538887,"connected_time":2541000000000,"state":"active","ping":97},{"user_id":172,"name":"Mika","steam_id":76561199183780280,"connected_time":425000000000,"state":"active","ping":69},{"user_id":165,"name":"Saint","steam_id":76561198303326214,"connected_time":631000000000,"state":"active","ping":82},{"user_id":108,"name":"a fleet of maids","steam_id":76561198058012525,"connected_time":4220000000000,"state":"active","ping":77},{"user_id":159,"name":"Buursq","steam_id":76561198137801309,"connected_time":1051000000000,"state":"active","ping":72},{"user_id":145,"name":"Epi","steam_id":76561198041175008,"connected_time":1772000000000,"state":"active","ping":82},{"user_id":176,"name":"lv.1 crook","steam_id":76561198195857751,"connected_time":213000000000,"state":"active","ping":65},{"user_id":139,"name":"P0SHT0:((","steam_id":76561198106182078,"connected_time":2142000000000,"state":"active","ping":97},{"user_id":162,"name":"WonTwo","steam_id":76561197979726665,"connected_time":839000000000,"state":"active","ping":74},{"user_id":164,"name":"Koleisus","steam_id":76561198045374646,"connected_time":655000000000,"state":"active","ping":62},{"user_id":123,"name":"Hexagon","steam_id":76561198151205758,"connected_time":3268000000000,"state":"active","ping":51},{"user_id":168,"name":"Starshina Smirnov","steam_id":76561198111726938,"connected_time":589000000000,"state":"active","ping":69},{"user_id":115,"name":"Klinmir","steam_id":76561198352339376,"connected_time":3612000000000,"state":"active","ping":95},{"user_id":170,"name":"foursixsixseven","steam_id":76561199123727043,"connected_time":463000000000,"state":"active","ping":61},{"user_id":175,"name":"L√∂ys√§ Masa","steam_id":76561198343396172,"connected_time":279000000000,"state":"active","ping":96},{"user_id":157,"name":"Linux Mint","steam_id":76561199009412563,"connected_time":1351000000000,"state":"active","ping":91},{"user_id":171,"name":"bruhson","steam_id":76561198321624388,"connected_time":455000000000,"state":"active","ping":116},{"user_id":152,"name":"angry honey badger","steam_id":76561199203783693,"connected_time":1609000000000,"state":"active","ping":170},{"user_id":174,"name":"eeeeee","steam_id":76561198427092596,"connected_time":418000000000,"state":"active","ping":122},{"user_id":141,"name":"sabaka jebanoia","steam_id":76561198147249160,"connected_time":2038000000000,"state":"active","ping":96},{"user_id":167,"name":"hshs","steam_id":76561198314562513,"connected_time":593000000000,"state":"active","ping":61},{"user_id":166,"name":"Dithmarschen","steam_id":76561198068917140,"connected_time":629000000000,"state":"active","ping":102},{"user_id":161,"name":"Kestrel","steam_id":76561198144033005,"connected_time":937000000000,"state":"active","ping":62}]},{"server_id":309,"name":"Uncletopia | Frankfurt | 4 | All Maps","name_short":"frk-4","host":"frk-1.de.uncletopia.com","port":27045,"enabled":true,"region":"eu","cc":"de","latitude":50.110924,"longitude":8.682127,"reserved":0,"last_update":"0001-01-01T00:00:00Z","name_a2s":"Uncletopia | Frankfurt | 4 | All Maps","protocol":17,"map":"pl_barnblitz","folder":"tf","game":"Team Fortress","app_id":440,"player_count":24,"max_players":24,"Bots":0,"server_type":"Dedicated","server_os":"Linux","password":true,"vac":true,"version":"7757534","steam_id":85568392924504275,"keywords":["nocrits","nodmgspread","payload","uncletopia"],"game_id":440,"stv_port":27046,"stv_name":"Uncletopia | Frankfurt | 4 | All Maps | STV","players":[{"user_id":293,"name":"holykyckling","steam_id":76561198040661615,"connected_time":912000000000,"state":"active","ping":75},{"user_id":237,"name":"GMsU | Acoul","steam_id":76561198229222992,"connected_time":3747000000000,"state":"active","ping":46},{"user_id":277,"name":"Mal ‚òÖ","steam_id":76561198262337669,"connected_time":1986000000000,"state":"active","ping":67},{"user_id":294,"name":"Laura ‚ù§","steam_id":76561198975652501,"connected_time":885000000000,"state":"active","ping":92},{"user_id":295,"name":"Marko Rutto","steam_id":76561198124226614,"connected_time":871000000000,"state":"active","ping":47},{"user_id":296,"name":"InfamousAxe","steam_id":76561198099504739,"connected_time":863000000000,"state":"active","ping":110},{"user_id":221,"name":"Bilaterial Newt","steam_id":76561198074655679,"connected_time":4478000000000,"state":"active","ping":77},{"user_id":245,"name":"mindelthefish","steam_id":76561199418415559,"connected_time":3271000000000,"state":"active","ping":116},{"user_id":267,"name":"That Phlog mfer","steam_id":76561198050416948,"connected_time":2655000000000,"state":"active","ping":55},{"user_id":271,"name":"LAMC","steam_id":76561199066888917,"connected_time":2187000000000,"state":"active","ping":67},{"user_id":286,"name":"Metheus","steam_id":76561198051847106,"connected_time":1271000000000,"state":"active","ping":61},{"user_id":297,"name":"Guy with squares as username","steam_id":76561198269524918,"connected_time":847000000000,"state":"active","ping":58},{"user_id":298,"name":"Adult Chickenpox Superpowers","steam_id":76561198138915310,"connected_time":828000000000,"state":"active","ping":72},{"user_id":146,"name":"Pastoss","steam_id":76561198379098260,"connected_time":11253000000000,"state":"active","ping":59},{"user_id":282,"name":"GMsU | Rebikas","steam_id":76561198077053764,"connected_time":1563000000000,"state":"active","ping":44},{"user_id":274,"name":"Ultimett","steam_id":76561198061085755,"connected_time":2084000000000,"state":"active","ping":58},{"user_id":289,"name":"vukdrako","steam_id":76561198818135010,"connected_time":1229000000000,"state":"active","ping":84},{"user_id":303,"name":"strangely","steam_id":76561198030697131,"connected_time":682000000000,"state":"active","ping":58},{"user_id":229,"name":"Archvyle","steam_id":76561198445328161,"connected_time":4200000000000,"state":"active","ping":58},{"user_id":300,"name":"marsel","steam_id":76561198116168271,"connected_time":813000000000,"state":"active","ping":73},{"user_id":301,"name":"better call selo","steam_id":76561198976793469,"connected_time":813000000000,"state":"active","ping":90},{"user_id":291,"name":"sisto majesto","steam_id":76561198073532776,"connected_time":968000000000,"state":"active","ping":84},{"user_id":302,"name":"ÊÇ™","steam_id":76561198095879087,"connected_time":811000000000,"state":"active","ping":60},{"user_id":281,"name":"Tank","steam_id":76561199059174576,"connected_time":1683000000000,"state":"active","ping":176}]},{"server_id":310,"name":"Uncletopia | Frankfurt | 5 | All Maps","name_short":"frk-5","host":"frk-1.de.uncletopia.com","port":27055,"enabled":true,"region":"eu","cc":"de","latitude":50.110924,"longitude":8.682127,"reserved":0,"last_update":"0001-01-01T00:00:00Z","name_a2s":"Uncletopia | Frankfurt | 5 | All Maps","protocol":17,"map":"cp_steel","folder":"tf","game":"Team Fortress","app_id":440,"player_count":24,"max_players":24,"Bots":0,"server_type":"Dedicated","server_os":"Linux","password":true,"vac":true,"version":"7757534","steam_id":85568392924504277,"keywords":["cp","nocrits","nodmgspread","uncletopia"],"game_id":440,"stv_port":27056,"stv_name":"Uncletopia | Frankfurt | 5 | All Maps | STV","players":[{"user_id":174,"name":"Captian Wobbs","steam_id":76561198142884936,"connected_time":1036000000000,"state":"active","ping":187},{"user_id":170,"name":"Wuzi Mugen","steam_id":76561199163831495,"connected_time":1267000000000,"state":"active","ping":89},{"user_id":191,"name":"√°rv√≠zt≈±r≈ë t√ºk√∂rf√∫r√≥g√©p","steam_id":76561198296643061,"connected_time":300000000000,"state":"active","ping":49},{"user_id":172,"name":"Ankle Pain","steam_id":76561199105755048,"connected_time":1088000000000,"state":"active","ping":56},{"user_id":107,"name":"Economic crisis","steam_id":76561198063562843,"connected_time":5413000000000,"state":"active","ping":53},{"user_id":153,"name":"Bilbo Ballbaggins","steam_id":76561198070593514,"connected_time":2832000000000,"state":"active","ping":71},{"user_id":192,"name":"AnObscureTenet","steam_id":76561198148535546,"connected_time":289000000000,"state":"active","ping":60},{"user_id":175,"name":"(UB) Gnome Chompski","steam_id":76561199152001285,"connected_time":993000000000,"state":"active","ping":77},{"user_id":176,"name":"Mata","steam_id":76561198308191713,"connected_time":970000000000,"state":"active","ping":61},{"user_id":156,"name":"E","steam_id":76561198166340115,"connected_time":2777000000000,"state":"active","ping":79},{"user_id":177,"name":"skille","steam_id":76561198005794325,"connected_time":904000000000,"state":"active","ping":66},{"user_id":178,"name":"[Insert Oneshot refrence here]","steam_id":76561198951206047,"connected_time":895000000000,"state":"active","ping":97},{"user_id":179,"name":"BananasComatum","steam_id":76561198364612435,"connected_time":840000000000,"state":"active","ping":80},{"user_id":180,"name":"z7ths","steam_id":76561197988132928,"connected_time":720000000000,"state":"active","ping":48},{"user_id":181,"name":"WHUSSKEY","steam_id":76561198137827441,"connected_time":680000000000,"state":"active","ping":72},{"user_id":182,"name":"Miloleopard (bad at TF2)","steam_id":76561199196616680,"connected_time":676000000000,"state":"active","ping":73},{"user_id":187,"name":"iLeMbeck","steam_id":76561198107096129,"connected_time":593000000000,"state":"active","ping":174},{"user_id":136,"name":"Warzard","steam_id":76561199154051413,"connected_time":4177000000000,"state":"active","ping":183},{"user_id":190,"name":"astralscr","steam_id":76561199090360946,"connected_time":392000000000,"state":"active","ping":62},{"user_id":185,"name":"*cough*","steam_id":76561198179908677,"connected_time":621000000000,"state":"active","ping":169},{"user_id":144,"name":"Jack Dickfister","steam_id":76561198145145810,"connected_time":3554000000000,"state":"active","ping":50},{"user_id":186,"name":"XANNUR","steam_id":76561198255004930,"connected_time":601000000000,"state":"active","ping":62},{"user_id":188,"name":"*Shits Aggressively*","steam_id":76561198880319833,"connected_time":583000000000,"state":"active","ping":62},{"user_id":189,"name":"Burnie","steam_id":76561198240975318,"connected_time":572000000000,"state":"active","ping":83}]},{"server_id":311,"name":"Uncletopia | Frankfurt | 6 | All Maps","name_short":"frk-6","host":"frk-1.de.uncletopia.com","port":27065,"enabled":true,"region":"eu","cc":"de","latitude":50.110924,"longitude":8.682127,"reserved":0,"last_update":"0001-01-01T00:00:00Z","name_a2s":"Uncletopia | Frankfurt | 6 | All Maps","protocol":17,"map":"koth_highpass","folder":"tf","game":"Team Fortress","app_id":440,"player_count":0,"max_players":24,"Bots":0,"server_type":"Dedicated","server_os":"Linux","password":true,"vac":true,"version":"7757534","steam_id":85568392924504278,"keywords":["cp","nocrits","nodmgspread","uncletopia"],"game_id":440,"stv_port":27066,"stv_name":"Uncletopia | Frankfurt | 6 | All Maps | STV","players":null},{"server_id":23,"name":"Uncletopia | Frankfurt | 7 | Stopwatch Beta","name_short":"frk-7","host":"frk-1.de.uncletopia.com","port":27075,"enabled":true,"region":"eu","cc":"de","latitude":50.110924,"longitude":8.682127,"reserved":0,"last_update":"0001-01-01T00:00:00Z","name_a2s":"Uncletopia | Frankfurt | 7 | Stopwatch Beta","protocol":17,"map":"koth_lakeside_final","folder":"tf","game":"Team Fortress","app_id":440,"player_count":0,"max_players":24,"Bots":0,"server_type":"Dedicated","server_os":"Linux","password":true,"vac":true,"version":"7757534","steam_id":85568392924742827,"keywords":["cp","nocrits","nodmgspread","uncletopia"],"game_id":440,"stv_port":27076,"stv_name":"Uncletopia | Frankfurt | 7 | Stopwatch Beta | STV","players":null},{"server_id":24,"name":"Uncletopia | Frankfurt | 8 | Community","name_short":"frk-8","host":"frk-1.de.uncletopia.com","port":27085,"enabled":true,"region":"eu","cc":"de","latitude":50.110924,"longitude":8.682127,"reserved":0,"last_update":"0001-01-01T00:00:00Z","name_a2s":"Uncletopia | Frankfurt | 8 | Community","protocol":17,"map":"koth_cascade","folder":"tf","game":"Team Fortress","app_id":440,"player_count":0,"max_players":24,"Bots":0,"server_type":"Dedicated","server_os":"Linux","password":true,"vac":true,"version":"7757534","steam_id":85568392924742828,"keywords":["cp","nocrits","nodmgspread","uncletopia"],"game_id":440,"stv_port":27086,"stv_name":"Uncletopia | Frankfurt | 8 | Community | STV","players":null},{"server_id":202,"name":"Uncletopia | Hong Kong | 1 | All Maps","name_short":"hgk-1","host":"hgk-1.hk.uncletopia.com","port":27015,"enabled":true,"region":"asia","cc":"hk","latitude":22.302711,"longitude":114.177216,"reserved":0,"last_update":"0001-01-01T00:00:00Z","name_a2s":"Uncletopia | Hong Kong | 1 | All Maps","protocol":17,"map":"cp_mossrock","folder":"tf","game":"Team Fortress","app_id":440,"player_count":26,"max_players":24,"Bots":0,"server_type":"Dedicated","server_os":"Linux","password":true,"vac":true,"version":"7757534","steam_id":85568392924494504,"keywords":["cp","nocrits","nodmgspread","uncletopia"],"game_id":440,"stv_port":27016,"stv_name":"Uncletopia | Hong Kong | 1 | All Maps | STV","players":[{"user_id":425,"name":"TomCat","steam_id":76561198133744053,"connected_time":2330000000000,"state":"active","ping":115},{"user_id":440,"name":"Pandemo","steam_id":76561198024666110,"connected_time":698000000000,"state":"active","ping":37},{"user_id":410,"name":"ÊØç„ÅÆËÇâÂõ£Â≠ê","steam_id":76561198069561896,"connected_time":4197000000000,"state":"active","ping":35},{"user_id":446,"name":"DresatCouchonion","steam_id":76561199388364553,"connected_time":379000000000,"state":"active","ping":142},{"user_id":378,"name":"P","steam_id":76561198304514505,"connected_time":7608000000000,"state":"active","ping":76},{"user_id":430,"name":"LudE","steam_id":76561198828840546,"connected_time":1711000000000,"state":"active","ping":98},{"user_id":401,"name":"WARBOSS","steam_id":76561198031492742,"connected_time":4594000000000,"state":"active","ping":74},{"user_id":441,"name":"cac","steam_id":76561198426411668,"connected_time":631000000000,"state":"active","ping":75},{"user_id":431,"name":"Puddin","steam_id":76561198140052918,"connected_time":1699000000000,"state":"active","ping":89},{"user_id":432,"name":"gilsomnia","steam_id":76561198830813639,"connected_time":1642000000000,"state":"active","ping":109},{"user_id":457,"name":"Talkk More","steam_id":76561198305424433,"connected_time":14000000000,"state":"active","ping":136},{"user_id":438,"name":"Bertengkar","steam_id":76561198213031155,"connected_time":1043000000000,"state":"active","ping":101},{"user_id":424,"name":"brizzard","steam_id":76561198048438653,"connected_time":2383000000000,"state":"active","ping":54},{"user_id":394,"name":"Duck with a knife (what he gonn","steam_id":76561199092409364,"connected_time":5248000000000,"state":"active","ping":111},{"user_id":442,"name":"rachel.cylara.2003","steam_id":76561198819779240,"connected_time":562000000000,"state":"active","ping":114},{"user_id":420,"name":"Jack Of All Trades","steam_id":76561199273837625,"connected_time":3032000000000,"state":"active","ping":141},{"user_id":383,"name":"Ïø†ÌÇ§","steam_id":76561197997220367,"connected_time":7129000000000,"state":"active","ping":55},{"user_id":400,"name":":D","steam_id":76561198009692495,"connected_time":4597000000000,"state":"active","ping":86},{"user_id":436,"name":"Darknight","steam_id":76561199090139287,"connected_time":1421000000000,"state":"active","ping":85},{"user_id":447,"name":"1673*","steam_id":76561198338911926,"connected_time":331000000000,"state":"active","ping":139},{"user_id":439,"name":"Kurtie","steam_id":76561198144737876,"connected_time":1004000000000,"state":"active","ping":76},{"user_id":422,"name":"the circumciser","steam_id":76561199212006657,"connected_time":2936000000000,"state":"active","ping":78},{"user_id":428,"name":"VaporeonSimp69","steam_id":76561198823521095,"connected_time":1788000000000,"state":"active","ping":51},{"user_id":391,"name":"Pillboi","steam_id":76561198011172886,"connected_time":6172000000000,"state":"active","ping":45},{"user_id":451,"name":"PapaFranku69","steam_id":76561199446266814,"connected_time":103000000000,"state":"active","ping":106},{"user_id":458,"name":"the sex","steam_id":76561198129661272,"connected_time":7000000000,"state":"spawning","ping":107}]},{"server_id":1,"name":"Uncletopia | Los Angeles | 1 | All Maps","name_short":"lax-1","host":"lax-1.us.uncletopia.com","port":27015,"enabled":true,"region":"us-west","cc":"us","latitude":33.94279,"longitude":-118.41004,"reserved":0,"last_update":"0001-01-01T00:00:00Z","name_a2s":"Uncletopia | Los Angeles | 1 | All Maps","protocol":17,"map":"cp_process_final","folder":"tf","game":"Team Fortress","app_id":440,"player_count":0,"max_players":24,"Bots":0,"server_type":"Dedicated","server_os":"Linux","password":true,"vac":true,"version":"7757534","steam_id":85568392924469991,"keywords":["cp","nocrits","nodmgspread","uncletopia"],"game_id":440,"stv_port":27016,"stv_name":"Uncletopia | Los Angeles | 1 | All Maps | STV","players":null},{"server_id":112,"name":"Uncletopia | Los Angeles | 2 | All Maps","name_short":"lax-2","host":"lax-1.us.uncletopia.com","port":27025,"enabled":true,"region":"us-west","cc":"us","latitude":33.94279,"longitude":-118.41004,"reserved":0,"last_update":"0001-01-01T00:00:00Z","name_a2s":"Uncletopia | Los Angeles | 2 | All Maps","protocol":17,"map":"pl_upward","folder":"tf","game":"Team Fortress","app_id":440,"player_count":24,"max_players":24,"Bots":0,"server_type":"Dedicated","server_os":"Linux","password":true,"vac":true,"version":"7757534","steam_id":85568392924469992,"keywords":["nocrits","nodmgspread","payload","uncletopia"],"game_id":440,"stv_port":27026,"stv_name":"Uncletopia | Los Angeles | 2 | All Maps | STV","players":[{"user_id":3,"name":"Drakon","steam_id":76561198078210822,"connected_time":4959000000000,"state":"active","ping":60},{"user_id":46,"name":"Bagaboned","steam_id":76561198043761335,"connected_time":2324000000000,"state":"active","ping":60},{"user_id":56,"name":"Christo_Inferno","steam_id":76561197960940457,"connected_time":1474000000000,"state":"active","ping":62},{"user_id":29,"name":"Unfunny","steam_id":76561198336411847,"connected_time":4305000000000,"state":"active","ping":76},{"user_id":61,"name":"world machine","steam_id":76561198020689909,"connected_time":371000000000,"state":"active","ping":45},{"user_id":8,"name":"rose","steam_id":76561198048882285,"connected_time":4955000000000,"state":"active","ping":101},{"user_id":42,"name":"Wang of Wall St","steam_id":76561198047460598,"connected_time":2957000000000,"state":"active","ping":115},{"user_id":10,"name":"facecheck","steam_id":76561198115269587,"connected_time":4951000000000,"state":"active","ping":92},{"user_id":62,"name":"DOMO_MR_ROBOTO","steam_id":76561198077108345,"connected_time":370000000000,"state":"active","ping":105},{"user_id":12,"name":"Malmart_Employee","steam_id":76561198320388704,"connected_time":4939000000000,"state":"active","ping":85},{"user_id":13,"name":"üê∫-Iwky-ü¶ä","steam_id":76561198185616311,"connected_time":4937000000000,"state":"active","ping":60},{"user_id":63,"name":"Appariel","steam_id":76561198070894577,"connected_time":317000000000,"state":"active","ping":95},{"user_id":58,"name":"jer","steam_id":76561198148235230,"connected_time":661000000000,"state":"active","ping":57},{"user_id":48,"name":"Open Mailbox","steam_id":76561198051933580,"connected_time":2147000000000,"state":"active","ping":128},{"user_id":17,"name":"basil","steam_id":76561198075758026,"connected_time":4917000000000,"state":"active","ping":129},{"user_id":50,"name":"Saggle","steam_id":76561198056075147,"connected_time":1957000000000,"state":"active","ping":175},{"user_id":30,"name":"Dad Rock Deluxe","steam_id":76561198051224819,"connected_time":3937000000000,"state":"active","ping":74},{"user_id":57,"name":"T","steam_id":76561198065709361,"connected_time":1142000000000,"state":"active","ping":104},{"user_id":64,"name":"Gettin Carried","steam_id":76561198108066455,"connected_time":275000000000,"state":"active","ping":67},{"user_id":65,"name":"[NLR]Lightning Roller","steam_id":76561198021209018,"connected_time":262000000000,"state":"active","ping":107},{"user_id":66,"name":"ATL1 | to4st","steam_id":76561198981009008,"connected_time":257000000000,"state":"active","ping":105},{"user_id":67,"name":"RandomInternetUser","steam_id":76561199230027049,"connected_time":238000000000,"state":"active","ping":116},{"user_id":53,"name":"Solaire","steam_id":76561198035762837,"connected_time":1784000000000,"state":"active","ping":116},{"user_id":59,"name":"usasan","steam_id":76561198044654399,"connected_time":566000000000,"state":"active","ping":45}]},{"server_id":324,"name":"Uncletopia | Los Angeles | 3 | All Maps","name_short":"lax-3","host":"lax-1.us.uncletopia.com","port":27035,"enabled":true,"region":"us-west","cc":"us","latitude":33.94279,"longitude":-118.41004,"reserved":0,"last_update":"0001-01-01T00:00:00Z","name_a2s":"Uncletopia | Los Angeles | 3 | All Maps","protocol":17,"map":"pl_rumford_event","folder":"tf","game":"Team Fortress","app_id":440,"player_count":0,"max_players":24,"Bots":0,"server_type":"Dedicated","server_os":"Linux","password":true,"vac":true,"version":"7757534","steam_id":85568392924510198,"keywords":["nocrits","nodmgspread","payload","uncletopia"],"game_id":440,"stv_port":27036,"stv_name":"Uncletopia | Los Angeles | 3 | All Maps | STV","players":null},{"server_id":25,"name":"Uncletopia | Los Angeles | 4 | Stopwatch Beta","name_short":"lax-4","host":"lax-1.us.uncletopia.com","port":27045,"enabled":true,"region":"us-west","cc":"us","latitude":33.94279,"longitude":-118.41004,"reserved":0,"last_update":"0001-01-01T00:00:00Z","name_a2s":"Uncletopia | Los Angeles | 4 | Stopwatch Beta","protocol":17,"map":"koth_viaduct","folder":"tf","game":"Team Fortress","app_id":440,"player_count":0,"max_players":24,"Bots":0,"server_type":"Dedicated","server_os":"Linux","password":true,"vac":true,"version":"7757534","steam_id":85568392924510199,"keywords":["cp","nocrits","nodmgspread","uncletopia"],"game_id":440,"stv_port":27046,"stv_name":"Uncletopia | Los Angeles | 4 | Stopwatch Beta | STV","players":null},{"server_id":11,"name":"Uncletopia | London | 1 | All Maps","name_short":"lon-1","host":"lon-1.uk.uncletopia.com","port":27015,"enabled":true,"region":"eu","cc":"gb","latitude":51.509865,"longitude":-0.118092,"reserved":0,"last_update":"0001-01-01T00:00:00Z","name_a2s":"Uncletopia | London | 1 | All Maps","protocol":17,"map":"pl_borneo","folder":"tf","game":"Team Fortress","app_id":440,"player_count":24,"max_players":24,"Bots":0,"server_type":"Dedicated","server_os":"Linux","password":true,"vac":true,"version":"7757534","steam_id":85568392924367362,"keywords":["nocrits","nodmgspread","payload","uncletopia"],"game_id":440,"stv_port":27016,"stv_name":"Uncletopia | London | 1 | All Maps | STV","players":[{"user_id":387,"name":"Lord","steam_id":76561198024964817,"connected_time":7408000000000,"state":"active","ping":57},{"user_id":476,"name":"Toscorp","steam_id":76561198353760522,"connected_time":538000000000,"state":"active","ping":58},{"user_id":329,"name":"catboy trickster","steam_id":76561198075665211,"connected_time":11044000000000,"state":"active","ping":39},{"user_id":366,"name":"Sneaky boi","steam_id":76561199195985387,"connected_time":9013000000000,"state":"active","ping":97},{"user_id":452,"name":"DrExplosive","steam_id":76561198063678579,"connected_time":2216000000000,"state":"active","ping":32},{"user_id":465,"name":"MilkEnjoyer","steam_id":76561198323781374,"connected_time":1312000000000,"state":"active","ping":85},{"user_id":464,"name":"john fortress","steam_id":76561198013237629,"connected_time":1332000000000,"state":"active","ping":91},{"user_id":453,"name":"Le Bon Toutou","steam_id":76561198300902712,"connected_time":2087000000000,"state":"active","ping":77},{"user_id":479,"name":"Giovine Killjoy","steam_id":76561198059375315,"connected_time":275000000000,"state":"active","ping":69},{"user_id":451,"name":"Wardruna96","steam_id":76561199057083828,"connected_time":2318000000000,"state":"active","ping":83},{"user_id":394,"name":"Johnny Cockroach","steam_id":76561198049648277,"connected_time":6559000000000,"state":"active","ping":105},{"user_id":454,"name":"Sorky","steam_id":76561198007502339,"connected_time":2072000000000,"state":"active","ping":73},{"user_id":470,"name":"BX","steam_id":76561197962889211,"connected_time":739000000000,"state":"active","ping":62},{"user_id":475,"name":"BOT Jeremus","steam_id":76561198072981684,"connected_time":593000000000,"state":"active","ping":49},{"user_id":471,"name":"MEDiUM","steam_id":76561198112328561,"connected_time":735000000000,"state":"active","ping":87},{"user_id":480,"name":"Freeman","steam_id":76561198094288793,"connected_time":225000000000,"state":"active","ping":100},{"user_id":467,"name":"Medieval Doktor","steam_id":76561198075373362,"connected_time":1060000000000,"state":"active","ping":41},{"user_id":473,"name":"Benameme","steam_id":76561198074097655,"connected_time":685000000000,"state":"active","ping":54},{"user_id":413,"name":"Rambi","steam_id":76561199058078505,"connected_time":5408000000000,"state":"active","ping":178},{"user_id":481,"name":"haah waaw","steam_id":76561197997807016,"connected_time":160000000000,"state":"active","ping":92},{"user_id":299,"name":"IKARUS","steam_id":76561198850898422,"connected_time":12737000000000,"state":"active","ping":80},{"user_id":477,"name":"My Friend Deagol","steam_id":76561198450859507,"connected_time":493000000000,"state":"active","ping":60},{"user_id":478,"name":"Joseph Stalin LFT","steam_id":76561198033199746,"connected_time":488000000000,"state":"active","ping":54},{"user_id":446,"name":"After8","steam_id":76561198090750865,"connected_time":2582000000000,"state":"active","ping":71}]},{"server_id":114,"name":"Uncletopia | London | 2 | All Maps","name_short":"lon-2","host":"lon-1.uk.uncletopia.com","port":27025,"enabled":true,"region":"eu","cc":"gb","latitude":51.509865,"longitude":-0.118092,"reserved":0,"last_update":"0001-01-01T00:00:00Z","name_a2s":"Uncletopia | London | 2 | All Maps","protocol":17,"map":"pl_swiftwater_final1","folder":"tf","game":"Team Fortress","app_id":440,"player_count":24,"max_players":24,"Bots":0,"server_type":"Dedicated","server_os":"Linux","password":true,"vac":true,"version":"7757534","steam_id":85568392924470941,"keywords":["nocrits","nodmgspread","payload","uncletopia"],"game_id":440,"stv_port":27026,"stv_name":"Uncletopia | London | 2 | All Maps | STV","players":[{"user_id":250,"name":"viktor610126","steam_id":76561198386462300,"connected_time":3859000000000,"state":"active","ping":99},{"user_id":282,"name":"GardenFungus","steam_id":76561198054894337,"connected_time":818000000000,"state":"active","ping":42},{"user_id":248,"name":"Albert Einstein","steam_id":76561198351190006,"connected_time":3899000000000,"state":"active","ping":89},{"user_id":212,"name":"player","steam_id":76561198054474684,"connected_time":6856000000000,"state":"active","ping":87},{"user_id":141,"name":"amy","steam_id":76561198960367693,"connected_time":11875000000000,"state":"active","ping":57},{"user_id":274,"name":"Dwevy","steam_id":76561198090379437,"connected_time":1794000000000,"state":"active","ping":52},{"user_id":243,"name":"Sch","steam_id":76561198071341689,"connected_time":4043000000000,"state":"active","ping":62},{"user_id":228,"name":"the joy of recycling","steam_id":76561198415564349,"connected_time":5695000000000,"state":"active","ping":60},{"user_id":264,"name":"Zerfesh","steam_id":76561198117534358,"connected_time":3250000000000,"state":"active","ping":100},{"user_id":266,"name":"TMC","steam_id":76561198077956157,"connected_time":3087000000000,"state":"active","ping":41},{"user_id":287,"name":"Tickleshits","steam_id":76561198159197241,"connected_time":346000000000,"state":"active","ping":142},{"user_id":286,"name":"trans werewolf (2023-‚àû)","steam_id":76561198107235989,"connected_time":472000000000,"state":"active","ping":63},{"user_id":285,"name":"Lempii","steam_id":76561198433507634,"connected_time":582000000000,"state":"active","ping":90},{"user_id":283,"name":"Mr.Cupcake","steam_id":76561198152711174,"connected_time":751000000000,"state":"active","ping":77},{"user_id":269,"name":"Jayco","steam_id":76561198122497262,"connected_time":2447000000000,"state":"active","ping":62},{"user_id":288,"name":"Koalified","steam_id":76561198095350290,"connected_time":150000000000,"state":"active","ping":181},{"user_id":281,"name":"Fran","steam_id":76561199070516960,"connected_time":926000000000,"state":"active","ping":75},{"user_id":273,"name":"JR","steam_id":76561199013221822,"connected_time":1811000000000,"state":"active","ping":36},{"user_id":272,"name":"hawkblob","steam_id":76561198803720565,"connected_time":1900000000000,"state":"active","ping":66},{"user_id":232,"name":"pepper","steam_id":76561198059782462,"connected_time":4691000000000,"state":"active","ping":61},{"user_id":233,"name":"Dominus.","steam_id":76561199065917088,"connected_time":4663000000000,"state":"active","ping":65},{"user_id":289,"name":"szebniok ‚òÉ‚ùÑüéÑ","steam_id":76561198031435395,"connected_time":102000000000,"state":"active","ping":80},{"user_id":275,"name":"Elegance","steam_id":76561199196164451,"connected_time":1645000000000,"state":"active","ping":74},{"user_id":280,"name":"real photograph of me","steam_id":76561198236015392,"connected_time":1145000000000,"state":"active","ping":128}]},{"server_id":320,"name":"Uncletopia | London | 3 | All Maps","name_short":"lon-3","host":"lon-1.uk.uncletopia.com","port":27035,"enabled":true,"region":"eu","cc":"gb","latitude":51.509865,"longitude":-0.118092,"reserved":0,"last_update":"0001-01-01T00:00:00Z","name_a2s":"Uncletopia | London | 3 | All Maps","protocol":17,"map":"pl_badwater","folder":"tf","game":"Team Fortress","app_id":440,"player_count":24,"max_players":24,"Bots":0,"server_type":"Dedicated","server_os":"Linux","password":true,"vac":true,"version":"7757534","steam_id":85568392924510192,"keywords":["nocrits","nodmgspread","payload","uncletopia"],"game_id":440,"stv_port":27036,"stv_name":"Uncletopia | London | 3 | All Maps | STV","players":[{"user_id":244,"name":"gamerweed5","steam_id":76561198087651151,"connected_time":1790000000000,"state":"active","ping":38},{"user_id":267,"name":"P-47 Thunderbolt","steam_id":76561198153197815,"connected_time":469000000000,"state":"active","ping":61},{"user_id":274,"name":"kanarlover2375","steam_id":76561198012692998,"connected_time":17000000000,"state":"active","ping":50},{"user_id":230,"name":"bob","steam_id":76561198974161184,"connected_time":2510000000000,"state":"active","ping":138},{"user_id":261,"name":"shr1mple","steam_id":76561198173537027,"connected_time":540000000000,"state":"active","ping":72},{"user_id":272,"name":"dafydd","steam_id":76561198052200325,"connected_time":250000000000,"state":"active","ping":87},{"user_id":266,"name":"qlx‚ô•","steam_id":76561198051814530,"connected_time":493000000000,"state":"active","ping":60},{"user_id":268,"name":"Dises Dr. Kollege","steam_id":76561198027697768,"connected_time":465000000000,"state":"active","ping":87},{"user_id":269,"name":"Trash Kat","steam_id":76561199227075789,"connected_time":445000000000,"state":"active","ping":134},{"user_id":273,"name":"htraB","steam_id":76561198043122677,"connected_time":113000000000,"state":"active","ping":62},{"user_id":260,"name":".quickfast.","steam_id":76561199438900919,"connected_time":586000000000,"state":"active","ping":55},{"user_id":139,"name":"poliakov.noam","steam_id":76561199259322961,"connected_time":7258000000000,"state":"active","ping":103},{"user_id":164,"name":"the joy of recycling","steam_id":76561198138509827,"connected_time":5936000000000,"state":"active","ping":78},{"user_id":241,"name":"rat performance","steam_id":76561198065854668,"connected_time":1931000000000,"state":"active","ping":46},{"user_id":254,"name":"firrrow","steam_id":76561199445876470,"connected_time":1378000000000,"state":"active","ping":105},{"user_id":270,"name":"Munibe","steam_id":76561198107967904,"connected_time":442000000000,"state":"active","ping":66},{"user_id":237,"name":"silicon based life form","steam_id":76561199127121346,"connected_time":2085000000000,"state":"active","ping":55},{"user_id":217,"name":"King Col","steam_id":76561198033384990,"connected_time":3316000000000,"state":"active","ping":111},{"user_id":265,"name":"annoying garry","steam_id":76561198019078145,"connected_time":504000000000,"state":"active","ping":86},{"user_id":236,"name":"subway vergil","steam_id":76561199110064166,"connected_time":2157000000000,"state":"active","ping":67},{"user_id":250,"name":"KarlRanzeier","steam_id":76561198066281337,"connected_time":1493000000000,"state":"active","ping":61},{"user_id":231,"name":"Bounter","steam_id":76561198072614188,"connected_time":2423000000000,"state":"active","ping":82},{"user_id":199,"name":"moon","steam_id":76561199212557251,"connected_time":4350000000000,"state":"active","ping":114},{"user_id":271,"name":"leibh√©alfaidh m√© th√∫","steam_id":76561198078484073,"connected_time":432000000000,"state":"active","ping":81}]},{"server_id":321,"name":"Uncletopia | London | 4 | All Maps","name_short":"lon-4","host":"lon-1.uk.uncletopia.com","port":27045,"enabled":true,"region":"eu","cc":"gb","latitude":51.509865,"longitude":-0.118092,"reserved":0,"last_update":"0001-01-01T00:00:00Z","name_a2s":"Uncletopia | London | 4 | All Maps","protocol":17,"map":"pl_barnblitz","folder":"tf","game":"Team Fortress","app_id":440,"player_count":24,"max_players":24,"Bots":0,"server_type":"Dedicated","server_os":"Linux","password":true,"vac":true,"version":"7757534","steam_id":85568392924510193,"keywords":["nocrits","nodmgspread","payload","uncletopia"],"game_id":440,"stv_port":27046,"stv_name":"Uncletopia | London | 4 | All Maps | STV","players":[{"user_id":80,"name":"panakid","steam_id":76561198364121077,"connected_time":919000000000,"state":"active","ping":90},{"user_id":86,"name":"Doctor__Mobius","steam_id":76561197971281806,"connected_time":49000000000,"state":"active","ping":75},{"user_id":83,"name":"Vikud","steam_id":76561199110575856,"connected_time":495000000000,"state":"active","ping":151},{"user_id":53,"name":"Doughy","steam_id":76561198044084210,"connected_time":2256000000000,"state":"active","ping":68},{"user_id":76,"name":"LasagnaLarry22","steam_id":76561198089478290,"connected_time":1078000000000,"state":"active","ping":38},{"user_id":46,"name":"LAYNOSTAYKO","steam_id":76561198218557183,"connected_time":2979000000000,"state":"active","ping":96},{"user_id":72,"name":"beurgeur","steam_id":76561198872426314,"connected_time":1161000000000,"state":"active","ping":44},{"user_id":73,"name":"ricky pee pee","steam_id":76561198152620745,"connected_time":1149000000000,"state":"active","ping":56},{"user_id":74,"name":"ev1lboyo","steam_id":76561199199499453,"connected_time":1135000000000,"state":"active","ping":85},{"user_id":61,"name":"Clitorina","steam_id":76561198077570815,"connected_time":1593000000000,"state":"active","ping":45},{"user_id":68,"name":"Milk","steam_id":76561198125876588,"connected_time":1444000000000,"state":"active","ping":43},{"user_id":60,"name":"pizza time","steam_id":76561199015899793,"connected_time":1784000000000,"state":"active","ping":53},{"user_id":82,"name":"ayu","steam_id":76561198871342329,"connected_time":726000000000,"state":"active","ping":101},{"user_id":69,"name":"murderwow","steam_id":76561198024566944,"connected_time":1432000000000,"state":"active","ping":106},{"user_id":77,"name":".::[SerafeTTiN]::.","steam_id":76561198009471724,"connected_time":1073000000000,"state":"active","ping":94},{"user_id":67,"name":"brinda","steam_id":76561198281374370,"connected_time":1451000000000,"state":"active","ping":41},{"user_id":78,"name":"yop","steam_id":76561199135672389,"connected_time":1073000000000,"state":"active","ping":62},{"user_id":79,"name":"drew","steam_id":76561198012304706,"connected_time":1018000000000,"state":"active","ping":96},{"user_id":36,"name":"aph","steam_id":76561198057722639,"connected_time":4432000000000,"state":"active","ping":69},{"user_id":37,"name":"Welder","steam_id":76561198355300561,"connected_time":4420000000000,"state":"active","ping":70},{"user_id":85,"name":"Staline","steam_id":76561198145018142,"connected_time":146000000000,"state":"active","ping":68},{"user_id":39,"name":"JohnarasGamer1","steam_id":76561198365929872,"connected_time":4415000000000,"state":"active","ping":82},{"user_id":48,"name":"Nemo. #SaveTF2","steam_id":76561197996173545,"connected_time":2936000000000,"state":"active","ping":73},{"user_id":49,"name":"Bubble Bobble","steam_id":76561197996124289,"connected_time":2906000000000,"state":"active","ping":62}]},{"server_id":21,"name":"Uncletopia | London | 5 | All Maps","name_short":"lon-5","host":"lon-1.uk.uncletopia.com","port":27055,"enabled":true,"region":"eu","cc":"gb","latitude":51.509865,"longitude":-0.118092,"reserved":0,"last_update":"0001-01-01T00:00:00Z","name_a2s":"Uncletopia | London | 5 | All Maps","protocol":17,"map":"koth_lakeside_final","folder":"tf","game":"Team Fortress","app_id":440,"player_count":1,"max_players":24,"Bots":0,"server_type":"Dedicated","server_os":"Linux","password":true,"vac":true,"version":"7757534","steam_id":85568392924742829,"keywords":["cp","nocrits","nodmgspread","uncletopia"],"game_id":440,"stv_port":27056,"stv_name":"Uncletopia | London | 5 | All Maps | STV","players":[{"user_id":12,"name":"hot cup of leaf tea","steam_id":76561198854720925,"connected_time":36000000000,"state":"spawning","ping":88}]},{"server_id":22,"name":"Uncletopia | London | 6 | All Maps","name_short":"lon-6","host":"lon-1.uk.uncletopia.com","port":27065,"enabled":true,"region":"eu","cc":"gb","latitude":51.509865,"longitude":-0.118092,"reserved":0,"last_update":"0001-01-01T00:00:00Z","name_a2s":"Uncletopia | London | 6 | All Maps","protocol":17,"map":"pl_swiftwater_final1","folder":"tf","game":"Team Fortress","app_id":440,"player_count":0,"max_players":24,"Bots":0,"server_type":"Dedicated","server_os":"Linux","password":true,"vac":true,"version":"7757534","steam_id":85568392924742830,"keywords":["nocrits","nodmgspread","payload","uncletopia"],"game_id":440,"stv_port":27066,"stv_name":"Uncletopia | London | 6 | All Maps | STV","players":null},{"server_id":40,"name":"Uncletopia | London | 7 | No Payload","name_short":"lon-7","host":"lon-1.uk.uncletopia.com","port":27075,"enabled":true,"region":"eu","cc":"gb","latitude":51.509865,"longitude":-0.118092,"reserved":0,"last_update":"0001-01-01T00:00:00Z","name_a2s":"Uncletopia | London | 7 | No Payload","protocol":17,"map":"koth_harvest_final","folder":"tf","game":"Team Fortress","app_id":440,"player_count":16,"max_players":24,"Bots":0,"server_type":"Dedicated","server_os":"Linux","password":true,"vac":true,"version":"7757534","steam_id":85568392924964314,"keywords":["cp","nocrits","nodmgspread","uncletopia"],"game_id":440,"stv_port":27076,"stv_name":"Uncletopia | London | 7 | No Payload | STV","players":[{"user_id":102,"name":"Edwin","steam_id":76561198238643708,"connected_time":135000000000,"state":"active","ping":102},{"user_id":89,"name":".SmileyFace.","steam_id":76561198093316828,"connected_time":554000000000,"state":"active","ping":46},{"user_id":90,"name":"Potato69","steam_id":76561198171581682,"connected_time":528000000000,"state":"active","ping":107},{"user_id":91,"name":"nop 21","steam_id":76561198331641220,"connected_time":504000000000,"state":"active","ping":46},{"user_id":92,"name":"Giclas","steam_id":76561198061187364,"connected_time":482000000000,"state":"active","ping":45},{"user_id":84,"name":"Mass","steam_id":76561198432195204,"connected_time":1248000000000,"state":"active","ping":60},{"user_id":93,"name":"TryTane","steam_id":76561198133293111,"connected_time":403000000000,"state":"active","ping":60},{"user_id":94,"name":"Elmar.","steam_id":76561198082213179,"connected_time":387000000000,"state":"active","ping":52},{"user_id":107,"name":"Mor'du","steam_id":76561198274105878,"connected_time":38000000000,"state":"active","ping":92},{"user_id":100,"name":"Proto","steam_id":76561198225443732,"connected_time":153000000000,"state":"active","ping":59},{"user_id":98,"name":"PilloF","steam_id":76561198088635943,"connected_time":301000000000,"state":"active","ping":77},{"user_id":108,"name":"eeeeee","steam_id":76561198017786875,"connected_time":28000000000,"state":"active","ping":67},{"user_id":104,"name":"Miles","steam_id":76561198084891833,"connected_time":113000000000,"state":"active","ping":51},{"user_id":105,"name":"Ixsus\u003c3","steam_id":76561198094756869,"connected_time":112000000000,"state":"active","ping":64},{"user_id":106,"name":"VibeCheck","steam_id":76561198425961218,"connected_time":109000000000,"state":"active","ping":105},{"user_id":109,"name":"Carrotcracker","steam_id":76561198034862396,"connected_time":8000000000,"state":"spawning","ping":67}]},{"server_id":41,"name":"Uncletopia | London | 8 | Community","name_short":"lon-8","host":"lon-1.uk.uncletopia.com","port":27085,"enabled":true,"region":"eu","cc":"gb","latitude":51.509865,"longitude":-0.118092,"reserved":0,"last_update":"0001-01-01T00:00:00Z","name_a2s":"Uncletopia | London | 8 | Community","protocol":17,"map":"workshop/koth_synthetic_rc6a.ugc1549817316","folder":"tf","game":"Team Fortress","app_id":440,"player_count":0,"max_players":24,"Bots":0,"server_type":"Dedicated","server_os":"Linux","password":true,"vac":true,"version":"7757534","steam_id":85568392924964315,"keywords":["cp","nocrits","nodmgspread","uncletopia"],"game_id":440,"stv_port":27086,"stv_name":"Uncletopia | London | 8 | Community | STV","players":null},{"server_id":300,"name":"Uncletopia | Montr√©al | 1 | All Maps","name_short":"mtl-1","host":"mtl-1.ca.uncletopia.com","port":27015,"enabled":true,"region":"us-east","cc":"ca","latitude":45.50889,"longitude":-73.56167,"reserved":0,"last_update":"0001-01-01T00:00:00Z","name_a2s":"Uncletopia | Montr√©al | 1 | All Maps","protocol":17,"map":"koth_cascade","folder":"tf","game":"Team Fortress","app_id":440,"player_count":0,"max_players":24,"Bots":0,"server_type":"Dedicated","server_os":"Linux","password":true,"vac":true,"version":"7757534","steam_id":85568392924500087,"keywords":["cp","nocrits","nodmgspread","uncletopia"],"game_id":440,"stv_port":27016,"stv_name":"Uncletopia | Montr√©al | 1 | All Maps | STV","players":null},{"server_id":301,"name":"Uncletopia | Montr√©al | 2 | All Maps","name_short":"mtl-2","host":"mtl-1.ca.uncletopia.com","port":27025,"enabled":true,"region":"us-east","cc":"ca","latitude":45.50889,"longitude":-73.56167,"reserved":0,"last_update":"0001-01-01T00:00:00Z","name_a2s":"Uncletopia | Montr√©al | 2 | All Maps","protocol":17,"map":"pl_upward","folder":"tf","game":"Team Fortress","app_id":440,"player_count":0,"max_players":24,"Bots":0,"server_type":"Dedicated","server_os":"Linux","password":true,"vac":true,"version":"7757534","steam_id":85568392924500088,"keywords":["nocrits","nodmgspread","payload","uncletopia"],"game_id":440,"stv_port":27026,"stv_name":"Uncletopia | Montr√©al | 2 | All Maps | STV","players":null},{"server_id":302,"name":"Uncletopia | Montr√©al | 3 | All Maps","name_short":"mtl-3","host":"mtl-1.ca.uncletopia.com","port":27035,"enabled":true,"region":"us-east","cc":"ca","latitude":45.50889,"longitude":-73.56167,"reserved":0,"last_update":"0001-01-01T00:00:00Z","name_a2s":"Uncletopia | Montr√©al | 3 | All Maps","protocol":17,"map":"cp_sunshine","folder":"tf","game":"Team Fortress","app_id":440,"player_count":0,"max_players":24,"Bots":0,"server_type":"Dedicated","server_os":"Linux","password":true,"vac":true,"version":"7757534","steam_id":85568392924500089,"keywords":["cp","nocrits","nodmgspread","uncletopia"],"game_id":440,"stv_port":27036,"stv_name":"Uncletopia | Montr√©al | 3 | All Maps | STV","players":null},{"server_id":303,"name":"Uncletopia | Montr√©al | 4 | No Payload","name_short":"mtl-4","host":"mtl-1.ca.uncletopia.com","port":27045,"enabled":true,"region":"us-east","cc":"ca","latitude":45.50889,"longitude":-73.56167,"reserved":0,"last_update":"0001-01-01T00:00:00Z","name_a2s":"Uncletopia | Montr√©al | 4 | No Payload","protocol":17,"map":"koth_lakeside_final","folder":"tf","game":"Team Fortress","app_id":440,"player_count":0,"max_players":24,"Bots":0,"server_type":"Dedicated","server_os":"Linux","password":true,"vac":true,"version":"7757534","steam_id":85568392924500090,"keywords":["cp","nocrits","nodmgspread","uncletopia"],"game_id":440,"stv_port":27046,"stv_name":"Uncletopia | Montr√©al | 4 | No Payload | STV","players":null},{"server_id":13,"name":"Uncletopia | New York City | 1 | All Maps","name_short":"nyc-1","host":"nyc-1.us.uncletopia.com","port":27015,"enabled":true,"region":"us-east","cc":"us","latitude":40.73061,"longitude":-73.93524,"reserved":0,"last_update":"0001-01-01T00:00:00Z","name_a2s":"Uncletopia | New York City | 1 | All Maps","protocol":17,"map":"cp_altitude","folder":"tf","game":"Team Fortress","app_id":440,"player_count":0,"max_players":24,"Bots":0,"server_type":"Dedicated","server_os":"Linux","password":true,"vac":true,"version":"7757534","steam_id":85568392924469993,"keywords":["cp","nocrits","nodmgspread","uncletopia"],"game_id":440,"stv_port":27016,"stv_name":"Uncletopia | New York City | 1 | All Maps | STV","players":null},{"server_id":14,"name":"Uncletopia | New York City | 2 | All Maps","name_short":"nyc-2","host":"nyc-1.us.uncletopia.com","port":27025,"enabled":true,"region":"us-east","cc":"us","latitude":40.73061,"longitude":-73.93524,"reserved":0,"last_update":"0001-01-01T00:00:00Z","name_a2s":"Uncletopia | New York City | 2 | All Maps","protocol":17,"map":"pl_snowycoast","folder":"tf","game":"Team Fortress","app_id":440,"player_count":0,"max_players":24,"Bots":0,"server_type":"Dedicated","server_os":"Linux","password":true,"vac":true,"version":"7757534","steam_id":85568392924469994,"keywords":["nocrits","nodmgspread","payload","uncletopia"],"game_id":440,"stv_port":27026,"stv_name":"Uncletopia | New York City | 2 | All Maps | STV","players":null},{"server_id":15,"name":"Uncletopia | New York City | 3 | Stopwatch Beta","name_short":"nyc-3","host":"nyc-1.us.uncletopia.com","port":27035,"enabled":true,"region":"us-east","cc":"us","latitude":40.73061,"longitude":-73.93524,"reserved":0,"last_update":"0001-01-01T00:00:00Z","name_a2s":"Uncletopia | New York City | 3 | Stopwatch Beta","protocol":17,"map":"koth_lakeside_final","folder":"tf","game":"Team Fortress","app_id":440,"player_count":0,"max_players":24,"Bots":0,"server_type":"Dedicated","server_os":"Linux","password":true,"vac":true,"version":"7757534","steam_id":85568392924742820,"keywords":["cp","nocrits","nodmgspread","uncletopia"],"game_id":440,"stv_port":27036,"stv_name":"Uncletopia | New York City | 3 | Stopwatch Beta | STV","players":null},{"server_id":16,"name":"Uncletopia | New York City | 4 | Community","name_short":"nyc-4","host":"nyc-1.us.uncletopia.com","port":27045,"enabled":true,"region":"us-east","cc":"us","latitude":40.73061,"longitude":-73.93524,"reserved":0,"last_update":"0001-01-01T00:00:00Z","name_a2s":"Uncletopia | New York City | 4 | Community","protocol":17,"map":"pl_borneo","folder":"tf","game":"Team Fortress","app_id":440,"player_count":0,"max_players":24,"Bots":0,"server_type":"Dedicated","server_os":"Linux","password":true,"vac":true,"version":"7757534","steam_id":85568392924742821,"keywords":["nocrits","nodmgspread","payload","uncletopia"],"game_id":440,"stv_port":27046,"stv_name":"Uncletopia | New York City | 4 | Community | STV","players":null},{"server_id":142,"name":"Uncletopia | S√£o Paulo | 1 | All Maps","name_short":"sao-1","host":"sao-1.br.uncletopia.com","port":27015,"enabled":true,"region":"sa","cc":"br","latitude":-23.533773,"longitude":-46.62529,"reserved":0,"last_update":"0001-01-01T00:00:00Z","name_a2s":"Uncletopia | S√£o Paulo | 1 | All Maps","protocol":17,"map":"pl_snowycoast","folder":"tf","game":"Team Fortress","app_id":440,"player_count":0,"max_players":24,"Bots":0,"server_type":"Dedicated","server_os":"Linux","password":true,"vac":true,"version":"7757534","steam_id":85568392924469996,"keywords":["nocrits","nodmgspread","payload","uncletopia"],"game_id":440,"stv_port":27016,"stv_name":"Uncletopia | S√£o Paulo | 1 | All Maps | STV","players":null},{"server_id":143,"name":"Uncletopia | S√£o Paulo | 2 | All Maps","name_short":"sao-2","host":"sao-2.br.uncletopia.com","port":27015,"enabled":true,"region":"sa","cc":"br","latitude":-23.533773,"longitude":-46.62529,"reserved":0,"last_update":"0001-01-01T00:00:00Z","name_a2s":"Uncletopia | S√£o Paulo | 2 | All Maps","protocol":17,"map":"cp_dustbowl","folder":"tf","game":"Team Fortress","app_id":440,"player_count":0,"max_players":24,"Bots":0,"server_type":"Dedicated","server_os":"Linux","password":true,"vac":true,"version":"7757534","steam_id":85568392924485349,"keywords":["cp","nocrits","nodmgspread","uncletopia"],"game_id":440,"stv_port":27016,"stv_name":"Uncletopia | S√£o Paulo | 2 | All Maps | STV","players":null},{"server_id":7,"name":"Uncletopia | Seattle | 1 | All Maps","name_short":"sea-1","host":"sea-1.us.uncletopia.com","port":27015,"enabled":true,"region":"us-west","cc":"us","latitude":47.608013,"longitude":-122.33517,"reserved":0,"last_update":"0001-01-01T00:00:00Z","name_a2s":"Uncletopia | Seattle | 1 | All Maps","protocol":17,"map":"pl_barnblitz","folder":"tf","game":"Team Fortress","app_id":440,"player_count":0,"max_players":24,"Bots":0,"server_type":"Dedicated","server_os":"Linux","password":true,"vac":true,"version":"7757534","steam_id":85568392924469997,"keywords":["nocrits","nodmgspread","payload","uncletopia"],"game_id":440,"stv_port":27016,"stv_name":"Uncletopia | Seattle | 1 | All Maps | STV","players":null},{"server_id":119,"name":"Uncletopia | Seattle | 2 | All Maps","name_short":"sea-2","host":"sea-1.us.uncletopia.com","port":27025,"enabled":true,"region":"us-west","cc":"us","latitude":47.608013,"longitude":-122.33517,"reserved":0,"last_update":"0001-01-01T00:00:00Z","name_a2s":"Uncletopia | Seattle | 2 | All Maps","protocol":17,"map":"cp_process_final","folder":"tf","game":"Team Fortress","app_id":440,"player_count":0,"max_players":24,"Bots":0,"server_type":"Dedicated","server_os":"Linux","password":true,"vac":true,"version":"7757534","steam_id":85568392924469998,"keywords":["cp","nocrits","nodmgspread","uncletopia"],"game_id":440,"stv_port":27026,"stv_name":"Uncletopia | Seattle | 2 | All Maps | STV","players":null},{"server_id":406,"name":"Uncletopia | Seattle | 3 | Stopwatch Beta","name_short":"sea-3","host":"sea-1.us.uncletopia.com","port":27035,"enabled":true,"region":"us-west","cc":"us","latitude":47.608013,"longitude":-122.33517,"reserved":0,"last_update":"0001-01-01T00:00:00Z","name_a2s":"Uncletopia | Seattle | 3 | Stopwatch Beta","protocol":17,"map":"cp_sunshine","folder":"tf","game":"Team Fortress","app_id":440,"player_count":0,"max_players":24,"Bots":0,"server_type":"Dedicated","server_os":"Linux","password":true,"vac":true,"version":"7757534","steam_id":85568392924515217,"keywords":["cp","nocrits","nodmgspread","uncletopia"],"game_id":440,"stv_port":27036,"stv_name":"Uncletopia | Seattle | 3 | Stopwatch Beta | STV","players":null},{"server_id":17,"name":"Uncletopia | San Francisco | 1 | All Maps","name_short":"sfo-1","host":"sfo-1.us.uncletopia.com","port":27015,"enabled":true,"region":"us-west","cc":"us","latitude":37.77397,"longitude":-122.4313,"reserved":0,"last_update":"0001-01-01T00:00:00Z","name_a2s":"Uncletopia | San Francisco | 1 | All Maps","protocol":17,"map":"pl_pier","folder":"tf","game":"Team Fortress","app_id":440,"player_count":0,"max_players":24,"Bots":0,"server_type":"Dedicated","server_os":"Linux","password":true,"vac":true,"version":"7757534","steam_id":85568392924469999,"keywords":["nocrits","nodmgspread","payload","uncletopia"],"game_id":440,"stv_port":27016,"stv_name":"Uncletopia | San Francisco | 1 | All Maps | STV","players":null},{"server_id":18,"name":"Uncletopia | San Francisco | 2 | All Maps","name_short":"sfo-2","host":"sfo-1.us.uncletopia.com","port":27025,"enabled":true,"region":"us-west","cc":"us","latitude":37.77397,"longitude":-122.4313,"reserved":0,"last_update":"0001-01-01T00:00:00Z","name_a2s":"Uncletopia | San Francisco | 2 | All Maps","protocol":17,"map":"cp_mountainlab","folder":"tf","game":"Team Fortress","app_id":440,"player_count":0,"max_players":24,"Bots":0,"server_type":"Dedicated","server_os":"Linux","password":true,"vac":true,"version":"7757534","steam_id":85568392924470000,"keywords":["cp","nocrits","nodmgspread","uncletopia"],"game_id":440,"stv_port":27026,"stv_name":"Uncletopia | San Francisco | 2 | All Maps | STV","players":null},{"server_id":19,"name":"Uncletopia | San Francisco | 3 | Stopwatch Beta","name_short":"sfo-3","host":"sfo-1.us.uncletopia.com","port":27035,"enabled":true,"region":"us-west","cc":"us","latitude":37.77397,"longitude":-122.4313,"reserved":0,"last_update":"0001-01-01T00:00:00Z","name_a2s":"Uncletopia | San Francisco | 3 | Stopwatch Beta","protocol":17,"map":"koth_viaduct","folder":"tf","game":"Team Fortress","app_id":440,"player_count":0,"max_players":24,"Bots":0,"server_type":"Dedicated","server_os":"Linux","password":true,"vac":true,"version":"7757534","steam_id":85568392924742824,"keywords":["cp","nocrits","nodmgspread","uncletopia"],"game_id":440,"stv_port":27036,"stv_name":"Uncletopia | San Francisco | 3 | Stopwatch Beta | STV","players":null},{"server_id":20,"name":"Uncletopia | San Francisco | 4 | Community","name_short":"sfo-4","host":"sfo-1.us.uncletopia.com","port":27045,"enabled":true,"region":"us-west","cc":"us","latitude":37.77397,"longitude":-122.4313,"reserved":0,"last_update":"0001-01-01T00:00:00Z","name_a2s":"Uncletopia | San Francisco | 4 | Community","protocol":17,"map":"pl_borneo","folder":"tf","game":"Team Fortress","app_id":440,"player_count":0,"max_players":24,"Bots":0,"server_type":"Dedicated","server_os":"Linux","password":true,"vac":true,"version":"7757534","steam_id":85568392924742826,"keywords":["nocrits","nodmgspread","payload","uncletopia"],"game_id":440,"stv_port":27046,"stv_name":"Uncletopia | San Francisco | 4 | Community | STV","players":null},{"server_id":141,"name":"Uncletopia | Sydney | 1 | All Maps","name_short":"syd-1","host":"syd-1.au.uncletopia.com","port":27015,"enabled":true,"region":"au","cc":"au","latitude":-33.865143,"longitude":151.2099,"reserved":0,"last_update":"0001-01-01T00:00:00Z","name_a2s":"Uncletopia | Sydney | 1 | All Maps","protocol":17,"map":"pl_barnblitz","folder":"tf","game":"Team Fortress","app_id":440,"player_count":14,"max_players":24,"Bots":0,"server_type":"Dedicated","server_os":"Linux","password":true,"vac":true,"version":"7757534","steam_id":85568392924470001,"keywords":["nocrits","nodmgspread","payload","uncletopia"],"game_id":440,"stv_port":27016,"stv_name":"Uncletopia | Sydney | 1 | All Maps | STV","players":[{"user_id":638,"name":"pmc","steam_id":76561198367020431,"connected_time":139000000000,"state":"active","ping":55},{"user_id":615,"name":"JayCatnip","steam_id":76561198125106357,"connected_time":2144000000000,"state":"active","ping":74},{"user_id":636,"name":"eddee","steam_id":76561198046121468,"connected_time":553000000000,"state":"active","ping":285},{"user_id":616,"name":"Thesupersnooper","steam_id":76561199064105515,"connected_time":2109000000000,"state":"active","ping":96},{"user_id":624,"name":"YungBingchilling","steam_id":76561199215980456,"connected_time":1479000000000,"state":"active","ping":181},{"user_id":582,"name":"Glaistig Uaine","steam_id":76561198056798610,"connected_time":5454000000000,"state":"active","ping":88},{"user_id":626,"name":"Mouse Balls","steam_id":76561199037470627,"connected_time":1414000000000,"state":"active","ping":100},{"user_id":633,"name":"doctor anthrax","steam_id":76561198041342769,"connected_time":852000000000,"state":"active","ping":100},{"user_id":592,"name":"Scorchinq","steam_id":76561198169423722,"connected_time":4781000000000,"state":"active","ping":53},{"user_id":559,"name":"hobo","steam_id":76561199046481213,"connected_time":8072000000000,"state":"active","ping":63},{"user_id":627,"name":"Branko","steam_id":76561199262196710,"connected_time":1326000000000,"state":"active","ping":55},{"user_id":601,"name":"bird","steam_id":76561198258514103,"connected_time":3715000000000,"state":"active","ping":67},{"user_id":635,"name":"D,Knight","steam_id":76561198434385732,"connected_time":572000000000,"state":"active","ping":231},{"user_id":613,"name":"TouchGrass","steam_id":76561198347693630,"connected_time":2422000000000,"state":"active","ping":75}]},{"server_id":123,"name":"Uncletopia | Sydney | 2 | All Maps","name_short":"syd-2","host":"syd-1.au.uncletopia.com","port":27025,"enabled":true,"region":"au","cc":"au","latitude":-33.865143,"longitude":151.2099,"reserved":0,"last_update":"0001-01-01T00:00:00Z","name_a2s":"Uncletopia | Sydney | 2 | All Maps","protocol":17,"map":"pl_borneo","folder":"tf","game":"Team Fortress","app_id":440,"player_count":0,"max_players":24,"Bots":0,"server_type":"Dedicated","server_os":"Linux","password":true,"vac":true,"version":"7757534","steam_id":85568392924470002,"keywords":["nocrits","nodmgspread","payload","uncletopia"],"game_id":440,"stv_port":27026,"stv_name":"Uncletopia | Sydney | 2 | All Maps | STV","players":null},{"server_id":395,"name":"Uncletopia | Sydney | 3 | All Maps","name_short":"syd-3","host":"syd-1.au.uncletopia.com","port":27035,"enabled":true,"region":"au","cc":"au","latitude":-33.865143,"longitude":151.2099,"reserved":0,"last_update":"0001-01-01T00:00:00Z","name_a2s":"Uncletopia | Sydney | 3 | All Maps","protocol":17,"map":"cp_snakewater_final1","folder":"tf","game":"Team Fortress","app_id":440,"player_count":0,"max_players":24,"Bots":0,"server_type":"Dedicated","server_os":"Linux","password":true,"vac":true,"version":"7757534","steam_id":85568392925194467,"keywords":["cp","nocrits","nodmgspread","uncletopia"],"game_id":440,"stv_port":27036,"stv_name":"Uncletopia | Sydney | 3 | All Maps | STV","players":null},{"server_id":396,"name":"Uncletopia | Sydney | 4 | All Maps","name_short":"syd-4","host":"syd-1.au.uncletopia.com","port":27045,"enabled":true,"region":"au","cc":"au","latitude":-33.865143,"longitude":151.2099,"reserved":0,"last_update":"0001-01-01T00:00:00Z","name_a2s":"Uncletopia | Sydney | 4 | All Maps","protocol":17,"map":"koth_highpass","folder":"tf","game":"Team Fortress","app_id":440,"player_count":0,"max_players":24,"Bots":0,"server_type":"Dedicated","server_os":"Linux","password":true,"vac":true,"version":"7757534","steam_id":85568392925397958,"keywords":["cp","nocrits","nodmgspread","uncletopia"],"game_id":440,"stv_port":27046,"stv_name":"Uncletopia | Sydney | 4 | All Maps | STV","players":null},{"server_id":58,"name":"Uncletopia | Sydney | 5 | Stopwatch Beta","name_short":"syd-5","host":"syd-1.au.uncletopia.com","port":27055,"enabled":true,"region":"au","cc":"au","latitude":-33.865143,"longitude":151.2099,"reserved":0,"last_update":"0001-01-01T00:00:00Z","name_a2s":"Uncletopia | Sydney | 5 | Stopwatch Beta","protocol":17,"map":"workshop/pl_barnblitz_pro7.ugc582280235","folder":"tf","game":"Team Fortress","app_id":440,"player_count":0,"max_players":24,"Bots":0,"server_type":"Dedicated","server_os":"Linux","password":true,"vac":true,"version":"7757534","steam_id":85568392925397959,"keywords":["nocrits","nodmgspread","payload","uncletopia"],"game_id":440,"stv_port":27056,"stv_name":"Uncletopia | Sydney | 5 | Stopwatch Beta | STV","players":null},{"server_id":59,"name":"Uncletopia | Sydney | 6 | Community","name_short":"syd-6","host":"syd-1.au.uncletopia.com","port":27065,"enabled":true,"region":"au","cc":"au","latitude":-33.865143,"longitude":151.2099,"reserved":0,"last_update":"0001-01-01T00:00:00Z","name_a2s":"Uncletopia | Sydney | 6 | Community","protocol":17,"map":"workshop/koth_ramjam_rc1.ugc459778887","folder":"tf","game":"Team Fortress","app_id":440,"player_count":0,"max_players":24,"Bots":0,"server_type":"Dedicated","server_os":"Linux","password":true,"vac":true,"version":"7757534","steam_id":85568392925397960,"keywords":["cp","nocrits","nodmgspread","uncletopia"],"game_id":440,"stv_port":27066,"stv_name":"Uncletopia | Sydney | 6 | Community | STV","players":null},{"server_id":49,"name":"Uncletopia | Warsaw | 1 | All Maps","name_short":"waw-1","host":"waw-1.pl.uncletopia.com","port":27015,"enabled":true,"region":"eu","cc":"pl","latitude":52.2297,"longitude":21.017532,"reserved":0,"last_update":"0001-01-01T00:00:00Z","name_a2s":"","protocol":0,"map":"","folder":"","game":"","app_id":0,"player_count":0,"max_players":0,"Bots":0,"server_type":"","server_os":"","password":false,"vac":false,"version":"","steam_id":0,"keywords":null,"game_id":0,"stv_port":0,"stv_name":"","players":null},{"server_id":50,"name":"Uncletopia | Warsaw | 2 | All Maps","name_short":"waw-2","host":"waw-1.pl.uncletopia.com","port":27025,"enabled":true,"region":"eu","cc":"pl","latitude":52.2297,"longitude":21.017532,"reserved":0,"last_update":"0001-01-01T00:00:00Z","name_a2s":"Uncletopia | Warsaw | 2 | All Maps","protocol":17,"map":"koth_viaduct","folder":"tf","game":"Team Fortress","app_id":440,"player_count":0,"max_players":24,"Bots":0,"server_type":"Dedicated","server_os":"Linux","password":true,"vac":true,"version":"7757534","steam_id":85568392925397851,"keywords":["cp","nocrits","nodmgspread","uncletopia"],"game_id":440,"stv_port":27026,"stv_name":"Uncletopia | Warsaw | 2 | All Maps | STV","players":null},{"server_id":51,"name":"Uncletopia | Warsaw | 3 | All Maps","name_short":"waw-3","host":"waw-1.pl.uncletopia.com","port":27035,"enabled":true,"region":"eu","cc":"pl","latitude":52.2297,"longitude":21.017532,"reserved":0,"last_update":"0001-01-01T00:00:00Z","name_a2s":"Uncletopia | Warsaw | 3 | All Maps","protocol":17,"map":"pl_upward","folder":"tf","game":"Team Fortress","app_id":440,"player_count":24,"max_players":24,"Bots":0,"server_type":"Dedicated","server_os":"Linux","password":true,"vac":true,"version":"7757534","steam_id":85568392925397852,"keywords":["nocrits","nodmgspread","payload","uncletopia"],"game_id":440,"stv_port":27036,"stv_name":"Uncletopia | Warsaw | 3 | All Maps | STV","players":[{"user_id":7,"name":"Age","steam_id":76561197985880056,"connected_time":4715000000000,"state":"active","ping":72},{"user_id":8,"name":"Opan","steam_id":76561197971672781,"connected_time":4695000000000,"state":"active","ping":76},{"user_id":46,"name":"nu jebal","steam_id":76561198295834949,"connected_time":1742000000000,"state":"active","ping":69},{"user_id":10,"name":"Mangaggaway","steam_id":76561198361187323,"connected_time":4654000000000,"state":"active","ping":70},{"user_id":11,"name":"ZEN","steam_id":76561199217268477,"connected_time":4641000000000,"state":"active","ping":73},{"user_id":28,"name":"Ane≈•√°k","steam_id":76561198159294906,"connected_time":2444000000000,"state":"active","ping":62},{"user_id":13,"name":"Plankton","steam_id":76561197990137093,"connected_time":4605000000000,"state":"active","ping":71},{"user_id":23,"name":"EdgyKItro","steam_id":76561199018665986,"connected_time":2858000000000,"state":"active","ping":80},{"user_id":56,"name":"JoJo","steam_id":76561198296920548,"connected_time":843000000000,"state":"active","ping":117},{"user_id":53,"name":"Bullets","steam_id":76561198058876482,"connected_time":906000000000,"state":"active","ping":88},{"user_id":55,"name":"Unemployedcamel","steam_id":76561198103908668,"connected_time":873000000000,"state":"active","ping":53},{"user_id":49,"name":"tj","steam_id":76561198160466307,"connected_time":1594000000000,"state":"active","ping":95},{"user_id":29,"name":"GregerUlander","steam_id":76561198152375055,"connected_time":2442000000000,"state":"active","ping":95},{"user_id":60,"name":"ArekanPL","steam_id":76561198306811916,"connected_time":256000000000,"state":"active","ping":50},{"user_id":35,"name":"DocForYou","steam_id":76561198818946856,"connected_time":2360000000000,"state":"active","ping":45},{"user_id":32,"name":"êÇÉ","steam_id":76561198874987906,"connected_time":2380000000000,"state":"active","ping":112},{"user_id":61,"name":"LOBZIK","steam_id":76561198114830120,"connected_time":71000000000,"state":"spawning","ping":187},{"user_id":52,"name":"Morrran","steam_id":76561198345588336,"connected_time":1341000000000,"state":"active","ping":98},{"user_id":40,"name":"goodguy","steam_id":76561199048167724,"connected_time":2174000000000,"state":"active","ping":114},{"user_id":59,"name":"zheel","steam_id":76561198354135485,"connected_time":318000000000,"state":"active","ping":79},{"user_id":42,"name":"erobrine2","steam_id":76561198173218318,"connected_time":2163000000000,"state":"active","ping":65},{"user_id":44,"name":"GaySchlatt","steam_id":76561198436817109,"connected_time":1813000000000,"state":"active","ping":86},{"user_id":45,"name":"Snoopy Dilipak","steam_id":76561198358743344,"connected_time":1788000000000,"state":"active","ping":136},{"user_id":48,"name":"Negurescu","steam_id":76561198128777349,"connected_time":1647000000000,"state":"active","ping":100}]},{"server_id":52,"name":"Uncletopia | Warsaw | 4 | All Maps","name_short":"waw-4","host":"waw-1.pl.uncletopia.com","port":27045,"enabled":true,"region":"eu","cc":"pl","latitude":52.2297,"longitude":21.017532,"reserved":0,"last_update":"0001-01-01T00:00:00Z","name_a2s":"Uncletopia | Warsaw | 4 | All Maps","protocol":17,"map":"pl_borneo","folder":"tf","game":"Team Fortress","app_id":440,"player_count":0,"max_players":24,"Bots":0,"server_type":"Dedicated","server_os":"Linux","password":true,"vac":true,"version":"7757534","steam_id":85568392925397853,"keywords":["nocrits","nodmgspread","payload","uncletopia"],"game_id":440,"stv_port":27046,"stv_name":"Uncletopia | Warsaw | 4 | All Maps | STV","players":null},{"server_id":53,"name":"Uncletopia | Warsaw | 5 | Stopwatch Beta","name_short":"waw-5","host":"waw-1.pl.uncletopia.com","port":27055,"enabled":true,"region":"eu","cc":"pl","latitude":52.2297,"longitude":21.017532,"reserved":0,"last_update":"0001-01-01T00:00:00Z","name_a2s":"Uncletopia | Warsaw | 5 | Stopwatch Beta","protocol":17,"map":"cp_gullywash_final1","folder":"tf","game":"Team Fortress","app_id":440,"player_count":0,"max_players":24,"Bots":0,"server_type":"Dedicated","server_os":"Linux","password":true,"vac":true,"version":"7757534","steam_id":85568392925397854,"keywords":["cp","nocrits","nodmgspread","uncletopia"],"game_id":440,"stv_port":27056,"stv_name":"Uncletopia | Warsaw | 5 | Stopwatch Beta | STV","players":null},{"server_id":54,"name":"Uncletopia | Warsaw | 6 | Community","name_short":"waw-6","host":"waw-1.pl.uncletopia.com","port":27065,"enabled":true,"region":"eu","cc":"pl","latitude":52.2297,"longitude":21.017532,"reserved":0,"last_update":"0001-01-01T00:00:00Z","name_a2s":"Uncletopia | Warsaw | 6 | Community","protocol":17,"map":"pl_barnblitz","folder":"tf","game":"Team Fortress","app_id":440,"player_count":0,"max_players":24,"Bots":0,"server_type":"Dedicated","server_os":"Linux","password":true,"vac":true,"version":"7757534","steam_id":85568392925397856,"keywords":["nocrits","nodmgspread","payload","uncletopia"],"game_id":440,"stv_port":27066,"stv_name":"Uncletopia | Warsaw | 6 | Community | STV","players":null}]}