{"status":true,"message":"","result":[{"server_id":9,"name":"Uncletopia | Atlanta | 1 | All Maps","name_short":"atl-1","host":"atl-1.us.uncletopia.com","port":27015,"enabled":true,"region":"us-east","cc":"us","latitude":33.753746,"longitude":-84.38633,"reserved":0,"last_update":"0001-01-01T00:00:00Z","name_a2s":"Uncletopia | Atlanta | 1 | All Maps","protocol":17,"map":"pl_swiftwater_final1","folder":"tf","game":"Team Fortress","app_id":440,"player_count":24,"max_players":24,"Bots":0,"server_type":"Dedicated","server_os":"Linux","password":true,"vac":true,"version":"7757534","steam_id":85568392924469982,"keywords":["nocrits","nodmgspread","payload","uncletopia"],"game_id":440,"stv_port":27016,"stv_name":"Uncletopia | Atlanta | 1 | All Maps | STV","players":[{"user_id":380,"name":"BasicPeaches","steam_id":76561198190890150,"connected_time":1047000000000,"state":"active","ping":76},{"user_id":368,"name":"Lunchboxx","steam_id":76561198079735916,"connected_time":2712000000000,"state":"active","ping":71},{"user_id":381,"name":"Got Hat?","steam_id":76561197998486431,"connected_time":1043000000000,"state":"active","ping":59},{"user_id":387,"name":"WastefulTrash","steam_id":76561198119003597,"connected_time":713000000000,"state":"active","ping":69},{"user_id":383,"name":"Dino Aids","steam_id":76561199204984924,"connected_time":919000000000,"state":"active","ping":86},{"user_id":393,"name":"adrenaline","steam_id":76561198077902438,"connected_time":347000000000,"state":"active","ping":52},{"user_id":357,"name":"Medium Hog","steam_id":76561198055879094,"connected_time":3283000000000,"state":"active","ping":61},{"user_id":389,"name":"ebcycle","steam_id":76561198045312839,"connected_time":692000000000,"state":"active","ping":71},{"user_id":379,"name":"BERBBLES","steam_id":76561198815107994,"connected_time":1380000000000,"state":"active","ping":56},{"user_id":325,"name":"Firebug","steam_id":76561198081832157,"connected_time":5369000000000,"state":"active","ping":85},{"user_id":373,"name":"wire-guided","steam_id":76561198055407168,"connected_time":2030000000000,"state":"active","ping":54},{"user_id":394,"name":"Bottom Trans Cowgirl","steam_id":76561198304239680,"connected_time":92000000000,"state":"active","ping":69},{"user_id":392,"name":"Nyle","steam_id":76561198045652639,"connected_time":469000000000,"state":"active","ping":115},{"user_id":369,"name":"David De Bergerac","steam_id":76561198010306294,"connected_time":2637000000000,"state":"active","ping":79},{"user_id":395,"name":"RED1 | p4ka","steam_id":76561198315291317,"connected_time":70000000000,"state":"active","ping":74},{"user_id":351,"name":"lil hog","steam_id":76561199230929836,"connected_time":3639000000000,"state":"active","ping":85},{"user_id":366,"name":"Bad Rollout","steam_id":76561197971948876,"connected_time":2930000000000,"state":"active","ping":68},{"user_id":391,"name":"Dragus","steam_id":76561198032967285,"connected_time":612000000000,"state":"active","ping":75},{"user_id":385,"name":"Jona2180","steam_id":76561198807012900,"connected_time":746000000000,"state":"active","ping":64},{"user_id":333,"name":"twitch.tv/frimpimy","steam_id":76561198142605675,"connected_time":4653000000000,"state":"active","ping":87},{"user_id":363,"name":"TheSnaggedSoul","steam_id":76561198198846371,"connected_time":2977000000000,"state":"active","ping":89},{"user_id":327,"name":"ToasterWater","steam_id":76561198260121940,"connected_time":5344000000000,"state":"active","ping":59},{"user_id":367,"name":"BIG HOG","steam_id":76561198079923652,"connected_time":2751000000000,"state":"active","ping":69},{"user_id":377,"name":"cheeks","steam_id":76561197993371179,"connected_time":1411000000000,"state":"active","ping":45}]},{"server_id":400,"name":"Uncletopia | Atlanta | 3 | Community","name_short":"atl-3","host":"atl-1.us.uncletopia.com","port":27035,"enabled":true,"region":"us-east","cc":"us","latitude":33.753746,"longitude":-84.38633,"reserved":0,"last_update":"0001-01-01T00:00:00Z","name_a2s":"Uncletopia | Atlanta | 3 | Community","protocol":17,"map":"cp_mountainlab","folder":"tf","game":"Team Fortress","app_id":440,"player_count":0,"max_players":24,"Bots":0,"server_type":"Dedicated","server_os":"Linux","password":true,"vac":true,"version":"7757534","steam_id":85568392924515187,"keywords":["cp","nocrits","nodmgspread","uncletopia"],"game_id":440,"stv_port":27036,"stv_name":"Uncletopia | Atlanta | 3 | Community | STV","players":null},{"server_id":401,"name":"Uncletopia | Atlanta | 4 | No Payload","name_short":"atl-4","host":"atl-1.us.uncletopia.com","port":27045,"enabled":true,"region":"us-east","cc":"us","latitude":33.753746,"longitude":-84.38633,"reserved":0,"last_update":"0001-01-01T00:00:00Z","name_a2s":"","protocol":0,"map":"","folder":"","game":"","app_id":0,"player_count":0,"max_players":0,"Bots":0,"server_type":"","server_os":"","password":false,"vac":false,"version":"","steam_id":0,"keywords":null,"game_id":0,"stv_port":0,"stv_name":"","players":null},{"server_id":2,"name":"Uncletopia | Chicago | 1 | All Maps","name_short":"chi-1","host":"chi-1.us.uncletopia.com","port":27015,"enabled":true,"region":"us-central","cc":"us","latitude":41.881832,"longitude":-87.62318,"reserved":0,"last_update":"0001-01-01T00:00:00Z","name_a2s":"Uncletopia | Chicago | 1 | All Maps","protocol":17,"map":"cp_mercenarypark","folder":"tf","game":"Team Fortress","app_id":440,"player_count":24,"max_players":24,"Bots":0,"server_type":"Dedicated","server_os":"Linux","password":true,"vac":true,"version":"7757534","steam_id":85568392924469984,"keywords":["cp","nocrits","nodmgspread","uncletopia"],"game_id":440,"stv_port":27016,"stv_name":"Uncletopia | Chicago | 1 | All Maps | STV","players":[{"user_id":160,"name":"SpazHero","steam_id":76561198021130008,"connected_time":725000000000,"state":"active","ping":83},{"user_id":155,"name":"ItsTanleyCrunch","steam_id":76561198037915942,"connected_time":872000000000,"state":"active","ping":79},{"user_id":153,"name":"soccernano","steam_id":76561198116633137,"connected_time":955000000000,"state":"active","ping":60},{"user_id":149,"name":"enolteiii","steam_id":76561198140843225,"connected_time":1221000000000,"state":"active","ping":109},{"user_id":136,"name":"Juri Han","steam_id":76561198041678517,"connected_time":1893000000000,"state":"active","ping":101},{"user_id":121,"name":"Keep Frozen","steam_id":76561199081837220,"connected_time":3081000000000,"state":"active","ping":83},{"user_id":150,"name":"Julia","steam_id":76561198175727790,"connected_time":1207000000000,"state":"active","ping":99},{"user_id":162,"name":"Oberon","steam_id":76561199360964272,"connected_time":590000000000,"state":"active","ping":58},{"user_id":138,"name":"Swissy","steam_id":76561198048007513,"connected_time":1877000000000,"state":"active","ping":130},{"user_id":148,"name":"PoisonIvy","steam_id":76561198072384574,"connected_time":1475000000000,"state":"active","ping":47},{"user_id":145,"name":"UP AND COMING","steam_id":76561198043405364,"connected_time":1654000000000,"state":"active","ping":82},{"user_id":151,"name":"richard clock","steam_id":76561198048455671,"connected_time":1104000000000,"state":"active","ping":58},{"user_id":131,"name":"krueger","steam_id":76561198268654031,"connected_time":1919000000000,"state":"active","ping":57},{"user_id":163,"name":"Chaotic Rushu","steam_id":76561198170054407,"connected_time":572000000000,"state":"active","ping":89},{"user_id":164,"name":"Skadewsh","steam_id":76561198102772209,"connected_time":545000000000,"state":"active","ping":55},{"user_id":133,"name":"vanilla","steam_id":76561199202761955,"connected_time":1916000000000,"state":"active","ping":57},{"user_id":167,"name":"FIREPOW!!","steam_id":76561198111259720,"connected_time":460000000000,"state":"active","ping":64},{"user_id":146,"name":"zulious","steam_id":76561198041620617,"connected_time":1636000000000,"state":"active","ping":69},{"user_id":147,"name":"NUt","steam_id":76561198031007966,"connected_time":1489000000000,"state":"active","ping":76},{"user_id":165,"name":"incrediblymassivep3nis","steam_id":76561199408041543,"connected_time":525000000000,"state":"active","ping":71},{"user_id":166,"name":"morbissey","steam_id":76561198072592880,"connected_time":521000000000,"state":"active","ping":45},{"user_id":53,"name":"Brokayo","steam_id":76561198053802723,"connected_time":7307000000000,"state":"active","ping":96},{"user_id":168,"name":"faxxy","steam_id":76561198079621240,"connected_time":152000000000,"state":"active","ping":80},{"user_id":158,"name":"DocLucky","steam_id":76561199093899249,"connected_time":773000000000,"state":"active","ping":165}]},{"server_id":106,"name":"Uncletopia | Chicago | 2 | All Maps","name_short":"chi-2","host":"chi-1.us.uncletopia.com","port":27025,"enabled":true,"region":"us-central","cc":"us","latitude":41.881832,"longitude":-87.62318,"reserved":0,"last_update":"0001-01-01T00:00:00Z","name_a2s":"Uncletopia | Chicago | 2 | All Maps","protocol":17,"map":"pl_barnblitz","folder":"tf","game":"Team Fortress","app_id":440,"player_count":24,"max_players":24,"Bots":0,"server_type":"Dedicated","server_os":"Linux","password":true,"vac":true,"version":"7757534","steam_id":85568392924469985,"keywords":["nocrits","nodmgspread","payload","uncletopia"],"game_id":440,"stv_port":27026,"stv_name":"Uncletopia | Chicago | 2 | All Maps | STV","players":[{"user_id":82,"name":"aversa","steam_id":76561198840460101,"connected_time":917000000000,"state":"active","ping":65},{"user_id":50,"name":"Chaos","steam_id":76561199068325065,"connected_time":4042000000000,"state":"active","ping":95},{"user_id":84,"name":"captain red","steam_id":76561198191587983,"connected_time":307000000000,"state":"active","ping":76},{"user_id":85,"name":"‚àÄ…ê","steam_id":76561198139718219,"connected_time":281000000000,"state":"active","ping":75},{"user_id":86,"name":"Sheppy","steam_id":76561198295126940,"connected_time":271000000000,"state":"active","ping":60},{"user_id":87,"name":"shake","steam_id":76561199064204750,"connected_time":262000000000,"state":"active","ping":81},{"user_id":88,"name":"CrunchCisco","steam_id":76561199162724832,"connected_time":257000000000,"state":"active","ping":82},{"user_id":79,"name":"Violet42","steam_id":76561198072927887,"connected_time":1262000000000,"state":"active","ping":65},{"user_id":72,"name":"vv","steam_id":76561198134813102,"connected_time":1365000000000,"state":"active","ping":60},{"user_id":91,"name":"Lots0","steam_id":76561198043143145,"connected_time":146000000000,"state":"active","ping":89},{"user_id":80,"name":"quint","steam_id":76561198046797995,"connected_time":1139000000000,"state":"active","ping":67},{"user_id":73,"name":"lite","steam_id":76561198300633951,"connected_time":1358000000000,"state":"active","ping":103},{"user_id":70,"name":"princess musky paws","steam_id":76561198054925421,"connected_time":1481000000000,"state":"active","ping":57},{"user_id":21,"name":"Nassu","steam_id":76561198147367577,"connected_time":5953000000000,"state":"active","ping":76},{"user_id":71,"name":"owl","steam_id":76561198105374054,"connected_time":1368000000000,"state":"active","ping":118},{"user_id":60,"name":"The Land Admiral","steam_id":76561198159356609,"connected_time":2375000000000,"state":"active","ping":80},{"user_id":90,"name":"mangoface","steam_id":76561199028760996,"connected_time":252000000000,"state":"active","ping":157},{"user_id":83,"name":"Soundproof","steam_id":76561198133392504,"connected_time":590000000000,"state":"active","ping":55},{"user_id":63,"name":"Doomguy","steam_id":76561198040689477,"connected_time":2179000000000,"state":"active","ping":66},{"user_id":27,"name":"Blitzy","steam_id":76561198149472890,"connected_time":5859000000000,"state":"active","ping":76},{"user_id":28,"name":"üÖúüÖîüÖîüÖöüÖ¢üÖ£üÖî\ufffd\ufffd\ufffd","steam_id":76561197999748343,"connected_time":5857000000000,"state":"active","ping":62},{"user_id":54,"name":"Crate","steam_id":76561198216807112,"connected_time":3734000000000,"state":"active","ping":60},{"user_id":75,"name":"RedSock","steam_id":76561198161243404,"connected_time":1344000000000,"state":"active","ping":44},{"user_id":78,"name":"Foreskin Reattachment service","steam_id":76561198060342804,"connected_time":1302000000000,"state":"active","ping":76}]},{"server_id":402,"name":"Uncletopia | Chicago | 3 | All Maps","name_short":"chi-3","host":"chi-1.us.uncletopia.com","port":27035,"enabled":true,"region":"us-central","cc":"us","latitude":41.881832,"longitude":-87.62318,"reserved":0,"last_update":"0001-01-01T00:00:00Z","name_a2s":"Uncletopia | Chicago | 3 | All Maps","protocol":17,"map":"koth_cascade","folder":"tf","game":"Team Fortress","app_id":440,"player_count":0,"max_players":24,"Bots":0,"server_type":"Dedicated","server_os":"Linux","password":true,"vac":true,"version":"7757534","steam_id":85568392924515191,"keywords":["cp","nocrits","nodmgspread","uncletopia"],"game_id":440,"stv_port":27036,"stv_name":"Uncletopia | Chicago | 3 | All Maps | STV","players":null},{"server_id":403,"name":"Uncletopia | Chicago | 4 | All Maps","name_short":"chi-4","host":"chi-1.us.uncletopia.com","port":27045,"enabled":true,"region":"us-central","cc":"us","latitude":41.881832,"longitude":-87.62318,"reserved":0,"last_update":"0001-01-01T00:00:00Z","name_a2s":"Uncletopia | Chicago | 4 | All Maps","protocol":17,"map":"koth_cascade","folder":"tf","game":"Team Fortress","app_id":440,"player_count":0,"max_players":24,"Bots":0,"server_type":"Dedicated","server_os":"Linux","password":true,"vac":true,"version":"7757534","steam_id":85568392924515193,"keywords":["cp","nocrits","nodmgspread","uncletopia"],"game_id":440,"stv_port":27046,"stv_name":"Uncletopia | Chicago | 4 | All Maps | STV","players":null},{"server_id":36,"name":"Uncletopia | Chicago | 5 | All Maps","name_short":"chi-5","host":"chi-2.us.uncletopia.com","port":27015,"enabled":true,"region":"us-central","cc":"us","latitude":41.881832,"longitude":-87.62318,"reserved":0,"last_update":"0001-01-01T00:00:00Z","name_a2s":"Uncletopia | Chicago | 5 | All Maps","protocol":17,"map":"koth_lakeside_final","folder":"tf","game":"Team Fortress","app_id":440,"player_count":0,"max_players":24,"Bots":0,"server_type":"Dedicated","server_os":"Linux","password":true,"vac":true,"version":"7757534","steam_id":85568392924866362,"keywords":["cp","nocrits","nodmgspread","uncletopia"],"game_id":440,"stv_port":27016,"stv_name":"Uncletopia | Chicago | 5 | All Maps | STV","players":null},{"server_id":37,"name":"Uncletopia | Chicago | 6 | All Maps","name_short":"chi-6","host":"chi-2.us.uncletopia.com","port":27025,"enabled":true,"region":"us-central","cc":"us","latitude":41.881832,"longitude":-87.62318,"reserved":0,"last_update":"0001-01-01T00:00:00Z","name_a2s":"Uncletopia | Chicago | 6 | All Maps","protocol":17,"map":"cp_snakewater_final1","folder":"tf","game":"Team Fortress","app_id":440,"player_count":0,"max_players":24,"Bots":0,"server_type":"Dedicated","server_os":"Linux","password":true,"vac":true,"version":"7757534","steam_id":85568392924866363,"keywords":["cp","nocrits","nodmgspread","uncletopia"],"game_id":440,"stv_port":27026,"stv_name":"Uncletopia | Chicago | 6 | All Maps | STV","players":null},{"server_id":38,"name":"Uncletopia | Chicago | 7 | Stopwatch Beta","name_short":"chi-7","host":"chi-2.us.uncletopia.com","port":27035,"enabled":true,"region":"us-central","cc":"us","latitude":41.881832,"longitude":-87.62318,"reserved":0,"last_update":"0001-01-01T00:00:00Z","name_a2s":"Uncletopia | Chicago | 7 | Stopwatch Beta","protocol":17,"map":"koth_viaduct","folder":"tf","game":"Team Fortress","app_id":440,"player_count":0,"max_players":24,"Bots":0,"server_type":"Dedicated","server_os":"Linux","password":true,"vac":true,"version":"7757534","steam_id":85568392924866364,"keywords":["cp","nocrits","nodmgspread","uncletopia"],"game_id":440,"stv_port":27036,"stv_name":"Uncletopia | Chicago | 7 | Stopwatch Beta | STV","players":null},{"server_id":39,"name":"Uncletopia | Chicago | 8 | Community","name_short":"chi-8","host":"chi-2.us.uncletopia.com","port":27045,"enabled":true,"region":"us-central","cc":"us","latitude":41.881832,"longitude":-87.62318,"reserved":0,"last_update":"0001-01-01T00:00:00Z","name_a2s":"Uncletopia | Chicago | 8 | Community","protocol":17,"map":"koth_lakeside_final","folder":"tf","game":"Team Fortress","app_id":440,"player_count":0,"max_players":24,"Bots":0,"server_type":"Dedicated","server_os":"Linux","password":true,"vac":true,"version":"7757534","steam_id":85568392924866365,"keywords":["cp","nocrits","nodmgspread","uncletopia"],"game_id":440,"stv_port":27046,"stv_name":"Uncletopia | Chicago | 8 | Community | STV","players":null},{"server_id":8,"name":"Uncletopia | Dallas | 1 | All Maps","name_short":"dal-1","host":"dal-1.us.uncletopia.com","port":27015,"enabled":true,"region":"us-central","cc":"us","latitude":32.779167,"longitude":-96.80889,"reserved":0,"last_update":"0001-01-01T00:00:00Z","name_a2s":"Uncletopia | Dallas | 1 | All Maps","protocol":17,"map":"pl_pier","folder":"tf","game":"Team Fortress","app_id":440,"player_count":24,"max_players":24,"Bots":0,"server_type":"Dedicated","server_os":"Linux","password":true,"vac":true,"version":"7757534","steam_id":85568392924469986,"keywords":["nocrits","nodmgspread","payload","uncletopia"],"game_id":440,"stv_port":27016,"stv_name":"Uncletopia | Dallas | 1 | All Maps | STV","players":[{"user_id":243,"name":"Quiet","steam_id":76561198119175817,"connected_time":373000000000,"state":"active","ping":68},{"user_id":242,"name":"M.L.JEW","steam_id":76561198997375055,"connected_time":387000000000,"state":"active","ping":76},{"user_id":227,"name":"samsoeder","steam_id":76561198293741183,"connected_time":1192000000000,"state":"active","ping":75},{"user_id":207,"name":"Tyler\u0026Fingers","steam_id":76561198085154485,"connected_time":3068000000000,"state":"active","ping":90},{"user_id":238,"name":"oxygen thief","steam_id":76561198841082777,"connected_time":804000000000,"state":"active","ping":90},{"user_id":235,"name":"mkl","steam_id":76561197986401685,"connected_time":959000000000,"state":"active","ping":61},{"user_id":236,"name":"Recursive Gamer","steam_id":76561198042102952,"connected_time":930000000000,"state":"active","ping":81},{"user_id":203,"name":"Stryder","steam_id":76561199387418697,"connected_time":3527000000000,"state":"active","ping":65},{"user_id":240,"name":"RedBot Noob","steam_id":76561198260764846,"connected_time":683000000000,"state":"active","ping":86},{"user_id":217,"name":"Dr. Ludwig","steam_id":76561198110246392,"connected_time":2425000000000,"state":"active","ping":69},{"user_id":237,"name":"Habber The Quesomancer","steam_id":76561198049642751,"connected_time":923000000000,"state":"active","ping":40},{"user_id":148,"name":"Fox","steam_id":76561198063507627,"connected_time":7666000000000,"state":"active","ping":35},{"user_id":239,"name":"The Alien","steam_id":76561198185817713,"connected_time":797000000000,"state":"active","ping":62},{"user_id":231,"name":"karbomb","steam_id":76561198120744480,"connected_time":1048000000000,"state":"active","ping":45},{"user_id":233,"name":"Huge eevee fan","steam_id":76561198128057732,"connected_time":1046000000000,"state":"active","ping":90},{"user_id":222,"name":"PinguEnjoyer6","steam_id":76561199186723516,"connected_time":2110000000000,"state":"active","ping":84},{"user_id":153,"name":"LesserAce","steam_id":76561198153258132,"connected_time":7309000000000,"state":"active","ping":126},{"user_id":223,"name":"Red Man","steam_id":76561198293333566,"connected_time":1815000000000,"state":"active","ping":45},{"user_id":232,"name":"PLak-PlaK","steam_id":76561198115688122,"connected_time":1047000000000,"state":"active","ping":98},{"user_id":244,"name":"Crack Addict","steam_id":76561198166681494,"connected_time":355000000000,"state":"active","ping":54},{"user_id":241,"name":"∆ê’å—¥∆≥","steam_id":76561198099470277,"connected_time":661000000000,"state":"active","ping":82},{"user_id":205,"name":"jturner1nm","steam_id":76561198344493652,"connected_time":3088000000000,"state":"active","ping":98},{"user_id":176,"name":"BamboozleMcdoozle","steam_id":76561198166510167,"connected_time":5281000000000,"state":"active","ping":83},{"user_id":178,"name":"boobies arc","steam_id":76561198316753540,"connected_time":4504000000000,"state":"active","ping":43}]},{"server_id":108,"name":"Uncletopia | Dallas | 2 | All Maps","name_short":"dal-2","host":"dal-1.us.uncletopia.com","port":27025,"enabled":true,"region":"us-central","cc":"us","latitude":32.779167,"longitude":-96.80889,"reserved":0,"last_update":"0001-01-01T00:00:00Z","name_a2s":"Uncletopia | Dallas | 2 | All Maps","protocol":17,"map":"pl_upward","folder":"tf","game":"Team Fortress","app_id":440,"player_count":0,"max_players":24,"Bots":0,"server_type":"Dedicated","server_os":"Linux","password":true,"vac":true,"version":"7757534","steam_id":85568392924469988,"keywords":["nocrits","nodmgspread","payload","uncletopia"],"game_id":440,"stv_port":27026,"stv_name":"Uncletopia | Dallas | 2 | All Maps | STV","players":null},{"server_id":5,"name":"Uncletopia | Frankfurt | 1 | All Maps","name_short":"frk-1","host":"frk-1.de.uncletopia.com","port":27015,"enabled":true,"region":"eu","cc":"de","latitude":50.110924,"longitude":8.682127,"reserved":0,"last_update":"0001-01-01T00:00:00Z","name_a2s":"Uncletopia | Frankfurt | 1 | All Maps","protocol":17,"map":"pl_snowycoast","folder":"tf","game":"Team Fortress","app_id":440,"player_count":24,"max_players":24,"Bots":0,"server_type":"Dedicated","server_os":"Linux","password":true,"vac":true,"version":"7757534","steam_id":85568392924469989,"keywords":["nocrits","nodmgspread","payload","uncletopia"],"game_id":440,"stv_port":27016,"stv_name":"Uncletopia | Frankfurt | 1 | All Maps | STV","players":[{"user_id":112,"name":"Peter Cipher","steam_id":76561198078944963,"connected_time":414000000000,"state":"active","ping":58},{"user_id":106,"name":"Rookie","steam_id":76561198223941716,"connected_time":584000000000,"state":"active","ping":66},{"user_id":37,"name":"roblan11","steam_id":76561198066839258,"connected_time":4453000000000,"state":"active","ping":44},{"user_id":97,"name":"Vitamin Weee","steam_id":76561199183937747,"connected_time":1624000000000,"state":"active","ping":86},{"user_id":35,"name":"lemao","steam_id":76561198058366676,"connected_time":4542000000000,"state":"active","ping":88},{"user_id":85,"name":"Atronic","steam_id":76561198354960567,"connected_time":2600000000000,"state":"active","ping":49},{"user_id":39,"name":"Loki Beaker","steam_id":76561198048086250,"connected_time":4396000000000,"state":"active","ping":48},{"user_id":113,"name":"W.","steam_id":76561198444036574,"connected_time":327000000000,"state":"active","ping":62},{"user_id":101,"name":"Faitholith","steam_id":76561198152689983,"connected_time":1182000000000,"state":"active","ping":101},{"user_id":42,"name":"Tyranus","steam_id":76561197994616038,"connected_time":4309000000000,"state":"active","ping":63},{"user_id":102,"name":"Pink Cheese","steam_id":76561198972186436,"connected_time":1156000000000,"state":"active","ping":69},{"user_id":92,"name":"EastmoreRandoms.","steam_id":76561198048921203,"connected_time":1968000000000,"state":"active","ping":66},{"user_id":53,"name":"Topia","steam_id":76561198163571788,"connected_time":4069000000000,"state":"active","ping":93},{"user_id":104,"name":"Microsoft PowerPoint","steam_id":76561198204290539,"connected_time":916000000000,"state":"active","ping":81},{"user_id":82,"name":"piotrpiotrek003","steam_id":76561199029189261,"connected_time":3178000000000,"state":"active","ping":78},{"user_id":94,"name":"ur weird, not me","steam_id":76561198808819694,"connected_time":1859000000000,"state":"active","ping":46},{"user_id":95,"name":"Svilar","steam_id":76561198828348612,"connected_time":1795000000000,"state":"active","ping":89},{"user_id":105,"name":"FrostyBob","steam_id":76561197997161148,"connected_time":879000000000,"state":"active","ping":73},{"user_id":109,"name":"Pepperonipizza","steam_id":76561198044471610,"connected_time":527000000000,"state":"active","ping":73},{"user_id":79,"name":"Bilbo Ballbaggins","steam_id":76561198070593514,"connected_time":3301000000000,"state":"active","ping":57},{"user_id":60,"name":"?","steam_id":76561198267167505,"connected_time":4007000000000,"state":"active","ping":74},{"user_id":71,"name":"on1on (pickled)","steam_id":76561197995304137,"connected_time":3548000000000,"state":"active","ping":66},{"user_id":69,"name":"tim","steam_id":76561198143626955,"connected_time":3654000000000,"state":"active","ping":45},{"user_id":111,"name":"B@yka","steam_id":76561198986736592,"connected_time":508000000000,"state":"active","ping":75}]},{"server_id":110,"name":"Uncletopia | Frankfurt | 2 | All Maps","name_short":"frk-2","host":"frk-1.de.uncletopia.com","port":27025,"enabled":true,"region":"eu","cc":"de","latitude":50.110924,"longitude":8.682127,"reserved":0,"last_update":"0001-01-01T00:00:00Z","name_a2s":"Uncletopia | Frankfurt | 2 | All Maps","protocol":17,"map":"pl_barnblitz","folder":"tf","game":"Team Fortress","app_id":440,"player_count":23,"max_players":24,"Bots":0,"server_type":"Dedicated","server_os":"Linux","password":true,"vac":true,"version":"7757534","steam_id":85568392924469990,"keywords":["nocrits","nodmgspread","payload","uncletopia"],"game_id":440,"stv_port":27026,"stv_name":"Uncletopia | Frankfurt | 2 | All Maps | STV","players":[{"user_id":410,"name":"TJ1212","steam_id":76561199013575313,"connected_time":4962000000000,"state":"active","ping":72},{"user_id":455,"name":"After8","steam_id":76561198090750865,"connected_time":2419000000000,"state":"active","ping":73},{"user_id":467,"name":"fryedmalone","steam_id":76561198101494907,"connected_time":352000000000,"state":"active","ping":73},{"user_id":438,"name":"Truffles","steam_id":76561198095868800,"connected_time":3109000000000,"state":"active","ping":179},{"user_id":388,"name":"Adrenaline","steam_id":76561197970852048,"connected_time":6191000000000,"state":"active","ping":65},{"user_id":423,"name":"Z√°por√°k","steam_id":76561198207175503,"connected_time":4120000000000,"state":"active","ping":63},{"user_id":445,"name":"A Pigeon","steam_id":76561198114090555,"connected_time":2695000000000,"state":"active","ping":70},{"user_id":462,"name":"Yelowchy","steam_id":76561198199416121,"connected_time":793000000000,"state":"active","ping":64},{"user_id":415,"name":"Paintbrush","steam_id":76561198119987705,"connected_time":4791000000000,"state":"active","ping":55},{"user_id":469,"name":"Dark ^^","steam_id":76561198036241064,"connected_time":1000000000,"state":"spawning","ping":36},{"user_id":460,"name":"Mr. Pickles #SaveTF2","steam_id":76561199210183560,"connected_time":1646000000000,"state":"active","ping":142},{"user_id":446,"name":"Seb, Comrade","steam_id":76561198040279587,"connected_time":2686000000000,"state":"active","ping":89},{"user_id":449,"name":"RadialMount","steam_id":76561198063002562,"connected_time":2629000000000,"state":"active","ping":67},{"user_id":450,"name":"moser23","steam_id":76561197960543171,"connected_time":2623000000000,"state":"active","ping":48},{"user_id":459,"name":"hud_saytext_time 0","steam_id":76561198010327228,"connected_time":1817000000000,"state":"active","ping":62},{"user_id":328,"name":"Soldiernom [CATBOY GANG]","steam_id":76561198199555114,"connected_time":9817000000000,"state":"active","ping":89},{"user_id":456,"name":"Rubi","steam_id":76561198139410003,"connected_time":1965000000000,"state":"active","ping":87},{"user_id":451,"name":"EEEEEH","steam_id":76561198126717413,"connected_time":2603000000000,"state":"active","ping":81},{"user_id":452,"name":"Comrade Philibaba","steam_id":76561198047781436,"connected_time":2603000000000,"state":"active","ping":67},{"user_id":453,"name":"Caskye","steam_id":76561198165430888,"connected_time":2556000000000,"state":"active","ping":72},{"user_id":454,"name":"FoOzTV","steam_id":76561197998636728,"connected_time":2490000000000,"state":"active","ping":71},{"user_id":408,"name":"Gio'sMonkey","steam_id":76561198892432223,"connected_time":5216000000000,"state":"active","ping":77},{"user_id":418,"name":"Pingutaro","steam_id":76561198112803718,"connected_time":4651000000000,"state":"active","ping":71}]},{"server_id":308,"name":"Uncletopia | Frankfurt | 3 | All Maps","name_short":"frk-3","host":"frk-1.de.uncletopia.com","port":27035,"enabled":true,"region":"eu","cc":"de","latitude":50.110924,"longitude":8.682127,"reserved":0,"last_update":"0001-01-01T00:00:00Z","name_a2s":"Uncletopia | Frankfurt | 3 | All Maps","protocol":17,"map":"pl_upward","folder":"tf","game":"Team Fortress","app_id":440,"player_count":24,"max_players":24,"Bots":0,"server_type":"Dedicated","server_os":"Linux","password":true,"vac":true,"version":"7757534","steam_id":85568392924504274,"keywords":["nocrits","nodmgspread","payload","uncletopia"],"game_id":440,"stv_port":27036,"stv_name":"Uncletopia | Frankfurt | 3 | All Maps | STV","players":[{"user_id":353,"name":"godmodule","steam_id":76561198165995444,"connected_time":122000000000,"state":"active","ping":70},{"user_id":351,"name":"spooky buisness","steam_id":76561199065599888,"connected_time":175000000000,"state":"active","ping":69},{"user_id":350,"name":"Huan MEDIC","steam_id":76561198012922308,"connected_time":199000000000,"state":"active","ping":71},{"user_id":344,"name":"CarbonPan","steam_id":76561198072169983,"connected_time":474000000000,"state":"active","ping":89},{"user_id":279,"name":"the joy of recycling","steam_id":76561198415564349,"connected_time":4925000000000,"state":"active","ping":68},{"user_id":284,"name":"decommandpro","steam_id":76561198971647041,"connected_time":4847000000000,"state":"active","ping":85},{"user_id":318,"name":"LordTrap.exe","steam_id":76561198318089716,"connected_time":2237000000000,"state":"active","ping":53},{"user_id":333,"name":"plazma","steam_id":76561198886594048,"connected_time":741000000000,"state":"active","ping":107},{"user_id":352,"name":"Futuriz4rd","steam_id":76561198171600321,"connected_time":168000000000,"state":"active","ping":85},{"user_id":334,"name":"Egor Pomidor","steam_id":76561199175688390,"connected_time":710000000000,"state":"active","ping":75},{"user_id":300,"name":"GIGABOB102","steam_id":76561198122226417,"connected_time":3241000000000,"state":"active","ping":55},{"user_id":314,"name":"Wtka N√∏SS (Nazar Co.)","steam_id":76561198804931016,"connected_time":2371000000000,"state":"active","ping":71},{"user_id":330,"name":"Osmo","steam_id":76561199286764992,"connected_time":1080000000000,"state":"active","ping":75},{"user_id":312,"name":"Myrmodion","steam_id":76561198054746247,"connected_time":2461000000000,"state":"active","ping":61},{"user_id":349,"name":"37-","steam_id":76561198102195119,"connected_time":237000000000,"state":"active","ping":45},{"user_id":345,"name":"TryX","steam_id":76561199356781475,"connected_time":468000000000,"state":"active","ping":62},{"user_id":301,"name":"LOBZIK","steam_id":76561198114830120,"connected_time":3234000000000,"state":"active","ping":79},{"user_id":298,"name":"Regan","steam_id":76561198100631086,"connected_time":3666000000000,"state":"active","ping":71},{"user_id":347,"name":"mei ‚ô•","steam_id":76561198028078806,"connected_time":398000000000,"state":"active","ping":46},{"user_id":285,"name":"pepper","steam_id":76561198059782462,"connected_time":4845000000000,"state":"active","ping":54},{"user_id":288,"name":"Trebox78","steam_id":76561198071963357,"connected_time":4444000000000,"state":"active","ping":82},{"user_id":326,"name":"MaxCringe)","steam_id":76561198882813454,"connected_time":1477000000000,"state":"active","ping":94},{"user_id":348,"name":"pablo","steam_id":76561198089285014,"connected_time":364000000000,"state":"active","ping":70},{"user_id":253,"name":"player","steam_id":76561198054474684,"connected_time":7549000000000,"state":"active","ping":75}]},{"server_id":309,"name":"Uncletopia | Frankfurt | 4 | All Maps","name_short":"frk-4","host":"frk-1.de.uncletopia.com","port":27045,"enabled":true,"region":"eu","cc":"de","latitude":50.110924,"longitude":8.682127,"reserved":0,"last_update":"0001-01-01T00:00:00Z","name_a2s":"Uncletopia | Frankfurt | 4 | All Maps","protocol":17,"map":"koth_highpass","folder":"tf","game":"Team Fortress","app_id":440,"player_count":0,"max_players":24,"Bots":0,"server_type":"Dedicated","server_os":"Linux","password":true,"vac":true,"version":"7757534","steam_id":85568392924504275,"keywords":["cp","nocrits","nodmgspread","uncletopia"],"game_id":440,"stv_port":27046,"stv_name":"Uncletopia | Frankfurt | 4 | All Maps | STV","players":null},{"server_id":310,"name":"Uncletopia | Frankfurt | 5 | All Maps","name_short":"frk-5","host":"frk-1.de.uncletopia.com","port":27055,"enabled":true,"region":"eu","cc":"de","latitude":50.110924,"longitude":8.682127,"reserved":0,"last_update":"0001-01-01T00:00:00Z","name_a2s":"Uncletopia | Frankfurt | 5 | All Maps","protocol":17,"map":"koth_viaduct","folder":"tf","game":"Team Fortress","app_id":440,"player_count":23,"max_players":24,"Bots":0,"server_type":"Dedicated","server_os":"Linux","password":true,"vac":true,"version":"7757534","steam_id":85568392924504277,"keywords":["cp","nocrits","nodmgspread","uncletopia"],"game_id":440,"stv_port":27056,"stv_name":"Uncletopia | Frankfurt | 5 | All Maps | STV","players":[{"user_id":283,"name":"powej","steam_id":76561198056381418,"connected_time":345000000000,"state":"active","ping":49},{"user_id":272,"name":"zinzyk","steam_id":76561198128011822,"connected_time":1099000000000,"state":"active","ping":59},{"user_id":280,"name":"Holymadness","steam_id":76561198032013302,"connected_time":472000000000,"state":"active","ping":74},{"user_id":279,"name":"Tohseno","steam_id":76561197995813008,"connected_time":634000000000,"state":"active","ping":58},{"user_id":239,"name":"Peri","steam_id":76561199031984324,"connected_time":1840000000000,"state":"active","ping":71},{"user_id":240,"name":"KRUMPLY","steam_id":76561199311438165,"connected_time":1833000000000,"state":"active","ping":73},{"user_id":241,"name":"Holokar","steam_id":76561199014538051,"connected_time":1826000000000,"state":"active","ping":81},{"user_id":271,"name":"Birdseye","steam_id":76561198025852216,"connected_time":1206000000000,"state":"active","ping":60},{"user_id":261,"name":"DIO Brendon","steam_id":76561199047655359,"connected_time":1448000000000,"state":"active","ping":109},{"user_id":245,"name":"No,Why?","steam_id":76561198888755969,"connected_time":1715000000000,"state":"active","ping":88},{"user_id":275,"name":"Benito Mussolini","steam_id":76561198362801147,"connected_time":842000000000,"state":"active","ping":84},{"user_id":262,"name":"squo -pivzavod-","steam_id":76561198324357479,"connected_time":1433000000000,"state":"active","ping":67},{"user_id":286,"name":"TheMilOne","steam_id":76561198058910512,"connected_time":118000000000,"state":"active","ping":66},{"user_id":251,"name":"Space","steam_id":76561198021572167,"connected_time":1629000000000,"state":"active","ping":60},{"user_id":254,"name":"ü¶ê Tust ü¶ê","steam_id":76561198045694677,"connected_time":1613000000000,"state":"active","ping":61},{"user_id":255,"name":"No Man","steam_id":76561198409678667,"connected_time":1605000000000,"state":"active","ping":56},{"user_id":277,"name":"Bostrash641","steam_id":76561199447225685,"connected_time":786000000000,"state":"active","ping":78},{"user_id":257,"name":"Kaliskot","steam_id":76561199075546410,"connected_time":1576000000000,"state":"active","ping":74},{"user_id":258,"name":"iokoieoen","steam_id":76561198065009070,"connected_time":1576000000000,"state":"active","ping":83},{"user_id":281,"name":"Daenny","steam_id":76561198053088822,"connected_time":427000000000,"state":"active","ping":45},{"user_id":282,"name":"Chen","steam_id":76561198440363619,"connected_time":390000000000,"state":"active","ping":53},{"user_id":273,"name":"hello kitty gaming","steam_id":76561197972008326,"connected_time":1008000000000,"state":"active","ping":82},{"user_id":285,"name":"Kraiti","steam_id":76561198847296908,"connected_time":245000000000,"state":"active","ping":76}]},{"server_id":311,"name":"Uncletopia | Frankfurt | 6 | All Maps","name_short":"frk-6","host":"frk-1.de.uncletopia.com","port":27065,"enabled":true,"region":"eu","cc":"de","latitude":50.110924,"longitude":8.682127,"reserved":0,"last_update":"0001-01-01T00:00:00Z","name_a2s":"Uncletopia | Frankfurt | 6 | All Maps","protocol":17,"map":"koth_highpass","folder":"tf","game":"Team Fortress","app_id":440,"player_count":15,"max_players":24,"Bots":0,"server_type":"Dedicated","server_os":"Linux","password":true,"vac":true,"version":"7757534","steam_id":85568392924504278,"keywords":["cp","nocrits","nodmgspread","uncletopia"],"game_id":440,"stv_port":27066,"stv_name":"Uncletopia | Frankfurt | 6 | All Maps | STV","players":[{"user_id":319,"name":"Balls","steam_id":76561198086400484,"connected_time":289000000000,"state":"active","ping":84},{"user_id":290,"name":"hedon/","steam_id":76561198249832770,"connected_time":2186000000000,"state":"active","ping":57},{"user_id":320,"name":"Subterranean","steam_id":76561198106684566,"connected_time":244000000000,"state":"active","ping":74},{"user_id":309,"name":"s a i","steam_id":76561197970379754,"connected_time":1029000000000,"state":"active","ping":56},{"user_id":317,"name":"Camohno","steam_id":76561198283519918,"connected_time":384000000000,"state":"active","ping":217},{"user_id":318,"name":"Mingo","steam_id":76561199191245650,"connected_time":353000000000,"state":"active","ping":97},{"user_id":321,"name":"tealoverr.190","steam_id":76561199028497703,"connected_time":142000000000,"state":"active","ping":93},{"user_id":322,"name":"‚òÖpoyo‚òÖ","steam_id":76561198150078959,"connected_time":110000000000,"state":"active","ping":79},{"user_id":305,"name":"xristosblin","steam_id":76561199043074852,"connected_time":1175000000000,"state":"active","ping":83},{"user_id":323,"name":"Int3rnet","steam_id":76561198049289285,"connected_time":96000000000,"state":"active","ping":61},{"user_id":324,"name":"The Big Bean","steam_id":76561198267696666,"connected_time":72000000000,"state":"active","ping":54},{"user_id":325,"name":"Per√§miehen√§","steam_id":76561197968945306,"connected_time":71000000000,"state":"active","ping":74},{"user_id":312,"name":"Carry Krypl","steam_id":76561198136938121,"connected_time":712000000000,"state":"active","ping":58},{"user_id":270,"name":"puls lore master dricka grogg","steam_id":76561198128348941,"connected_time":3401000000000,"state":"active","ping":70},{"user_id":310,"name":"Toon","steam_id":76561198065421595,"connected_time":1010000000000,"state":"active","ping":51}]},{"server_id":23,"name":"Uncletopia | Frankfurt | 7 | Stopwatch Beta","name_short":"frk-7","host":"frk-1.de.uncletopia.com","port":27075,"enabled":true,"region":"eu","cc":"de","latitude":50.110924,"longitude":8.682127,"reserved":0,"last_update":"0001-01-01T00:00:00Z","name_a2s":"Uncletopia | Frankfurt | 7 | Stopwatch Beta","protocol":17,"map":"pl_borneo","folder":"tf","game":"Team Fortress","app_id":440,"player_count":0,"max_players":24,"Bots":0,"server_type":"Dedicated","server_os":"Linux","password":true,"vac":true,"version":"7757534","steam_id":85568392924742827,"keywords":["nocrits","nodmgspread","payload","uncletopia"],"game_id":440,"stv_port":27076,"stv_name":"Uncletopia | Frankfurt | 7 | Stopwatch Beta | STV","players":null},{"server_id":24,"name":"Uncletopia | Frankfurt | 8 | Community","name_short":"frk-8","host":"frk-1.de.uncletopia.com","port":27085,"enabled":true,"region":"eu","cc":"de","latitude":50.110924,"longitude":8.682127,"reserved":0,"last_update":"0001-01-01T00:00:00Z","name_a2s":"Uncletopia | Frankfurt | 8 | Community","protocol":17,"map":"workshop/koth_synthetic_rc6a.ugc1549817316","folder":"tf","game":"Team Fortress","app_id":440,"player_count":0,"max_players":24,"Bots":0,"server_type":"Dedicated","server_os":"Linux","password":true,"vac":true,"version":"7757534","steam_id":85568392924742828,"keywords":["cp","nocrits","nodmgspread","uncletopia"],"game_id":440,"stv_port":27086,"stv_name":"Uncletopia | Frankfurt | 8 | Community | STV","players":null},{"server_id":202,"name":"Uncletopia | Hong Kong | 1 | All Maps","name_short":"hgk-1","host":"hgk-1.hk.uncletopia.com","port":27015,"enabled":true,"region":"asia","cc":"hk","latitude":22.302711,"longitude":114.177216,"reserved":0,"last_update":"0001-01-01T00:00:00Z","name_a2s":"Uncletopia | Hong Kong | 1 | All Maps","protocol":17,"map":"koth_lakeside_final","folder":"tf","game":"Team Fortress","app_id":440,"player_count":0,"max_players":24,"Bots":0,"server_type":"Dedicated","server_os":"Linux","password":true,"vac":true,"version":"7757534","steam_id":85568392924494504,"keywords":["cp","nocrits","nodmgspread","uncletopia"],"game_id":440,"stv_port":27016,"stv_name":"Uncletopia | Hong Kong | 1 | All Maps | STV","players":null},{"server_id":1,"name":"Uncletopia | Los Angeles | 1 | All Maps","name_short":"lax-1","host":"lax-1.us.uncletopia.com","port":27015,"enabled":true,"region":"us-west","cc":"us","latitude":33.94279,"longitude":-118.41004,"reserved":0,"last_update":"0001-01-01T00:00:00Z","name_a2s":"Uncletopia | Los Angeles | 1 | All Maps","protocol":17,"map":"cp_mountainlab","folder":"tf","game":"Team Fortress","app_id":440,"player_count":0,"max_players":24,"Bots":0,"server_type":"Dedicated","server_os":"Linux","password":true,"vac":true,"version":"7757534","steam_id":85568392924469991,"keywords":["cp","nocrits","nodmgspread","uncletopia"],"game_id":440,"stv_port":27016,"stv_name":"Uncletopia | Los Angeles | 1 | All Maps | STV","players":null},{"server_id":112,"name":"Uncletopia | Los Angeles | 2 | All Maps","name_short":"lax-2","host":"lax-1.us.uncletopia.com","port":27025,"enabled":true,"region":"us-west","cc":"us","latitude":33.94279,"longitude":-118.41004,"reserved":0,"last_update":"0001-01-01T00:00:00Z","name_a2s":"Uncletopia | Los Angeles | 2 | All Maps","protocol":17,"map":"koth_viaduct","folder":"tf","game":"Team Fortress","app_id":440,"player_count":0,"max_players":24,"Bots":0,"server_type":"Dedicated","server_os":"Linux","password":true,"vac":true,"version":"7757534","steam_id":85568392924469992,"keywords":["cp","nocrits","nodmgspread","uncletopia"],"game_id":440,"stv_port":27026,"stv_name":"Uncletopia | Los Angeles | 2 | All Maps | STV","players":null},{"server_id":324,"name":"Uncletopia | Los Angeles | 3 | All Maps","name_short":"lax-3","host":"lax-1.us.uncletopia.com","port":27035,"enabled":true,"region":"us-west","cc":"us","latitude":33.94279,"longitude":-118.41004,"reserved":0,"last_update":"0001-01-01T00:00:00Z","name_a2s":"Uncletopia | Los Angeles | 3 | All Maps","protocol":17,"map":"cp_altitude","folder":"tf","game":"Team Fortress","app_id":440,"player_count":0,"max_players":24,"Bots":0,"server_type":"Dedicated","server_os":"Linux","password":true,"vac":true,"version":"7757534","steam_id":85568392924510198,"keywords":["cp","nocrits","nodmgspread","uncletopia"],"game_id":440,"stv_port":27036,"stv_name":"Uncletopia | Los Angeles | 3 | All Maps | STV","players":null},{"server_id":25,"name":"Uncletopia | Los Angeles | 4 | Stopwatch Beta","name_short":"lax-4","host":"lax-1.us.uncletopia.com","port":27045,"enabled":true,"region":"us-west","cc":"us","latitude":33.94279,"longitude":-118.41004,"reserved":0,"last_update":"0001-01-01T00:00:00Z","name_a2s":"Uncletopia | Los Angeles | 4 | Stopwatch Beta","protocol":17,"map":"cp_dustbowl","folder":"tf","game":"Team Fortress","app_id":440,"player_count":0,"max_players":24,"Bots":0,"server_type":"Dedicated","server_os":"Linux","password":true,"vac":true,"version":"7757534","steam_id":85568392924510199,"keywords":["cp","nocrits","nodmgspread","uncletopia"],"game_id":440,"stv_port":27046,"stv_name":"Uncletopia | Los Angeles | 4 | Stopwatch Beta | STV","players":null},{"server_id":11,"name":"Uncletopia | London | 1 | All Maps","name_short":"lon-1","host":"lon-1.uk.uncletopia.com","port":27015,"enabled":true,"region":"eu","cc":"gb","latitude":51.509865,"longitude":-0.118092,"reserved":0,"last_update":"0001-01-01T00:00:00Z","name_a2s":"Uncletopia | London | 1 | All Maps","protocol":17,"map":"pl_borneo","folder":"tf","game":"Team Fortress","app_id":440,"player_count":24,"max_players":24,"Bots":0,"server_type":"Dedicated","server_os":"Linux","password":true,"vac":true,"version":"7757534","steam_id":85568392924367362,"keywords":["nocrits","nodmgspread","payload","uncletopia"],"game_id":440,"stv_port":27016,"stv_name":"Uncletopia | London | 1 | All Maps | STV","players":[{"user_id":564,"name":"lore","steam_id":76561198120984188,"connected_time":1452000000000,"state":"active","ping":76},{"user_id":569,"name":"i am the demoman","steam_id":76561198379862033,"connected_time":725000000000,"state":"active","ping":85},{"user_id":542,"name":"Cosmonaut","steam_id":76561198239514504,"connected_time":3731000000000,"state":"active","ping":64},{"user_id":563,"name":"Vezage","steam_id":76561198064916164,"connected_time":1528000000000,"state":"active","ping":69},{"user_id":532,"name":"‚ô• TRANS RIGHTS ‚ô•","steam_id":76561198066258544,"connected_time":4418000000000,"state":"active","ping":63},{"user_id":560,"name":"fume.","steam_id":76561197960476801,"connected_time":1606000000000,"state":"active","ping":71},{"user_id":548,"name":"regimiro","steam_id":76561198120457008,"connected_time":2983000000000,"state":"active","ping":51},{"user_id":567,"name":"holykyckling","steam_id":76561198040661615,"connected_time":1318000000000,"state":"active","ping":75},{"user_id":565,"name":"medium rare chicken enjoyer","steam_id":76561198050214002,"connected_time":1428000000000,"state":"active","ping":62},{"user_id":571,"name":"John Xina","steam_id":76561198030304391,"connected_time":691000000000,"state":"active","ping":44},{"user_id":518,"name":"Mapavri","steam_id":76561198370196400,"connected_time":5507000000000,"state":"active","ping":87},{"user_id":570,"name":"Pintarolas","steam_id":76561198124839451,"connected_time":725000000000,"state":"active","ping":105},{"user_id":522,"name":"Beni ü¶ßüçå","steam_id":76561198011340227,"connected_time":5125000000000,"state":"active","ping":62},{"user_id":573,"name":"SaltyCupcakes","steam_id":76561198256386417,"connected_time":526000000000,"state":"active","ping":43},{"user_id":574,"name":"Sky","steam_id":76561198087415698,"connected_time":324000000000,"state":"active","ping":48},{"user_id":525,"name":"jimmy bob","steam_id":76561198319583692,"connected_time":4942000000000,"state":"active","ping":60},{"user_id":568,"name":"trans werewolf","steam_id":76561198107235989,"connected_time":742000000000,"state":"active","ping":71},{"user_id":531,"name":"‚ú™ Danny","steam_id":76561198104483241,"connected_time":4493000000000,"state":"active","ping":53},{"user_id":466,"name":"yeh","steam_id":76561198061197114,"connected_time":8586000000000,"state":"active","ping":73},{"user_id":566,"name":"Meowscarada The Spy","steam_id":76561198987833669,"connected_time":1427000000000,"state":"active","ping":174},{"user_id":468,"name":"sareena","steam_id":76561198810194062,"connected_time":8573000000000,"state":"active","ping":67},{"user_id":500,"name":"Piox","steam_id":76561198125689157,"connected_time":6834000000000,"state":"active","ping":76},{"user_id":546,"name":"Sorky","steam_id":76561198007502339,"connected_time":3024000000000,"state":"active","ping":73},{"user_id":559,"name":"Chad Slav","steam_id":76561198160103841,"connected_time":1644000000000,"state":"active","ping":76}]},{"server_id":114,"name":"Uncletopia | London | 2 | All Maps","name_short":"lon-2","host":"lon-1.uk.uncletopia.com","port":27025,"enabled":true,"region":"eu","cc":"gb","latitude":51.509865,"longitude":-0.118092,"reserved":0,"last_update":"0001-01-01T00:00:00Z","name_a2s":"Uncletopia | London | 2 | All Maps","protocol":17,"map":"koth_lakeside_final","folder":"tf","game":"Team Fortress","app_id":440,"player_count":0,"max_players":24,"Bots":0,"server_type":"Dedicated","server_os":"Linux","password":true,"vac":true,"version":"7757534","steam_id":85568392924470941,"keywords":["cp","nocrits","nodmgspread","uncletopia"],"game_id":440,"stv_port":27026,"stv_name":"Uncletopia | London | 2 | All Maps | STV","players":null},{"server_id":320,"name":"Uncletopia | London | 3 | All Maps","name_short":"lon-3","host":"lon-1.uk.uncletopia.com","port":27035,"enabled":true,"region":"eu","cc":"gb","latitude":51.509865,"longitude":-0.118092,"reserved":0,"last_update":"0001-01-01T00:00:00Z","name_a2s":"Uncletopia | London | 3 | All Maps","protocol":17,"map":"pl_upward","folder":"tf","game":"Team Fortress","app_id":440,"player_count":24,"max_players":24,"Bots":0,"server_type":"Dedicated","server_os":"Linux","password":true,"vac":true,"version":"7757534","steam_id":85568392924510192,"keywords":["nocrits","nodmgspread","payload","uncletopia"],"game_id":440,"stv_port":27036,"stv_name":"Uncletopia | London | 3 | All Maps | STV","players":[{"user_id":225,"name":"Mediplier (real)","steam_id":76561198970762992,"connected_time":2559000000000,"state":"active","ping":84},{"user_id":249,"name":"Kumquat","steam_id":76561198200490386,"connected_time":826000000000,"state":"active","ping":71},{"user_id":250,"name":"Deva Path","steam_id":76561198085763542,"connected_time":823000000000,"state":"active","ping":80},{"user_id":266,"name":"V","steam_id":76561199006462039,"connected_time":291000000000,"state":"active","ping":109},{"user_id":267,"name":"Hejnus","steam_id":76561197988395035,"connected_time":32000000000,"state":"active","ping":80},{"user_id":216,"name":"OTP ¬∞Roticher","steam_id":76561198194559879,"connected_time":2892000000000,"state":"active","ping":59},{"user_id":252,"name":"leonardini.w #SaveTF2","steam_id":76561199097963071,"connected_time":767000000000,"state":"active","ping":91},{"user_id":253,"name":"Sonnakai","steam_id":76561198051688749,"connected_time":758000000000,"state":"active","ping":44},{"user_id":254,"name":"dotdotdot","steam_id":76561198057628751,"connected_time":757000000000,"state":"active","ping":63},{"user_id":255,"name":"quickfast","steam_id":76561199438900919,"connected_time":742000000000,"state":"active","ping":40},{"user_id":223,"name":"‚ù§ToxicAngel‚ù§","steam_id":76561198062208751,"connected_time":2592000000000,"state":"active","ping":46},{"user_id":256,"name":"Chikapu_Xek","steam_id":76561198428023493,"connected_time":741000000000,"state":"active","ping":79},{"user_id":244,"name":"GuSkand","steam_id":76561198043775605,"connected_time":1264000000000,"state":"active","ping":83},{"user_id":224,"name":"Parapluie","steam_id":76561197971640301,"connected_time":2575000000000,"state":"active","ping":42},{"user_id":261,"name":"SausageRoll","steam_id":76561197994072622,"connected_time":541000000000,"state":"active","ping":48},{"user_id":257,"name":"luma","steam_id":76561198081649669,"connected_time":739000000000,"state":"active","ping":72},{"user_id":208,"name":"OTP DynamoDM","steam_id":76561198150755391,"connected_time":3196000000000,"state":"active","ping":34},{"user_id":65,"name":"Milosz52","steam_id":76561199060940204,"connected_time":8816000000000,"state":"active","ping":92},{"user_id":264,"name":"kadma","steam_id":76561198190600121,"connected_time":496000000000,"state":"active","ping":42},{"user_id":247,"name":"mt","steam_id":76561197961319303,"connected_time":851000000000,"state":"active","ping":60},{"user_id":238,"name":"ziv0104","steam_id":76561198089642287,"connected_time":2046000000000,"state":"active","ping":98},{"user_id":263,"name":"Littleyoshifan","steam_id":76561198445491045,"connected_time":511000000000,"state":"active","ping":36},{"user_id":222,"name":"r0la","steam_id":76561198128315340,"connected_time":2685000000000,"state":"active","ping":81},{"user_id":259,"name":"Videogamer","steam_id":76561198106012909,"connected_time":721000000000,"state":"active","ping":82}]},{"server_id":321,"name":"Uncletopia | London | 4 | All Maps","name_short":"lon-4","host":"lon-1.uk.uncletopia.com","port":27045,"enabled":true,"region":"eu","cc":"gb","latitude":51.509865,"longitude":-0.118092,"reserved":0,"last_update":"0001-01-01T00:00:00Z","name_a2s":"Uncletopia | London | 4 | All Maps","protocol":17,"map":"pl_snowycoast","folder":"tf","game":"Team Fortress","app_id":440,"player_count":0,"max_players":24,"Bots":0,"server_type":"Dedicated","server_os":"Linux","password":true,"vac":true,"version":"7757534","steam_id":85568392924510193,"keywords":["nocrits","nodmgspread","payload","uncletopia"],"game_id":440,"stv_port":27046,"stv_name":"Uncletopia | London | 4 | All Maps | STV","players":null},{"server_id":21,"name":"Uncletopia | London | 5 | All Maps","name_short":"lon-5","host":"lon-1.uk.uncletopia.com","port":27055,"enabled":true,"region":"eu","cc":"gb","latitude":51.509865,"longitude":-0.118092,"reserved":0,"last_update":"0001-01-01T00:00:00Z","name_a2s":"Uncletopia | London | 5 | All Maps","protocol":17,"map":"pl_barnblitz","folder":"tf","game":"Team Fortress","app_id":440,"player_count":24,"max_players":24,"Bots":0,"server_type":"Dedicated","server_os":"Linux","password":true,"vac":true,"version":"7757534","steam_id":85568392924742829,"keywords":["nocrits","nodmgspread","payload","uncletopia"],"game_id":440,"stv_port":27056,"stv_name":"Uncletopia | London | 5 | All Maps | STV","players":[{"user_id":607,"name":"Daniele Antox","steam_id":76561198323879930,"connected_time":76000000000,"state":"active","ping":60},{"user_id":606,"name":"Even0","steam_id":76561198150248840,"connected_time":104000000000,"state":"active","ping":75},{"user_id":588,"name":"Mattwell","steam_id":76561197987903431,"connected_time":1767000000000,"state":"active","ping":54},{"user_id":583,"name":"Hi I'm Chris","steam_id":76561198042509408,"connected_time":2107000000000,"state":"active","ping":56},{"user_id":584,"name":"mista white","steam_id":76561199387233667,"connected_time":2106000000000,"state":"active","ping":56},{"user_id":601,"name":"Spectre","steam_id":76561198165400479,"connected_time":343000000000,"state":"active","ping":103},{"user_id":553,"name":"Sacrishee","steam_id":76561198169853697,"connected_time":3909000000000,"state":"active","ping":64},{"user_id":593,"name":"robbie","steam_id":76561198798195287,"connected_time":1228000000000,"state":"active","ping":46},{"user_id":555,"name":"L.A. Palm Tree","steam_id":76561199289526521,"connected_time":3867000000000,"state":"active","ping":88},{"user_id":580,"name":"dairy","steam_id":76561198117033273,"connected_time":2253000000000,"state":"active","ping":51},{"user_id":565,"name":"Rachel","steam_id":76561199474256638,"connected_time":3530000000000,"state":"active","ping":63},{"user_id":598,"name":"XSCod","steam_id":76561198124586634,"connected_time":558000000000,"state":"active","ping":66},{"user_id":608,"name":"deflox","steam_id":76561198087450635,"connected_time":32000000000,"state":"active","ping":53},{"user_id":597,"name":"B1urred","steam_id":76561198263657694,"connected_time":749000000000,"state":"active","ping":44},{"user_id":586,"name":"Ansari","steam_id":76561198074982971,"connected_time":2050000000000,"state":"active","ping":58},{"user_id":530,"name":"Zerfesh","steam_id":76561198117534358,"connected_time":4879000000000,"state":"active","ping":100},{"user_id":603,"name":"William Afton","steam_id":76561198891551659,"connected_time":231000000000,"state":"active","ping":46},{"user_id":581,"name":"Mao Zedong","steam_id":76561198347020945,"connected_time":2207000000000,"state":"active","ping":90},{"user_id":609,"name":"‚ú™Kritz","steam_id":76561198110226775,"connected_time":21000000000,"state":"active","ping":60},{"user_id":582,"name":"Daddyflabburger","steam_id":76561198104352907,"connected_time":2206000000000,"state":"active","ping":61},{"user_id":605,"name":"=PF=BlackCrystal","steam_id":76561198154330339,"connected_time":177000000000,"state":"active","ping":182},{"user_id":610,"name":"Don't Fuckle with Shuckle","steam_id":76561199020102367,"connected_time":16000000000,"state":"spawning","ping":148},{"user_id":569,"name":"–ü–µ—Å –ü–∞—Ç—Ä–æ–Ω","steam_id":76561198273199378,"connected_time":3472000000000,"state":"active","ping":77},{"user_id":523,"name":"Resident Thrussy Lender","steam_id":76561198071790583,"connected_time":5142000000000,"state":"active","ping":130}]},{"server_id":22,"name":"Uncletopia | London | 6 | All Maps","name_short":"lon-6","host":"lon-1.uk.uncletopia.com","port":27065,"enabled":true,"region":"eu","cc":"gb","latitude":51.509865,"longitude":-0.118092,"reserved":0,"last_update":"0001-01-01T00:00:00Z","name_a2s":"Uncletopia | London | 6 | All Maps","protocol":17,"map":"koth_highpass","folder":"tf","game":"Team Fortress","app_id":440,"player_count":0,"max_players":24,"Bots":0,"server_type":"Dedicated","server_os":"Linux","password":true,"vac":true,"version":"7757534","steam_id":85568392924742830,"keywords":["cp","nocrits","nodmgspread","uncletopia"],"game_id":440,"stv_port":27066,"stv_name":"Uncletopia | London | 6 | All Maps | STV","players":null},{"server_id":40,"name":"Uncletopia | London | 7 | No Payload","name_short":"lon-7","host":"lon-1.uk.uncletopia.com","port":27075,"enabled":true,"region":"eu","cc":"gb","latitude":51.509865,"longitude":-0.118092,"reserved":0,"last_update":"0001-01-01T00:00:00Z","name_a2s":"Uncletopia | London | 7 | No Payload","protocol":17,"map":"koth_highpass","folder":"tf","game":"Team Fortress","app_id":440,"player_count":0,"max_players":24,"Bots":0,"server_type":"Dedicated","server_os":"Linux","password":true,"vac":true,"version":"7757534","steam_id":85568392924964314,"keywords":["cp","nocrits","nodmgspread","uncletopia"],"game_id":440,"stv_port":27076,"stv_name":"Uncletopia | London | 7 | No Payload | STV","players":null},{"server_id":41,"name":"Uncletopia | London | 8 | Community","name_short":"lon-8","host":"lon-1.uk.uncletopia.com","port":27085,"enabled":true,"region":"eu","cc":"gb","latitude":51.509865,"longitude":-0.118092,"reserved":0,"last_update":"0001-01-01T00:00:00Z","name_a2s":"Uncletopia | London | 8 | Community","protocol":17,"map":"workshop/pl_highwood_b13.ugc1769496557","folder":"tf","game":"Team Fortress","app_id":440,"player_count":24,"max_players":24,"Bots":0,"server_type":"Dedicated","server_os":"Linux","password":true,"vac":true,"version":"7757534","steam_id":85568392924964315,"keywords":["nocrits","nodmgspread","payload","uncletopia"],"game_id":440,"stv_port":27086,"stv_name":"Uncletopia | London | 8 | Community | STV","players":[{"user_id":469,"name":"plepek","steam_id":76561198042959598,"connected_time":282000000000,"state":"active","ping":84},{"user_id":414,"name":"TylowStar","steam_id":76561198357107806,"connected_time":3833000000000,"state":"active","ping":60},{"user_id":400,"name":"Acid","steam_id":76561198102110680,"connected_time":4427000000000,"state":"active","ping":80},{"user_id":385,"name":"GlitchyTrashCan","steam_id":76561198309789756,"connected_time":4740000000000,"state":"active","ping":68},{"user_id":453,"name":"poliakov.noam","steam_id":76561199259322961,"connected_time":1060000000000,"state":"active","ping":105},{"user_id":444,"name":"Uncle Owen","steam_id":76561198157999291,"connected_time":1640000000000,"state":"active","ping":89},{"user_id":364,"name":"Dr. Uberschwein","steam_id":76561198111367431,"connected_time":5838000000000,"state":"active","ping":92},{"user_id":343,"name":"Joseph Stalin","steam_id":76561198033199746,"connected_time":7425000000000,"state":"active","ping":46},{"user_id":454,"name":"no bitches nigusman","steam_id":76561199466723428,"connected_time":1051000000000,"state":"active","ping":84},{"user_id":457,"name":"pezza","steam_id":76561197995173247,"connected_time":999000000000,"state":"active","ping":58},{"user_id":447,"name":"Jimortal","steam_id":76561198342426856,"connected_time":1473000000000,"state":"active","ping":57},{"user_id":463,"name":"TSx* Bargal","steam_id":76561198040266872,"connected_time":518000000000,"state":"active","ping":78},{"user_id":464,"name":"TSx* Osa__PL","steam_id":76561198027016799,"connected_time":513000000000,"state":"active","ping":78},{"user_id":462,"name":"Cosmic Craggs","steam_id":76561198331165666,"connected_time":743000000000,"state":"active","ping":46},{"user_id":383,"name":"AYE","steam_id":76561198181368101,"connected_time":4797000000000,"state":"active","ping":63},{"user_id":468,"name":"Slick Rick","steam_id":76561198121941052,"connected_time":401000000000,"state":"active","ping":61},{"user_id":456,"name":"halo 3 rat","steam_id":76561198439007717,"connected_time":1043000000000,"state":"active","ping":77},{"user_id":461,"name":"Getrkod","steam_id":76561198986560793,"connected_time":767000000000,"state":"active","ping":57},{"user_id":445,"name":"ScarredPixel123","steam_id":76561199165112703,"connected_time":1526000000000,"state":"active","ping":80},{"user_id":465,"name":"big t","steam_id":76561198067179454,"connected_time":494000000000,"state":"active","ping":33},{"user_id":466,"name":"TSx* {Demon-Angel}","steam_id":76561198151486463,"connected_time":488000000000,"state":"active","ping":88},{"user_id":417,"name":"Benzo Fury","steam_id":76561198025259336,"connected_time":3709000000000,"state":"active","ping":41},{"user_id":442,"name":"Yrj√∂ Koskinen Yrj√∂-Koskinen","steam_id":76561198368181145,"connected_time":2153000000000,"state":"active","ping":88},{"user_id":467,"name":"TSx* Naxer","steam_id":76561198011986779,"connected_time":453000000000,"state":"active","ping":77}]},{"server_id":300,"name":"Uncletopia | Montr√©al | 1 | All Maps","name_short":"mtl-1","host":"mtl-1.ca.uncletopia.com","port":27015,"enabled":true,"region":"us-east","cc":"ca","latitude":45.50889,"longitude":-73.56167,"reserved":0,"last_update":"0001-01-01T00:00:00Z","name_a2s":"Uncletopia | Montr√©al | 1 | All Maps","protocol":17,"map":"pl_pier","folder":"tf","game":"Team Fortress","app_id":440,"player_count":0,"max_players":24,"Bots":0,"server_type":"Dedicated","server_os":"Linux","password":true,"vac":true,"version":"7757534","steam_id":85568392924500087,"keywords":["nocrits","nodmgspread","payload","uncletopia"],"game_id":440,"stv_port":27016,"stv_name":"Uncletopia | Montr√©al | 1 | All Maps | STV","players":null},{"server_id":301,"name":"Uncletopia | Montr√©al | 2 | All Maps","name_short":"mtl-2","host":"mtl-1.ca.uncletopia.com","port":27025,"enabled":true,"region":"us-east","cc":"ca","latitude":45.50889,"longitude":-73.56167,"reserved":0,"last_update":"0001-01-01T00:00:00Z","name_a2s":"Uncletopia | Montr√©al | 2 | All Maps","protocol":17,"map":"cp_sunshine","folder":"tf","game":"Team Fortress","app_id":440,"player_count":0,"max_players":24,"Bots":0,"server_type":"Dedicated","server_os":"Linux","password":true,"vac":true,"version":"7757534","steam_id":85568392924500088,"keywords":["cp","nocrits","nodmgspread","uncletopia"],"game_id":440,"stv_port":27026,"stv_name":"Uncletopia | Montr√©al | 2 | All Maps | STV","players":null},{"server_id":302,"name":"Uncletopia | Montr√©al | 3 | All Maps","name_short":"mtl-3","host":"mtl-1.ca.uncletopia.com","port":27035,"enabled":true,"region":"us-east","cc":"ca","latitude":45.50889,"longitude":-73.56167,"reserved":0,"last_update":"0001-01-01T00:00:00Z","name_a2s":"Uncletopia | Montr√©al | 3 | All Maps","protocol":17,"map":"pl_frontier_final","folder":"tf","game":"Team Fortress","app_id":440,"player_count":0,"max_players":24,"Bots":0,"server_type":"Dedicated","server_os":"Linux","password":true,"vac":true,"version":"7757534","steam_id":85568392924500089,"keywords":["nocrits","nodmgspread","payload","uncletopia"],"game_id":440,"stv_port":27036,"stv_name":"Uncletopia | Montr√©al | 3 | All Maps | STV","players":null},{"server_id":303,"name":"Uncletopia | Montr√©al | 4 | No Payload","name_short":"mtl-4","host":"mtl-1.ca.uncletopia.com","port":27045,"enabled":true,"region":"us-east","cc":"ca","latitude":45.50889,"longitude":-73.56167,"reserved":0,"last_update":"0001-01-01T00:00:00Z","name_a2s":"Uncletopia | Montr√©al | 4 | No Payload","protocol":17,"map":"cp_coldfront","folder":"tf","game":"Team Fortress","app_id":440,"player_count":0,"max_players":24,"Bots":0,"server_type":"Dedicated","server_os":"Linux","password":true,"vac":true,"version":"7757534","steam_id":85568392924500090,"keywords":["cp","nocrits","nodmgspread","uncletopia"],"game_id":440,"stv_port":27046,"stv_name":"Uncletopia | Montr√©al | 4 | No Payload | STV","players":null},{"server_id":13,"name":"Uncletopia | New York City | 1 | All Maps","name_short":"nyc-1","host":"nyc-1.us.uncletopia.com","port":27015,"enabled":true,"region":"us-east","cc":"us","latitude":40.73061,"longitude":-73.93524,"reserved":0,"last_update":"0001-01-01T00:00:00Z","name_a2s":"Uncletopia | New York City | 1 | All Maps","protocol":17,"map":"pl_snowycoast","folder":"tf","game":"Team Fortress","app_id":440,"player_count":24,"max_players":24,"Bots":0,"server_type":"Dedicated","server_os":"Linux","password":true,"vac":true,"version":"7757534","steam_id":85568392924469993,"keywords":["nocrits","nodmgspread","payload","uncletopia"],"game_id":440,"stv_port":27016,"stv_name":"Uncletopia | New York City | 1 | All Maps | STV","players":[{"user_id":149,"name":"Pennis the Menace","steam_id":76561198254878037,"connected_time":8407000000000,"state":"active","ping":95},{"user_id":220,"name":"self-cannibalizing customer. \ufffd\ufffd","steam_id":76561198294013916,"connected_time":3914000000000,"state":"active","ping":45},{"user_id":226,"name":"B3Y0NDTH3M1ND","steam_id":76561198262637389,"connected_time":3517000000000,"state":"active","ping":147},{"user_id":270,"name":"Echidna","steam_id":76561198047076367,"connected_time":325000000000,"state":"active","ping":98},{"user_id":223,"name":"Cursed mario","steam_id":76561198971168093,"connected_time":3749000000000,"state":"active","ping":162},{"user_id":264,"name":"mdharsy","steam_id":76561198065831053,"connected_time":785000000000,"state":"active","ping":92},{"user_id":265,"name":"Mr. Mane T.S.H.A.","steam_id":76561198056728986,"connected_time":778000000000,"state":"active","ping":85},{"user_id":261,"name":"John Darksoul","steam_id":76561198999712284,"connected_time":1389000000000,"state":"active","ping":82},{"user_id":260,"name":"Voodo133","steam_id":76561198042670351,"connected_time":1424000000000,"state":"active","ping":73},{"user_id":215,"name":"The Drunk Clown","steam_id":76561197986850426,"connected_time":4510000000000,"state":"active","ping":85},{"user_id":263,"name":"Bother","steam_id":76561198336750909,"connected_time":841000000000,"state":"active","ping":36},{"user_id":271,"name":"Coyote29 elitegamers.ro","steam_id":76561198344502070,"connected_time":97000000000,"state":"active","ping":153},{"user_id":206,"name":"CrazedFerno","steam_id":76561198068854510,"connected_time":5348000000000,"state":"active","ping":51},{"user_id":266,"name":"Magistricide","steam_id":76561198271728783,"connected_time":775000000000,"state":"active","ping":142},{"user_id":269,"name":"MagicGnome (*·¥óÕàÀ¨·¥óÕà)Íï§","steam_id":76561198060886742,"connected_time":467000000000,"state":"active","ping":60},{"user_id":267,"name":"that one","steam_id":76561199088969462,"connected_time":737000000000,"state":"active","ping":78},{"user_id":272,"name":"Conjurer","steam_id":76561198316256275,"connected_time":70000000000,"state":"active","ping":45},{"user_id":253,"name":"basilberry","steam_id":76561198145275937,"connected_time":1942000000000,"state":"active","ping":103},{"user_id":244,"name":"Ziath","steam_id":76561198094009164,"connected_time":2077000000000,"state":"active","ping":51},{"user_id":273,"name":"trans rights","steam_id":76561198153764923,"connected_time":44000000000,"state":"active","ping":87},{"user_id":268,"name":"gesfan2727","steam_id":76561198855471440,"connected_time":727000000000,"state":"active","ping":79},{"user_id":262,"name":"Good Seed","steam_id":76561198013443319,"connected_time":846000000000,"state":"active","ping":81},{"user_id":225,"name":"Duckywinner","steam_id":76561198254828139,"connected_time":3591000000000,"state":"active","ping":82},{"user_id":213,"name":"CJAIME01345","steam_id":76561199091599141,"connected_time":5077000000000,"state":"active","ping":114}]},{"server_id":14,"name":"Uncletopia | New York City | 2 | All Maps","name_short":"nyc-2","host":"nyc-1.us.uncletopia.com","port":27025,"enabled":true,"region":"us-east","cc":"us","latitude":40.73061,"longitude":-73.93524,"reserved":0,"last_update":"0001-01-01T00:00:00Z","name_a2s":"Uncletopia | New York City | 2 | All Maps","protocol":17,"map":"pl_badwater","folder":"tf","game":"Team Fortress","app_id":440,"player_count":0,"max_players":24,"Bots":0,"server_type":"Dedicated","server_os":"Linux","password":true,"vac":true,"version":"7757534","steam_id":85568392924469994,"keywords":["nocrits","nodmgspread","payload","uncletopia"],"game_id":440,"stv_port":27026,"stv_name":"Uncletopia | New York City | 2 | All Maps | STV","players":null},{"server_id":15,"name":"Uncletopia | New York City | 3 | Stopwatch Beta","name_short":"nyc-3","host":"nyc-1.us.uncletopia.com","port":27035,"enabled":true,"region":"us-east","cc":"us","latitude":40.73061,"longitude":-73.93524,"reserved":0,"last_update":"0001-01-01T00:00:00Z","name_a2s":"Uncletopia | New York City | 3 | Stopwatch Beta","protocol":17,"map":"koth_cascade","folder":"tf","game":"Team Fortress","app_id":440,"player_count":0,"max_players":24,"Bots":0,"server_type":"Dedicated","server_os":"Linux","password":true,"vac":true,"version":"7757534","steam_id":85568392924742820,"keywords":["cp","nocrits","nodmgspread","uncletopia"],"game_id":440,"stv_port":27036,"stv_name":"Uncletopia | New York City | 3 | Stopwatch Beta | STV","players":null},{"server_id":16,"name":"Uncletopia | New York City | 4 | Community","name_short":"nyc-4","host":"nyc-1.us.uncletopia.com","port":27045,"enabled":true,"region":"us-east","cc":"us","latitude":40.73061,"longitude":-73.93524,"reserved":0,"last_update":"0001-01-01T00:00:00Z","name_a2s":"Uncletopia | New York City | 4 | Community","protocol":17,"map":"workshop/cp_mannbase_rc2a.ugc1900737467","folder":"tf","game":"Team Fortress","app_id":440,"player_count":0,"max_players":24,"Bots":0,"server_type":"Dedicated","server_os":"Linux","password":true,"vac":true,"version":"7757534","steam_id":85568392924742821,"keywords":["cp","nocrits","nodmgspread","uncletopia"],"game_id":440,"stv_port":27046,"stv_name":"Uncletopia | New York City | 4 | Community | STV","players":null},{"server_id":142,"name":"Uncletopia | S√£o Paulo | 1 | All Maps","name_short":"sao-1","host":"sao-1.br.uncletopia.com","port":27015,"enabled":true,"region":"sa","cc":"br","latitude":-23.533773,"longitude":-46.62529,"reserved":0,"last_update":"0001-01-01T00:00:00Z","name_a2s":"Uncletopia | S√£o Paulo | 1 | All Maps","protocol":17,"map":"pl_frontier_final","folder":"tf","game":"Team Fortress","app_id":440,"player_count":0,"max_players":24,"Bots":0,"server_type":"Dedicated","server_os":"Linux","password":true,"vac":true,"version":"7757534","steam_id":85568392924469996,"keywords":["nocrits","nodmgspread","payload","uncletopia"],"game_id":440,"stv_port":27016,"stv_name":"Uncletopia | S√£o Paulo | 1 | All Maps | STV","players":null},{"server_id":143,"name":"Uncletopia | S√£o Paulo | 2 | All Maps","name_short":"sao-2","host":"sao-2.br.uncletopia.com","port":27015,"enabled":true,"region":"sa","cc":"br","latitude":-23.533773,"longitude":-46.62529,"reserved":0,"last_update":"0001-01-01T00:00:00Z","name_a2s":"Uncletopia | S√£o Paulo | 2 | All Maps","protocol":17,"map":"koth_cascade","folder":"tf","game":"Team Fortress","app_id":440,"player_count":0,"max_players":24,"Bots":0,"server_type":"Dedicated","server_os":"Linux","password":true,"vac":true,"version":"7757534","steam_id":85568392924485349,"keywords":["cp","nocrits","nodmgspread","uncletopia"],"game_id":440,"stv_port":27016,"stv_name":"Uncletopia | S√£o Paulo | 2 | All Maps | STV","players":null},{"server_id":7,"name":"Uncletopia | Seattle | 1 | All Maps","name_short":"sea-1","host":"sea-1.us.uncletopia.com","port":27015,"enabled":true,"region":"us-west","cc":"us","latitude":47.608013,"longitude":-122.33517,"reserved":0,"last_update":"0001-01-01T00:00:00Z","name_a2s":"Uncletopia | Seattle | 1 | All Maps","protocol":17,"map":"cp_snakewater_final1","folder":"tf","game":"Team Fortress","app_id":440,"player_count":24,"max_players":24,"Bots":0,"server_type":"Dedicated","server_os":"Linux","password":true,"vac":true,"version":"7757534","steam_id":85568392924469997,"keywords":["cp","nocrits","nodmgspread","uncletopia"],"game_id":440,"stv_port":27016,"stv_name":"Uncletopia | Seattle | 1 | All Maps | STV","players":[{"user_id":351,"name":"akin","steam_id":76561198065895033,"connected_time":346000000000,"state":"active","ping":119},{"user_id":282,"name":"cortar","steam_id":76561199077636183,"connected_time":2497000000000,"state":"active","ping":143},{"user_id":293,"name":"Jeffy Epstein","steam_id":76561198053832401,"connected_time":2311000000000,"state":"active","ping":90},{"user_id":290,"name":"forest","steam_id":76561198157960257,"connected_time":2334000000000,"state":"active","ping":44},{"user_id":319,"name":"Lazy","steam_id":76561198802747832,"connected_time":1792000000000,"state":"active","ping":47},{"user_id":225,"name":"Mr. Mystical Perfection","steam_id":76561198036444997,"connected_time":4222000000000,"state":"active","ping":43},{"user_id":336,"name":"jn tr po","steam_id":76561198120327601,"connected_time":1386000000000,"state":"active","ping":116},{"user_id":337,"name":"Quietsharp","steam_id":76561198277968438,"connected_time":1379000000000,"state":"active","ping":81},{"user_id":331,"name":"Snoopist","steam_id":76561198144023761,"connected_time":1439000000000,"state":"active","ping":83},{"user_id":163,"name":"Cryonics","steam_id":76561198314197911,"connected_time":5479000000000,"state":"active","ping":108},{"user_id":349,"name":"shy guy","steam_id":76561198151246059,"connected_time":591000000000,"state":"active","ping":75},{"user_id":341,"name":"touka","steam_id":76561198171521806,"connected_time":1309000000000,"state":"active","ping":69},{"user_id":281,"name":"dirty30","steam_id":76561198021226566,"connected_time":2589000000000,"state":"active","ping":50},{"user_id":333,"name":"--)YawgMoss(-- \"The Salt\"","steam_id":76561198072971649,"connected_time":1437000000000,"state":"active","ping":70},{"user_id":335,"name":"Buswolley","steam_id":76561197995205571,"connected_time":1401000000000,"state":"active","ping":70},{"user_id":338,"name":"jubb","steam_id":76561198186865526,"connected_time":1343000000000,"state":"active","ping":62},{"user_id":339,"name":"Marie","steam_id":76561198056104899,"connected_time":1334000000000,"state":"active","ping":138},{"user_id":167,"name":"Little Linguine","steam_id":76561198816986370,"connected_time":5433000000000,"state":"active","ping":58},{"user_id":352,"name":"gretchling","steam_id":76561198046111695,"connected_time":308000000000,"state":"active","ping":93},{"user_id":227,"name":"Paul","steam_id":76561197996285195,"connected_time":4209000000000,"state":"active","ping":50},{"user_id":348,"name":"Siegfried Stern","steam_id":76561198012453523,"connected_time":679000000000,"state":"active","ping":55},{"user_id":355,"name":"NETTASTINI","steam_id":76561199135904313,"connected_time":221000000000,"state":"active","ping":142},{"user_id":358,"name":"Gibus Man","steam_id":76561198257241062,"connected_time":129000000000,"state":"active","ping":49},{"user_id":360,"name":"t.tv/FamilyGuyFunnyMoments277","steam_id":76561198416047580,"connected_time":105000000000,"state":"active","ping":141}]},{"server_id":119,"name":"Uncletopia | Seattle | 2 | All Maps","name_short":"sea-2","host":"sea-1.us.uncletopia.com","port":27025,"enabled":true,"region":"us-west","cc":"us","latitude":47.608013,"longitude":-122.33517,"reserved":0,"last_update":"0001-01-01T00:00:00Z","name_a2s":"Uncletopia | Seattle | 2 | All Maps","protocol":17,"map":"cp_process_final","folder":"tf","game":"Team Fortress","app_id":440,"player_count":24,"max_players":24,"Bots":0,"server_type":"Dedicated","server_os":"Linux","password":true,"vac":true,"version":"7757534","steam_id":85568392924469998,"keywords":["cp","nocrits","nodmgspread","uncletopia"],"game_id":440,"stv_port":27026,"stv_name":"Uncletopia | Seattle | 2 | All Maps | STV","players":[{"user_id":44,"name":"Phlogging Solly","steam_id":76561198020580071,"connected_time":367000000000,"state":"active","ping":75},{"user_id":7,"name":"Tohru Adachi","steam_id":76561198302118756,"connected_time":1674000000000,"state":"active","ping":66},{"user_id":8,"name":"The Toucher","steam_id":76561198263739357,"connected_time":1609000000000,"state":"active","ping":76},{"user_id":48,"name":"Voxany","steam_id":76561198081096335,"connected_time":171000000000,"state":"active","ping":121},{"user_id":10,"name":"mudunit","steam_id":76561198811544015,"connected_time":1489000000000,"state":"active","ping":60},{"user_id":11,"name":"CSharp","steam_id":76561199185191710,"connected_time":1365000000000,"state":"active","ping":145},{"user_id":50,"name":"super mario 65","steam_id":76561199066567418,"connected_time":61000000000,"state":"active","ping":46},{"user_id":13,"name":"dicksnip","steam_id":76561198356515396,"connected_time":1257000000000,"state":"active","ping":102},{"user_id":14,"name":"Wacks","steam_id":76561198079476100,"connected_time":1190000000000,"state":"active","ping":74},{"user_id":15,"name":"Œª","steam_id":76561198120426683,"connected_time":1174000000000,"state":"active","ping":68},{"user_id":16,"name":"soda","steam_id":76561198105924953,"connected_time":1147000000000,"state":"active","ping":72},{"user_id":36,"name":"Paco","steam_id":76561198023504958,"connected_time":753000000000,"state":"active","ping":118},{"user_id":18,"name":"worker","steam_id":76561198039608940,"connected_time":1139000000000,"state":"active","ping":74},{"user_id":19,"name":"The Soviet Lobster","steam_id":76561198822062399,"connected_time":1139000000000,"state":"active","ping":101},{"user_id":27,"name":"Shwa","steam_id":76561198122613101,"connected_time":966000000000,"state":"active","ping":121},{"user_id":39,"name":"Alex Manneks","steam_id":76561198118579501,"connected_time":508000000000,"state":"active","ping":105},{"user_id":46,"name":"cam9007","steam_id":76561198068306969,"connected_time":337000000000,"state":"active","ping":52},{"user_id":26,"name":"128gb sd card","steam_id":76561198043636749,"connected_time":997000000000,"state":"active","ping":75},{"user_id":28,"name":"snolop","steam_id":76561198169902357,"connected_time":959000000000,"state":"active","ping":101},{"user_id":29,"name":"TheSmokingMan","steam_id":76561198032652995,"connected_time":943000000000,"state":"active","ping":109},{"user_id":37,"name":"Satan","steam_id":76561197991919043,"connected_time":532000000000,"state":"active","ping":140},{"user_id":32,"name":"Sandstorm930","steam_id":76561198277550295,"connected_time":910000000000,"state":"active","ping":138},{"user_id":43,"name":"Keamy","steam_id":76561199471434875,"connected_time":417000000000,"state":"active","ping":45},{"user_id":47,"name":"Defeat","steam_id":76561198065203818,"connected_time":336000000000,"state":"active","ping":34}]},{"server_id":406,"name":"Uncletopia | Seattle | 3 | Stopwatch Beta","name_short":"sea-3","host":"sea-1.us.uncletopia.com","port":27035,"enabled":true,"region":"us-west","cc":"us","latitude":47.608013,"longitude":-122.33517,"reserved":0,"last_update":"0001-01-01T00:00:00Z","name_a2s":"Uncletopia | Seattle | 3 | Stopwatch Beta","protocol":17,"map":"workshop/pl_summercoast_rc8e.ugc1761528829","folder":"tf","game":"Team Fortress","app_id":440,"player_count":0,"max_players":24,"Bots":0,"server_type":"Dedicated","server_os":"Linux","password":true,"vac":true,"version":"7757534","steam_id":85568392924515217,"keywords":["nocrits","nodmgspread","payload","uncletopia"],"game_id":440,"stv_port":27036,"stv_name":"Uncletopia | Seattle | 3 | Stopwatch Beta | STV","players":null},{"server_id":17,"name":"Uncletopia | San Francisco | 1 | All Maps","name_short":"sfo-1","host":"sfo-1.us.uncletopia.com","port":27015,"enabled":true,"region":"us-west","cc":"us","latitude":37.77397,"longitude":-122.4313,"reserved":0,"last_update":"0001-01-01T00:00:00Z","name_a2s":"Uncletopia | San Francisco | 1 | All Maps","protocol":17,"map":"pl_badwater","folder":"tf","game":"Team Fortress","app_id":440,"player_count":0,"max_players":24,"Bots":0,"server_type":"Dedicated","server_os":"Linux","password":true,"vac":true,"version":"7757534","steam_id":85568392924469999,"keywords":["nocrits","nodmgspread","payload","uncletopia"],"game_id":440,"stv_port":27016,"stv_name":"Uncletopia | San Francisco | 1 | All Maps | STV","players":null},{"server_id":18,"name":"Uncletopia | San Francisco | 2 | All Maps","name_short":"sfo-2","host":"sfo-1.us.uncletopia.com","port":27025,"enabled":true,"region":"us-west","cc":"us","latitude":37.77397,"longitude":-122.4313,"reserved":0,"last_update":"0001-01-01T00:00:00Z","name_a2s":"Uncletopia | San Francisco | 2 | All Maps","protocol":17,"map":"koth_viaduct","folder":"tf","game":"Team Fortress","app_id":440,"player_count":0,"max_players":24,"Bots":0,"server_type":"Dedicated","server_os":"Linux","password":true,"vac":true,"version":"7757534","steam_id":85568392924470000,"keywords":["cp","nocrits","nodmgspread","uncletopia"],"game_id":440,"stv_port":27026,"stv_name":"Uncletopia | San Francisco | 2 | All Maps | STV","players":null},{"server_id":19,"name":"Uncletopia | San Francisco | 3 | Stopwatch Beta","name_short":"sfo-3","host":"sfo-1.us.uncletopia.com","port":27035,"enabled":true,"region":"us-west","cc":"us","latitude":37.77397,"longitude":-122.4313,"reserved":0,"last_update":"0001-01-01T00:00:00Z","name_a2s":"Uncletopia | San Francisco | 3 | Stopwatch Beta","protocol":17,"map":"cp_snakewater_final1","folder":"tf","game":"Team Fortress","app_id":440,"player_count":0,"max_players":24,"Bots":0,"server_type":"Dedicated","server_os":"Linux","password":true,"vac":true,"version":"7757534","steam_id":85568392924742824,"keywords":["cp","nocrits","nodmgspread","uncletopia"],"game_id":440,"stv_port":27036,"stv_name":"Uncletopia | San Francisco | 3 | Stopwatch Beta | STV","players":null},{"server_id":20,"name":"Uncletopia | San Francisco | 4 | Community","name_short":"sfo-4","host":"sfo-1.us.uncletopia.com","port":27045,"enabled":true,"region":"us-west","cc":"us","latitude":37.77397,"longitude":-122.4313,"reserved":0,"last_update":"0001-01-01T00:00:00Z","name_a2s":"Uncletopia | San Francisco | 4 | Community","protocol":17,"map":"pl_frontier_final","folder":"tf","game":"Team Fortress","app_id":440,"player_count":0,"max_players":24,"Bots":0,"server_type":"Dedicated","server_os":"Linux","password":true,"vac":true,"version":"7757534","steam_id":85568392924742826,"keywords":["nocrits","nodmgspread","payload","uncletopia"],"game_id":440,"stv_port":27046,"stv_name":"Uncletopia | San Francisco | 4 | Community | STV","players":null},{"server_id":141,"name":"Uncletopia | Sydney | 1 | All Maps","name_short":"syd-1","host":"syd-1.au.uncletopia.com","port":27015,"enabled":true,"region":"au","cc":"au","latitude":-33.865143,"longitude":151.2099,"reserved":0,"last_update":"0001-01-01T00:00:00Z","name_a2s":"Uncletopia | Sydney | 1 | All Maps","protocol":17,"map":"pl_borneo","folder":"tf","game":"Team Fortress","app_id":440,"player_count":0,"max_players":24,"Bots":0,"server_type":"Dedicated","server_os":"Linux","password":true,"vac":true,"version":"7757534","steam_id":85568392924470001,"keywords":["nocrits","nodmgspread","payload","uncletopia"],"game_id":440,"stv_port":27016,"stv_name":"Uncletopia | Sydney | 1 | All Maps | STV","players":null},{"server_id":123,"name":"Uncletopia | Sydney | 2 | All Maps","name_short":"syd-2","host":"syd-1.au.uncletopia.com","port":27025,"enabled":true,"region":"au","cc":"au","latitude":-33.865143,"longitude":151.2099,"reserved":0,"last_update":"0001-01-01T00:00:00Z","name_a2s":"Uncletopia | Sydney | 2 | All Maps","protocol":17,"map":"cp_snakewater_final1","folder":"tf","game":"Team Fortress","app_id":440,"player_count":0,"max_players":24,"Bots":0,"server_type":"Dedicated","server_os":"Linux","password":true,"vac":true,"version":"7757534","steam_id":85568392924470002,"keywords":["cp","nocrits","nodmgspread","uncletopia"],"game_id":440,"stv_port":27026,"stv_name":"Uncletopia | Sydney | 2 | All Maps | STV","players":null},{"server_id":395,"name":"Uncletopia | Sydney | 3 | All Maps","name_short":"syd-3","host":"syd-1.au.uncletopia.com","port":27035,"enabled":true,"region":"au","cc":"au","latitude":-33.865143,"longitude":151.2099,"reserved":0,"last_update":"0001-01-01T00:00:00Z","name_a2s":"Uncletopia | Sydney | 3 | All Maps","protocol":17,"map":"pl_borneo","folder":"tf","game":"Team Fortress","app_id":440,"player_count":0,"max_players":24,"Bots":0,"server_type":"Dedicated","server_os":"Linux","password":true,"vac":true,"version":"7757534","steam_id":85568392925194467,"keywords":["nocrits","nodmgspread","payload","uncletopia"],"game_id":440,"stv_port":27036,"stv_name":"Uncletopia | Sydney | 3 | All Maps | STV","players":null},{"server_id":396,"name":"Uncletopia | Sydney | 4 | All Maps","name_short":"syd-4","host":"syd-1.au.uncletopia.com","port":27045,"enabled":true,"region":"au","cc":"au","latitude":-33.865143,"longitude":151.2099,"reserved":0,"last_update":"0001-01-01T00:00:00Z","name_a2s":"Uncletopia | Sydney | 4 | All Maps","protocol":17,"map":"cp_process_final","folder":"tf","game":"Team Fortress","app_id":440,"player_count":0,"max_players":24,"Bots":0,"server_type":"Dedicated","server_os":"Linux","password":true,"vac":true,"version":"7757534","steam_id":85568392925397958,"keywords":["cp","nocrits","nodmgspread","uncletopia"],"game_id":440,"stv_port":27046,"stv_name":"Uncletopia | Sydney | 4 | All Maps | STV","players":null},{"server_id":58,"name":"Uncletopia | Sydney | 5 | Stopwatch Beta","name_short":"syd-5","host":"syd-1.au.uncletopia.com","port":27055,"enabled":true,"region":"au","cc":"au","latitude":-33.865143,"longitude":151.2099,"reserved":0,"last_update":"0001-01-01T00:00:00Z","name_a2s":"Uncletopia | Sydney | 5 | Stopwatch Beta","protocol":17,"map":"koth_cascade","folder":"tf","game":"Team Fortress","app_id":440,"player_count":0,"max_players":24,"Bots":0,"server_type":"Dedicated","server_os":"Linux","password":true,"vac":true,"version":"7757534","steam_id":85568392925397959,"keywords":["cp","nocrits","nodmgspread","uncletopia"],"game_id":440,"stv_port":27056,"stv_name":"Uncletopia | Sydney | 5 | Stopwatch Beta | STV","players":null},{"server_id":59,"name":"Uncletopia | Sydney | 6 | Community","name_short":"syd-6","host":"syd-1.au.uncletopia.com","port":27065,"enabled":true,"region":"au","cc":"au","latitude":-33.865143,"longitude":151.2099,"reserved":0,"last_update":"0001-01-01T00:00:00Z","name_a2s":"Uncletopia | Sydney | 6 | Community","protocol":17,"map":"pl_badwater","folder":"tf","game":"Team Fortress","app_id":440,"player_count":0,"max_players":24,"Bots":0,"server_type":"Dedicated","server_os":"Linux","password":true,"vac":true,"version":"7757534","steam_id":85568392925397960,"keywords":["nocrits","nodmgspread","payload","uncletopia"],"game_id":440,"stv_port":27066,"stv_name":"Uncletopia | Sydney | 6 | Community | STV","players":null},{"server_id":49,"name":"Uncletopia | Warsaw | 1 | All Maps","name_short":"waw-1","host":"waw-1.pl.uncletopia.com","port":27015,"enabled":true,"region":"eu","cc":"pl","latitude":52.2297,"longitude":21.017532,"reserved":0,"last_update":"0001-01-01T00:00:00Z","name_a2s":"","protocol":0,"map":"","folder":"","game":"","app_id":0,"player_count":0,"max_players":0,"Bots":0,"server_type":"","server_os":"","password":false,"vac":false,"version":"","steam_id":0,"keywords":null,"game_id":0,"stv_port":0,"stv_name":"","players":null},{"server_id":50,"name":"Uncletopia | Warsaw | 2 | All Maps","name_short":"waw-2","host":"waw-1.pl.uncletopia.com","port":27025,"enabled":true,"region":"eu","cc":"pl","latitude":52.2297,"longitude":21.017532,"reserved":0,"last_update":"0001-01-01T00:00:00Z","name_a2s":"Uncletopia | Warsaw | 2 | All Maps","protocol":17,"map":"koth_lakeside_final","folder":"tf","game":"Team Fortress","app_id":440,"player_count":0,"max_players":24,"Bots":0,"server_type":"Dedicated","server_os":"Linux","password":true,"vac":true,"version":"7757534","steam_id":85568392925397851,"keywords":["cp","nocrits","nodmgspread","uncletopia"],"game_id":440,"stv_port":27026,"stv_name":"Uncletopia | Warsaw | 2 | All Maps | STV","players":null},{"server_id":51,"name":"Uncletopia | Warsaw | 3 | All Maps","name_short":"waw-3","host":"waw-1.pl.uncletopia.com","port":27035,"enabled":true,"region":"eu","cc":"pl","latitude":52.2297,"longitude":21.017532,"reserved":0,"last_update":"0001-01-01T00:00:00Z","name_a2s":"Uncletopia | Warsaw | 3 | All Maps","protocol":17,"map":"cp_altitude","folder":"tf","game":"Team Fortress","app_id":440,"player_count":0,"max_players":24,"Bots":0,"server_type":"Dedicated","server_os":"Linux","password":true,"vac":true,"version":"7757534","steam_id":85568392925397852,"keywords":["cp","nocrits","nodmgspread","uncletopia"],"game_id":440,"stv_port":27036,"stv_name":"Uncletopia | Warsaw | 3 | All Maps | STV","players":null},{"server_id":52,"name":"Uncletopia | Warsaw | 4 | All Maps","name_short":"waw-4","host":"waw-1.pl.uncletopia.com","port":27045,"enabled":true,"region":"eu","cc":"pl","latitude":52.2297,"longitude":21.017532,"reserved":0,"last_update":"0001-01-01T00:00:00Z","name_a2s":"Uncletopia | Warsaw | 4 | All Maps","protocol":17,"map":"pl_upward","folder":"tf","game":"Team Fortress","app_id":440,"player_count":0,"max_players":24,"Bots":0,"server_type":"Dedicated","server_os":"Linux","password":true,"vac":true,"version":"7757534","steam_id":85568392925397853,"keywords":["nocrits","nodmgspread","payload","uncletopia"],"game_id":440,"stv_port":27046,"stv_name":"Uncletopia | Warsaw | 4 | All Maps | STV","players":null},{"server_id":53,"name":"Uncletopia | Warsaw | 5 | Stopwatch Beta","name_short":"waw-5","host":"waw-1.pl.uncletopia.com","port":27055,"enabled":true,"region":"eu","cc":"pl","latitude":52.2297,"longitude":21.017532,"reserved":0,"last_update":"0001-01-01T00:00:00Z","name_a2s":"Uncletopia | Warsaw | 5 | Stopwatch Beta","protocol":17,"map":"pl_pier","folder":"tf","game":"Team Fortress","app_id":440,"player_count":0,"max_players":24,"Bots":0,"server_type":"Dedicated","server_os":"Linux","password":true,"vac":true,"version":"7757534","steam_id":85568392925397854,"keywords":["nocrits","nodmgspread","payload","uncletopia"],"game_id":440,"stv_port":27056,"stv_name":"Uncletopia | Warsaw | 5 | Stopwatch Beta | STV","players":null},{"server_id":54,"name":"Uncletopia | Warsaw | 6 | Community","name_short":"waw-6","host":"waw-1.pl.uncletopia.com","port":27065,"enabled":true,"region":"eu","cc":"pl","latitude":52.2297,"longitude":21.017532,"reserved":0,"last_update":"0001-01-01T00:00:00Z","name_a2s":"Uncletopia | Warsaw | 6 | Community","protocol":17,"map":"koth_highpass","folder":"tf","game":"Team Fortress","app_id":440,"player_count":0,"max_players":24,"Bots":0,"server_type":"Dedicated","server_os":"Linux","password":true,"vac":true,"version":"7757534","steam_id":85568392925397856,"keywords":["cp","nocrits","nodmgspread","uncletopia"],"game_id":440,"stv_port":27066,"stv_name":"Uncletopia | Warsaw | 6 | Community | STV","players":null}]}