{"status":true,"message":"","result":[{"server_id":9,"name":"Uncletopia | Atlanta | 1 | All Maps","name_short":"atl-1","host":"atl-1.us.uncletopia.com","port":27015,"enabled":true,"region":"us-east","cc":"us","latitude":33.753746,"longitude":-84.38633,"reserved":0,"last_update":"0001-01-01T00:00:00Z","name_a2s":"Uncletopia | Atlanta | 1 | All Maps","protocol":17,"map":"pl_frontier_final","folder":"tf","game":"Team Fortress","app_id":440,"player_count":0,"max_players":24,"Bots":0,"server_type":"Dedicated","server_os":"Linux","password":true,"vac":true,"version":"7961495","steam_id":85568392924469982,"keywords":["nocrits","nodmgspread","payload","uncletopia"],"game_id":440,"stv_port":27016,"stv_name":"Uncletopia | Atlanta | 1 | All Maps | STV","players":null},{"server_id":104,"name":"Uncletopia | Atlanta | 2 | All Maps","name_short":"atl-2","host":"atl-1.us.uncletopia.com","port":27025,"enabled":true,"region":"us-east","cc":"us","latitude":33.753746,"longitude":-84.38633,"reserved":0,"last_update":"0001-01-01T00:00:00Z","name_a2s":"Uncletopia | Atlanta | 2 | All Maps","protocol":17,"map":"koth_viaduct","folder":"tf","game":"Team Fortress","app_id":440,"player_count":0,"max_players":24,"Bots":0,"server_type":"Dedicated","server_os":"Linux","password":true,"vac":true,"version":"7961495","steam_id":85568392924469983,"keywords":["cp","nocrits","nodmgspread","uncletopia"],"game_id":440,"stv_port":27026,"stv_name":"Uncletopia | Atlanta | 2 | All Maps | STV","players":null},{"server_id":400,"name":"Uncletopia | Atlanta | 3 | Stopwatch","name_short":"atl-3","host":"atl-1.us.uncletopia.com","port":27035,"enabled":true,"region":"us-east","cc":"us","latitude":33.753746,"longitude":-84.38633,"reserved":0,"last_update":"0001-01-01T00:00:00Z","name_a2s":"Uncletopia | Atlanta | 3 | Stopwatch","protocol":17,"map":"workshop/pl_badwater_pro_v12.ugc2142942074","folder":"tf","game":"Team Fortress","app_id":440,"player_count":0,"max_players":24,"Bots":0,"server_type":"Dedicated","server_os":"Linux","password":true,"vac":true,"version":"7961495","steam_id":85568392924515187,"keywords":["nocrits","nodmgspread","payload","uncletopia"],"game_id":440,"stv_port":27036,"stv_name":"Uncletopia | Atlanta | 3 | Stopwatch | STV","players":null},{"server_id":401,"name":"Uncletopia | Atlanta | 4 | Community","name_short":"atl-4","host":"atl-1.us.uncletopia.com","port":27045,"enabled":true,"region":"us-east","cc":"us","latitude":33.753746,"longitude":-84.38633,"reserved":0,"last_update":"0001-01-01T00:00:00Z","name_a2s":"Uncletopia | Atlanta | 4 | Community","protocol":17,"map":"workshop/cp_indulge.ugc528106646","folder":"tf","game":"Team Fortress","app_id":440,"player_count":0,"max_players":24,"Bots":0,"server_type":"Dedicated","server_os":"Linux","password":true,"vac":true,"version":"7961495","steam_id":85568392924515188,"keywords":["cp","nocrits","nodmgspread","uncletopia"],"game_id":440,"stv_port":27046,"stv_name":"Uncletopia | Atlanta | 4 | Community | STV","players":null},{"server_id":2,"name":"Uncletopia | Chicago | 1 | All Maps","name_short":"chi-1","host":"chi-1.us.uncletopia.com","port":27015,"enabled":true,"region":"us-central","cc":"us","latitude":41.881832,"longitude":-87.62318,"reserved":0,"last_update":"0001-01-01T00:00:00Z","name_a2s":"Uncletopia | Chicago | 1 | All Maps","protocol":17,"map":"pl_pier","folder":"tf","game":"Team Fortress","app_id":440,"player_count":15,"max_players":24,"Bots":0,"server_type":"Dedicated","server_os":"Linux","password":true,"vac":true,"version":"7961495","steam_id":85568392924469984,"keywords":["nocrits","nodmgspread","payload","uncletopia"],"game_id":440,"stv_port":27016,"stv_name":"Uncletopia | Chicago | 1 | All Maps | STV","players":[{"user_id":877,"name":"ShadozoneX","steam_id":76561198255452404,"connected_time":657000000000,"state":"active","ping":75},{"user_id":878,"name":"playguy carter","steam_id":76561198080679337,"connected_time":597000000000,"state":"active","ping":57},{"user_id":849,"name":"squish","steam_id":76561198186417941,"connected_time":3562000000000,"state":"active","ping":84},{"user_id":875,"name":"bingus :3","steam_id":76561199198633203,"connected_time":1041000000000,"state":"active","ping":86},{"user_id":871,"name":"Captain anus fiddle","steam_id":76561198100777371,"connected_time":1598000000000,"state":"active","ping":62},{"user_id":856,"name":"Shmoopy","steam_id":76561198030459152,"connected_time":2419000000000,"state":"active","ping":75},{"user_id":889,"name":"stall","steam_id":76561199152861652,"connected_time":63000000000,"state":"active","ping":52},{"user_id":828,"name":"Kantamoe","steam_id":76561198046661611,"connected_time":6014000000000,"state":"active","ping":87},{"user_id":852,"name":"Rat God","steam_id":76561198066161598,"connected_time":3314000000000,"state":"active","ping":57},{"user_id":879,"name":"Bippums","steam_id":76561198366406729,"connected_time":551000000000,"state":"active","ping":86},{"user_id":890,"name":"leonardo doujinshi","steam_id":76561198025810326,"connected_time":34000000000,"state":"active","ping":69},{"user_id":888,"name":"Ashton","steam_id":76561198300590302,"connected_time":134000000000,"state":"active","ping":59},{"user_id":884,"name":"the krut","steam_id":76561198084300505,"connected_time":264000000000,"state":"active","ping":59},{"user_id":883,"name":"dur","steam_id":76561198057161210,"connected_time":341000000000,"state":"active","ping":83},{"user_id":869,"name":"Sky!","steam_id":76561198141953747,"connected_time":1802000000000,"state":"active","ping":61}]},{"server_id":106,"name":"Uncletopia | Chicago | 2 | All Maps","name_short":"chi-2","host":"chi-1.us.uncletopia.com","port":27025,"enabled":true,"region":"us-central","cc":"us","latitude":41.881832,"longitude":-87.62318,"reserved":0,"last_update":"0001-01-01T00:00:00Z","name_a2s":"Uncletopia | Chicago | 2 | All Maps","protocol":17,"map":"cp_sunshine","folder":"tf","game":"Team Fortress","app_id":440,"player_count":24,"max_players":24,"Bots":0,"server_type":"Dedicated","server_os":"Linux","password":true,"vac":true,"version":"7961495","steam_id":85568392924469985,"keywords":["cp","nocrits","nodmgspread","uncletopia"],"game_id":440,"stv_port":27026,"stv_name":"Uncletopia | Chicago | 2 | All Maps | STV","players":[{"user_id":699,"name":"goat","steam_id":76561198059709483,"connected_time":2004000000000,"state":"active","ping":66},{"user_id":710,"name":"jayyteeAT","steam_id":76561198059575962,"connected_time":1242000000000,"state":"active","ping":59},{"user_id":715,"name":"KYLE KYLESON","steam_id":76561198021920887,"connected_time":1034000000000,"state":"active","ping":32},{"user_id":614,"name":"left 4 dead soker","steam_id":76561198066566813,"connected_time":5786000000000,"state":"active","ping":140},{"user_id":724,"name":"resh!","steam_id":76561198066619792,"connected_time":218000000000,"state":"active","ping":52},{"user_id":716,"name":"üçíbutaüçí","steam_id":76561198135538212,"connected_time":1019000000000,"state":"active","ping":58},{"user_id":717,"name":"bladees realest, saddest verse","steam_id":76561198098099826,"connected_time":991000000000,"state":"active","ping":90},{"user_id":720,"name":"GOLDIE","steam_id":76561199375258674,"connected_time":886000000000,"state":"active","ping":93},{"user_id":680,"name":"Flayre","steam_id":76561198803036389,"connected_time":3922000000000,"state":"active","ping":68},{"user_id":732,"name":"Resistance","steam_id":76561198146782074,"connected_time":43000000000,"state":"active","ping":61},{"user_id":713,"name":"averted","steam_id":76561198067784310,"connected_time":1163000000000,"state":"active","ping":67},{"user_id":696,"name":"Wess","steam_id":76561198302735017,"connected_time":2100000000000,"state":"active","ping":58},{"user_id":686,"name":"big tiddy lamia gf","steam_id":76561198378537090,"connected_time":3719000000000,"state":"active","ping":79},{"user_id":595,"name":"BiggFoot","steam_id":76561197998605599,"connected_time":7854000000000,"state":"active","ping":84},{"user_id":726,"name":"BB Lorexav","steam_id":76561198207565988,"connected_time":109000000000,"state":"active","ping":84},{"user_id":718,"name":"Zesty Zucchini Ziti","steam_id":76561198092494136,"connected_time":976000000000,"state":"active","ping":61},{"user_id":719,"name":"Gaming","steam_id":76561198107080532,"connected_time":971000000000,"state":"active","ping":69},{"user_id":707,"name":"for the king","steam_id":76561197973488858,"connected_time":1401000000000,"state":"active","ping":61},{"user_id":728,"name":"k8o","steam_id":76561198042481882,"connected_time":93000000000,"state":"active","ping":45},{"user_id":711,"name":"alfredodan","steam_id":76561198025011044,"connected_time":1229000000000,"state":"active","ping":76},{"user_id":729,"name":"Monte","steam_id":76561198097499917,"connected_time":92000000000,"state":"active","ping":94},{"user_id":695,"name":"sophie","steam_id":76561198272979713,"connected_time":2421000000000,"state":"active","ping":68},{"user_id":712,"name":"snail from ear AT(cochlea)","steam_id":76561198184900753,"connected_time":1227000000000,"state":"active","ping":53},{"user_id":723,"name":"Raccoon Wizard","steam_id":76561198072562591,"connected_time":517000000000,"state":"active","ping":85}]},{"server_id":402,"name":"Uncletopia | Chicago | 3 | All Maps","name_short":"chi-3","host":"chi-1.us.uncletopia.com","port":27035,"enabled":true,"region":"us-central","cc":"us","latitude":41.881832,"longitude":-87.62318,"reserved":0,"last_update":"0001-01-01T00:00:00Z","name_a2s":"Uncletopia | Chicago | 3 | All Maps","protocol":17,"map":"pl_badwater","folder":"tf","game":"Team Fortress","app_id":440,"player_count":23,"max_players":24,"Bots":0,"server_type":"Dedicated","server_os":"Linux","password":true,"vac":true,"version":"7961495","steam_id":85568392924515191,"keywords":["nocrits","nodmgspread","payload","uncletopia"],"game_id":440,"stv_port":27036,"stv_name":"Uncletopia | Chicago | 3 | All Maps | STV","players":[{"user_id":449,"name":"banjobun","steam_id":76561198116814525,"connected_time":3948000000000,"state":"active","ping":97},{"user_id":450,"name":"Shazzy","steam_id":76561198145460523,"connected_time":3941000000000,"state":"active","ping":103},{"user_id":451,"name":"crouching tiger heavy","steam_id":76561198121767390,"connected_time":3904000000000,"state":"active","ping":55},{"user_id":452,"name":"Hawksgamer","steam_id":76561198152405941,"connected_time":3891000000000,"state":"active","ping":147},{"user_id":453,"name":"Mr8bittripper","steam_id":76561198133894229,"connected_time":3883000000000,"state":"active","ping":101},{"user_id":484,"name":"paypur -rng","steam_id":76561198214370515,"connected_time":1129000000000,"state":"active","ping":73},{"user_id":457,"name":"totoro","steam_id":76561198210420871,"connected_time":3565000000000,"state":"active","ping":47},{"user_id":456,"name":"Kamin","steam_id":76561198255299559,"connected_time":3742000000000,"state":"active","ping":88},{"user_id":477,"name":"Stinkly","steam_id":76561198045010846,"connected_time":1768000000000,"state":"active","ping":78},{"user_id":459,"name":"Foloan","steam_id":76561199229528791,"connected_time":2935000000000,"state":"active","ping":77},{"user_id":487,"name":"Constipated Barry","steam_id":76561198004482269,"connected_time":970000000000,"state":"active","ping":105},{"user_id":481,"name":"EchoHound","steam_id":76561198995264386,"connected_time":1378000000000,"state":"active","ping":57},{"user_id":497,"name":"LatinRhythms - 5 ref","steam_id":76561198025110751,"connected_time":388000000000,"state":"active","ping":133},{"user_id":488,"name":"achoo","steam_id":76561198009091066,"connected_time":941000000000,"state":"active","ping":104},{"user_id":482,"name":"sleepy‚äπ","steam_id":76561199200969139,"connected_time":1326000000000,"state":"active","ping":105},{"user_id":489,"name":"Hamz","steam_id":76561199287459211,"connected_time":923000000000,"state":"active","ping":78},{"user_id":490,"name":"Nuts from Berserk","steam_id":76561199474152483,"connected_time":911000000000,"state":"active","ping":69},{"user_id":498,"name":"i've goneth","steam_id":76561198339644583,"connected_time":142000000000,"state":"active","ping":60},{"user_id":492,"name":"Skipikip","steam_id":76561198125019458,"connected_time":857000000000,"state":"active","ping":60},{"user_id":493,"name":"‚òÜShinyMew112","steam_id":76561198042820161,"connected_time":844000000000,"state":"active","ping":53},{"user_id":496,"name":"Bonk Nickeltoon","steam_id":76561198027738883,"connected_time":408000000000,"state":"active","ping":55},{"user_id":499,"name":"puddles","steam_id":76561198110832624,"connected_time":127000000000,"state":"active","ping":47},{"user_id":495,"name":"Deluxe_Taco34","steam_id":76561199037653437,"connected_time":518000000000,"state":"active","ping":106}]},{"server_id":403,"name":"Uncletopia | Chicago | 4 | All Maps","name_short":"chi-4","host":"chi-1.us.uncletopia.com","port":27045,"enabled":true,"region":"us-central","cc":"us","latitude":41.881832,"longitude":-87.62318,"reserved":0,"last_update":"0001-01-01T00:00:00Z","name_a2s":"Uncletopia | Chicago | 4 | All Maps","protocol":17,"map":"koth_viaduct","folder":"tf","game":"Team Fortress","app_id":440,"player_count":0,"max_players":24,"Bots":0,"server_type":"Dedicated","server_os":"Linux","password":true,"vac":true,"version":"7961495","steam_id":85568392924515193,"keywords":["cp","nocrits","nodmgspread","uncletopia"],"game_id":440,"stv_port":27046,"stv_name":"Uncletopia | Chicago | 4 | All Maps | STV","players":null},{"server_id":36,"name":"Uncletopia | Chicago | 5 | All Maps","name_short":"chi-5","host":"chi-2.us.uncletopia.com","port":27015,"enabled":true,"region":"us-central","cc":"us","latitude":41.881832,"longitude":-87.62318,"reserved":0,"last_update":"0001-01-01T00:00:00Z","name_a2s":"Uncletopia | Chicago | 5 | All Maps","protocol":17,"map":"pl_borneo","folder":"tf","game":"Team Fortress","app_id":440,"player_count":24,"max_players":24,"Bots":0,"server_type":"Dedicated","server_os":"Linux","password":true,"vac":true,"version":"7961495","steam_id":85568392924866362,"keywords":["nocrits","nodmgspread","payload","uncletopia"],"game_id":440,"stv_port":27016,"stv_name":"Uncletopia | Chicago | 5 | All Maps | STV","players":[{"user_id":321,"name":"Sandvich","steam_id":76561199032771769,"connected_time":2652000000000,"state":"active","ping":90},{"user_id":333,"name":"Techne","steam_id":76561198090486583,"connected_time":1525000000000,"state":"active","ping":93},{"user_id":346,"name":"CHIEF_JUSTICE_FUCKASS","steam_id":76561199261675844,"connected_time":256000000000,"state":"active","ping":117},{"user_id":341,"name":"SHADOW","steam_id":76561198207768148,"connected_time":1222000000000,"state":"active","ping":115},{"user_id":317,"name":"SoldMyKidneyForCollege","steam_id":76561198096329559,"connected_time":2713000000000,"state":"active","ping":92},{"user_id":291,"name":"Raizen","steam_id":76561199092445367,"connected_time":4367000000000,"state":"active","ping":52},{"user_id":308,"name":"Goredude","steam_id":76561198041048764,"connected_time":3387000000000,"state":"active","ping":59},{"user_id":344,"name":"Neat","steam_id":76561198140451429,"connected_time":876000000000,"state":"active","ping":45},{"user_id":335,"name":"chill","steam_id":76561198982840251,"connected_time":1467000000000,"state":"active","ping":69},{"user_id":331,"name":"kinderaser","steam_id":76561198077168765,"connected_time":1657000000000,"state":"active","ping":76},{"user_id":339,"name":"car crash compilation #34","steam_id":76561198042773724,"connected_time":1292000000000,"state":"active","ping":101},{"user_id":318,"name":"DrD1sconnect.TV","steam_id":76561198067487221,"connected_time":2702000000000,"state":"active","ping":84},{"user_id":279,"name":"CumBoy","steam_id":76561198121411970,"connected_time":5105000000000,"state":"active","ping":64},{"user_id":336,"name":"sum0","steam_id":76561198260451626,"connected_time":1439000000000,"state":"active","ping":92},{"user_id":337,"name":"/\\","steam_id":76561198045522596,"connected_time":1349000000000,"state":"active","ping":81},{"user_id":345,"name":"Albino Jellyfish","steam_id":76561198208561097,"connected_time":461000000000,"state":"active","ping":59},{"user_id":347,"name":"lil hog","steam_id":76561199230929836,"connected_time":237000000000,"state":"active","ping":86},{"user_id":324,"name":"Oreo Gun","steam_id":76561199014401808,"connected_time":2548000000000,"state":"active","ping":114},{"user_id":338,"name":"raduski","steam_id":76561198795699119,"connected_time":1326000000000,"state":"active","ping":90},{"user_id":330,"name":"Pepilepsi","steam_id":76561198000809372,"connected_time":2141000000000,"state":"active","ping":49},{"user_id":280,"name":"zpalmtree","steam_id":76561198134307620,"connected_time":5084000000000,"state":"active","ping":59},{"user_id":327,"name":"CHIKN","steam_id":76561198277792665,"connected_time":2451000000000,"state":"active","ping":106},{"user_id":343,"name":"BMoney","steam_id":76561198799389030,"connected_time":939000000000,"state":"active","ping":127},{"user_id":277,"name":"Mufalito","steam_id":76561198951889482,"connected_time":5266000000000,"state":"active","ping":131}]},{"server_id":37,"name":"Uncletopia | Chicago | 6 | All Maps","name_short":"chi-6","host":"chi-2.us.uncletopia.com","port":27025,"enabled":true,"region":"us-central","cc":"us","latitude":41.881832,"longitude":-87.62318,"reserved":0,"last_update":"0001-01-01T00:00:00Z","name_a2s":"Uncletopia | Chicago | 6 | All Maps","protocol":17,"map":"cp_dustbowl","folder":"tf","game":"Team Fortress","app_id":440,"player_count":24,"max_players":24,"Bots":0,"server_type":"Dedicated","server_os":"Linux","password":true,"vac":true,"version":"7961495","steam_id":85568392924866363,"keywords":["cp","nocrits","nodmgspread","uncletopia"],"game_id":440,"stv_port":27026,"stv_name":"Uncletopia | Chicago | 6 | All Maps | STV","players":[{"user_id":358,"name":"Chicking","steam_id":76561198323637779,"connected_time":1163000000000,"state":"active","ping":74},{"user_id":341,"name":"leer.","steam_id":76561198864458303,"connected_time":2728000000000,"state":"active","ping":69},{"user_id":354,"name":"Dr. House","steam_id":76561198052910702,"connected_time":2378000000000,"state":"active","ping":45},{"user_id":271,"name":"Kenn","steam_id":76561198061505015,"connected_time":9922000000000,"state":"active","ping":76},{"user_id":359,"name":"Smooth, Refreshing Bleach‚Ñ¢","steam_id":76561197981060504,"connected_time":1152000000000,"state":"active","ping":51},{"user_id":345,"name":"GraViTyXIII","steam_id":76561197993334348,"connected_time":2661000000000,"state":"active","ping":71},{"user_id":288,"name":"Unlimited_Trees","steam_id":76561198299141443,"connected_time":8835000000000,"state":"active","ping":129},{"user_id":263,"name":"ashelin praxis nude mod","steam_id":76561198167907089,"connected_time":10451000000000,"state":"active","ping":65},{"user_id":360,"name":"MilesFireStorm","steam_id":76561198078642820,"connected_time":1106000000000,"state":"active","ping":84},{"user_id":347,"name":"3 Crabs in a bucket","steam_id":76561198173288395,"connected_time":2616000000000,"state":"active","ping":84},{"user_id":361,"name":"The Phantom Hairline","steam_id":76561198041023025,"connected_time":1092000000000,"state":"active","ping":76},{"user_id":320,"name":"james_bondage","steam_id":76561199476062624,"connected_time":4865000000000,"state":"active","ping":94},{"user_id":368,"name":"drujnk falloyuj","steam_id":76561198066068001,"connected_time":741000000000,"state":"active","ping":82},{"user_id":348,"name":"FluffyEzio123","steam_id":76561198125304761,"connected_time":2599000000000,"state":"active","ping":85},{"user_id":330,"name":"Voodo133","steam_id":76561198042670351,"connected_time":4526000000000,"state":"active","ping":92},{"user_id":365,"name":"Eye-Emgei","steam_id":76561199114581117,"connected_time":945000000000,"state":"active","ping":112},{"user_id":352,"name":"group fortification the second","steam_id":76561198986754793,"connected_time":2431000000000,"state":"active","ping":146},{"user_id":334,"name":"Shadow Steak Ramen","steam_id":76561198077838946,"connected_time":3400000000000,"state":"active","ping":73},{"user_id":369,"name":"doinker","steam_id":76561198329067451,"connected_time":459000000000,"state":"active","ping":74},{"user_id":338,"name":"cyclops","steam_id":76561197970370198,"connected_time":3186000000000,"state":"active","ping":58},{"user_id":355,"name":"Frosty","steam_id":76561198117382889,"connected_time":2368000000000,"state":"active","ping":87},{"user_id":367,"name":"Salad and Absinthe","steam_id":76561198169915227,"connected_time":869000000000,"state":"active","ping":91},{"user_id":357,"name":"Petrivus","steam_id":76561198202152453,"connected_time":2267000000000,"state":"active","ping":102},{"user_id":356,"name":"A bowl of cereal","steam_id":76561198237348656,"connected_time":2368000000000,"state":"active","ping":114}]},{"server_id":38,"name":"Uncletopia | Chicago | 7 | Stopwatch","name_short":"chi-7","host":"chi-2.us.uncletopia.com","port":27035,"enabled":true,"region":"us-central","cc":"us","latitude":41.881832,"longitude":-87.62318,"reserved":0,"last_update":"0001-01-01T00:00:00Z","name_a2s":"Uncletopia | Chicago | 7 | Stopwatch","protocol":17,"map":"koth_lakeside_final","folder":"tf","game":"Team Fortress","app_id":440,"player_count":0,"max_players":24,"Bots":0,"server_type":"Dedicated","server_os":"Linux","password":true,"vac":true,"version":"7961495","steam_id":85568392924866364,"keywords":["cp","nocrits","nodmgspread","uncletopia"],"game_id":440,"stv_port":27036,"stv_name":"Uncletopia | Chicago | 7 | Stopwatch | STV","players":null},{"server_id":39,"name":"Uncletopia | Chicago | 8 | Community","name_short":"chi-8","host":"chi-2.us.uncletopia.com","port":27045,"enabled":true,"region":"us-central","cc":"us","latitude":41.881832,"longitude":-87.62318,"reserved":0,"last_update":"0001-01-01T00:00:00Z","name_a2s":"Uncletopia | Chicago | 8 | Community","protocol":17,"map":"workshop/pl_fifthcurve_rc1.ugc648227046","folder":"tf","game":"Team Fortress","app_id":440,"player_count":0,"max_players":24,"Bots":0,"server_type":"Dedicated","server_os":"Linux","password":true,"vac":true,"version":"7961495","steam_id":85568392924866365,"keywords":["nocrits","nodmgspread","payload","uncletopia"],"game_id":440,"stv_port":27046,"stv_name":"Uncletopia | Chicago | 8 | Community | STV","players":null},{"server_id":8,"name":"Uncletopia | Dallas | 1 | All Maps","name_short":"dal-1","host":"dal-1.us.uncletopia.com","port":27015,"enabled":true,"region":"us-central","cc":"us","latitude":32.779167,"longitude":-96.80889,"reserved":0,"last_update":"0001-01-01T00:00:00Z","name_a2s":"Uncletopia | Dallas | 1 | All Maps","protocol":17,"map":"pl_pier","folder":"tf","game":"Team Fortress","app_id":440,"player_count":20,"max_players":24,"Bots":0,"server_type":"Dedicated","server_os":"Linux","password":true,"vac":true,"version":"7961495","steam_id":85568392924469986,"keywords":["nocrits","nodmgspread","payload","uncletopia"],"game_id":440,"stv_port":27016,"stv_name":"Uncletopia | Dallas | 1 | All Maps | STV","players":[{"user_id":720,"name":"canadian birds","steam_id":76561198059466588,"connected_time":1787000000000,"state":"active","ping":77},{"user_id":695,"name":"wugmup","steam_id":76561199096287734,"connected_time":2927000000000,"state":"active","ping":93},{"user_id":678,"name":"tek lintowe fan","steam_id":76561198206177593,"connected_time":4323000000000,"state":"active","ping":74},{"user_id":714,"name":"Scoops M'Gooch","steam_id":76561198048423812,"connected_time":1993000000000,"state":"active","ping":96},{"user_id":674,"name":"whoopdeedoo","steam_id":76561198064874829,"connected_time":4517000000000,"state":"active","ping":60},{"user_id":735,"name":"Haven","steam_id":76561198087584756,"connected_time":261000000000,"state":"active","ping":108},{"user_id":738,"name":"flame","steam_id":76561198079321914,"connected_time":82000000000,"state":"active","ping":91},{"user_id":706,"name":"^;;^","steam_id":76561198164460801,"connected_time":2406000000000,"state":"active","ping":90},{"user_id":733,"name":"BotchyAlarm8","steam_id":76561198092682129,"connected_time":764000000000,"state":"active","ping":90},{"user_id":737,"name":"Mazdamundi!","steam_id":76561198044691081,"connected_time":159000000000,"state":"active","ping":59},{"user_id":710,"name":"Projectrex","steam_id":76561198028223030,"connected_time":2190000000000,"state":"active","ping":93},{"user_id":739,"name":"frank n furter TF2EASY.COM","steam_id":76561198308883028,"connected_time":72000000000,"state":"active","ping":83},{"user_id":734,"name":"Ojen","steam_id":76561197998414482,"connected_time":319000000000,"state":"active","ping":81},{"user_id":722,"name":"CowMilkingMoth","steam_id":76561198047607935,"connected_time":1753000000000,"state":"active","ping":73},{"user_id":741,"name":"Eloi","steam_id":76561198081193565,"connected_time":1000000000,"state":"spawning","ping":34},{"user_id":723,"name":"bunnygirl gaming","steam_id":76561198036901822,"connected_time":1656000000000,"state":"active","ping":44},{"user_id":728,"name":"START PRAYIN BOY","steam_id":76561198089173996,"connected_time":1273000000000,"state":"active","ping":90},{"user_id":703,"name":"MasterGeek.MX","steam_id":76561198063355220,"connected_time":2665000000000,"state":"active","ping":93},{"user_id":635,"name":"Locomotive","steam_id":76561199152926930,"connected_time":7251000000000,"state":"active","ping":63},{"user_id":731,"name":"Rafl","steam_id":76561198055222756,"connected_time":1180000000000,"state":"active","ping":31}]},{"server_id":108,"name":"Uncletopia | Dallas | 2 | All Maps","name_short":"dal-2","host":"dal-1.us.uncletopia.com","port":27025,"enabled":true,"region":"us-central","cc":"us","latitude":32.779167,"longitude":-96.80889,"reserved":0,"last_update":"0001-01-01T00:00:00Z","name_a2s":"Uncletopia | Dallas | 2 | All Maps","protocol":17,"map":"pl_badwater","folder":"tf","game":"Team Fortress","app_id":440,"player_count":23,"max_players":24,"Bots":0,"server_type":"Dedicated","server_os":"Linux","password":true,"vac":true,"version":"7961495","steam_id":85568392924469988,"keywords":["nocrits","nodmgspread","payload","uncletopia"],"game_id":440,"stv_port":27026,"stv_name":"Uncletopia | Dallas | 2 | All Maps | STV","players":[{"user_id":462,"name":"raya","steam_id":76561198051504581,"connected_time":37000000000,"state":"active","ping":44},{"user_id":449,"name":"Poopinator","steam_id":76561198953013228,"connected_time":892000000000,"state":"active","ping":98},{"user_id":463,"name":"xelph","steam_id":76561198443008847,"connected_time":31000000000,"state":"active","ping":68},{"user_id":437,"name":"tretts","steam_id":76561199138150678,"connected_time":2419000000000,"state":"active","ping":74},{"user_id":464,"name":"BL√òRG","steam_id":76561198036126673,"connected_time":8000000000,"state":"active","ping":69},{"user_id":454,"name":"family-friendly chainsaw man","steam_id":76561198007464245,"connected_time":432000000000,"state":"active","ping":78},{"user_id":455,"name":"‚≠ê aloha! :3 ‚≠ê","steam_id":76561198148517055,"connected_time":407000000000,"state":"active","ping":118},{"user_id":424,"name":"Lore","steam_id":76561198098407538,"connected_time":3780000000000,"state":"active","ping":66},{"user_id":458,"name":"Capit√°n √Ñxis-Flores Kuroki","steam_id":76561198353865006,"connected_time":272000000000,"state":"active","ping":86},{"user_id":403,"name":"gerg","steam_id":76561197997127387,"connected_time":5214000000000,"state":"active","ping":89},{"user_id":456,"name":"Part-Time Pybro","steam_id":76561198079508595,"connected_time":357000000000,"state":"active","ping":103},{"user_id":429,"name":"TheMightyGod","steam_id":76561198220055968,"connected_time":3308000000000,"state":"active","ping":56},{"user_id":404,"name":"Under an Unquiet Skull","steam_id":76561198164782653,"connected_time":5213000000000,"state":"active","ping":92},{"user_id":457,"name":"Klip","steam_id":76561198316254429,"connected_time":293000000000,"state":"active","ping":60},{"user_id":405,"name":"social distance warrior","steam_id":76561198128992994,"connected_time":5204000000000,"state":"active","ping":90},{"user_id":448,"name":"Extra Toasty","steam_id":76561198979550763,"connected_time":981000000000,"state":"active","ping":87},{"user_id":439,"name":"mrthugpug1732","steam_id":76561198881200768,"connected_time":2389000000000,"state":"active","ping":98},{"user_id":421,"name":"Muselk","steam_id":76561199289676387,"connected_time":3981000000000,"state":"active","ping":61},{"user_id":459,"name":"gwen","steam_id":76561198046815360,"connected_time":226000000000,"state":"active","ping":77},{"user_id":447,"name":"Cat on the Moon","steam_id":76561198272661627,"connected_time":1035000000000,"state":"active","ping":86},{"user_id":460,"name":"Train","steam_id":76561199105132740,"connected_time":200000000000,"state":"active","ping":97},{"user_id":355,"name":"Lancerland","steam_id":76561198130497320,"connected_time":8556000000000,"state":"active","ping":78},{"user_id":461,"name":"cure","steam_id":76561199174450788,"connected_time":181000000000,"state":"active","ping":134}]},{"server_id":404,"name":"Uncletopia | Dallas | 3 | All Maps","name_short":"dal-3","host":"dal-1.us.uncletopia.com","port":27035,"enabled":true,"region":"us-central","cc":"us","latitude":32.779167,"longitude":-96.80889,"reserved":0,"last_update":"0001-01-01T00:00:00Z","name_a2s":"Uncletopia | Dallas | 3 | All Maps","protocol":17,"map":"pl_swiftwater_final1","folder":"tf","game":"Team Fortress","app_id":440,"player_count":24,"max_players":24,"Bots":0,"server_type":"Dedicated","server_os":"Linux","password":true,"vac":true,"version":"7961495","steam_id":85568392924515219,"keywords":["nocrits","nodmgspread","payload","uncletopia"],"game_id":440,"stv_port":27036,"stv_name":"Uncletopia | Dallas | 3 | All Maps | STV","players":[{"user_id":383,"name":"da-me da-ne","steam_id":76561198186208857,"connected_time":812000000000,"state":"active","ping":65},{"user_id":363,"name":"PunchedHornet","steam_id":76561198226479172,"connected_time":2520000000000,"state":"active","ping":80},{"user_id":395,"name":"twinblock","steam_id":76561198157414556,"connected_time":15000000000,"state":"spawning","ping":74},{"user_id":385,"name":"Swoon","steam_id":76561198039924346,"connected_time":622000000000,"state":"active","ping":95},{"user_id":377,"name":"gooch_masta","steam_id":76561198151578423,"connected_time":1299000000000,"state":"active","ping":83},{"user_id":378,"name":"Unidity Nargen - bidenskins.loo","steam_id":76561198368508980,"connected_time":1294000000000,"state":"active","ping":91},{"user_id":382,"name":"Dagnasty","steam_id":76561198163651484,"connected_time":985000000000,"state":"active","ping":101},{"user_id":388,"name":"infinite suffering","steam_id":76561198061512989,"connected_time":567000000000,"state":"active","ping":103},{"user_id":358,"name":"woooflet","steam_id":76561199208387179,"connected_time":3163000000000,"state":"active","ping":45},{"user_id":386,"name":"0","steam_id":76561198982415497,"connected_time":602000000000,"state":"active","ping":91},{"user_id":372,"name":"IosephVII","steam_id":76561198101116197,"connected_time":2089000000000,"state":"active","ping":116},{"user_id":280,"name":"‚ù§ Ashley ‚ù§","steam_id":76561198056428303,"connected_time":10128000000000,"state":"active","ping":75},{"user_id":393,"name":"LaunchpadMcQuack","steam_id":76561198022302377,"connected_time":112000000000,"state":"active","ping":60},{"user_id":323,"name":"Gwendolyn","steam_id":76561198170458145,"connected_time":6477000000000,"state":"active","ping":260},{"user_id":283,"name":"self sufficient kitten","steam_id":76561197960592612,"connected_time":9747000000000,"state":"active","ping":92},{"user_id":367,"name":"gemsticks","steam_id":76561198442218271,"connected_time":2164000000000,"state":"active","ping":110},{"user_id":375,"name":"art vandelay","steam_id":76561198003219831,"connected_time":1574000000000,"state":"active","ping":75},{"user_id":380,"name":"CHIP CHIP","steam_id":76561198028354983,"connected_time":1204000000000,"state":"active","ping":86},{"user_id":394,"name":"Lum","steam_id":76561198811854523,"connected_time":110000000000,"state":"active","ping":70},{"user_id":396,"name":"SharkChapeau","steam_id":76561198111743234,"connected_time":9000000000,"state":"spawning","ping":101},{"user_id":387,"name":"centipede","steam_id":76561199238694456,"connected_time":592000000000,"state":"active","ping":99},{"user_id":389,"name":"tsz","steam_id":76561199246231090,"connected_time":565000000000,"state":"active","ping":85},{"user_id":391,"name":"lover","steam_id":76561198089852954,"connected_time":464000000000,"state":"active","ping":77},{"user_id":373,"name":"RC","steam_id":76561198048127881,"connected_time":2080000000000,"state":"active","ping":61}]},{"server_id":405,"name":"Uncletopia | Dallas | 4 | Community","name_short":"dal-4","host":"dal-1.us.uncletopia.com","port":27045,"enabled":true,"region":"us-central","cc":"us","latitude":32.779167,"longitude":-96.80889,"reserved":0,"last_update":"0001-01-01T00:00:00Z","name_a2s":"Uncletopia | Dallas | 4 | Community","protocol":17,"map":"workshop/pl_cashworks_final1.ugc2904065412","folder":"tf","game":"Team Fortress","app_id":440,"player_count":0,"max_players":24,"Bots":0,"server_type":"Dedicated","server_os":"Linux","password":true,"vac":true,"version":"7961495","steam_id":85568392924515220,"keywords":["nocrits","nodmgspread","payload","uncletopia"],"game_id":440,"stv_port":27046,"stv_name":"Uncletopia | Dallas | 4 | Community | STV","players":null},{"server_id":5,"name":"Uncletopia | Frankfurt | 1 | All Maps","name_short":"frk-1","host":"frk-1.de.uncletopia.com","port":27015,"enabled":true,"region":"eu","cc":"de","latitude":50.110924,"longitude":8.682127,"reserved":0,"last_update":"0001-01-01T00:00:00Z","name_a2s":"Uncletopia | Frankfurt | 1 | All Maps","protocol":17,"map":"koth_highpass","folder":"tf","game":"Team Fortress","app_id":440,"player_count":0,"max_players":24,"Bots":0,"server_type":"Dedicated","server_os":"Linux","password":true,"vac":true,"version":"7961495","steam_id":85568392924469989,"keywords":["cp","nocrits","nodmgspread","uncletopia"],"game_id":440,"stv_port":27016,"stv_name":"Uncletopia | Frankfurt | 1 | All Maps | STV","players":null},{"server_id":110,"name":"Uncletopia | Frankfurt | 2 | All Maps","name_short":"frk-2","host":"frk-1.de.uncletopia.com","port":27025,"enabled":true,"region":"eu","cc":"de","latitude":50.110924,"longitude":8.682127,"reserved":0,"last_update":"0001-01-01T00:00:00Z","name_a2s":"Uncletopia | Frankfurt | 2 | All Maps","protocol":17,"map":"cp_dustbowl","folder":"tf","game":"Team Fortress","app_id":440,"player_count":0,"max_players":24,"Bots":0,"server_type":"Dedicated","server_os":"Linux","password":true,"vac":true,"version":"7961495","steam_id":85568392924469990,"keywords":["cp","nocrits","nodmgspread","uncletopia"],"game_id":440,"stv_port":27026,"stv_name":"Uncletopia | Frankfurt | 2 | All Maps | STV","players":null},{"server_id":308,"name":"Uncletopia | Frankfurt | 3 | All Maps","name_short":"frk-3","host":"frk-1.de.uncletopia.com","port":27035,"enabled":true,"region":"eu","cc":"de","latitude":50.110924,"longitude":8.682127,"reserved":0,"last_update":"0001-01-01T00:00:00Z","name_a2s":"Uncletopia | Frankfurt | 3 | All Maps","protocol":17,"map":"pl_barnblitz","folder":"tf","game":"Team Fortress","app_id":440,"player_count":0,"max_players":24,"Bots":0,"server_type":"Dedicated","server_os":"Linux","password":true,"vac":true,"version":"7961495","steam_id":85568392924504274,"keywords":["nocrits","nodmgspread","payload","uncletopia"],"game_id":440,"stv_port":27036,"stv_name":"Uncletopia | Frankfurt | 3 | All Maps | STV","players":null},{"server_id":309,"name":"Uncletopia | Frankfurt | 4 | All Maps","name_short":"frk-4","host":"frk-1.de.uncletopia.com","port":27045,"enabled":true,"region":"eu","cc":"de","latitude":50.110924,"longitude":8.682127,"reserved":0,"last_update":"0001-01-01T00:00:00Z","name_a2s":"Uncletopia | Frankfurt | 4 | All Maps","protocol":17,"map":"koth_highpass","folder":"tf","game":"Team Fortress","app_id":440,"player_count":0,"max_players":24,"Bots":0,"server_type":"Dedicated","server_os":"Linux","password":true,"vac":true,"version":"7961495","steam_id":85568392924504275,"keywords":["cp","nocrits","nodmgspread","uncletopia"],"game_id":440,"stv_port":27046,"stv_name":"Uncletopia | Frankfurt | 4 | All Maps | STV","players":null},{"server_id":310,"name":"Uncletopia | Frankfurt | 5 | All Maps","name_short":"frk-5","host":"frk-1.de.uncletopia.com","port":27055,"enabled":true,"region":"eu","cc":"de","latitude":50.110924,"longitude":8.682127,"reserved":0,"last_update":"0001-01-01T00:00:00Z","name_a2s":"Uncletopia | Frankfurt | 5 | All Maps","protocol":17,"map":"pl_badwater","folder":"tf","game":"Team Fortress","app_id":440,"player_count":0,"max_players":24,"Bots":0,"server_type":"Dedicated","server_os":"Linux","password":true,"vac":true,"version":"7961495","steam_id":85568392924504277,"keywords":["nocrits","nodmgspread","payload","uncletopia"],"game_id":440,"stv_port":27056,"stv_name":"Uncletopia | Frankfurt | 5 | All Maps | STV","players":null},{"server_id":311,"name":"Uncletopia | Frankfurt | 6 | All Maps","name_short":"frk-6","host":"frk-1.de.uncletopia.com","port":27065,"enabled":true,"region":"eu","cc":"de","latitude":50.110924,"longitude":8.682127,"reserved":0,"last_update":"0001-01-01T00:00:00Z","name_a2s":"Uncletopia | Frankfurt | 6 | All Maps","protocol":17,"map":"cp_altitude","folder":"tf","game":"Team Fortress","app_id":440,"player_count":0,"max_players":24,"Bots":0,"server_type":"Dedicated","server_os":"Linux","password":true,"vac":true,"version":"7961495","steam_id":85568392924504278,"keywords":["cp","nocrits","nodmgspread","uncletopia"],"game_id":440,"stv_port":27066,"stv_name":"Uncletopia | Frankfurt | 6 | All Maps | STV","players":null},{"server_id":23,"name":"Uncletopia | Frankfurt | 7 | Stopwatch","name_short":"frk-7","host":"frk-1.de.uncletopia.com","port":27075,"enabled":true,"region":"eu","cc":"de","latitude":50.110924,"longitude":8.682127,"reserved":0,"last_update":"0001-01-01T00:00:00Z","name_a2s":"Uncletopia | Frankfurt | 7 | Stopwatch","protocol":17,"map":"pl_frontier_final","folder":"tf","game":"Team Fortress","app_id":440,"player_count":0,"max_players":24,"Bots":0,"server_type":"Dedicated","server_os":"Linux","password":true,"vac":true,"version":"7961495","steam_id":85568392924742827,"keywords":["nocrits","nodmgspread","payload","uncletopia"],"game_id":440,"stv_port":27076,"stv_name":"Uncletopia | Frankfurt | 7 | Stopwatch | STV","players":null},{"server_id":24,"name":"Uncletopia | Frankfurt | 8 | Community","name_short":"frk-8","host":"frk-1.de.uncletopia.com","port":27085,"enabled":true,"region":"eu","cc":"de","latitude":50.110924,"longitude":8.682127,"reserved":0,"last_update":"0001-01-01T00:00:00Z","name_a2s":"Uncletopia | Frankfurt | 8 | Community","protocol":17,"map":"cp_mountainlab","folder":"tf","game":"Team Fortress","app_id":440,"player_count":0,"max_players":24,"Bots":0,"server_type":"Dedicated","server_os":"Linux","password":true,"vac":true,"version":"7961495","steam_id":85568392924742828,"keywords":["cp","nocrits","nodmgspread","uncletopia"],"game_id":440,"stv_port":27086,"stv_name":"Uncletopia | Frankfurt | 8 | Community | STV","players":null},{"server_id":202,"name":"Uncletopia | Hong Kong | 1 | All Maps","name_short":"hgk-1","host":"hgk-1.hk.uncletopia.com","port":27015,"enabled":true,"region":"asia","cc":"hk","latitude":22.302711,"longitude":114.177216,"reserved":0,"last_update":"0001-01-01T00:00:00Z","name_a2s":"Uncletopia | Hong Kong | 1 | All Maps","protocol":17,"map":"pl_badwater","folder":"tf","game":"Team Fortress","app_id":440,"player_count":21,"max_players":24,"Bots":0,"server_type":"Dedicated","server_os":"Linux","password":true,"vac":true,"version":"7961495","steam_id":85568392924494504,"keywords":["nocrits","nodmgspread","payload","uncletopia"],"game_id":440,"stv_port":27016,"stv_name":"Uncletopia | Hong Kong | 1 | All Maps | STV","players":[{"user_id":91,"name":"Sai","steam_id":76561199069225036,"connected_time":3252000000000,"state":"active","ping":31},{"user_id":123,"name":"allMAX","steam_id":76561198270980670,"connected_time":1779000000000,"state":"active","ping":100},{"user_id":83,"name":"[Sicky] I twin-charged your kid","steam_id":76561198228084940,"connected_time":3802000000000,"state":"active","ping":39},{"user_id":126,"name":"Poli","steam_id":76561199118278155,"connected_time":1644000000000,"state":"spawning","ping":46},{"user_id":81,"name":"Beef Wellington","steam_id":76561197995635241,"connected_time":3864000000000,"state":"active","ping":125},{"user_id":86,"name":"marisaloses","steam_id":76561199033032870,"connected_time":3656000000000,"state":"active","ping":118},{"user_id":127,"name":"2746","steam_id":76561199390507975,"connected_time":1635000000000,"state":"active","ping":47},{"user_id":138,"name":"1TOP_","steam_id":76561198123717811,"connected_time":263000000000,"state":"active","ping":60},{"user_id":66,"name":"Shades on Goggles","steam_id":76561198406067629,"connected_time":5135000000000,"state":"active","ping":90},{"user_id":40,"name":"e","steam_id":76561199120787394,"connected_time":7044000000000,"state":"active","ping":117},{"user_id":70,"name":"toad„ÉÑ","steam_id":76561198082199290,"connected_time":4813000000000,"state":"active","ping":37},{"user_id":76,"name":"i am a F2P and my aim is shit","steam_id":76561199475974790,"connected_time":4349000000000,"state":"active","ping":90},{"user_id":139,"name":"GRim","steam_id":76561197998422082,"connected_time":164000000000,"state":"active","ping":87},{"user_id":118,"name":"14","steam_id":76561198113401862,"connected_time":2016000000000,"state":"active","ping":89},{"user_id":93,"name":"Dits","steam_id":76561198283833960,"connected_time":3077000000000,"state":"active","ping":42},{"user_id":119,"name":"villy","steam_id":76561198169263597,"connected_time":2016000000000,"state":"active","ping":35},{"user_id":90,"name":"MS PowerPoint","steam_id":76561198369523192,"connected_time":3435000000000,"state":"spawning","ping":61},{"user_id":87,"name":"PissDrinker196","steam_id":76561198856157761,"connected_time":3601000000000,"state":"active","ping":115},{"user_id":88,"name":"The one who shit on piss","steam_id":76561199254649689,"connected_time":3590000000000,"state":"active","ping":122},{"user_id":132,"name":"skip","steam_id":76561198885117766,"connected_time":1190000000000,"state":"active","ping":69},{"user_id":136,"name":"Ivy","steam_id":76561198400698408,"connected_time":372000000000,"state":"spawning","ping":262}]},{"server_id":1,"name":"Uncletopia | Los Angeles | 1 | All Maps","name_short":"lax-1","host":"lax-1.us.uncletopia.com","port":27015,"enabled":true,"region":"us-west","cc":"us","latitude":33.94279,"longitude":-118.41004,"reserved":0,"last_update":"0001-01-01T00:00:00Z","name_a2s":"Uncletopia | Los Angeles | 1 | All Maps","protocol":17,"map":"pl_swiftwater_final1","folder":"tf","game":"Team Fortress","app_id":440,"player_count":24,"max_players":24,"Bots":0,"server_type":"Dedicated","server_os":"Linux","password":true,"vac":true,"version":"7961495","steam_id":85568392924469991,"keywords":["nocrits","nodmgspread","payload","uncletopia"],"game_id":440,"stv_port":27016,"stv_name":"Uncletopia | Los Angeles | 1 | All Maps | STV","players":[{"user_id":234,"name":"BrightOrangeMango","steam_id":76561198023144607,"connected_time":107000000000,"state":"active","ping":62},{"user_id":199,"name":"Mr. Noodle","steam_id":76561198025280658,"connected_time":4408000000000,"state":"active","ping":52},{"user_id":227,"name":"dumbeeon","steam_id":76561198059351874,"connected_time":691000000000,"state":"active","ping":48},{"user_id":196,"name":"fertile moist and well drained","steam_id":76561198031409921,"connected_time":4736000000000,"state":"active","ping":58},{"user_id":225,"name":"Lemon Luke","steam_id":76561199141696546,"connected_time":763000000000,"state":"active","ping":90},{"user_id":210,"name":"Syrup","steam_id":76561198055850531,"connected_time":3594000000000,"state":"active","ping":48},{"user_id":197,"name":"Schnitz","steam_id":76561198265484253,"connected_time":4732000000000,"state":"active","ping":56},{"user_id":211,"name":"EdxTheFig","steam_id":76561198108650109,"connected_time":3566000000000,"state":"active","ping":42},{"user_id":213,"name":"Supersonic","steam_id":76561198042167127,"connected_time":3256000000000,"state":"active","ping":85},{"user_id":230,"name":"Luffa Rigno","steam_id":76561197998700507,"connected_time":397000000000,"state":"active","ping":113},{"user_id":175,"name":"sobaka","steam_id":76561198116008934,"connected_time":5753000000000,"state":"active","ping":55},{"user_id":177,"name":"soundcloud.com/cremexav","steam_id":76561198134544837,"connected_time":5673000000000,"state":"active","ping":46},{"user_id":220,"name":"Smoothpolishness","steam_id":76561198029084002,"connected_time":1513000000000,"state":"active","ping":58},{"user_id":228,"name":"NE–ØO","steam_id":76561197965450216,"connected_time":625000000000,"state":"active","ping":91},{"user_id":224,"name":"Foreplay","steam_id":76561198097871363,"connected_time":819000000000,"state":"active","ping":57},{"user_id":219,"name":"Larry Gooseman","steam_id":76561198018696922,"connected_time":1542000000000,"state":"active","ping":57},{"user_id":208,"name":"GLXy","steam_id":76561198207551544,"connected_time":3618000000000,"state":"active","ping":71},{"user_id":166,"name":"Pyrotek‚Å¥","steam_id":76561198072747672,"connected_time":6774000000000,"state":"active","ping":44},{"user_id":212,"name":"poggerchamp","steam_id":76561199145124973,"connected_time":3562000000000,"state":"active","ping":83},{"user_id":229,"name":"TheBrocklobster","steam_id":76561198039682984,"connected_time":517000000000,"state":"active","ping":69},{"user_id":183,"name":"dodecadron","steam_id":76561198027397222,"connected_time":5479000000000,"state":"active","ping":99},{"user_id":226,"name":"Alf Creepypasta","steam_id":76561198841844093,"connected_time":746000000000,"state":"active","ping":49},{"user_id":231,"name":"sHinstagram","steam_id":76561198133099582,"connected_time":389000000000,"state":"active","ping":49},{"user_id":232,"name":"Username","steam_id":76561199033122306,"connected_time":356000000000,"state":"active","ping":127}]},{"server_id":112,"name":"Uncletopia | Los Angeles | 2 | All Maps","name_short":"lax-2","host":"lax-1.us.uncletopia.com","port":27025,"enabled":true,"region":"us-west","cc":"us","latitude":33.94279,"longitude":-118.41004,"reserved":0,"last_update":"0001-01-01T00:00:00Z","name_a2s":"Uncletopia | Los Angeles | 2 | All Maps","protocol":17,"map":"pl_badwater","folder":"tf","game":"Team Fortress","app_id":440,"player_count":24,"max_players":24,"Bots":0,"server_type":"Dedicated","server_os":"Linux","password":true,"vac":true,"version":"7961495","steam_id":85568392924469992,"keywords":["nocrits","nodmgspread","payload","uncletopia"],"game_id":440,"stv_port":27026,"stv_name":"Uncletopia | Los Angeles | 2 | All Maps | STV","players":[{"user_id":583,"name":"Boombox Bozo","steam_id":76561198327008356,"connected_time":4250000000000,"state":"active","ping":96},{"user_id":627,"name":"AvapXia","steam_id":76561198147476096,"connected_time":138000000000,"state":"active","ping":76},{"user_id":615,"name":"Lumberjane37 (She/Her)","steam_id":76561198014841793,"connected_time":1261000000000,"state":"active","ping":62},{"user_id":620,"name":"basilberry","steam_id":76561198145275937,"connected_time":500000000000,"state":"active","ping":97},{"user_id":585,"name":"Cinquefoil","steam_id":76561198166967060,"connected_time":4209000000000,"state":"active","ping":58},{"user_id":595,"name":"hiSockk","steam_id":76561199340001395,"connected_time":3975000000000,"state":"active","ping":62},{"user_id":555,"name":"Be Gay, Do Crimes, Smoke Weed!","steam_id":76561198092419868,"connected_time":7497000000000,"state":"active","ping":139},{"user_id":584,"name":"The_Dominator47","steam_id":76561198170443759,"connected_time":4241000000000,"state":"active","ping":57},{"user_id":621,"name":"AnimeStew","steam_id":76561198040931975,"connected_time":485000000000,"state":"active","ping":62},{"user_id":617,"name":"Gamecmdr","steam_id":76561198001623218,"connected_time":1123000000000,"state":"active","ping":69},{"user_id":619,"name":"FriskyDemon","steam_id":76561198043684646,"connected_time":902000000000,"state":"active","ping":70},{"user_id":597,"name":"BitPieStudios","steam_id":76561198059216393,"connected_time":3834000000000,"state":"active","ping":49},{"user_id":609,"name":"Listen up, chopped salad","steam_id":76561198015440724,"connected_time":2149000000000,"state":"active","ping":84},{"user_id":581,"name":"Mario Barret","steam_id":76561198301353499,"connected_time":4314000000000,"state":"active","ping":47},{"user_id":582,"name":"Schnabel","steam_id":76561198226159564,"connected_time":4314000000000,"state":"active","ping":70},{"user_id":622,"name":"Genius Meme","steam_id":76561198162911254,"connected_time":369000000000,"state":"active","ping":67},{"user_id":553,"name":"Drone #0432 (they/it)","steam_id":76561198027321950,"connected_time":7708000000000,"state":"active","ping":97},{"user_id":587,"name":"Error","steam_id":76561199050994293,"connected_time":4191000000000,"state":"active","ping":73},{"user_id":623,"name":"bengineer","steam_id":76561198171912174,"connected_time":318000000000,"state":"active","ping":71},{"user_id":589,"name":"blozet","steam_id":76561199120161035,"connected_time":4152000000000,"state":"active","ping":113},{"user_id":598,"name":"Type Three Dabeetus","steam_id":76561198062710038,"connected_time":3825000000000,"state":"active","ping":57},{"user_id":625,"name":"Artic_Ryuu","steam_id":76561198182194918,"connected_time":273000000000,"state":"active","ping":70},{"user_id":626,"name":"Zebulon","steam_id":76561198025719753,"connected_time":232000000000,"state":"active","ping":60},{"user_id":599,"name":"Joe From Progressive","steam_id":76561198336597038,"connected_time":3802000000000,"state":"active","ping":45}]},{"server_id":324,"name":"Uncletopia | Los Angeles | 3 | All Maps","name_short":"lax-3","host":"lax-1.us.uncletopia.com","port":27035,"enabled":true,"region":"us-west","cc":"us","latitude":33.94279,"longitude":-118.41004,"reserved":0,"last_update":"0001-01-01T00:00:00Z","name_a2s":"Uncletopia | Los Angeles | 3 | All Maps","protocol":17,"map":"koth_viaduct","folder":"tf","game":"Team Fortress","app_id":440,"player_count":2,"max_players":24,"Bots":0,"server_type":"Dedicated","server_os":"Linux","password":true,"vac":true,"version":"7961495","steam_id":85568392924510198,"keywords":["cp","nocrits","nodmgspread","uncletopia"],"game_id":440,"stv_port":27036,"stv_name":"Uncletopia | Los Angeles | 3 | All Maps | STV","players":[{"user_id":22,"name":"Ebby","steam_id":76561198124284351,"connected_time":1749000000000,"state":"active","ping":101},{"user_id":23,"name":"XenPie","steam_id":76561198814382153,"connected_time":1748000000000,"state":"active","ping":55}]},{"server_id":25,"name":"Uncletopia | Los Angeles | 4 | Stopwatch","name_short":"lax-4","host":"lax-1.us.uncletopia.com","port":27045,"enabled":true,"region":"us-west","cc":"us","latitude":33.94279,"longitude":-118.41004,"reserved":0,"last_update":"0001-01-01T00:00:00Z","name_a2s":"Uncletopia | Los Angeles | 4 | Stopwatch","protocol":17,"map":"workshop/koth_bagel_rc6.ugc2514036946","folder":"tf","game":"Team Fortress","app_id":440,"player_count":0,"max_players":24,"Bots":0,"server_type":"Dedicated","server_os":"Linux","password":true,"vac":true,"version":"7961495","steam_id":85568392924510199,"keywords":["cp","nocrits","nodmgspread","uncletopia"],"game_id":440,"stv_port":27046,"stv_name":"Uncletopia | Los Angeles | 4 | Stopwatch | STV","players":null},{"server_id":11,"name":"Uncletopia | London | 1 | All Maps","name_short":"lon-1","host":"lon-1.uk.uncletopia.com","port":27015,"enabled":true,"region":"eu","cc":"gb","latitude":51.509865,"longitude":-0.118092,"reserved":0,"last_update":"0001-01-01T00:00:00Z","name_a2s":"Uncletopia | London | 1 | All Maps","protocol":17,"map":"cp_dustbowl","folder":"tf","game":"Team Fortress","app_id":440,"player_count":14,"max_players":24,"Bots":0,"server_type":"Dedicated","server_os":"Linux","password":true,"vac":true,"version":"7961495","steam_id":85568392924367362,"keywords":["cp","nocrits","nodmgspread","uncletopia"],"game_id":440,"stv_port":27016,"stv_name":"Uncletopia | London | 1 | All Maps | STV","players":[{"user_id":64,"name":"Barry Bee Benson","steam_id":76561198115199225,"connected_time":334000000000,"state":"active","ping":50},{"user_id":62,"name":"aphextwinsucks","steam_id":76561198132185926,"connected_time":411000000000,"state":"active","ping":74},{"user_id":24,"name":"Lewylow","steam_id":76561198005425686,"connected_time":3163000000000,"state":"active","ping":45},{"user_id":27,"name":"Sgorbio09","steam_id":76561199081364164,"connected_time":2793000000000,"state":"active","ping":85},{"user_id":63,"name":"MG","steam_id":76561197992591715,"connected_time":410000000000,"state":"active","ping":65},{"user_id":12,"name":"jjkun786","steam_id":76561199438517484,"connected_time":4541000000000,"state":"active","ping":38},{"user_id":29,"name":"noseb","steam_id":76561199480942903,"connected_time":2338000000000,"state":"active","ping":75},{"user_id":46,"name":"MastahDizzy","steam_id":76561198123024093,"connected_time":1521000000000,"state":"active","ping":47},{"user_id":42,"name":"Geeeny","steam_id":76561197981643120,"connected_time":1745000000000,"state":"active","ping":70},{"user_id":37,"name":"Ace","steam_id":76561198193179149,"connected_time":2099000000000,"state":"active","ping":102},{"user_id":43,"name":"Madokanon","steam_id":76561199500033132,"connected_time":1686000000000,"state":"active","ping":105},{"user_id":51,"name":"king k rool","steam_id":76561199179040672,"connected_time":930000000000,"state":"active","ping":59},{"user_id":52,"name":"Jouppi","steam_id":76561198063725468,"connected_time":867000000000,"state":"active","ping":105},{"user_id":59,"name":"r^f butter","steam_id":76561198130814770,"connected_time":657000000000,"state":"active","ping":55}]},{"server_id":114,"name":"Uncletopia | London | 2 | All Maps","name_short":"lon-2","host":"lon-1.uk.uncletopia.com","port":27025,"enabled":true,"region":"eu","cc":"gb","latitude":51.509865,"longitude":-0.118092,"reserved":0,"last_update":"0001-01-01T00:00:00Z","name_a2s":"Uncletopia | London | 2 | All Maps","protocol":17,"map":"koth_lakeside_final","folder":"tf","game":"Team Fortress","app_id":440,"player_count":0,"max_players":24,"Bots":0,"server_type":"Dedicated","server_os":"Linux","password":true,"vac":true,"version":"7961495","steam_id":85568392924470941,"keywords":["cp","nocrits","nodmgspread","uncletopia"],"game_id":440,"stv_port":27026,"stv_name":"Uncletopia | London | 2 | All Maps | STV","players":null},{"server_id":320,"name":"Uncletopia | London | 3 | All Maps","name_short":"lon-3","host":"lon-1.uk.uncletopia.com","port":27035,"enabled":true,"region":"eu","cc":"gb","latitude":51.509865,"longitude":-0.118092,"reserved":0,"last_update":"0001-01-01T00:00:00Z","name_a2s":"Uncletopia | London | 3 | All Maps","protocol":17,"map":"cp_process_final","folder":"tf","game":"Team Fortress","app_id":440,"player_count":0,"max_players":24,"Bots":0,"server_type":"Dedicated","server_os":"Linux","password":true,"vac":true,"version":"7961495","steam_id":85568392924510192,"keywords":["cp","nocrits","nodmgspread","uncletopia"],"game_id":440,"stv_port":27036,"stv_name":"Uncletopia | London | 3 | All Maps | STV","players":null},{"server_id":321,"name":"Uncletopia | London | 4 | All Maps","name_short":"lon-4","host":"lon-1.uk.uncletopia.com","port":27045,"enabled":true,"region":"eu","cc":"gb","latitude":51.509865,"longitude":-0.118092,"reserved":0,"last_update":"0001-01-01T00:00:00Z","name_a2s":"Uncletopia | London | 4 | All Maps","protocol":17,"map":"koth_cascade","folder":"tf","game":"Team Fortress","app_id":440,"player_count":0,"max_players":24,"Bots":0,"server_type":"Dedicated","server_os":"Linux","password":true,"vac":true,"version":"7961495","steam_id":85568392924510193,"keywords":["cp","nocrits","nodmgspread","uncletopia"],"game_id":440,"stv_port":27046,"stv_name":"Uncletopia | London | 4 | All Maps | STV","players":null},{"server_id":21,"name":"Uncletopia | London | 5 | All Maps","name_short":"lon-5","host":"lon-1.uk.uncletopia.com","port":27055,"enabled":true,"region":"eu","cc":"gb","latitude":51.509865,"longitude":-0.118092,"reserved":0,"last_update":"0001-01-01T00:00:00Z","name_a2s":"Uncletopia | London | 5 | All Maps","protocol":17,"map":"koth_lakeside_final","folder":"tf","game":"Team Fortress","app_id":440,"player_count":0,"max_players":24,"Bots":0,"server_type":"Dedicated","server_os":"Linux","password":true,"vac":true,"version":"7961495","steam_id":85568392924742829,"keywords":["cp","nocrits","nodmgspread","uncletopia"],"game_id":440,"stv_port":27056,"stv_name":"Uncletopia | London | 5 | All Maps | STV","players":null},{"server_id":22,"name":"Uncletopia | London | 6 | All Maps","name_short":"lon-6","host":"lon-1.uk.uncletopia.com","port":27065,"enabled":true,"region":"eu","cc":"gb","latitude":51.509865,"longitude":-0.118092,"reserved":0,"last_update":"0001-01-01T00:00:00Z","name_a2s":"Uncletopia | London | 6 | All Maps","protocol":17,"map":"cp_dustbowl","folder":"tf","game":"Team Fortress","app_id":440,"player_count":0,"max_players":24,"Bots":0,"server_type":"Dedicated","server_os":"Linux","password":true,"vac":true,"version":"7961495","steam_id":85568392924742830,"keywords":["cp","nocrits","nodmgspread","uncletopia"],"game_id":440,"stv_port":27066,"stv_name":"Uncletopia | London | 6 | All Maps | STV","players":null},{"server_id":40,"name":"Uncletopia | London | 7 | Stopwatch","name_short":"lon-7","host":"lon-1.uk.uncletopia.com","port":27075,"enabled":true,"region":"eu","cc":"gb","latitude":51.509865,"longitude":-0.118092,"reserved":0,"last_update":"0001-01-01T00:00:00Z","name_a2s":"Uncletopia | London | 7 | Stopwatch","protocol":17,"map":"koth_lakeside_final","folder":"tf","game":"Team Fortress","app_id":440,"player_count":0,"max_players":24,"Bots":0,"server_type":"Dedicated","server_os":"Linux","password":true,"vac":true,"version":"7961495","steam_id":85568392924964314,"keywords":["cp","nocrits","nodmgspread","uncletopia"],"game_id":440,"stv_port":27076,"stv_name":"Uncletopia | London | 7 | Stopwatch | STV","players":null},{"server_id":41,"name":"Uncletopia | London | 8 | Community","name_short":"lon-8","host":"lon-1.uk.uncletopia.com","port":27085,"enabled":true,"region":"eu","cc":"gb","latitude":51.509865,"longitude":-0.118092,"reserved":0,"last_update":"0001-01-01T00:00:00Z","name_a2s":"Uncletopia | London | 8 | Community","protocol":17,"map":"workshop/pl_barnblitz_pro7.ugc582280235","folder":"tf","game":"Team Fortress","app_id":440,"player_count":0,"max_players":24,"Bots":0,"server_type":"Dedicated","server_os":"Linux","password":true,"vac":true,"version":"7961495","steam_id":85568392924964315,"keywords":["nocrits","nodmgspread","payload","uncletopia"],"game_id":440,"stv_port":27086,"stv_name":"Uncletopia | London | 8 | Community | STV","players":null},{"server_id":300,"name":"Uncletopia | Montr√©al | 1 | One Thousand Uncles","name_short":"mtl-1","host":"mtl-1.ca.uncletopia.com","port":27015,"enabled":true,"region":"us-east","cc":"ca","latitude":45.50889,"longitude":-73.56167,"reserved":0,"last_update":"0001-01-01T00:00:00Z","name_a2s":"","protocol":0,"map":"","folder":"","game":"","app_id":0,"player_count":0,"max_players":0,"Bots":0,"server_type":"","server_os":"","password":false,"vac":false,"version":"","steam_id":0,"keywords":null,"game_id":0,"stv_port":0,"stv_name":"","players":null},{"server_id":301,"name":"Uncletopia | Montr√©al | 2 | One Thousand Uncles","name_short":"mtl-2","host":"mtl-1.ca.uncletopia.com","port":27025,"enabled":true,"region":"us-east","cc":"ca","latitude":45.50889,"longitude":-73.56167,"reserved":0,"last_update":"0001-01-01T00:00:00Z","name_a2s":"","protocol":0,"map":"","folder":"","game":"","app_id":0,"player_count":1,"max_players":0,"Bots":0,"server_type":"","server_os":"","password":false,"vac":false,"version":"","steam_id":0,"keywords":null,"game_id":0,"stv_port":0,"stv_name":"","players":[{"user_id":466,"name":"Holiday Fartcruise","steam_id":76561198043851584,"connected_time":828000000000,"state":"active","ping":124}]},{"server_id":302,"name":"Uncletopia | Montr√©al | 3 | One Thousand Uncles","name_short":"mtl-3","host":"mtl-1.ca.uncletopia.com","port":27035,"enabled":true,"region":"us-east","cc":"ca","latitude":45.50889,"longitude":-73.56167,"reserved":0,"last_update":"0001-01-01T00:00:00Z","name_a2s":"","protocol":0,"map":"","folder":"","game":"","app_id":0,"player_count":0,"max_players":0,"Bots":0,"server_type":"","server_os":"","password":false,"vac":false,"version":"","steam_id":0,"keywords":null,"game_id":0,"stv_port":0,"stv_name":"","players":null},{"server_id":13,"name":"Uncletopia | New York City | 1 | All Maps","name_short":"nyc-1","host":"nyc-1.us.uncletopia.com","port":27015,"enabled":true,"region":"us-east","cc":"us","latitude":40.73061,"longitude":-73.93524,"reserved":0,"last_update":"0001-01-01T00:00:00Z","name_a2s":"Uncletopia | New York City | 1 | All Maps","protocol":17,"map":"pl_frontier_final","folder":"tf","game":"Team Fortress","app_id":440,"player_count":24,"max_players":24,"Bots":0,"server_type":"Dedicated","server_os":"Linux","password":true,"vac":true,"version":"7961495","steam_id":85568392924469993,"keywords":["nocrits","nodmgspread","payload","uncletopia"],"game_id":440,"stv_port":27016,"stv_name":"Uncletopia | New York City | 1 | All Maps | STV","players":[{"user_id":671,"name":"sloth (be nice im cringe)","steam_id":76561198047098172,"connected_time":5575000000000,"state":"active","ping":62},{"user_id":682,"name":"Buck","steam_id":76561198064244796,"connected_time":4738000000000,"state":"active","ping":34},{"user_id":721,"name":"Muffin","steam_id":76561198111403028,"connected_time":1819000000000,"state":"active","ping":59},{"user_id":722,"name":"cat enjoyer","steam_id":76561198841284543,"connected_time":1664000000000,"state":"active","ping":87},{"user_id":658,"name":"Voracious Puma","steam_id":76561197963621649,"connected_time":6368000000000,"state":"active","ping":85},{"user_id":717,"name":"rubn","steam_id":76561198119586410,"connected_time":2019000000000,"state":"active","ping":139},{"user_id":723,"name":"Sputnuts","steam_id":76561198236857310,"connected_time":1652000000000,"state":"active","ping":38},{"user_id":664,"name":"Femboy Medic Main","steam_id":76561198268225109,"connected_time":5830000000000,"state":"active","ping":76},{"user_id":702,"name":"Stunner","steam_id":76561198063197896,"connected_time":2855000000000,"state":"active","ping":122},{"user_id":609,"name":"googa","steam_id":76561198133130452,"connected_time":11664000000000,"state":"active","ping":44},{"user_id":733,"name":"Wique","steam_id":76561198071217597,"connected_time":194000000000,"state":"active","ping":67},{"user_id":724,"name":"riley","steam_id":76561198133142520,"connected_time":1566000000000,"state":"active","ping":62},{"user_id":585,"name":"ndvr","steam_id":76561199379200102,"connected_time":13476000000000,"state":"active","ping":50},{"user_id":697,"name":"kikikikoboy","steam_id":76561198073380271,"connected_time":3406000000000,"state":"active","ping":64},{"user_id":727,"name":"Honey-Fox","steam_id":76561198133244742,"connected_time":1377000000000,"state":"active","ping":53},{"user_id":725,"name":"Kiril","steam_id":76561198051433762,"connected_time":1480000000000,"state":"active","ping":165},{"user_id":708,"name":"ellby","steam_id":76561198304585963,"connected_time":2494000000000,"state":"active","ping":60},{"user_id":726,"name":"Muxie","steam_id":76561198268567705,"connected_time":1420000000000,"state":"active","ping":44},{"user_id":713,"name":"GarbageTruck","steam_id":76561198080019414,"connected_time":2200000000000,"state":"active","ping":71},{"user_id":730,"name":"Crab","steam_id":76561198067628664,"connected_time":1081000000000,"state":"active","ping":97},{"user_id":732,"name":"SpaceSanctum","steam_id":76561198805242305,"connected_time":433000000000,"state":"active","ping":44},{"user_id":715,"name":"Ludcmorais","steam_id":76561198359217809,"connected_time":2170000000000,"state":"active","ping":171},{"user_id":716,"name":"Kimmyera","steam_id":76561198060317191,"connected_time":2146000000000,"state":"active","ping":63},{"user_id":696,"name":"Warhawk","steam_id":76561198049067108,"connected_time":3628000000000,"state":"active","ping":110}]},{"server_id":14,"name":"Uncletopia | New York City | 2 | All Maps","name_short":"nyc-2","host":"nyc-1.us.uncletopia.com","port":27025,"enabled":true,"region":"us-east","cc":"us","latitude":40.73061,"longitude":-73.93524,"reserved":0,"last_update":"0001-01-01T00:00:00Z","name_a2s":"Uncletopia | New York City | 2 | All Maps","protocol":17,"map":"koth_highpass","folder":"tf","game":"Team Fortress","app_id":440,"player_count":0,"max_players":24,"Bots":0,"server_type":"Dedicated","server_os":"Linux","password":true,"vac":true,"version":"7961495","steam_id":85568392924469994,"keywords":["cp","nocrits","nodmgspread","uncletopia"],"game_id":440,"stv_port":27026,"stv_name":"Uncletopia | New York City | 2 | All Maps | STV","players":null},{"server_id":15,"name":"Uncletopia | New York City | 3 | Stopwatch","name_short":"nyc-3","host":"nyc-1.us.uncletopia.com","port":27035,"enabled":true,"region":"us-east","cc":"us","latitude":40.73061,"longitude":-73.93524,"reserved":0,"last_update":"0001-01-01T00:00:00Z","name_a2s":"Uncletopia | New York City | 3 | Stopwatch","protocol":17,"map":"cp_gullywash_final1","folder":"tf","game":"Team Fortress","app_id":440,"player_count":0,"max_players":24,"Bots":0,"server_type":"Dedicated","server_os":"Linux","password":true,"vac":true,"version":"7961495","steam_id":85568392924742820,"keywords":["cp","nocrits","nodmgspread","uncletopia"],"game_id":440,"stv_port":27036,"stv_name":"Uncletopia | New York City | 3 | Stopwatch | STV","players":null},{"server_id":16,"name":"Uncletopia | New York City | 4 | Community","name_short":"nyc-4","host":"nyc-1.us.uncletopia.com","port":27045,"enabled":true,"region":"us-east","cc":"us","latitude":40.73061,"longitude":-73.93524,"reserved":0,"last_update":"0001-01-01T00:00:00Z","name_a2s":"Uncletopia | New York City | 4 | Community","protocol":17,"map":"workshop/cp_logjam_rc12.ugc454812035","folder":"tf","game":"Team Fortress","app_id":440,"player_count":0,"max_players":24,"Bots":0,"server_type":"Dedicated","server_os":"Linux","password":true,"vac":true,"version":"7961495","steam_id":85568392924742821,"keywords":["cp","nocrits","nodmgspread","uncletopia"],"game_id":440,"stv_port":27046,"stv_name":"Uncletopia | New York City | 4 | Community | STV","players":null},{"server_id":142,"name":"Uncletopia | S√£o Paulo | 1 | All Maps","name_short":"sao-1","host":"sao-1.br.uncletopia.com","port":27015,"enabled":true,"region":"sa","cc":"br","latitude":-23.533773,"longitude":-46.62529,"reserved":0,"last_update":"0001-01-01T00:00:00Z","name_a2s":"Uncletopia | S√£o Paulo | 1 | All Maps","protocol":17,"map":"koth_viaduct","folder":"tf","game":"Team Fortress","app_id":440,"player_count":0,"max_players":24,"Bots":0,"server_type":"Dedicated","server_os":"Linux","password":true,"vac":true,"version":"7961495","steam_id":85568392924469996,"keywords":["cp","nocrits","nodmgspread","uncletopia"],"game_id":440,"stv_port":27016,"stv_name":"Uncletopia | S√£o Paulo | 1 | All Maps | STV","players":null},{"server_id":143,"name":"Uncletopia | S√£o Paulo | 2 | Community","name_short":"sao-2","host":"sao-2.br.uncletopia.com","port":27015,"enabled":true,"region":"sa","cc":"br","latitude":-23.533773,"longitude":-46.62529,"reserved":0,"last_update":"0001-01-01T00:00:00Z","name_a2s":"Uncletopia | S√£o Paulo | 2 | Community","protocol":17,"map":"workshop/koth_slaughter_rc1.ugc1712845210","folder":"tf","game":"Team Fortress","app_id":440,"player_count":0,"max_players":24,"Bots":0,"server_type":"Dedicated","server_os":"Linux","password":true,"vac":true,"version":"7961495","steam_id":85568392924485349,"keywords":["cp","nocrits","nodmgspread","uncletopia"],"game_id":440,"stv_port":27016,"stv_name":"Uncletopia | S√£o Paulo | 2 | Community | STV","players":null},{"server_id":7,"name":"Uncletopia | Seattle | 1 | All Maps","name_short":"sea-1","host":"sea-1.us.uncletopia.com","port":27015,"enabled":true,"region":"us-west","cc":"us","latitude":47.608013,"longitude":-122.33517,"reserved":0,"last_update":"0001-01-01T00:00:00Z","name_a2s":"Uncletopia | Seattle | 1 | All Maps","protocol":17,"map":"koth_harvest_final","folder":"tf","game":"Team Fortress","app_id":440,"player_count":24,"max_players":24,"Bots":0,"server_type":"Dedicated","server_os":"Linux","password":true,"vac":true,"version":"7961495","steam_id":85568392924469997,"keywords":["cp","nocrits","nodmgspread","uncletopia"],"game_id":440,"stv_port":27016,"stv_name":"Uncletopia | Seattle | 1 | All Maps | STV","players":[{"user_id":562,"name":"toes","steam_id":76561198221151676,"connected_time":5966000000000,"state":"active","ping":58},{"user_id":607,"name":"C Sharp Minor","steam_id":76561199185191710,"connected_time":1450000000000,"state":"active","ping":130},{"user_id":578,"name":"NEBULA","steam_id":76561198086878595,"connected_time":4034000000000,"state":"active","ping":64},{"user_id":609,"name":"Shibbitties","steam_id":76561197977628298,"connected_time":1270000000000,"state":"active","ping":46},{"user_id":565,"name":"Ayayayayayahuasca","steam_id":76561199002906056,"connected_time":5917000000000,"state":"active","ping":49},{"user_id":601,"name":"twink in pastry flops","steam_id":76561198340646012,"connected_time":1527000000000,"state":"active","ping":34},{"user_id":504,"name":"Attrition","steam_id":76561197969881916,"connected_time":11268000000000,"state":"active","ping":54},{"user_id":597,"name":"PopcornBucketGames","steam_id":76561199089562026,"connected_time":2130000000000,"state":"active","ping":48},{"user_id":599,"name":"thats crazy","steam_id":76561198095480838,"connected_time":1783000000000,"state":"active","ping":46},{"user_id":544,"name":"Melly","steam_id":76561198045867175,"connected_time":7526000000000,"state":"active","ping":74},{"user_id":604,"name":"Daz","steam_id":76561198041431938,"connected_time":1493000000000,"state":"active","ping":53},{"user_id":610,"name":"evilOlive","steam_id":76561198106222025,"connected_time":647000000000,"state":"active","ping":77},{"user_id":593,"name":"blinkerton city","steam_id":76561198054270410,"connected_time":2349000000000,"state":"active","ping":59},{"user_id":569,"name":"chocky","steam_id":76561198057491296,"connected_time":5267000000000,"state":"active","ping":45},{"user_id":605,"name":":(){ :|:\u0026 };:","steam_id":76561198115242460,"connected_time":1491000000000,"state":"active","ping":66},{"user_id":558,"name":"Lily Thorn","steam_id":76561198305488625,"connected_time":6500000000000,"state":"active","ping":58},{"user_id":612,"name":"lavender","steam_id":76561199069518286,"connected_time":612000000000,"state":"active","ping":72},{"user_id":614,"name":"Mitchell","steam_id":76561197972922328,"connected_time":386000000000,"state":"active","ping":59},{"user_id":615,"name":"fragadelphia","steam_id":76561198066116363,"connected_time":145000000000,"state":"active","ping":49},{"user_id":608,"name":"Sweets","steam_id":76561198998446307,"connected_time":1357000000000,"state":"active","ping":70},{"user_id":613,"name":"Dapper","steam_id":76561198103189993,"connected_time":612000000000,"state":"active","ping":76},{"user_id":590,"name":"DragonJimmy","steam_id":76561198272966565,"connected_time":3725000000000,"state":"active","ping":86},{"user_id":588,"name":"Username","steam_id":76561198198918781,"connected_time":3778000000000,"state":"active","ping":81},{"user_id":591,"name":"rushy :))","steam_id":76561198065825165,"connected_time":3671000000000,"state":"active","ping":95}]},{"server_id":119,"name":"Uncletopia | Seattle | 2 | All Maps","name_short":"sea-2","host":"sea-1.us.uncletopia.com","port":27025,"enabled":true,"region":"us-west","cc":"us","latitude":47.608013,"longitude":-122.33517,"reserved":0,"last_update":"0001-01-01T00:00:00Z","name_a2s":"Uncletopia | Seattle | 2 | All Maps","protocol":17,"map":"pl_barnblitz","folder":"tf","game":"Team Fortress","app_id":440,"player_count":16,"max_players":24,"Bots":0,"server_type":"Dedicated","server_os":"Linux","password":true,"vac":true,"version":"7961495","steam_id":85568392924469998,"keywords":["nocrits","nodmgspread","payload","uncletopia"],"game_id":440,"stv_port":27026,"stv_name":"Uncletopia | Seattle | 2 | All Maps | STV","players":[{"user_id":404,"name":"Swing","steam_id":76561198799757343,"connected_time":308000000000,"state":"active","ping":116},{"user_id":374,"name":"IonicMist","steam_id":76561198047105563,"connected_time":1695000000000,"state":"active","ping":47},{"user_id":405,"name":"^5t^6i^5n^6y","steam_id":76561198010743348,"connected_time":299000000000,"state":"active","ping":90},{"user_id":401,"name":"mushroom buoy","steam_id":76561198411197601,"connected_time":452000000000,"state":"active","ping":34},{"user_id":382,"name":"RainboomCrash","steam_id":76561198065612273,"connected_time":1449000000000,"state":"active","ping":45},{"user_id":410,"name":"HooHay","steam_id":76561199350870177,"connected_time":79000000000,"state":"active","ping":107},{"user_id":408,"name":"Cypress [ +/- ] ‚úî","steam_id":76561198067164431,"connected_time":205000000000,"state":"active","ping":66},{"user_id":392,"name":"Donny Q","steam_id":76561198020901703,"connected_time":941000000000,"state":"active","ping":42},{"user_id":409,"name":"Conseq","steam_id":76561198335652179,"connected_time":161000000000,"state":"active","ping":46},{"user_id":381,"name":"Captain Keyes","steam_id":76561198434168606,"connected_time":1517000000000,"state":"active","ping":52},{"user_id":383,"name":"Mustapha Lemieux","steam_id":76561198151666102,"connected_time":1437000000000,"state":"active","ping":60},{"user_id":384,"name":"Omegaman","steam_id":76561198034579579,"connected_time":1433000000000,"state":"active","ping":45},{"user_id":385,"name":"dash","steam_id":76561198043889548,"connected_time":1427000000000,"state":"active","ping":81},{"user_id":373,"name":"yoingle spoingle","steam_id":76561198336684715,"connected_time":1730000000000,"state":"active","ping":106},{"user_id":396,"name":"pyrotechnic","steam_id":76561198043558709,"connected_time":885000000000,"state":"active","ping":45},{"user_id":397,"name":"kill me","steam_id":76561198032625036,"connected_time":857000000000,"state":"active","ping":56}]},{"server_id":406,"name":"Uncletopia | Seattle | 3 | Stopwatch","name_short":"sea-3","host":"sea-1.us.uncletopia.com","port":27035,"enabled":true,"region":"us-west","cc":"us","latitude":47.608013,"longitude":-122.33517,"reserved":0,"last_update":"0001-01-01T00:00:00Z","name_a2s":"Uncletopia | Seattle | 3 | Stopwatch","protocol":17,"map":"pl_pier","folder":"tf","game":"Team Fortress","app_id":440,"player_count":0,"max_players":24,"Bots":0,"server_type":"Dedicated","server_os":"Linux","password":true,"vac":true,"version":"7961495","steam_id":85568392924515217,"keywords":["nocrits","nodmgspread","payload","uncletopia"],"game_id":440,"stv_port":27036,"stv_name":"Uncletopia | Seattle | 3 | Stopwatch | STV","players":null},{"server_id":17,"name":"Uncletopia | San Francisco | 1 | All Maps","name_short":"sfo-1","host":"sfo-1.us.uncletopia.com","port":27015,"enabled":true,"region":"us-west","cc":"us","latitude":37.77397,"longitude":-122.4313,"reserved":0,"last_update":"0001-01-01T00:00:00Z","name_a2s":"Uncletopia | San Francisco | 1 | All Maps","protocol":17,"map":"cp_altitude","folder":"tf","game":"Team Fortress","app_id":440,"player_count":17,"max_players":24,"Bots":0,"server_type":"Dedicated","server_os":"Linux","password":true,"vac":true,"version":"7961495","steam_id":85568392924469999,"keywords":["nocrits","nodmgspread","payload","uncletopia"],"game_id":440,"stv_port":27016,"stv_name":"Uncletopia | San Francisco | 1 | All Maps | STV","players":[{"user_id":310,"name":"vanillain","steam_id":76561198058617608,"connected_time":1098000000000,"state":"connecting","ping":75},{"user_id":272,"name":"K-2","steam_id":76561198322606535,"connected_time":4485000000000,"state":"connecting","ping":85},{"user_id":263,"name":"Ian","steam_id":76561198159334435,"connected_time":4871000000000,"state":"connecting","ping":214},{"user_id":289,"name":"netoc6","steam_id":76561199065312168,"connected_time":3296000000000,"state":"connecting","ping":121},{"user_id":311,"name":"Gobb","steam_id":76561198028907283,"connected_time":1073000000000,"state":"connecting","ping":71},{"user_id":277,"name":"sincerelymagicmeister","steam_id":76561198393923543,"connected_time":4215000000000,"state":"connecting","ping":69},{"user_id":257,"name":"Irony is pretty cringy","steam_id":76561198120391460,"connected_time":5579000000000,"state":"connecting","ping":63},{"user_id":321,"name":"Seanvich","steam_id":76561198065805500,"connected_time":629000000000,"state":"connecting","ping":123},{"user_id":324,"name":"Maid 'n' China","steam_id":76561198423392976,"connected_time":159000000000,"state":"connecting","ping":68},{"user_id":305,"name":"Bolbi","steam_id":76561198051811597,"connected_time":1682000000000,"state":"connecting","ping":73},{"user_id":312,"name":"i became a prostitute","steam_id":76561198025368981,"connected_time":1070000000000,"state":"connecting","ping":66},{"user_id":314,"name":"Octo","steam_id":76561198024056355,"connected_time":994000000000,"state":"connecting","ping":66},{"user_id":320,"name":"123","steam_id":76561198035655773,"connected_time":652000000000,"state":"connecting","ping":75},{"user_id":325,"name":"Fatass Hennessy Sargent","steam_id":76561198363267009,"connected_time":153000000000,"state":"connecting","ping":98}]},{"server_id":18,"name":"Uncletopia | San Francisco | 2 | All Maps","name_short":"sfo-2","host":"sfo-1.us.uncletopia.com","port":27025,"enabled":true,"region":"us-west","cc":"us","latitude":37.77397,"longitude":-122.4313,"reserved":0,"last_update":"0001-01-01T00:00:00Z","name_a2s":"Uncletopia | San Francisco | 2 | All Maps","protocol":17,"map":"pl_frontier_final","folder":"tf","game":"Team Fortress","app_id":440,"player_count":15,"max_players":24,"Bots":0,"server_type":"Dedicated","server_os":"Linux","password":true,"vac":true,"version":"7961495","steam_id":85568392924470000,"keywords":["nocrits","nodmgspread","payload","uncletopia"],"game_id":440,"stv_port":27026,"stv_name":"Uncletopia | San Francisco | 2 | All Maps | STV","players":[{"user_id":68,"name":"GoldtoothFour","steam_id":76561198055529332,"connected_time":5874000000000,"state":"active","ping":99},{"user_id":117,"name":"011sra","steam_id":76561199489542125,"connected_time":2451000000000,"state":"active","ping":66},{"user_id":41,"name":"eeellliii1","steam_id":76561198056261636,"connected_time":6526000000000,"state":"active","ping":81},{"user_id":42,"name":"Phrog","steam_id":76561198072975322,"connected_time":6507000000000,"state":"active","ping":77},{"user_id":45,"name":"Vrita","steam_id":76561198059483641,"connected_time":6281000000000,"state":"active","ping":52},{"user_id":124,"name":"femboy spy","steam_id":76561199338554815,"connected_time":2194000000000,"state":"active","ping":244},{"user_id":128,"name":"ars110","steam_id":76561198030492435,"connected_time":1695000000000,"state":"active","ping":75},{"user_id":137,"name":"Windows Vista Home Premium","steam_id":76561198043764863,"connected_time":403000000000,"state":"active","ping":57},{"user_id":125,"name":"Giddy","steam_id":76561198271951969,"connected_time":2193000000000,"state":"active","ping":67},{"user_id":122,"name":"coda","steam_id":76561198092052685,"connected_time":2350000000000,"state":"active","ping":106},{"user_id":136,"name":"Buswolley","steam_id":76561197995205571,"connected_time":524000000000,"state":"active","ping":39},{"user_id":132,"name":"Kerrplunk","steam_id":76561198058211496,"connected_time":1056000000000,"state":"active","ping":63},{"user_id":106,"name":"chimplicity","steam_id":76561198012097062,"connected_time":3392000000000,"state":"active","ping":74},{"user_id":138,"name":"sirFrost","steam_id":76561198072267177,"connected_time":269000000000,"state":"active","ping":68},{"user_id":112,"name":"Bene Tlailax","steam_id":76561198131567365,"connected_time":2842000000000,"state":"active","ping":69}]},{"server_id":19,"name":"Uncletopia | San Francisco | 3 | Stopwatch","name_short":"sfo-3","host":"sfo-1.us.uncletopia.com","port":27035,"enabled":true,"region":"us-west","cc":"us","latitude":37.77397,"longitude":-122.4313,"reserved":0,"last_update":"0001-01-01T00:00:00Z","name_a2s":"Uncletopia | San Francisco | 3 | Stopwatch","protocol":17,"map":"workshop/koth_ramjam_rc1.ugc459778887","folder":"tf","game":"Team Fortress","app_id":440,"player_count":0,"max_players":24,"Bots":0,"server_type":"Dedicated","server_os":"Linux","password":true,"vac":true,"version":"7961495","steam_id":85568392924742824,"keywords":["cp","nocrits","nodmgspread","uncletopia"],"game_id":440,"stv_port":27036,"stv_name":"Uncletopia | San Francisco | 3 | Stopwatch | STV","players":null},{"server_id":20,"name":"Uncletopia | San Francisco | 4 | Community","name_short":"sfo-4","host":"sfo-1.us.uncletopia.com","port":27045,"enabled":true,"region":"us-west","cc":"us","latitude":37.77397,"longitude":-122.4313,"reserved":0,"last_update":"0001-01-01T00:00:00Z","name_a2s":"Uncletopia | San Francisco | 4 | Community","protocol":17,"map":"workshop/cp_villa_b19.ugc2113052569","folder":"tf","game":"Team Fortress","app_id":440,"player_count":0,"max_players":24,"Bots":0,"server_type":"Dedicated","server_os":"Linux","password":true,"vac":true,"version":"7961495","steam_id":85568392924742826,"keywords":["cp","nocrits","nodmgspread","uncletopia"],"game_id":440,"stv_port":27046,"stv_name":"Uncletopia | San Francisco | 4 | Community | STV","players":null},{"server_id":141,"name":"Uncletopia | Sydney | 1 | All Maps","name_short":"syd-1","host":"syd-1.au.uncletopia.com","port":27015,"enabled":true,"region":"au","cc":"au","latitude":-33.865143,"longitude":151.2099,"reserved":0,"last_update":"0001-01-01T00:00:00Z","name_a2s":"Uncletopia | Sydney | 1 | All Maps","protocol":17,"map":"pl_snowycoast","folder":"tf","game":"Team Fortress","app_id":440,"player_count":22,"max_players":24,"Bots":0,"server_type":"Dedicated","server_os":"Linux","password":true,"vac":true,"version":"7961495","steam_id":85568392924470001,"keywords":["nocrits","nodmgspread","payload","uncletopia"],"game_id":440,"stv_port":27016,"stv_name":"Uncletopia | Sydney | 1 | All Maps | STV","players":[{"user_id":57,"name":"Cylinda","steam_id":76561198094041769,"connected_time":322000000000,"state":"active","ping":31},{"user_id":56,"name":"Crucial","steam_id":76561198992582454,"connected_time":465000000000,"state":"active","ping":46},{"user_id":27,"name":"Sezama [HF]","steam_id":76561198816829053,"connected_time":2030000000000,"state":"active","ping":60},{"user_id":19,"name":"FascismSalad","steam_id":76561198262410973,"connected_time":3064000000000,"state":"active","ping":52},{"user_id":21,"name":"cakey","steam_id":76561198173746761,"connected_time":2563000000000,"state":"active","ping":46},{"user_id":35,"name":"HmmF","steam_id":76561198255886585,"connected_time":1710000000000,"state":"active","ping":53},{"user_id":33,"name":"Bill Dipperly","steam_id":76561199161482509,"connected_time":1715000000000,"state":"active","ping":67},{"user_id":34,"name":"LaFleur","steam_id":76561198869499113,"connected_time":1711000000000,"state":"active","ping":55},{"user_id":25,"name":"Asl:3x","steam_id":76561198972095766,"connected_time":2225000000000,"state":"active","ping":44},{"user_id":58,"name":"THEBONEMUNCHER","steam_id":76561198094846610,"connected_time":128000000000,"state":"active","ping":48},{"user_id":51,"name":"Brud","steam_id":76561198123542239,"connected_time":956000000000,"state":"active","ping":63},{"user_id":59,"name":"tom.","steam_id":76561198332850708,"connected_time":102000000000,"state":"active","ping":72},{"user_id":30,"name":"El Cucuy","steam_id":76561199140616120,"connected_time":1929000000000,"state":"active","ping":95},{"user_id":32,"name":"CoolJosh3k .com","steam_id":76561197997407342,"connected_time":1766000000000,"state":"active","ping":50},{"user_id":52,"name":"aido","steam_id":76561198072397557,"connected_time":699000000000,"state":"active","ping":59},{"user_id":54,"name":"precious.","steam_id":76561198054804209,"connected_time":525000000000,"state":"active","ping":90},{"user_id":40,"name":"i got 5 kills once","steam_id":76561198383320315,"connected_time":1561000000000,"state":"active","ping":58},{"user_id":41,"name":"1446","steam_id":76561198376383989,"connected_time":1543000000000,"state":"active","ping":62},{"user_id":53,"name":"Sentry Gun (EpicGuy4227)","steam_id":76561198094132328,"connected_time":666000000000,"state":"active","ping":52},{"user_id":48,"name":"Happy Feet (A Tarantino Film)","steam_id":76561198055318716,"connected_time":1220000000000,"state":"active","ping":44},{"user_id":47,"name":"Reefo","steam_id":76561198161626796,"connected_time":1287000000000,"state":"active","ping":68},{"user_id":49,"name":"Lincoln2603","steam_id":76561198170236666,"connected_time":1189000000000,"state":"active","ping":38}]},{"server_id":123,"name":"Uncletopia | Sydney | 2 | All Maps","name_short":"syd-2","host":"syd-1.au.uncletopia.com","port":27025,"enabled":true,"region":"au","cc":"au","latitude":-33.865143,"longitude":151.2099,"reserved":0,"last_update":"0001-01-01T00:00:00Z","name_a2s":"Uncletopia | Sydney | 2 | All Maps","protocol":17,"map":"koth_highpass","folder":"tf","game":"Team Fortress","app_id":440,"player_count":1,"max_players":24,"Bots":0,"server_type":"Dedicated","server_os":"Linux","password":true,"vac":true,"version":"7961495","steam_id":85568392924470002,"keywords":["cp","nocrits","nodmgspread","uncletopia"],"game_id":440,"stv_port":27026,"stv_name":"Uncletopia | Sydney | 2 | All Maps | STV","players":[{"user_id":11,"name":"using a laptop","steam_id":76561199445302425,"connected_time":54000000000,"state":"spawning","ping":149}]},{"server_id":395,"name":"Uncletopia | Sydney | 3 | All Maps","name_short":"syd-3","host":"syd-1.au.uncletopia.com","port":27035,"enabled":true,"region":"au","cc":"au","latitude":-33.865143,"longitude":151.2099,"reserved":0,"last_update":"0001-01-01T00:00:00Z","name_a2s":"Uncletopia | Sydney | 3 | All Maps","protocol":17,"map":"pl_swiftwater_final1","folder":"tf","game":"Team Fortress","app_id":440,"player_count":0,"max_players":24,"Bots":0,"server_type":"Dedicated","server_os":"Linux","password":true,"vac":true,"version":"7961495","steam_id":85568392925194467,"keywords":["nocrits","nodmgspread","payload","uncletopia"],"game_id":440,"stv_port":27036,"stv_name":"Uncletopia | Sydney | 3 | All Maps | STV","players":null},{"server_id":396,"name":"Uncletopia | Sydney | 4 | All Maps","name_short":"syd-4","host":"syd-1.au.uncletopia.com","port":27045,"enabled":true,"region":"au","cc":"au","latitude":-33.865143,"longitude":151.2099,"reserved":0,"last_update":"0001-01-01T00:00:00Z","name_a2s":"Uncletopia | Sydney | 4 | All Maps","protocol":17,"map":"koth_lakeside_final","folder":"tf","game":"Team Fortress","app_id":440,"player_count":0,"max_players":24,"Bots":0,"server_type":"Dedicated","server_os":"Linux","password":true,"vac":true,"version":"7961495","steam_id":85568392925397958,"keywords":["cp","nocrits","nodmgspread","uncletopia"],"game_id":440,"stv_port":27046,"stv_name":"Uncletopia | Sydney | 4 | All Maps | STV","players":null},{"server_id":58,"name":"Uncletopia | Sydney | 5 | Stopwatch","name_short":"syd-5","host":"syd-1.au.uncletopia.com","port":27055,"enabled":true,"region":"au","cc":"au","latitude":-33.865143,"longitude":151.2099,"reserved":0,"last_update":"0001-01-01T00:00:00Z","name_a2s":"Uncletopia | Sydney | 5 | Stopwatch","protocol":17,"map":"pl_swiftwater_final1","folder":"tf","game":"Team Fortress","app_id":440,"player_count":0,"max_players":24,"Bots":0,"server_type":"Dedicated","server_os":"Linux","password":true,"vac":true,"version":"7961495","steam_id":85568392925397959,"keywords":["nocrits","nodmgspread","payload","uncletopia"],"game_id":440,"stv_port":27056,"stv_name":"Uncletopia | Sydney | 5 | Stopwatch | STV","players":null},{"server_id":59,"name":"Uncletopia | Sydney | 6 | Community","name_short":"syd-6","host":"syd-1.au.uncletopia.com","port":27065,"enabled":true,"region":"au","cc":"au","latitude":-33.865143,"longitude":151.2099,"reserved":0,"last_update":"0001-01-01T00:00:00Z","name_a2s":"Uncletopia | Sydney | 6 | Community","protocol":17,"map":"workshop/cp_fulgur_rc2a.ugc2068252300","folder":"tf","game":"Team Fortress","app_id":440,"player_count":0,"max_players":24,"Bots":0,"server_type":"Dedicated","server_os":"Linux","password":true,"vac":true,"version":"7961495","steam_id":85568392925397960,"keywords":["cp","nocrits","nodmgspread","uncletopia"],"game_id":440,"stv_port":27066,"stv_name":"Uncletopia | Sydney | 6 | Community | STV","players":null},{"server_id":49,"name":"Uncletopia | Warsaw | 1 | One Thousand Uncles","name_short":"waw-1","host":"waw-1.pl.uncletopia.com","port":27015,"enabled":true,"region":"eu","cc":"pl","latitude":52.2297,"longitude":21.017532,"reserved":0,"last_update":"0001-01-01T00:00:00Z","name_a2s":"Uncletopia | Warsaw | 1 | One Thousand Uncles","protocol":17,"map":"koth_highpass","folder":"tf","game":"Team Fortress","app_id":440,"player_count":0,"max_players":32,"Bots":0,"server_type":"Dedicated","server_os":"Linux","password":true,"vac":true,"version":"7961495","steam_id":85568392925397850,"keywords":["alltalk","cp","danepve","increased_maxplayers","nocrits","norespawntime","uncletopia"],"game_id":440,"stv_port":0,"stv_name":"","players":null},{"server_id":50,"name":"Uncletopia | Warsaw | 2 | One Thousand Uncles","name_short":"waw-2","host":"waw-1.pl.uncletopia.com","port":27025,"enabled":true,"region":"eu","cc":"pl","latitude":52.2297,"longitude":21.017532,"reserved":0,"last_update":"0001-01-01T00:00:00Z","name_a2s":"Uncletopia | Warsaw | 2 | One Thousand Uncles","protocol":17,"map":"cp_dustbowl","folder":"tf","game":"Team Fortress","app_id":440,"player_count":0,"max_players":32,"Bots":0,"server_type":"Dedicated","server_os":"Linux","password":true,"vac":true,"version":"7961495","steam_id":85568392925397851,"keywords":["alltalk","cp","danepve","increased_maxplayers","nocrits","norespawntime","uncletopia"],"game_id":440,"stv_port":0,"stv_name":"","players":null},{"server_id":51,"name":"Uncletopia | Warsaw | 3 | All Maps","name_short":"waw-3","host":"waw-1.pl.uncletopia.com","port":27035,"enabled":true,"region":"eu","cc":"pl","latitude":52.2297,"longitude":21.017532,"reserved":0,"last_update":"0001-01-01T00:00:00Z","name_a2s":"Uncletopia | Warsaw | 3 | All Maps","protocol":17,"map":"plr_pipeline","folder":"tf","game":"Team Fortress","app_id":440,"player_count":0,"max_players":24,"Bots":0,"server_type":"Dedicated","server_os":"Linux","password":true,"vac":true,"version":"7961495","steam_id":85568392925397852,"keywords":["nocrits","nodmgspread","payload","uncletopia"],"game_id":440,"stv_port":27036,"stv_name":"Uncletopia | Warsaw | 3 | All Maps | STV","players":null},{"server_id":52,"name":"Uncletopia | Warsaw | 4 | All Maps","name_short":"waw-4","host":"waw-1.pl.uncletopia.com","port":27045,"enabled":true,"region":"eu","cc":"pl","latitude":52.2297,"longitude":21.017532,"reserved":0,"last_update":"0001-01-01T00:00:00Z","name_a2s":"Uncletopia | Warsaw | 4 | All Maps","protocol":17,"map":"cp_coldfront","folder":"tf","game":"Team Fortress","app_id":440,"player_count":0,"max_players":24,"Bots":0,"server_type":"Dedicated","server_os":"Linux","password":true,"vac":true,"version":"7961495","steam_id":85568392925397853,"keywords":["cp","nocrits","nodmgspread","uncletopia"],"game_id":440,"stv_port":27046,"stv_name":"Uncletopia | Warsaw | 4 | All Maps | STV","players":null},{"server_id":53,"name":"Uncletopia | Warsaw | 5 | Stopwatch","name_short":"waw-5","host":"waw-1.pl.uncletopia.com","port":27055,"enabled":true,"region":"eu","cc":"pl","latitude":52.2297,"longitude":21.017532,"reserved":0,"last_update":"0001-01-01T00:00:00Z","name_a2s":"Uncletopia | Warsaw | 5 | Stopwatch","protocol":17,"map":"workshop/koth_bagel_rc6.ugc2514036946","folder":"tf","game":"Team Fortress","app_id":440,"player_count":0,"max_players":24,"Bots":0,"server_type":"Dedicated","server_os":"Linux","password":true,"vac":true,"version":"7961495","steam_id":85568392925397854,"keywords":["cp","nocrits","nodmgspread","uncletopia"],"game_id":440,"stv_port":27056,"stv_name":"Uncletopia | Warsaw | 5 | Stopwatch | STV","players":null},{"server_id":54,"name":"Uncletopia | Warsaw | 6 | Community","name_short":"waw-6","host":"waw-1.pl.uncletopia.com","port":27065,"enabled":true,"region":"eu","cc":"pl","latitude":52.2297,"longitude":21.017532,"reserved":0,"last_update":"0001-01-01T00:00:00Z","name_a2s":"Uncletopia | Warsaw | 6 | Community","protocol":17,"map":"workshop/pl_badwater_pro_v12.ugc2142942074","folder":"tf","game":"Team Fortress","app_id":440,"player_count":0,"max_players":24,"Bots":0,"server_type":"Dedicated","server_os":"Linux","password":true,"vac":true,"version":"7961495","steam_id":85568392925397856,"keywords":["nocrits","nodmgspread","payload","uncletopia"],"game_id":440,"stv_port":27066,"stv_name":"Uncletopia | Warsaw | 6 | Community | STV","players":null}]}