{"status":true,"message":"","result":[{"server_id":9,"name":"Uncletopia | Atlanta | 1 | All Maps","name_short":"atl-1","host":"atl-1.us.uncletopia.com","port":27015,"enabled":true,"region":"us-east","cc":"us","latitude":33.753746,"longitude":-84.38633,"reserved":0,"last_update":"0001-01-01T00:00:00Z","name_a2s":"Uncletopia | Atlanta | 1 | All Maps","protocol":17,"map":"pl_badwater","folder":"tf","game":"Team Fortress","app_id":440,"player_count":24,"max_players":24,"Bots":0,"server_type":"Dedicated","server_os":"Linux","password":true,"vac":true,"version":"7757534","steam_id":85568392924469982,"keywords":["nocrits","nodmgspread","payload","uncletopia"],"game_id":440,"stv_port":27016,"stv_name":"Uncletopia | Atlanta | 1 | All Maps | STV","players":[{"user_id":21,"name":"troll","steam_id":76561198040890252,"connected_time":7605000000000,"state":"active","ping":48},{"user_id":102,"name":"Der Munchkin[2098]","steam_id":76561197998833309,"connected_time":1536000000000,"state":"active","ping":59},{"user_id":99,"name":"shadow wizard","steam_id":76561198165212575,"connected_time":2123000000000,"state":"active","ping":83},{"user_id":82,"name":"Toasty","steam_id":76561198176700097,"connected_time":3131000000000,"state":"active","ping":86},{"user_id":127,"name":"shinon","steam_id":76561198373626848,"connected_time":74000000000,"state":"active","ping":60},{"user_id":106,"name":"hippo mode","steam_id":76561198073455521,"connected_time":1520000000000,"state":"active","ping":46},{"user_id":119,"name":"Squid","steam_id":76561198197045587,"connected_time":930000000000,"state":"active","ping":110},{"user_id":69,"name":"deech","steam_id":76561198066429444,"connected_time":3699000000000,"state":"active","ping":62},{"user_id":114,"name":"amnyak","steam_id":76561198165831950,"connected_time":1260000000000,"state":"active","ping":76},{"user_id":125,"name":"fudo myoo","steam_id":76561198456258164,"connected_time":164000000000,"state":"active","ping":59},{"user_id":108,"name":"Hope","steam_id":76561199201900779,"connected_time":1483000000000,"state":"active","ping":80},{"user_id":109,"name":"Aristotle Voulton","steam_id":76561198100174923,"connected_time":1477000000000,"state":"active","ping":87},{"user_id":110,"name":"rlty","steam_id":76561198009395055,"connected_time":1463000000000,"state":"active","ping":60},{"user_id":36,"name":"Alucardo","steam_id":76561198320866421,"connected_time":6209000000000,"state":"active","ping":48},{"user_id":103,"name":"vid_","steam_id":76561198065159053,"connected_time":1535000000000,"state":"active","ping":52},{"user_id":74,"name":"Pickle Chips","steam_id":76561198271951504,"connected_time":3379000000000,"state":"active","ping":65},{"user_id":107,"name":"Faust main","steam_id":76561198971799149,"connected_time":1520000000000,"state":"active","ping":98},{"user_id":123,"name":"Fewseb","steam_id":76561198104808456,"connected_time":305000000000,"state":"active","ping":83},{"user_id":52,"name":"vitamin","steam_id":76561198277799227,"connected_time":5528000000000,"state":"active","ping":61},{"user_id":121,"name":"ATL1 | Pango","steam_id":76561198069811545,"connected_time":435000000000,"state":"active","ping":45},{"user_id":104,"name":"Towns","steam_id":76561198984662863,"connected_time":1535000000000,"state":"active","ping":59},{"user_id":118,"name":"BigBubble42","steam_id":76561198136286123,"connected_time":957000000000,"state":"active","ping":47},{"user_id":116,"name":"Coolshroomish","steam_id":76561199109440924,"connected_time":1047000000000,"state":"active","ping":127},{"user_id":126,"name":"ham bone","steam_id":76561198351143785,"connected_time":164000000000,"state":"active","ping":70}]},{"server_id":400,"name":"Uncletopia | Atlanta | 3 | Community","name_short":"atl-3","host":"atl-1.us.uncletopia.com","port":27035,"enabled":true,"region":"us-east","cc":"us","latitude":33.753746,"longitude":-84.38633,"reserved":0,"last_update":"0001-01-01T00:00:00Z","name_a2s":"Uncletopia | Atlanta | 3 | Community","protocol":17,"map":"pl_swiftwater_final1","folder":"tf","game":"Team Fortress","app_id":440,"player_count":0,"max_players":32,"Bots":0,"server_type":"Dedicated","server_os":"Linux","password":true,"vac":true,"version":"7757534","steam_id":85568392924515187,"keywords":["increased_maxplayers","nocrits","nodmgspread","payload","uncletopia"],"game_id":440,"stv_port":27036,"stv_name":"Uncletopia | Atlanta | 3 | Community | STV","players":null},{"server_id":401,"name":"Uncletopia | Atlanta | 4 | No Payload","name_short":"atl-4","host":"atl-1.us.uncletopia.com","port":27045,"enabled":true,"region":"us-east","cc":"us","latitude":33.753746,"longitude":-84.38633,"reserved":0,"last_update":"0001-01-01T00:00:00Z","name_a2s":"","protocol":0,"map":"","folder":"","game":"","app_id":0,"player_count":0,"max_players":0,"Bots":0,"server_type":"","server_os":"","password":false,"vac":false,"version":"","steam_id":0,"keywords":null,"game_id":0,"stv_port":0,"stv_name":"","players":null},{"server_id":2,"name":"Uncletopia | Chicago | 1 | All Maps","name_short":"chi-1","host":"chi-1.us.uncletopia.com","port":27015,"enabled":true,"region":"us-central","cc":"us","latitude":41.881832,"longitude":-87.62318,"reserved":0,"last_update":"0001-01-01T00:00:00Z","name_a2s":"Uncletopia | Chicago | 1 | All Maps","protocol":17,"map":"cp_5gorge","folder":"tf","game":"Team Fortress","app_id":440,"player_count":24,"max_players":24,"Bots":0,"server_type":"Dedicated","server_os":"Linux","password":true,"vac":true,"version":"7757534","steam_id":85568392924469984,"keywords":["cp","nocrits","nodmgspread","uncletopia"],"game_id":440,"stv_port":27016,"stv_name":"Uncletopia | Chicago | 1 | All Maps | STV","players":[{"user_id":452,"name":"Soundproof","steam_id":76561198133392504,"connected_time":220000000000,"state":"active","ping":55},{"user_id":447,"name":"GIGANOURRISSON","steam_id":76561197975618509,"connected_time":1416000000000,"state":"active","ping":71},{"user_id":454,"name":"Valeee","steam_id":76561198169897086,"connected_time":46000000000,"state":"active","ping":125},{"user_id":397,"name":"Smoker Lung","steam_id":76561198077167395,"connected_time":3828000000000,"state":"active","ping":51},{"user_id":451,"name":"Toottoot","steam_id":76561197992404836,"connected_time":561000000000,"state":"active","ping":45},{"user_id":410,"name":"Gachalover","steam_id":76561199231552074,"connected_time":3732000000000,"state":"active","ping":64},{"user_id":417,"name":"Carl, Good to see you","steam_id":76561198070574075,"connected_time":3650000000000,"state":"active","ping":67},{"user_id":448,"name":"trobin120","steam_id":76561199122420273,"connected_time":1352000000000,"state":"active","ping":63},{"user_id":436,"name":"Tyler\u0026Fingers","steam_id":76561198085154485,"connected_time":1933000000000,"state":"active","ping":84},{"user_id":433,"name":"Aggressive Goat","steam_id":76561197989465672,"connected_time":2223000000000,"state":"active","ping":63},{"user_id":431,"name":"defs98","steam_id":76561198134813102,"connected_time":2411000000000,"state":"active","ping":57},{"user_id":439,"name":"Sous-Chef","steam_id":76561198075705827,"connected_time":1717000000000,"state":"active","ping":77},{"user_id":434,"name":"morbissey","steam_id":76561198072592880,"connected_time":2085000000000,"state":"active","ping":38},{"user_id":441,"name":"JustCoffee","steam_id":76561199389473180,"connected_time":1703000000000,"state":"active","ping":64},{"user_id":155,"name":"finger","steam_id":76561198068558572,"connected_time":12700000000000,"state":"active","ping":79},{"user_id":442,"name":"ameritech","steam_id":76561198064769089,"connected_time":1696000000000,"state":"active","ping":61},{"user_id":270,"name":"Fiendish Frog","steam_id":76561198029478821,"connected_time":5828000000000,"state":"active","ping":62},{"user_id":443,"name":"SturmTea","steam_id":76561198027371308,"connected_time":1594000000000,"state":"active","ping":83},{"user_id":437,"name":"wagwoogus","steam_id":76561198111259720,"connected_time":1852000000000,"state":"active","ping":64},{"user_id":453,"name":"Oh, it's Zach","steam_id":76561198103309672,"connected_time":134000000000,"state":"active","ping":45},{"user_id":435,"name":"Pontifex","steam_id":76561198013016489,"connected_time":1974000000000,"state":"active","ping":85},{"user_id":440,"name":"The Law","steam_id":76561198202209948,"connected_time":1717000000000,"state":"active","ping":46},{"user_id":274,"name":"Salih","steam_id":76561198287934839,"connected_time":5782000000000,"state":"active","ping":142},{"user_id":391,"name":"yitz","steam_id":76561198375575841,"connected_time":3889000000000,"state":"active","ping":56}]},{"server_id":106,"name":"Uncletopia | Chicago | 2 | All Maps","name_short":"chi-2","host":"chi-1.us.uncletopia.com","port":27025,"enabled":true,"region":"us-central","cc":"us","latitude":41.881832,"longitude":-87.62318,"reserved":0,"last_update":"0001-01-01T00:00:00Z","name_a2s":"Uncletopia | Chicago | 2 | All Maps","protocol":17,"map":"koth_cascade","folder":"tf","game":"Team Fortress","app_id":440,"player_count":0,"max_players":24,"Bots":0,"server_type":"Dedicated","server_os":"Linux","password":true,"vac":true,"version":"7757534","steam_id":85568392924469985,"keywords":["cp","nocrits","nodmgspread","uncletopia"],"game_id":440,"stv_port":27026,"stv_name":"Uncletopia | Chicago | 2 | All Maps | STV","players":null},{"server_id":402,"name":"Uncletopia | Chicago | 3 | All Maps","name_short":"chi-3","host":"chi-1.us.uncletopia.com","port":27035,"enabled":true,"region":"us-central","cc":"us","latitude":41.881832,"longitude":-87.62318,"reserved":0,"last_update":"0001-01-01T00:00:00Z","name_a2s":"Uncletopia | Chicago | 3 | All Maps","protocol":17,"map":"koth_cascade","folder":"tf","game":"Team Fortress","app_id":440,"player_count":0,"max_players":24,"Bots":0,"server_type":"Dedicated","server_os":"Linux","password":true,"vac":true,"version":"7757534","steam_id":85568392924515191,"keywords":["cp","nocrits","nodmgspread","uncletopia"],"game_id":440,"stv_port":27036,"stv_name":"Uncletopia | Chicago | 3 | All Maps | STV","players":null},{"server_id":403,"name":"Uncletopia | Chicago | 4 | All Maps","name_short":"chi-4","host":"chi-1.us.uncletopia.com","port":27045,"enabled":true,"region":"us-central","cc":"us","latitude":41.881832,"longitude":-87.62318,"reserved":0,"last_update":"0001-01-01T00:00:00Z","name_a2s":"Uncletopia | Chicago | 4 | All Maps","protocol":17,"map":"koth_lakeside_final","folder":"tf","game":"Team Fortress","app_id":440,"player_count":0,"max_players":24,"Bots":0,"server_type":"Dedicated","server_os":"Linux","password":true,"vac":true,"version":"7757534","steam_id":85568392924515193,"keywords":["cp","nocrits","nodmgspread","uncletopia"],"game_id":440,"stv_port":27046,"stv_name":"Uncletopia | Chicago | 4 | All Maps | STV","players":null},{"server_id":36,"name":"Uncletopia | Chicago | 5 | All Maps","name_short":"chi-5","host":"chi-2.us.uncletopia.com","port":27015,"enabled":true,"region":"us-central","cc":"us","latitude":41.881832,"longitude":-87.62318,"reserved":0,"last_update":"0001-01-01T00:00:00Z","name_a2s":"Uncletopia | Chicago | 5 | All Maps","protocol":17,"map":"koth_cascade","folder":"tf","game":"Team Fortress","app_id":440,"player_count":0,"max_players":24,"Bots":0,"server_type":"Dedicated","server_os":"Linux","password":true,"vac":true,"version":"7757534","steam_id":85568392924866362,"keywords":["cp","nocrits","nodmgspread","uncletopia"],"game_id":440,"stv_port":27016,"stv_name":"Uncletopia | Chicago | 5 | All Maps | STV","players":null},{"server_id":37,"name":"Uncletopia | Chicago | 6 | All Maps","name_short":"chi-6","host":"chi-2.us.uncletopia.com","port":27025,"enabled":true,"region":"us-central","cc":"us","latitude":41.881832,"longitude":-87.62318,"reserved":0,"last_update":"0001-01-01T00:00:00Z","name_a2s":"Uncletopia | Chicago | 6 | All Maps","protocol":17,"map":"koth_cascade","folder":"tf","game":"Team Fortress","app_id":440,"player_count":0,"max_players":24,"Bots":0,"server_type":"Dedicated","server_os":"Linux","password":true,"vac":true,"version":"7757534","steam_id":85568392924866363,"keywords":["cp","nocrits","nodmgspread","uncletopia"],"game_id":440,"stv_port":27026,"stv_name":"Uncletopia | Chicago | 6 | All Maps | STV","players":null},{"server_id":38,"name":"Uncletopia | Chicago | 7 | Stopwatch Beta","name_short":"chi-7","host":"chi-2.us.uncletopia.com","port":27035,"enabled":true,"region":"us-central","cc":"us","latitude":41.881832,"longitude":-87.62318,"reserved":0,"last_update":"0001-01-01T00:00:00Z","name_a2s":"Uncletopia | Chicago | 7 | Stopwatch Beta","protocol":17,"map":"pl_upward","folder":"tf","game":"Team Fortress","app_id":440,"player_count":0,"max_players":24,"Bots":0,"server_type":"Dedicated","server_os":"Linux","password":true,"vac":true,"version":"7757534","steam_id":85568392924866364,"keywords":["nocrits","nodmgspread","payload","uncletopia"],"game_id":440,"stv_port":27036,"stv_name":"Uncletopia | Chicago | 7 | Stopwatch Beta | STV","players":null},{"server_id":39,"name":"Uncletopia | Chicago | 8 | Community","name_short":"chi-8","host":"chi-2.us.uncletopia.com","port":27045,"enabled":true,"region":"us-central","cc":"us","latitude":41.881832,"longitude":-87.62318,"reserved":0,"last_update":"0001-01-01T00:00:00Z","name_a2s":"Uncletopia | Chicago | 8 | Community","protocol":17,"map":"pl_barnblitz","folder":"tf","game":"Team Fortress","app_id":440,"player_count":0,"max_players":24,"Bots":0,"server_type":"Dedicated","server_os":"Linux","password":true,"vac":true,"version":"7757534","steam_id":85568392924866365,"keywords":["nocrits","nodmgspread","payload","uncletopia"],"game_id":440,"stv_port":27046,"stv_name":"Uncletopia | Chicago | 8 | Community | STV","players":null},{"server_id":8,"name":"Uncletopia | Dallas | 1 | All Maps","name_short":"dal-1","host":"dal-1.us.uncletopia.com","port":27015,"enabled":true,"region":"us-central","cc":"us","latitude":32.779167,"longitude":-96.80889,"reserved":0,"last_update":"0001-01-01T00:00:00Z","name_a2s":"Uncletopia | Dallas | 1 | All Maps","protocol":17,"map":"koth_cascade","folder":"tf","game":"Team Fortress","app_id":440,"player_count":1,"max_players":24,"Bots":0,"server_type":"Dedicated","server_os":"Linux","password":true,"vac":true,"version":"7757534","steam_id":85568392924469986,"keywords":["cp","nocrits","nodmgspread","uncletopia"],"game_id":440,"stv_port":27016,"stv_name":"Uncletopia | Dallas | 1 | All Maps | STV","players":[{"user_id":7,"name":"iansav","steam_id":76561198346746454,"connected_time":18000000000,"state":"active","ping":75}]},{"server_id":108,"name":"Uncletopia | Dallas | 2 | All Maps","name_short":"dal-2","host":"dal-1.us.uncletopia.com","port":27025,"enabled":true,"region":"us-central","cc":"us","latitude":32.779167,"longitude":-96.80889,"reserved":0,"last_update":"0001-01-01T00:00:00Z","name_a2s":"Uncletopia | Dallas | 2 | All Maps","protocol":17,"map":"koth_lakeside_final","folder":"tf","game":"Team Fortress","app_id":440,"player_count":0,"max_players":24,"Bots":0,"server_type":"Dedicated","server_os":"Linux","password":true,"vac":true,"version":"7757534","steam_id":85568392924469988,"keywords":["cp","nocrits","nodmgspread","uncletopia"],"game_id":440,"stv_port":27026,"stv_name":"Uncletopia | Dallas | 2 | All Maps | STV","players":null},{"server_id":5,"name":"Uncletopia | Frankfurt | 1 | All Maps","name_short":"frk-1","host":"frk-1.de.uncletopia.com","port":27015,"enabled":true,"region":"eu","cc":"de","latitude":50.110924,"longitude":8.682127,"reserved":0,"last_update":"0001-01-01T00:00:00Z","name_a2s":"Uncletopia | Frankfurt | 1 | All Maps","protocol":17,"map":"ctf_doublecross","folder":"tf","game":"Team Fortress","app_id":440,"player_count":24,"max_players":24,"Bots":0,"server_type":"Dedicated","server_os":"Linux","password":true,"vac":true,"version":"7757534","steam_id":85568392924469989,"keywords":["ctf","nocrits","nodmgspread","uncletopia"],"game_id":440,"stv_port":27016,"stv_name":"Uncletopia | Frankfurt | 1 | All Maps | STV","players":[{"user_id":171,"name":"citronous","steam_id":76561198093290934,"connected_time":12505000000000,"state":"active","ping":57},{"user_id":312,"name":"\"Sniper_Airlines\"","steam_id":76561198169443647,"connected_time":2672000000000,"state":"active","ping":91},{"user_id":335,"name":"MaximusTheFish","steam_id":76561199025652089,"connected_time":706000000000,"state":"active","ping":68},{"user_id":338,"name":"i always miss","steam_id":76561199379233899,"connected_time":377000000000,"state":"active","ping":88},{"user_id":318,"name":"Spunkepeter #TransRights","steam_id":76561198417171790,"connected_time":2336000000000,"state":"active","ping":70},{"user_id":330,"name":"Žvingia, Žvingia","steam_id":76561199293036742,"connected_time":965000000000,"state":"active","ping":57},{"user_id":311,"name":"DrePow","steam_id":76561198297294413,"connected_time":2927000000000,"state":"active","ping":61},{"user_id":340,"name":"japanese TF2EASY.COM | blw.tf","steam_id":76561198382064472,"connected_time":259000000000,"state":"active","ping":60},{"user_id":331,"name":"caucasian male","steam_id":76561198062107879,"connected_time":950000000000,"state":"active","ping":76},{"user_id":334,"name":"doctor amongus","steam_id":76561199096919345,"connected_time":765000000000,"state":"active","ping":91},{"user_id":325,"name":"KNARRER","steam_id":76561199130777953,"connected_time":1029000000000,"state":"active","ping":55},{"user_id":327,"name":"Serton♝","steam_id":76561198011061126,"connected_time":1015000000000,"state":"active","ping":84},{"user_id":243,"name":"FighterX9","steam_id":76561198832500806,"connected_time":7012000000000,"state":"active","ping":165},{"user_id":225,"name":"christmas with weezer","steam_id":76561198863788240,"connected_time":7719000000000,"state":"active","ping":76},{"user_id":264,"name":"Pestdoktor","steam_id":76561198058159271,"connected_time":5660000000000,"state":"active","ping":62},{"user_id":339,"name":"The King","steam_id":76561198117344758,"connected_time":332000000000,"state":"active","ping":164},{"user_id":321,"name":"Master Rizzjitsu","steam_id":76561198263779934,"connected_time":1633000000000,"state":"active","ping":91},{"user_id":259,"name":"LarsInABox","steam_id":76561198028329262,"connected_time":5892000000000,"state":"active","ping":74},{"user_id":328,"name":"¬°Nice","steam_id":76561198387871867,"connected_time":989000000000,"state":"active","ping":76},{"user_id":329,"name":"YEEET","steam_id":76561198914938199,"connected_time":989000000000,"state":"active","ping":91},{"user_id":293,"name":"джегеми хэпкингс","steam_id":76561198131531394,"connected_time":4000000000000,"state":"active","ping":89},{"user_id":332,"name":"WAR MACHINE","steam_id":76561198069723264,"connected_time":940000000000,"state":"active","ping":60},{"user_id":320,"name":"Gabriel","steam_id":76561198283934869,"connected_time":1932000000000,"state":"active","ping":81},{"user_id":305,"name":"Monsteh","steam_id":76561198325898181,"connected_time":3411000000000,"state":"active","ping":77}]},{"server_id":110,"name":"Uncletopia | Frankfurt | 2 | All Maps","name_short":"frk-2","host":"frk-1.de.uncletopia.com","port":27025,"enabled":true,"region":"eu","cc":"de","latitude":50.110924,"longitude":8.682127,"reserved":0,"last_update":"0001-01-01T00:00:00Z","name_a2s":"Uncletopia | Frankfurt | 2 | All Maps","protocol":17,"map":"pl_upward","folder":"tf","game":"Team Fortress","app_id":440,"player_count":24,"max_players":24,"Bots":0,"server_type":"Dedicated","server_os":"Linux","password":true,"vac":true,"version":"7757534","steam_id":85568392924469990,"keywords":["nocrits","nodmgspread","payload","uncletopia"],"game_id":440,"stv_port":27026,"stv_name":"Uncletopia | Frankfurt | 2 | All Maps | STV","players":[{"user_id":430,"name":"Pipper","steam_id":76561197970326616,"connected_time":511000000000,"state":"active","ping":49},{"user_id":413,"name":"GHOST RIDER","steam_id":76561198060780111,"connected_time":1980000000000,"state":"active","ping":75},{"user_id":414,"name":"Fat Pigeon","steam_id":76561198817940142,"connected_time":1938000000000,"state":"active","ping":50},{"user_id":432,"name":"Sixten the Pale","steam_id":76561197981806008,"connected_time":85000000000,"state":"active","ping":75},{"user_id":424,"name":"YuraGreek","steam_id":76561198050182252,"connected_time":1317000000000,"state":"active","ping":74},{"user_id":426,"name":"Udinese Dion","steam_id":76561198067931573,"connected_time":865000000000,"state":"active","ping":43},{"user_id":411,"name":"dunduu","steam_id":76561198875240717,"connected_time":2095000000000,"state":"active","ping":62},{"user_id":389,"name":"Jon (alt)","steam_id":76561199380849468,"connected_time":4142000000000,"state":"active","ping":62},{"user_id":377,"name":"frosty","steam_id":76561198094560834,"connected_time":4767000000000,"state":"active","ping":61},{"user_id":423,"name":"Daniele Antox","steam_id":76561198323879930,"connected_time":1382000000000,"state":"active","ping":61},{"user_id":396,"name":"MARKO","steam_id":76561198065127504,"connected_time":3175000000000,"state":"active","ping":60},{"user_id":388,"name":"HOTEL ROOM","steam_id":76561198048250715,"connected_time":4197000000000,"state":"active","ping":57},{"user_id":356,"name":"whatever","steam_id":76561198095943461,"connected_time":6561000000000,"state":"active","ping":61},{"user_id":429,"name":"Insain Bolt!","steam_id":76561198025687726,"connected_time":616000000000,"state":"active","ping":67},{"user_id":421,"name":"Shynii","steam_id":76561198194682105,"connected_time":1561000000000,"state":"active","ping":71},{"user_id":427,"name":":3","steam_id":76561198301481739,"connected_time":850000000000,"state":"active","ping":46},{"user_id":418,"name":"Roe Jogan","steam_id":76561198871991529,"connected_time":1825000000000,"state":"active","ping":79},{"user_id":402,"name":"Doriian","steam_id":76561198071438810,"connected_time":2787000000000,"state":"active","ping":82},{"user_id":353,"name":"cinny","steam_id":76561198832112629,"connected_time":6828000000000,"state":"active","ping":74},{"user_id":369,"name":"trk","steam_id":76561198079111788,"connected_time":5280000000000,"state":"active","ping":81},{"user_id":407,"name":"Doublë","steam_id":76561198257836694,"connected_time":2671000000000,"state":"active","ping":53},{"user_id":386,"name":"i'm bad at this game","steam_id":76561198120166752,"connected_time":4331000000000,"state":"active","ping":75},{"user_id":425,"name":"wouris","steam_id":76561198876188003,"connected_time":1047000000000,"state":"active","ping":58},{"user_id":431,"name":"smelter demon","steam_id":76561198038748489,"connected_time":159000000000,"state":"active","ping":60}]},{"server_id":308,"name":"Uncletopia | Frankfurt | 3 | All Maps","name_short":"frk-3","host":"frk-1.de.uncletopia.com","port":27035,"enabled":true,"region":"eu","cc":"de","latitude":50.110924,"longitude":8.682127,"reserved":0,"last_update":"0001-01-01T00:00:00Z","name_a2s":"Uncletopia | Frankfurt | 3 | All Maps","protocol":17,"map":"plr_pipeline","folder":"tf","game":"Team Fortress","app_id":440,"player_count":19,"max_players":24,"Bots":0,"server_type":"Dedicated","server_os":"Linux","password":true,"vac":true,"version":"7757534","steam_id":85568392924504274,"keywords":["nocrits","nodmgspread","payload","uncletopia"],"game_id":440,"stv_port":27036,"stv_name":"Uncletopia | Frankfurt | 3 | All Maps | STV","players":[{"user_id":510,"name":"fearlessbot","steam_id":76561199002587064,"connected_time":45000000000,"state":"spawning","ping":67},{"user_id":511,"name":"M0rph","steam_id":76561198127339176,"connected_time":25000000000,"state":"active","ping":50},{"user_id":498,"name":"Gossamer","steam_id":76561198110914300,"connected_time":1037000000000,"state":"active","ping":75},{"user_id":479,"name":"TylowStar","steam_id":76561198357107806,"connected_time":3013000000000,"state":"active","ping":60},{"user_id":505,"name":"hud_saytext_time 0","steam_id":76561198010327228,"connected_time":691000000000,"state":"active","ping":51},{"user_id":429,"name":"Hot Bean","steam_id":76561198803639155,"connected_time":6272000000000,"state":"active","ping":85},{"user_id":486,"name":"wickEd_","steam_id":76561198048068999,"connected_time":2520000000000,"state":"active","ping":173},{"user_id":504,"name":"GuyWithoutAPie","steam_id":76561198054512149,"connected_time":898000000000,"state":"active","ping":58},{"user_id":488,"name":"Nötig","steam_id":76561198150158285,"connected_time":2240000000000,"state":"active","ping":71},{"user_id":500,"name":"dirty","steam_id":76561197995572935,"connected_time":1026000000000,"state":"active","ping":81},{"user_id":506,"name":"Alfred2.2","steam_id":76561198339314744,"connected_time":653000000000,"state":"active","ping":67},{"user_id":462,"name":"night.s","steam_id":76561198326287823,"connected_time":4092000000000,"state":"active","ping":74},{"user_id":494,"name":"Ben Doverr","steam_id":76561198034264020,"connected_time":1628000000000,"state":"active","ping":103},{"user_id":420,"name":"I was good before.","steam_id":76561198187045217,"connected_time":6879000000000,"state":"active","ping":74},{"user_id":493,"name":"Dasmonson","steam_id":76561199029771850,"connected_time":1832000000000,"state":"active","ping":118},{"user_id":508,"name":"Cichymiecz","steam_id":76561198155510563,"connected_time":529000000000,"state":"active","ping":109},{"user_id":509,"name":"Chrikin","steam_id":76561198416301532,"connected_time":266000000000,"state":"active","ping":166},{"user_id":376,"name":"PLUTO","steam_id":76561198312436128,"connected_time":10316000000000,"state":"active","ping":117},{"user_id":496,"name":"Miatthew","steam_id":76561198034102895,"connected_time":1574000000000,"state":"active","ping":57}]},{"server_id":309,"name":"Uncletopia | Frankfurt | 4 | All Maps","name_short":"frk-4","host":"frk-1.de.uncletopia.com","port":27045,"enabled":true,"region":"eu","cc":"de","latitude":50.110924,"longitude":8.682127,"reserved":0,"last_update":"0001-01-01T00:00:00Z","name_a2s":"Uncletopia | Frankfurt | 4 | All Maps","protocol":17,"map":"pl_pier","folder":"tf","game":"Team Fortress","app_id":440,"player_count":24,"max_players":24,"Bots":0,"server_type":"Dedicated","server_os":"Linux","password":true,"vac":true,"version":"7757534","steam_id":85568392924504275,"keywords":["nocrits","nodmgspread","payload","uncletopia"],"game_id":440,"stv_port":27046,"stv_name":"Uncletopia | Frankfurt | 4 | All Maps | STV","players":[{"user_id":303,"name":"Carrot","steam_id":76561198119340863,"connected_time":31000000000,"state":"active","ping":49},{"user_id":158,"name":"my head + the wall = \u003c3","steam_id":76561198058012525,"connected_time":9577000000000,"state":"active","ping":76},{"user_id":279,"name":"Wüstenfuchs","steam_id":76561198453885708,"connected_time":2051000000000,"state":"active","ping":74},{"user_id":286,"name":"Flight of the Blonde Giraffes","steam_id":76561198451585571,"connected_time":1358000000000,"state":"active","ping":65},{"user_id":289,"name":"profreshional cactus","steam_id":76561198837919828,"connected_time":1218000000000,"state":"active","ping":100},{"user_id":298,"name":"joebot","steam_id":76561197975606100,"connected_time":266000000000,"state":"active","ping":144},{"user_id":296,"name":"雲","steam_id":76561198111134021,"connected_time":374000000000,"state":"active","ping":73},{"user_id":281,"name":"Fran","steam_id":76561199070516960,"connected_time":2010000000000,"state":"active","ping":63},{"user_id":301,"name":"mr paladin","steam_id":76561198267612598,"connected_time":109000000000,"state":"active","ping":88},{"user_id":270,"name":"Vershal Smershal","steam_id":76561198116223995,"connected_time":3145000000000,"state":"active","ping":60},{"user_id":283,"name":"Hasamnas","steam_id":76561199125038537,"connected_time":1574000000000,"state":"active","ping":56},{"user_id":288,"name":"plazma","steam_id":76561198886594048,"connected_time":1326000000000,"state":"active","ping":102},{"user_id":294,"name":"eli","steam_id":76561198802155838,"connected_time":879000000000,"state":"active","ping":144},{"user_id":224,"name":"bigwish | bmod.tf","steam_id":76561197997859723,"connected_time":5411000000000,"state":"active","ping":79},{"user_id":284,"name":"Churaq Cyril","steam_id":76561198125381319,"connected_time":1520000000000,"state":"active","ping":87},{"user_id":295,"name":"Gety0","steam_id":76561198044387185,"connected_time":760000000000,"state":"active","ping":87},{"user_id":299,"name":"flr","steam_id":76561198249327786,"connected_time":262000000000,"state":"active","ping":61},{"user_id":276,"name":"chef","steam_id":76561197991368897,"connected_time":2485000000000,"state":"active","ping":84},{"user_id":277,"name":"Mi Manchi","steam_id":76561198171573129,"connected_time":2293000000000,"state":"active","ping":60},{"user_id":273,"name":"Holz is sleepy","steam_id":76561197994205997,"connected_time":2496000000000,"state":"active","ping":60},{"user_id":292,"name":"dafydd","steam_id":76561198052200325,"connected_time":941000000000,"state":"active","ping":82},{"user_id":300,"name":"Grim the lemon","steam_id":76561199083433988,"connected_time":144000000000,"state":"active","ping":77},{"user_id":302,"name":"lore","steam_id":76561198120984188,"connected_time":103000000000,"state":"active","ping":68},{"user_id":215,"name":"Kvicha Kvaratskhelia","steam_id":76561198179339326,"connected_time":5787000000000,"state":"active","ping":75}]},{"server_id":310,"name":"Uncletopia | Frankfurt | 5 | All Maps","name_short":"frk-5","host":"frk-1.de.uncletopia.com","port":27055,"enabled":true,"region":"eu","cc":"de","latitude":50.110924,"longitude":8.682127,"reserved":0,"last_update":"0001-01-01T00:00:00Z","name_a2s":"Uncletopia | Frankfurt | 5 | All Maps","protocol":17,"map":"cp_coldfront","folder":"tf","game":"Team Fortress","app_id":440,"player_count":0,"max_players":24,"Bots":0,"server_type":"Dedicated","server_os":"Linux","password":true,"vac":true,"version":"7757534","steam_id":85568392924504277,"keywords":["cp","nocrits","nodmgspread","uncletopia"],"game_id":440,"stv_port":27056,"stv_name":"Uncletopia | Frankfurt | 5 | All Maps | STV","players":null},{"server_id":311,"name":"Uncletopia | Frankfurt | 6 | All Maps","name_short":"frk-6","host":"frk-1.de.uncletopia.com","port":27065,"enabled":true,"region":"eu","cc":"de","latitude":50.110924,"longitude":8.682127,"reserved":0,"last_update":"0001-01-01T00:00:00Z","name_a2s":"Uncletopia | Frankfurt | 6 | All Maps","protocol":17,"map":"pl_upward","folder":"tf","game":"Team Fortress","app_id":440,"player_count":24,"max_players":24,"Bots":0,"server_type":"Dedicated","server_os":"Linux","password":true,"vac":true,"version":"7757534","steam_id":85568392924504278,"keywords":["nocrits","nodmgspread","payload","uncletopia"],"game_id":440,"stv_port":27066,"stv_name":"Uncletopia | Frankfurt | 6 | All Maps | STV","players":[{"user_id":75,"name":"Lemon","steam_id":76561198188535947,"connected_time":2721000000000,"state":"active","ping":85},{"user_id":98,"name":"Gio'sMonkey","steam_id":76561198892432223,"connected_time":317000000000,"state":"active","ping":80},{"user_id":102,"name":"Hussain_144","steam_id":76561198346029208,"connected_time":257000000000,"state":"active","ping":179},{"user_id":99,"name":"FANTANO MELON HEAD","steam_id":76561198146194820,"connected_time":301000000000,"state":"active","ping":50},{"user_id":87,"name":"Flal","steam_id":76561198453819816,"connected_time":1302000000000,"state":"active","ping":56},{"user_id":72,"name":"Kotlet schabowy","steam_id":76561198048983509,"connected_time":3332000000000,"state":"active","ping":82},{"user_id":79,"name":"hellrunner","steam_id":76561198205309695,"connected_time":2191000000000,"state":"active","ping":82},{"user_id":103,"name":"solus control unit","steam_id":76561198131944941,"connected_time":247000000000,"state":"active","ping":60},{"user_id":77,"name":"Pyrolander","steam_id":76561198050785450,"connected_time":2507000000000,"state":"active","ping":56},{"user_id":78,"name":"Lantrax","steam_id":76561198281941835,"connected_time":2330000000000,"state":"active","ping":75},{"user_id":85,"name":"悪","steam_id":76561198095879087,"connected_time":1793000000000,"state":"active","ping":69},{"user_id":100,"name":"Mr.C (Arizona)","steam_id":76561198855677692,"connected_time":293000000000,"state":"active","ping":95},{"user_id":97,"name":"Hazzah","steam_id":76561198197242377,"connected_time":582000000000,"state":"active","ping":63},{"user_id":101,"name":"cl","steam_id":76561199436640904,"connected_time":283000000000,"state":"active","ping":60},{"user_id":104,"name":"GuSkand","steam_id":76561198043775605,"connected_time":233000000000,"state":"active","ping":84},{"user_id":105,"name":"cat81","steam_id":76561198399364104,"connected_time":227000000000,"state":"active","ping":108},{"user_id":27,"name":"SIR MEPHEDRONE","steam_id":76561198302623594,"connected_time":5264000000000,"state":"active","ping":94},{"user_id":106,"name":"medium rare chicken enjoyer","steam_id":76561198050214002,"connected_time":151000000000,"state":"active","ping":60},{"user_id":92,"name":"Rimx","steam_id":76561198053034840,"connected_time":1126000000000,"state":"active","ping":93},{"user_id":107,"name":"dOni","steam_id":76561198257223353,"connected_time":131000000000,"state":"active","ping":86},{"user_id":69,"name":"Abhorrent","steam_id":76561198056338288,"connected_time":3775000000000,"state":"active","ping":60},{"user_id":108,"name":"D_Ink","steam_id":76561198267716662,"connected_time":118000000000,"state":"active","ping":57},{"user_id":109,"name":"glyph","steam_id":76561197980736364,"connected_time":21000000000,"state":"active","ping":82},{"user_id":93,"name":"Toasty5050","steam_id":76561198073540881,"connected_time":1058000000000,"state":"active","ping":46}]},{"server_id":23,"name":"Uncletopia | Frankfurt | 7 | Stopwatch Beta","name_short":"frk-7","host":"frk-1.de.uncletopia.com","port":27075,"enabled":true,"region":"eu","cc":"de","latitude":50.110924,"longitude":8.682127,"reserved":0,"last_update":"0001-01-01T00:00:00Z","name_a2s":"Uncletopia | Frankfurt | 7 | Stopwatch Beta","protocol":17,"map":"pl_frontier_final","folder":"tf","game":"Team Fortress","app_id":440,"player_count":0,"max_players":24,"Bots":0,"server_type":"Dedicated","server_os":"Linux","password":true,"vac":true,"version":"7757534","steam_id":85568392924742827,"keywords":["nocrits","nodmgspread","payload","uncletopia"],"game_id":440,"stv_port":27076,"stv_name":"Uncletopia | Frankfurt | 7 | Stopwatch Beta | STV","players":null},{"server_id":24,"name":"Uncletopia | Frankfurt | 8 | Community","name_short":"frk-8","host":"frk-1.de.uncletopia.com","port":27085,"enabled":true,"region":"eu","cc":"de","latitude":50.110924,"longitude":8.682127,"reserved":0,"last_update":"0001-01-01T00:00:00Z","name_a2s":"Uncletopia | Frankfurt | 8 | Community","protocol":17,"map":"workshop/cp_overgrown_rc7b.ugc503939302","folder":"tf","game":"Team Fortress","app_id":440,"player_count":4,"max_players":24,"Bots":0,"server_type":"Dedicated","server_os":"Linux","password":true,"vac":true,"version":"7757534","steam_id":85568392924742828,"keywords":["cp","nocrits","nodmgspread","uncletopia"],"game_id":440,"stv_port":27086,"stv_name":"Uncletopia | Frankfurt | 8 | Community | STV","players":[{"user_id":11,"name":"Happybot","steam_id":76561199162691716,"connected_time":553000000000,"state":"active","ping":107},{"user_id":12,"name":"dr.bogdanchiper","steam_id":76561199215765878,"connected_time":546000000000,"state":"active","ping":111},{"user_id":13,"name":"FugCaDracu","steam_id":76561198374985053,"connected_time":537000000000,"state":"active","ping":72},{"user_id":14,"name":"Boyka_32","steam_id":76561199247580780,"connected_time":83000000000,"state":"active","ping":84}]},{"server_id":202,"name":"Uncletopia | Hong Kong | 1 | All Maps","name_short":"hgk-1","host":"hgk-1.hk.uncletopia.com","port":27015,"enabled":true,"region":"asia","cc":"hk","latitude":22.302711,"longitude":114.177216,"reserved":0,"last_update":"0001-01-01T00:00:00Z","name_a2s":"Uncletopia | Hong Kong | 1 | All Maps","protocol":17,"map":"pl_barnblitz","folder":"tf","game":"Team Fortress","app_id":440,"player_count":0,"max_players":24,"Bots":0,"server_type":"Dedicated","server_os":"Linux","password":true,"vac":true,"version":"7757534","steam_id":85568392924494504,"keywords":["nocrits","nodmgspread","payload","uncletopia"],"game_id":440,"stv_port":27016,"stv_name":"Uncletopia | Hong Kong | 1 | All Maps | STV","players":null},{"server_id":1,"name":"Uncletopia | Los Angeles | 1 | All Maps","name_short":"lax-1","host":"lax-1.us.uncletopia.com","port":27015,"enabled":true,"region":"us-west","cc":"us","latitude":33.94279,"longitude":-118.41004,"reserved":0,"last_update":"0001-01-01T00:00:00Z","name_a2s":"Uncletopia | Los Angeles | 1 | All Maps","protocol":17,"map":"pl_borneo","folder":"tf","game":"Team Fortress","app_id":440,"player_count":1,"max_players":24,"Bots":0,"server_type":"Dedicated","server_os":"Linux","password":true,"vac":true,"version":"7757534","steam_id":85568392924469991,"keywords":["nocrits","nodmgspread","payload","uncletopia"],"game_id":440,"stv_port":27016,"stv_name":"Uncletopia | Los Angeles | 1 | All Maps | STV","players":[{"user_id":3,"name":"Stimpry","steam_id":76561199055662248,"connected_time":4000000000,"state":"spawning","ping":41}]},{"server_id":112,"name":"Uncletopia | Los Angeles | 2 | All Maps","name_short":"lax-2","host":"lax-1.us.uncletopia.com","port":27025,"enabled":true,"region":"us-west","cc":"us","latitude":33.94279,"longitude":-118.41004,"reserved":0,"last_update":"0001-01-01T00:00:00Z","name_a2s":"Uncletopia | Los Angeles | 2 | All Maps","protocol":17,"map":"koth_cascade","folder":"tf","game":"Team Fortress","app_id":440,"player_count":0,"max_players":24,"Bots":0,"server_type":"Dedicated","server_os":"Linux","password":true,"vac":true,"version":"7757534","steam_id":85568392924469992,"keywords":["cp","nocrits","nodmgspread","uncletopia"],"game_id":440,"stv_port":27026,"stv_name":"Uncletopia | Los Angeles | 2 | All Maps | STV","players":null},{"server_id":324,"name":"Uncletopia | Los Angeles | 3 | All Maps","name_short":"lax-3","host":"lax-1.us.uncletopia.com","port":27035,"enabled":true,"region":"us-west","cc":"us","latitude":33.94279,"longitude":-118.41004,"reserved":0,"last_update":"0001-01-01T00:00:00Z","name_a2s":"Uncletopia | Los Angeles | 3 | All Maps","protocol":17,"map":"cp_process_final","folder":"tf","game":"Team Fortress","app_id":440,"player_count":0,"max_players":24,"Bots":0,"server_type":"Dedicated","server_os":"Linux","password":true,"vac":true,"version":"7757534","steam_id":85568392924510198,"keywords":["cp","nocrits","nodmgspread","uncletopia"],"game_id":440,"stv_port":27036,"stv_name":"Uncletopia | Los Angeles | 3 | All Maps | STV","players":null},{"server_id":25,"name":"Uncletopia | Los Angeles | 4 | Stopwatch Beta","name_short":"lax-4","host":"lax-1.us.uncletopia.com","port":27045,"enabled":true,"region":"us-west","cc":"us","latitude":33.94279,"longitude":-118.41004,"reserved":0,"last_update":"0001-01-01T00:00:00Z","name_a2s":"Uncletopia | Los Angeles | 4 | Stopwatch Beta","protocol":17,"map":"pl_frontier_final","folder":"tf","game":"Team Fortress","app_id":440,"player_count":0,"max_players":24,"Bots":0,"server_type":"Dedicated","server_os":"Linux","password":true,"vac":true,"version":"7757534","steam_id":85568392924510199,"keywords":["nocrits","nodmgspread","payload","uncletopia"],"game_id":440,"stv_port":27046,"stv_name":"Uncletopia | Los Angeles | 4 | Stopwatch Beta | STV","players":null},{"server_id":11,"name":"Uncletopia | London | 1 | All Maps","name_short":"lon-1","host":"lon-1.uk.uncletopia.com","port":27015,"enabled":true,"region":"eu","cc":"gb","latitude":51.509865,"longitude":-0.118092,"reserved":0,"last_update":"0001-01-01T00:00:00Z","name_a2s":"Uncletopia | London | 1 | All Maps","protocol":17,"map":"pl_upward","folder":"tf","game":"Team Fortress","app_id":440,"player_count":19,"max_players":24,"Bots":0,"server_type":"Dedicated","server_os":"Linux","password":true,"vac":true,"version":"7757534","steam_id":85568392924367362,"keywords":["nocrits","nodmgspread","payload","uncletopia"],"game_id":440,"stv_port":27016,"stv_name":"Uncletopia | London | 1 | All Maps | STV","players":[{"user_id":243,"name":"BladedBloom4611","steam_id":76561198416655215,"connected_time":4000000000,"state":"spawning","ping":41},{"user_id":223,"name":"Solymr ibn Wali Barad","steam_id":76561198044008976,"connected_time":1910000000000,"state":"active","ping":81},{"user_id":166,"name":"Nexosert","steam_id":76561198941142018,"connected_time":5894000000000,"state":"active","ping":77},{"user_id":206,"name":"Lessoz","steam_id":76561199211572036,"connected_time":2779000000000,"state":"active","ping":92},{"user_id":242,"name":"Marioalexsan","steam_id":76561198125512367,"connected_time":152000000000,"state":"connecting","ping":120},{"user_id":184,"name":"Femboy Destroyer","steam_id":76561198848650365,"connected_time":4141000000000,"state":"active","ping":108},{"user_id":204,"name":"Zombi3","steam_id":76561198326290621,"connected_time":2784000000000,"state":"active","ping":69},{"user_id":231,"name":"Smiles","steam_id":76561198107197973,"connected_time":1142000000000,"state":"spawning","ping":154},{"user_id":214,"name":"Space","steam_id":76561198021572167,"connected_time":2656000000000,"state":"active","ping":44},{"user_id":215,"name":"near dt, mi","steam_id":76561198163244605,"connected_time":2634000000000,"state":"spawning","ping":65},{"user_id":228,"name":"on1on (pickled)","steam_id":76561197995304137,"connected_time":1253000000000,"state":"active","ping":67},{"user_id":216,"name":"Gimli","steam_id":76561198004149706,"connected_time":2631000000000,"state":"active","ping":63},{"user_id":238,"name":"tea for two","steam_id":76561198116990158,"connected_time":719000000000,"state":"active","ping":78},{"user_id":239,"name":"Fus in Boots","steam_id":76561198053897722,"connected_time":507000000000,"state":"spawning","ping":30},{"user_id":224,"name":"tm","steam_id":76561198256619964,"connected_time":1896000000000,"state":"active","ping":149},{"user_id":229,"name":"sex havin'","steam_id":76561198169857427,"connected_time":1252000000000,"state":"active","ping":75},{"user_id":219,"name":"Wuffington","steam_id":76561198033762881,"connected_time":2453000000000,"state":"active","ping":59},{"user_id":211,"name":"Birdseye","steam_id":76561198025852216,"connected_time":2736000000000,"state":"active","ping":60},{"user_id":212,"name":"chris p. bacon","steam_id":76561198023211417,"connected_time":2726000000000,"state":"active","ping":49}]},{"server_id":114,"name":"Uncletopia | London | 2 | All Maps","name_short":"lon-2","host":"lon-1.uk.uncletopia.com","port":27025,"enabled":true,"region":"eu","cc":"gb","latitude":51.509865,"longitude":-0.118092,"reserved":0,"last_update":"0001-01-01T00:00:00Z","name_a2s":"Uncletopia | London | 2 | All Maps","protocol":17,"map":"pl_badwater","folder":"tf","game":"Team Fortress","app_id":440,"player_count":24,"max_players":24,"Bots":0,"server_type":"Dedicated","server_os":"Linux","password":true,"vac":true,"version":"7757534","steam_id":85568392924470941,"keywords":["nocrits","nodmgspread","payload","uncletopia"],"game_id":440,"stv_port":27026,"stv_name":"Uncletopia | London | 2 | All Maps | STV","players":[{"user_id":43,"name":"Gnarville","steam_id":76561198006373329,"connected_time":395000000000,"state":"active","ping":45},{"user_id":44,"name":"redditsexdefender","steam_id":76561198255904077,"connected_time":362000000000,"state":"active","ping":73},{"user_id":15,"name":"Dwevy","steam_id":76561198090379437,"connected_time":1248000000000,"state":"active","ping":55},{"user_id":16,"name":"JohnnyRakieta","steam_id":76561198855789287,"connected_time":1212000000000,"state":"active","ping":69},{"user_id":17,"name":"Dr. Cox","steam_id":76561198246629218,"connected_time":1167000000000,"state":"active","ping":89},{"user_id":18,"name":"TJ","steam_id":76561198118844384,"connected_time":1143000000000,"state":"active","ping":66},{"user_id":19,"name":"moser23","steam_id":76561197960543171,"connected_time":1087000000000,"state":"active","ping":61},{"user_id":42,"name":"Equinox","steam_id":76561199055592635,"connected_time":447000000000,"state":"active","ping":61},{"user_id":31,"name":"ali.","steam_id":76561198148359093,"connected_time":740000000000,"state":"active","ping":32},{"user_id":22,"name":"Pepsi Dealer","steam_id":76561199114664274,"connected_time":888000000000,"state":"active","ping":57},{"user_id":28,"name":"DrExplosive","steam_id":76561198063678579,"connected_time":808000000000,"state":"active","ping":55},{"user_id":24,"name":"Wardruna96","steam_id":76561199057083828,"connected_time":853000000000,"state":"active","ping":82},{"user_id":45,"name":"lettuce at 58p","steam_id":76561199401283123,"connected_time":254000000000,"state":"active","ping":81},{"user_id":26,"name":"ᗜ˰ᗜ","steam_id":76561198148074472,"connected_time":824000000000,"state":"active","ping":53},{"user_id":27,"name":"kill","steam_id":76561198147277460,"connected_time":824000000000,"state":"active","ping":60},{"user_id":29,"name":"silenk","steam_id":76561198367689055,"connected_time":801000000000,"state":"active","ping":80},{"user_id":46,"name":"Jon Snuh","steam_id":76561198075298635,"connected_time":132000000000,"state":"active","ping":134},{"user_id":48,"name":"MuZe","steam_id":76561198096212604,"connected_time":39000000000,"state":"active","ping":148},{"user_id":33,"name":"d u k k i","steam_id":76561198071807437,"connected_time":658000000000,"state":"active","ping":92},{"user_id":35,"name":"i hate the lil bro meme","steam_id":76561198047359132,"connected_time":587000000000,"state":"active","ping":74},{"user_id":36,"name":"✯ｲのム| Slut","steam_id":76561198251821462,"connected_time":584000000000,"state":"active","ping":74},{"user_id":38,"name":"psychotic friends network","steam_id":76561199160343323,"connected_time":573000000000,"state":"active","ping":100},{"user_id":41,"name":"FotoKot","steam_id":76561198440620461,"connected_time":539000000000,"state":"active","ping":133},{"user_id":40,"name":"OurCommunist","steam_id":76561198810972185,"connected_time":554000000000,"state":"active","ping":68}]},{"server_id":320,"name":"Uncletopia | London | 3 | All Maps","name_short":"lon-3","host":"lon-1.uk.uncletopia.com","port":27035,"enabled":true,"region":"eu","cc":"gb","latitude":51.509865,"longitude":-0.118092,"reserved":0,"last_update":"0001-01-01T00:00:00Z","name_a2s":"Uncletopia | London | 3 | All Maps","protocol":17,"map":"pl_badwater","folder":"tf","game":"Team Fortress","app_id":440,"player_count":24,"max_players":24,"Bots":0,"server_type":"Dedicated","server_os":"Linux","password":true,"vac":true,"version":"7757534","steam_id":85568392924510192,"keywords":["nocrits","nodmgspread","payload","uncletopia"],"game_id":440,"stv_port":27036,"stv_name":"Uncletopia | London | 3 | All Maps | STV","players":[{"user_id":648,"name":"KassuK","steam_id":76561199148205635,"connected_time":2002000000000,"state":"active","ping":120},{"user_id":678,"name":"☞LaZe☜","steam_id":76561198202191400,"connected_time":201000000000,"state":"active","ping":48},{"user_id":677,"name":"PGAndy","steam_id":76561199218070297,"connected_time":287000000000,"state":"active","ping":98},{"user_id":668,"name":"Kodutah","steam_id":76561198203405574,"connected_time":1123000000000,"state":"active","ping":74},{"user_id":653,"name":"maKU","steam_id":76561198073943958,"connected_time":1734000000000,"state":"active","ping":61},{"user_id":679,"name":"MEDiUM","steam_id":76561198112328561,"connected_time":198000000000,"state":"active","ping":85},{"user_id":614,"name":"Gumit","steam_id":76561198208126512,"connected_time":3567000000000,"state":"active","ping":124},{"user_id":604,"name":"Rowan Atkinson","steam_id":76561199378865926,"connected_time":4102000000000,"state":"active","ping":92},{"user_id":673,"name":"Miiukade","steam_id":76561198089157860,"connected_time":447000000000,"state":"active","ping":120},{"user_id":676,"name":"Ecton","steam_id":76561198025103720,"connected_time":294000000000,"state":"active","ping":55},{"user_id":617,"name":"dark souls 2 is the worst game","steam_id":76561198055389492,"connected_time":3528000000000,"state":"active","ping":41},{"user_id":620,"name":"Pastoss","steam_id":76561198379098260,"connected_time":3422000000000,"state":"active","ping":65},{"user_id":666,"name":"KFC Enjoyer","steam_id":76561198840259819,"connected_time":1203000000000,"state":"active","ping":60},{"user_id":667,"name":"Bat in a thousand","steam_id":76561198320506848,"connected_time":1195000000000,"state":"active","ping":41},{"user_id":643,"name":"Miloš","steam_id":76561198129684105,"connected_time":2432000000000,"state":"active","ping":72},{"user_id":680,"name":"Flex","steam_id":76561197970482191,"connected_time":8000000000,"state":"active","ping":102},{"user_id":622,"name":"It's a me Malario","steam_id":76561198176546013,"connected_time":3391000000000,"state":"active","ping":51},{"user_id":640,"name":"yush","steam_id":76561198121688934,"connected_time":2747000000000,"state":"active","ping":74},{"user_id":657,"name":"...","steam_id":76561198969234594,"connected_time":1601000000000,"state":"active","ping":73},{"user_id":664,"name":"Kaek","steam_id":76561197960283484,"connected_time":1243000000000,"state":"active","ping":74},{"user_id":530,"name":"ThatGamingKiwi","steam_id":76561199170522237,"connected_time":6666000000000,"state":"active","ping":145},{"user_id":662,"name":"Alpaca","steam_id":76561198071132354,"connected_time":1358000000000,"state":"active","ping":102},{"user_id":658,"name":"Guru","steam_id":76561198093853069,"connected_time":1600000000000,"state":"active","ping":59},{"user_id":672,"name":"20BB Raxor","steam_id":76561198239927434,"connected_time":617000000000,"state":"active","ping":79}]},{"server_id":321,"name":"Uncletopia | London | 4 | All Maps","name_short":"lon-4","host":"lon-1.uk.uncletopia.com","port":27045,"enabled":true,"region":"eu","cc":"gb","latitude":51.509865,"longitude":-0.118092,"reserved":0,"last_update":"0001-01-01T00:00:00Z","name_a2s":"Uncletopia | London | 4 | All Maps","protocol":17,"map":"pl_badwater","folder":"tf","game":"Team Fortress","app_id":440,"player_count":12,"max_players":24,"Bots":0,"server_type":"Dedicated","server_os":"Linux","password":true,"vac":true,"version":"7757534","steam_id":85568392924510193,"keywords":["nocrits","nodmgspread","payload","uncletopia"],"game_id":440,"stv_port":27046,"stv_name":"Uncletopia | London | 4 | All Maps | STV","players":[{"user_id":314,"name":"Not Steven -ƒ$-","steam_id":76561198051881261,"connected_time":450000000000,"state":"active","ping":30},{"user_id":318,"name":"After8","steam_id":76561198090750865,"connected_time":348000000000,"state":"active","ping":74},{"user_id":321,"name":"Khoreo","steam_id":76561198208096339,"connected_time":193000000000,"state":"spawning","ping":45},{"user_id":322,"name":"Денис Базука","steam_id":76561198835849082,"connected_time":167000000000,"state":"active","ping":89},{"user_id":327,"name":"shed theory","steam_id":76561198308279567,"connected_time":21000000000,"state":"active","ping":46},{"user_id":311,"name":"Mr Xbow","steam_id":76561198862864460,"connected_time":930000000000,"state":"active","ping":54},{"user_id":323,"name":"Pablo Marcello","steam_id":76561198991830437,"connected_time":123000000000,"state":"active","ping":86},{"user_id":325,"name":"akakez","steam_id":76561198095432821,"connected_time":100000000000,"state":"active","ping":112},{"user_id":287,"name":"dotdotdot","steam_id":76561198057628751,"connected_time":2282000000000,"state":"active","ping":60},{"user_id":324,"name":"JENNY","steam_id":76561198072302273,"connected_time":111000000000,"state":"active","ping":45},{"user_id":326,"name":"NothingMan","steam_id":76561198051284446,"connected_time":81000000000,"state":"active","ping":260},{"user_id":292,"name":"day","steam_id":76561198260265302,"connected_time":2199000000000,"state":"active","ping":45}]},{"server_id":21,"name":"Uncletopia | London | 5 | All Maps","name_short":"lon-5","host":"lon-1.uk.uncletopia.com","port":27055,"enabled":true,"region":"eu","cc":"gb","latitude":51.509865,"longitude":-0.118092,"reserved":0,"last_update":"0001-01-01T00:00:00Z","name_a2s":"Uncletopia | London | 5 | All Maps","protocol":17,"map":"cp_process_final","folder":"tf","game":"Team Fortress","app_id":440,"player_count":24,"max_players":24,"Bots":0,"server_type":"Dedicated","server_os":"Linux","password":true,"vac":true,"version":"7757534","steam_id":85568392924742829,"keywords":["cp","nocrits","nodmgspread","uncletopia"],"game_id":440,"stv_port":27056,"stv_name":"Uncletopia | London | 5 | All Maps | STV","players":[{"user_id":53,"name":"mouse","steam_id":76561198349648942,"connected_time":291000000000,"state":"active","ping":75},{"user_id":44,"name":"Napole","steam_id":76561198267530436,"connected_time":1064000000000,"state":"active","ping":101},{"user_id":46,"name":"e36 1.8","steam_id":76561198134203031,"connected_time":693000000000,"state":"active","ping":70},{"user_id":47,"name":"KAYDAN","steam_id":76561198817674900,"connected_time":687000000000,"state":"active","ping":82},{"user_id":43,"name":"TerraformerBeing","steam_id":76561198281011934,"connected_time":1193000000000,"state":"active","ping":90},{"user_id":51,"name":"⋆ Efficiency V","steam_id":76561199058375538,"connected_time":367000000000,"state":"active","ping":86},{"user_id":52,"name":"SausageRoll","steam_id":76561197994072622,"connected_time":313000000000,"state":"active","ping":45},{"user_id":19,"name":"snooper main","steam_id":76561199073802389,"connected_time":1635000000000,"state":"active","ping":92},{"user_id":54,"name":"Lag","steam_id":76561198159360376,"connected_time":259000000000,"state":"active","ping":52},{"user_id":55,"name":"Mazata","steam_id":76561198104303163,"connected_time":233000000000,"state":"active","ping":55},{"user_id":57,"name":"Pootis","steam_id":76561198823265247,"connected_time":115000000000,"state":"active","ping":84},{"user_id":24,"name":"Aalmampf","steam_id":76561198088658246,"connected_time":1552000000000,"state":"active","ping":73},{"user_id":58,"name":"1couver","steam_id":76561198168553215,"connected_time":34000000000,"state":"active","ping":106},{"user_id":29,"name":"Penis Contortionist","steam_id":76561198073663784,"connected_time":1516000000000,"state":"active","ping":41},{"user_id":38,"name":"Godspeed, little doodle","steam_id":76561198022777612,"connected_time":1337000000000,"state":"active","ping":85},{"user_id":28,"name":"luckiee","steam_id":76561198062926958,"connected_time":1535000000000,"state":"active","ping":31},{"user_id":30,"name":"CurlyPaty - [YouTube]","steam_id":76561198125025171,"connected_time":1507000000000,"state":"active","ping":77},{"user_id":31,"name":"ＴrendyＬemon","steam_id":76561198158957324,"connected_time":1505000000000,"state":"active","ping":54},{"user_id":49,"name":"kotamine","steam_id":76561198068907991,"connected_time":459000000000,"state":"active","ping":75},{"user_id":37,"name":"Dunxle","steam_id":76561198236630276,"connected_time":1392000000000,"state":"active","ping":42},{"user_id":39,"name":"Outcast_","steam_id":76561199122744740,"connected_time":1328000000000,"state":"active","ping":140},{"user_id":40,"name":"Elfie","steam_id":76561198206802255,"connected_time":1306000000000,"state":"active","ping":80},{"user_id":41,"name":"perch","steam_id":76561198214849363,"connected_time":1305000000000,"state":"active","ping":90},{"user_id":42,"name":"ヌベール (Nubert)","steam_id":76561199121806567,"connected_time":1287000000000,"state":"active","ping":44}]},{"server_id":22,"name":"Uncletopia | London | 6 | All Maps","name_short":"lon-6","host":"lon-1.uk.uncletopia.com","port":27065,"enabled":true,"region":"eu","cc":"gb","latitude":51.509865,"longitude":-0.118092,"reserved":0,"last_update":"0001-01-01T00:00:00Z","name_a2s":"Uncletopia | London | 6 | All Maps","protocol":17,"map":"cp_sunshine","folder":"tf","game":"Team Fortress","app_id":440,"player_count":23,"max_players":24,"Bots":0,"server_type":"Dedicated","server_os":"Linux","password":true,"vac":true,"version":"7757534","steam_id":85568392924742830,"keywords":["cp","nocrits","nodmgspread","uncletopia"],"game_id":440,"stv_port":27066,"stv_name":"Uncletopia | London | 6 | All Maps | STV","players":[{"user_id":215,"name":"rondald mcdondal","steam_id":76561198101451654,"connected_time":1053000000000,"state":"active","ping":44},{"user_id":185,"name":"Nickbro101","steam_id":76561198044271692,"connected_time":3162000000000,"state":"active","ping":50},{"user_id":208,"name":"CYBERPSYCHOSIS","steam_id":76561198121260981,"connected_time":1727000000000,"state":"active","ping":44},{"user_id":218,"name":"És muita maricas","steam_id":76561198043515389,"connected_time":980000000000,"state":"active","ping":74},{"user_id":189,"name":"Jeans Plus","steam_id":76561198052125103,"connected_time":2291000000000,"state":"active","ping":55},{"user_id":226,"name":"Le Pepp","steam_id":76561198042427803,"connected_time":205000000000,"state":"active","ping":51},{"user_id":139,"name":"Nick","steam_id":76561198036109469,"connected_time":4738000000000,"state":"active","ping":103},{"user_id":227,"name":"i1234sd","steam_id":76561199384836164,"connected_time":46000000000,"state":"active","ping":196},{"user_id":211,"name":"the package","steam_id":76561198049312442,"connected_time":1268000000000,"state":"active","ping":52},{"user_id":212,"name":"wytchboy","steam_id":76561198342787966,"connected_time":1132000000000,"state":"active","ping":52},{"user_id":220,"name":"GamingCarp","steam_id":76561198285235511,"connected_time":923000000000,"state":"active","ping":48},{"user_id":182,"name":"Arturias","steam_id":76561198188720263,"connected_time":3314000000000,"state":"active","ping":49},{"user_id":216,"name":".:/]GOON[\\:. mardy bum","steam_id":76561198117247903,"connected_time":1032000000000,"state":"active","ping":45},{"user_id":195,"name":"DiscoTraveler","steam_id":76561199240168088,"connected_time":2143000000000,"state":"active","ping":121},{"user_id":228,"name":"Ze","steam_id":76561198314901652,"connected_time":24000000000,"state":"active","ping":103},{"user_id":222,"name":"Teo","steam_id":76561198030853412,"connected_time":659000000000,"state":"active","ping":60},{"user_id":225,"name":"New","steam_id":76561198402195911,"connected_time":303000000000,"state":"active","ping":117},{"user_id":219,"name":"Deva Path","steam_id":76561198085763542,"connected_time":979000000000,"state":"active","ping":85},{"user_id":164,"name":"gibb (official)","steam_id":76561198074097655,"connected_time":3972000000000,"state":"active","ping":41},{"user_id":201,"name":"Brynjolf","steam_id":76561198531978435,"connected_time":1979000000000,"state":"active","ping":66},{"user_id":206,"name":"Bromoneto","steam_id":76561198876695014,"connected_time":1813000000000,"state":"active","ping":78},{"user_id":221,"name":"grip reaper","steam_id":76561198066631833,"connected_time":908000000000,"state":"active","ping":86},{"user_id":210,"name":"wcyd","steam_id":76561198103660553,"connected_time":1528000000000,"state":"active","ping":95}]},{"server_id":40,"name":"Uncletopia | London | 7 | No Payload","name_short":"lon-7","host":"lon-1.uk.uncletopia.com","port":27075,"enabled":true,"region":"eu","cc":"gb","latitude":51.509865,"longitude":-0.118092,"reserved":0,"last_update":"0001-01-01T00:00:00Z","name_a2s":"Uncletopia | London | 7 | No Payload","protocol":17,"map":"koth_king","folder":"tf","game":"Team Fortress","app_id":440,"player_count":0,"max_players":24,"Bots":0,"server_type":"Dedicated","server_os":"Linux","password":true,"vac":true,"version":"7757534","steam_id":85568392924964314,"keywords":["cp","nocrits","nodmgspread","uncletopia"],"game_id":440,"stv_port":27076,"stv_name":"Uncletopia | London | 7 | No Payload | STV","players":null},{"server_id":41,"name":"Uncletopia | London | 8 | Community","name_short":"lon-8","host":"lon-1.uk.uncletopia.com","port":27085,"enabled":true,"region":"eu","cc":"gb","latitude":51.509865,"longitude":-0.118092,"reserved":0,"last_update":"0001-01-01T00:00:00Z","name_a2s":"Uncletopia | London | 8 | Community","protocol":17,"map":"workshop/koth_kemptown_rc1.ugc767410655","folder":"tf","game":"Team Fortress","app_id":440,"player_count":0,"max_players":24,"Bots":0,"server_type":"Dedicated","server_os":"Linux","password":true,"vac":true,"version":"7757534","steam_id":85568392924964315,"keywords":["cp","nocrits","nodmgspread","uncletopia"],"game_id":440,"stv_port":27086,"stv_name":"Uncletopia | London | 8 | Community | STV","players":null},{"server_id":300,"name":"Uncletopia | Montréal | 1 | All Maps","name_short":"mtl-1","host":"mtl-1.ca.uncletopia.com","port":27015,"enabled":true,"region":"us-east","cc":"ca","latitude":45.50889,"longitude":-73.56167,"reserved":0,"last_update":"0001-01-01T00:00:00Z","name_a2s":"Uncletopia | Montréal | 1 | All Maps","protocol":17,"map":"pl_snowycoast","folder":"tf","game":"Team Fortress","app_id":440,"player_count":0,"max_players":24,"Bots":0,"server_type":"Dedicated","server_os":"Linux","password":true,"vac":true,"version":"7757534","steam_id":85568392924500087,"keywords":["nocrits","nodmgspread","payload","uncletopia"],"game_id":440,"stv_port":27016,"stv_name":"Uncletopia | Montréal | 1 | All Maps | STV","players":null},{"server_id":301,"name":"Uncletopia | Montréal | 2 | All Maps","name_short":"mtl-2","host":"mtl-1.ca.uncletopia.com","port":27025,"enabled":true,"region":"us-east","cc":"ca","latitude":45.50889,"longitude":-73.56167,"reserved":0,"last_update":"0001-01-01T00:00:00Z","name_a2s":"Uncletopia | Montréal | 2 | All Maps","protocol":17,"map":"pl_snowycoast","folder":"tf","game":"Team Fortress","app_id":440,"player_count":0,"max_players":24,"Bots":0,"server_type":"Dedicated","server_os":"Linux","password":true,"vac":true,"version":"7757534","steam_id":85568392924500088,"keywords":["nocrits","nodmgspread","payload","uncletopia"],"game_id":440,"stv_port":27026,"stv_name":"Uncletopia | Montréal | 2 | All Maps | STV","players":null},{"server_id":302,"name":"Uncletopia | Montréal | 3 | All Maps","name_short":"mtl-3","host":"mtl-1.ca.uncletopia.com","port":27035,"enabled":true,"region":"us-east","cc":"ca","latitude":45.50889,"longitude":-73.56167,"reserved":0,"last_update":"0001-01-01T00:00:00Z","name_a2s":"Uncletopia | Montréal | 3 | All Maps","protocol":17,"map":"cp_dustbowl","folder":"tf","game":"Team Fortress","app_id":440,"player_count":0,"max_players":24,"Bots":0,"server_type":"Dedicated","server_os":"Linux","password":true,"vac":true,"version":"7757534","steam_id":85568392924500089,"keywords":["cp","nocrits","nodmgspread","uncletopia"],"game_id":440,"stv_port":27036,"stv_name":"Uncletopia | Montréal | 3 | All Maps | STV","players":null},{"server_id":303,"name":"Uncletopia | Montréal | 4 | No Payload","name_short":"mtl-4","host":"mtl-1.ca.uncletopia.com","port":27045,"enabled":true,"region":"us-east","cc":"ca","latitude":45.50889,"longitude":-73.56167,"reserved":0,"last_update":"0001-01-01T00:00:00Z","name_a2s":"Uncletopia | Montréal | 4 | No Payload","protocol":17,"map":"pl_borneo","folder":"tf","game":"Team Fortress","app_id":440,"player_count":0,"max_players":24,"Bots":0,"server_type":"Dedicated","server_os":"Linux","password":true,"vac":true,"version":"7757534","steam_id":85568392924500090,"keywords":["nocrits","nodmgspread","payload","uncletopia"],"game_id":440,"stv_port":27046,"stv_name":"Uncletopia | Montréal | 4 | No Payload | STV","players":null},{"server_id":13,"name":"Uncletopia | New York City | 1 | All Maps","name_short":"nyc-1","host":"nyc-1.us.uncletopia.com","port":27015,"enabled":true,"region":"us-east","cc":"us","latitude":40.73061,"longitude":-73.93524,"reserved":0,"last_update":"0001-01-01T00:00:00Z","name_a2s":"Uncletopia | New York City | 1 | All Maps","protocol":17,"map":"koth_highpass","folder":"tf","game":"Team Fortress","app_id":440,"player_count":0,"max_players":24,"Bots":0,"server_type":"Dedicated","server_os":"Linux","password":true,"vac":true,"version":"7757534","steam_id":85568392924469993,"keywords":["cp","nocrits","nodmgspread","uncletopia"],"game_id":440,"stv_port":27016,"stv_name":"Uncletopia | New York City | 1 | All Maps | STV","players":null},{"server_id":14,"name":"Uncletopia | New York City | 2 | All Maps","name_short":"nyc-2","host":"nyc-1.us.uncletopia.com","port":27025,"enabled":true,"region":"us-east","cc":"us","latitude":40.73061,"longitude":-73.93524,"reserved":0,"last_update":"0001-01-01T00:00:00Z","name_a2s":"Uncletopia | New York City | 2 | All Maps","protocol":17,"map":"pl_badwater","folder":"tf","game":"Team Fortress","app_id":440,"player_count":24,"max_players":24,"Bots":0,"server_type":"Dedicated","server_os":"Linux","password":true,"vac":true,"version":"7757534","steam_id":85568392924469994,"keywords":["nocrits","nodmgspread","payload","uncletopia"],"game_id":440,"stv_port":27026,"stv_name":"Uncletopia | New York City | 2 | All Maps | STV","players":[{"user_id":105,"name":"Mara Roo","steam_id":76561198279341789,"connected_time":1493000000000,"state":"active","ping":66},{"user_id":87,"name":"puppyonline_","steam_id":76561198253574099,"connected_time":2872000000000,"state":"active","ping":72},{"user_id":79,"name":"breesey","steam_id":76561198341658826,"connected_time":3164000000000,"state":"active","ping":42},{"user_id":123,"name":"Funkey","steam_id":76561199473817418,"connected_time":114000000000,"state":"active","ping":128},{"user_id":98,"name":"robin teen titan","steam_id":76561198311704368,"connected_time":2018000000000,"state":"active","ping":61},{"user_id":111,"name":"[❤] Lena ♥","steam_id":76561198973084169,"connected_time":1233000000000,"state":"active","ping":171},{"user_id":118,"name":"Grand Piano Tuna","steam_id":76561198135137213,"connected_time":969000000000,"state":"active","ping":99},{"user_id":33,"name":"The Lelda of Zelda","steam_id":76561199120483390,"connected_time":7030000000000,"state":"active","ping":99},{"user_id":121,"name":"CeigeBirb","steam_id":76561198068538473,"connected_time":152000000000,"state":"active","ping":92},{"user_id":109,"name":"tree","steam_id":76561198116885731,"connected_time":1258000000000,"state":"active","ping":81},{"user_id":124,"name":"heimdall","steam_id":76561198069380992,"connected_time":109000000000,"state":"active","ping":93},{"user_id":70,"name":"Candy Sparkles","steam_id":76561198126871264,"connected_time":4632000000000,"state":"active","ping":76},{"user_id":119,"name":"Bee","steam_id":76561198074681324,"connected_time":785000000000,"state":"active","ping":45},{"user_id":57,"name":"tony fantano 2","steam_id":76561197997139225,"connected_time":5253000000000,"state":"active","ping":47},{"user_id":95,"name":"Viokik","steam_id":76561198408846602,"connected_time":2359000000000,"state":"active","ping":55},{"user_id":122,"name":"Whirblewind","steam_id":76561197964722449,"connected_time":152000000000,"state":"active","ping":87},{"user_id":94,"name":"hot pockets in your area","steam_id":76561198052988988,"connected_time":2382000000000,"state":"active","ping":60},{"user_id":85,"name":"magotago","steam_id":76561198013650292,"connected_time":2884000000000,"state":"active","ping":103},{"user_id":54,"name":"Humble Leader","steam_id":76561198169966346,"connected_time":5409000000000,"state":"active","ping":63},{"user_id":125,"name":"D3kuSkrub","steam_id":76561198028308369,"connected_time":96000000000,"state":"active","ping":104},{"user_id":120,"name":"magotagojago","steam_id":76561198329996885,"connected_time":524000000000,"state":"active","ping":45},{"user_id":113,"name":"mago","steam_id":76561198880309324,"connected_time":1152000000000,"state":"active","ping":46},{"user_id":117,"name":"Pluto","steam_id":76561198012630802,"connected_time":1059000000000,"state":"active","ping":121},{"user_id":101,"name":"Davy Jones","steam_id":76561198956823243,"connected_time":1732000000000,"state":"active","ping":61}]},{"server_id":15,"name":"Uncletopia | New York City | 3 | Stopwatch Beta","name_short":"nyc-3","host":"nyc-1.us.uncletopia.com","port":27035,"enabled":true,"region":"us-east","cc":"us","latitude":40.73061,"longitude":-73.93524,"reserved":0,"last_update":"0001-01-01T00:00:00Z","name_a2s":"Uncletopia | New York City | 3 | Stopwatch Beta","protocol":17,"map":"cp_snakewater_final1","folder":"tf","game":"Team Fortress","app_id":440,"player_count":0,"max_players":24,"Bots":0,"server_type":"Dedicated","server_os":"Linux","password":true,"vac":true,"version":"7757534","steam_id":85568392924742820,"keywords":["cp","nocrits","nodmgspread","uncletopia"],"game_id":440,"stv_port":27036,"stv_name":"Uncletopia | New York City | 3 | Stopwatch Beta | STV","players":null},{"server_id":16,"name":"Uncletopia | New York City | 4 | Community","name_short":"nyc-4","host":"nyc-1.us.uncletopia.com","port":27045,"enabled":true,"region":"us-east","cc":"us","latitude":40.73061,"longitude":-73.93524,"reserved":0,"last_update":"0001-01-01T00:00:00Z","name_a2s":"Uncletopia | New York City | 4 | Community","protocol":17,"map":"workshop/cp_mannbase_rc2a.ugc1900737467","folder":"tf","game":"Team Fortress","app_id":440,"player_count":0,"max_players":24,"Bots":0,"server_type":"Dedicated","server_os":"Linux","password":true,"vac":true,"version":"7757534","steam_id":85568392924742821,"keywords":["cp","nocrits","nodmgspread","uncletopia"],"game_id":440,"stv_port":27046,"stv_name":"Uncletopia | New York City | 4 | Community | STV","players":null},{"server_id":142,"name":"Uncletopia | São Paulo | 1 | All Maps","name_short":"sao-1","host":"sao-1.br.uncletopia.com","port":27015,"enabled":true,"region":"sa","cc":"br","latitude":-23.533773,"longitude":-46.62529,"reserved":0,"last_update":"0001-01-01T00:00:00Z","name_a2s":"Uncletopia | São Paulo | 1 | All Maps","protocol":17,"map":"koth_cascade","folder":"tf","game":"Team Fortress","app_id":440,"player_count":0,"max_players":24,"Bots":0,"server_type":"Dedicated","server_os":"Linux","password":true,"vac":true,"version":"7757534","steam_id":85568392924469996,"keywords":["cp","nocrits","nodmgspread","uncletopia"],"game_id":440,"stv_port":27016,"stv_name":"Uncletopia | São Paulo | 1 | All Maps | STV","players":null},{"server_id":143,"name":"Uncletopia | São Paulo | 2 | All Maps","name_short":"sao-2","host":"sao-2.br.uncletopia.com","port":27015,"enabled":true,"region":"sa","cc":"br","latitude":-23.533773,"longitude":-46.62529,"reserved":0,"last_update":"0001-01-01T00:00:00Z","name_a2s":"Uncletopia | São Paulo | 2 | All Maps","protocol":17,"map":"koth_viaduct","folder":"tf","game":"Team Fortress","app_id":440,"player_count":0,"max_players":24,"Bots":0,"server_type":"Dedicated","server_os":"Linux","password":true,"vac":true,"version":"7757534","steam_id":85568392924485349,"keywords":["cp","nocrits","nodmgspread","uncletopia"],"game_id":440,"stv_port":27016,"stv_name":"Uncletopia | São Paulo | 2 | All Maps | STV","players":null},{"server_id":7,"name":"Uncletopia | Seattle | 1 | All Maps","name_short":"sea-1","host":"sea-1.us.uncletopia.com","port":27015,"enabled":true,"region":"us-west","cc":"us","latitude":47.608013,"longitude":-122.33517,"reserved":0,"last_update":"0001-01-01T00:00:00Z","name_a2s":"Uncletopia | Seattle | 1 | All Maps","protocol":17,"map":"koth_harvest_final","folder":"tf","game":"Team Fortress","app_id":440,"player_count":24,"max_players":24,"Bots":0,"server_type":"Dedicated","server_os":"Linux","password":true,"vac":true,"version":"7757534","steam_id":85568392924469997,"keywords":["cp","nocrits","nodmgspread","uncletopia"],"game_id":440,"stv_port":27016,"stv_name":"Uncletopia | Seattle | 1 | All Maps | STV","players":[{"user_id":171,"name":"PinHead","steam_id":76561198415627181,"connected_time":138000000000,"state":"spawning","ping":280},{"user_id":88,"name":"shy guy","steam_id":76561198151246059,"connected_time":6819000000000,"state":"active","ping":61},{"user_id":117,"name":"Chin","steam_id":76561198247426906,"connected_time":3708000000000,"state":"active","ping":145},{"user_id":120,"name":"Batso","steam_id":76561198106589452,"connected_time":3425000000000,"state":"active","ping":85},{"user_id":161,"name":"Scott","steam_id":76561198161597056,"connected_time":1211000000000,"state":"active","ping":114},{"user_id":147,"name":"Kit Carson","steam_id":76561198115691546,"connected_time":2262000000000,"state":"active","ping":86},{"user_id":13,"name":"nnobi","steam_id":76561198878729277,"connected_time":10955000000000,"state":"active","ping":124},{"user_id":168,"name":"Slap my nuts","steam_id":76561198097169319,"connected_time":851000000000,"state":"active","ping":88},{"user_id":111,"name":"TheMagicMrWaffle","steam_id":76561198104357256,"connected_time":4112000000000,"state":"active","ping":67},{"user_id":162,"name":"cat fan","steam_id":76561198872316133,"connected_time":1197000000000,"state":"active","ping":62},{"user_id":165,"name":"deskmedic","steam_id":76561198295640486,"connected_time":1080000000000,"state":"active","ping":85},{"user_id":172,"name":"Mom","steam_id":76561198207936000,"connected_time":130000000000,"state":"active","ping":58},{"user_id":126,"name":"my monitor is off","steam_id":76561198074499537,"connected_time":3130000000000,"state":"active","ping":102},{"user_id":144,"name":"chikin.sauce","steam_id":76561198042464635,"connected_time":2464000000000,"state":"active","ping":110},{"user_id":48,"name":"〣dust〣 -she/it-","steam_id":76561198045218909,"connected_time":9221000000000,"state":"active","ping":32},{"user_id":163,"name":"Type Three Dabeetus","steam_id":76561198062710038,"connected_time":1154000000000,"state":"active","ping":86},{"user_id":145,"name":"Kontray","steam_id":76561198294948653,"connected_time":2393000000000,"state":"active","ping":83},{"user_id":170,"name":"JayJayMed320 (She/Her)","steam_id":76561198286568264,"connected_time":171000000000,"state":"active","ping":44},{"user_id":157,"name":"Skabbety","steam_id":76561198168044257,"connected_time":1267000000000,"state":"active","ping":39},{"user_id":95,"name":"Tom","steam_id":76561198070630154,"connected_time":6499000000000,"state":"active","ping":80},{"user_id":156,"name":"Void","steam_id":76561198308290211,"connected_time":1432000000000,"state":"active","ping":92},{"user_id":166,"name":"Brain Tumor","steam_id":76561198805526881,"connected_time":1074000000000,"state":"active","ping":133},{"user_id":169,"name":"Rhymloh","steam_id":76561198056788413,"connected_time":803000000000,"state":"active","ping":55},{"user_id":140,"name":"What are you doing?!","steam_id":76561198405248691,"connected_time":2591000000000,"state":"active","ping":85}]},{"server_id":119,"name":"Uncletopia | Seattle | 2 | All Maps","name_short":"sea-2","host":"sea-1.us.uncletopia.com","port":27025,"enabled":true,"region":"us-west","cc":"us","latitude":47.608013,"longitude":-122.33517,"reserved":0,"last_update":"0001-01-01T00:00:00Z","name_a2s":"Uncletopia | Seattle | 2 | All Maps","protocol":17,"map":"pl_swiftwater_final1","folder":"tf","game":"Team Fortress","app_id":440,"player_count":23,"max_players":24,"Bots":0,"server_type":"Dedicated","server_os":"Linux","password":true,"vac":true,"version":"7757534","steam_id":85568392924469998,"keywords":["nocrits","nodmgspread","payload","uncletopia"],"game_id":440,"stv_port":27026,"stv_name":"Uncletopia | Seattle | 2 | All Maps | STV","players":[{"user_id":253,"name":"Rick Assley","steam_id":76561198365019199,"connected_time":797000000000,"state":"active","ping":119},{"user_id":247,"name":"APOTATO","steam_id":76561198118199858,"connected_time":1407000000000,"state":"active","ping":83},{"user_id":252,"name":"sara, boylady","steam_id":76561198283462369,"connected_time":872000000000,"state":"active","ping":87},{"user_id":200,"name":"Koolaid","steam_id":76561199200296010,"connected_time":5347000000000,"state":"active","ping":139},{"user_id":221,"name":"DoctorHa","steam_id":76561198044026008,"connected_time":3997000000000,"state":"active","ping":91},{"user_id":160,"name":"Lolxdloldx","steam_id":76561198136887125,"connected_time":7184000000000,"state":"active","ping":97},{"user_id":255,"name":"Midden","steam_id":76561198371214232,"connected_time":683000000000,"state":"active","ping":133},{"user_id":256,"name":"Alex Narex","steam_id":76561198814364412,"connected_time":650000000000,"state":"active","ping":73},{"user_id":251,"name":"meat","steam_id":76561198199803242,"connected_time":910000000000,"state":"active","ping":134},{"user_id":257,"name":"DarkForce8","steam_id":76561198853892261,"connected_time":640000000000,"state":"active","ping":91},{"user_id":248,"name":"Pudsla","steam_id":76561198258974036,"connected_time":1394000000000,"state":"active","ping":69},{"user_id":234,"name":"Mr8bittripper","steam_id":76561198133894229,"connected_time":2594000000000,"state":"active","ping":56},{"user_id":150,"name":"Banzai Blitz","steam_id":76561198196503877,"connected_time":7983000000000,"state":"active","ping":52},{"user_id":243,"name":"Wizardfort","steam_id":76561198095320741,"connected_time":1651000000000,"state":"active","ping":121},{"user_id":263,"name":"prestige worldwide (wide)","steam_id":76561198045655893,"connected_time":20000000000,"state":"active","ping":112},{"user_id":258,"name":"Ed Sheeran rapping","steam_id":76561198200485827,"connected_time":594000000000,"state":"active","ping":44},{"user_id":246,"name":"Shark Sandwich","steam_id":76561198025007938,"connected_time":1421000000000,"state":"active","ping":98},{"user_id":259,"name":"Marc G","steam_id":76561198062650363,"connected_time":571000000000,"state":"active","ping":100},{"user_id":249,"name":"M.L.JEW","steam_id":76561198997375055,"connected_time":1385000000000,"state":"active","ping":134},{"user_id":260,"name":"Substitute Teacher Mr. Garvey","steam_id":76561198866629645,"connected_time":557000000000,"state":"active","ping":52},{"user_id":262,"name":"Rex","steam_id":76561198138365053,"connected_time":470000000000,"state":"active","ping":175},{"user_id":199,"name":"Jester™","steam_id":76561198015947999,"connected_time":5365000000000,"state":"active","ping":117},{"user_id":244,"name":"Chrisjongun","steam_id":76561198331685904,"connected_time":1553000000000,"state":"active","ping":89}]},{"server_id":406,"name":"Uncletopia | Seattle | 3 | Stopwatch Beta","name_short":"sea-3","host":"sea-1.us.uncletopia.com","port":27035,"enabled":true,"region":"us-west","cc":"us","latitude":47.608013,"longitude":-122.33517,"reserved":0,"last_update":"0001-01-01T00:00:00Z","name_a2s":"Uncletopia | Seattle | 3 | Stopwatch Beta","protocol":17,"map":"cp_sunshine","folder":"tf","game":"Team Fortress","app_id":440,"player_count":3,"max_players":24,"Bots":0,"server_type":"Dedicated","server_os":"Linux","password":true,"vac":true,"version":"7757534","steam_id":85568392924515217,"keywords":["cp","nocrits","nodmgspread","uncletopia"],"game_id":440,"stv_port":27036,"stv_name":"Uncletopia | Seattle | 3 | Stopwatch Beta | STV","players":[{"user_id":10,"name":"SuperVitu64","steam_id":76561199172174151,"connected_time":1334000000000,"state":"active","ping":246},{"user_id":14,"name":"silly jester","steam_id":76561198079609974,"connected_time":139000000000,"state":"active","ping":84},{"user_id":15,"name":"chivalricnine6","steam_id":76561198848720053,"connected_time":4000000000,"state":"spawning","ping":35}]},{"server_id":17,"name":"Uncletopia | San Francisco | 1 | All Maps","name_short":"sfo-1","host":"sfo-1.us.uncletopia.com","port":27015,"enabled":true,"region":"us-west","cc":"us","latitude":37.77397,"longitude":-122.4313,"reserved":0,"last_update":"0001-01-01T00:00:00Z","name_a2s":"Uncletopia | San Francisco | 1 | All Maps","protocol":17,"map":"cp_process_final","folder":"tf","game":"Team Fortress","app_id":440,"player_count":0,"max_players":24,"Bots":0,"server_type":"Dedicated","server_os":"Linux","password":true,"vac":true,"version":"7757534","steam_id":85568392924469999,"keywords":["cp","nocrits","nodmgspread","uncletopia"],"game_id":440,"stv_port":27016,"stv_name":"Uncletopia | San Francisco | 1 | All Maps | STV","players":null},{"server_id":18,"name":"Uncletopia | San Francisco | 2 | All Maps","name_short":"sfo-2","host":"sfo-1.us.uncletopia.com","port":27025,"enabled":true,"region":"us-west","cc":"us","latitude":37.77397,"longitude":-122.4313,"reserved":0,"last_update":"0001-01-01T00:00:00Z","name_a2s":"Uncletopia | San Francisco | 2 | All Maps","protocol":17,"map":"cp_process_final","folder":"tf","game":"Team Fortress","app_id":440,"player_count":0,"max_players":24,"Bots":0,"server_type":"Dedicated","server_os":"Linux","password":true,"vac":true,"version":"7757534","steam_id":85568392924470000,"keywords":["cp","nocrits","nodmgspread","uncletopia"],"game_id":440,"stv_port":27026,"stv_name":"Uncletopia | San Francisco | 2 | All Maps | STV","players":null},{"server_id":19,"name":"Uncletopia | San Francisco | 3 | Stopwatch Beta","name_short":"sfo-3","host":"sfo-1.us.uncletopia.com","port":27035,"enabled":true,"region":"us-west","cc":"us","latitude":37.77397,"longitude":-122.4313,"reserved":0,"last_update":"0001-01-01T00:00:00Z","name_a2s":"Uncletopia | San Francisco | 3 | Stopwatch Beta","protocol":17,"map":"pl_borneo","folder":"tf","game":"Team Fortress","app_id":440,"player_count":0,"max_players":24,"Bots":0,"server_type":"Dedicated","server_os":"Linux","password":true,"vac":true,"version":"7757534","steam_id":85568392924742824,"keywords":["nocrits","nodmgspread","payload","uncletopia"],"game_id":440,"stv_port":27036,"stv_name":"Uncletopia | San Francisco | 3 | Stopwatch Beta | STV","players":null},{"server_id":20,"name":"Uncletopia | San Francisco | 4 | Community","name_short":"sfo-4","host":"sfo-1.us.uncletopia.com","port":27045,"enabled":true,"region":"us-west","cc":"us","latitude":37.77397,"longitude":-122.4313,"reserved":0,"last_update":"0001-01-01T00:00:00Z","name_a2s":"Uncletopia | San Francisco | 4 | Community","protocol":17,"map":"koth_highpass","folder":"tf","game":"Team Fortress","app_id":440,"player_count":0,"max_players":24,"Bots":0,"server_type":"Dedicated","server_os":"Linux","password":true,"vac":true,"version":"7757534","steam_id":85568392924742826,"keywords":["cp","nocrits","nodmgspread","uncletopia"],"game_id":440,"stv_port":27046,"stv_name":"Uncletopia | San Francisco | 4 | Community | STV","players":null},{"server_id":141,"name":"Uncletopia | Sydney | 1 | All Maps","name_short":"syd-1","host":"syd-1.au.uncletopia.com","port":27015,"enabled":true,"region":"au","cc":"au","latitude":-33.865143,"longitude":151.2099,"reserved":0,"last_update":"0001-01-01T00:00:00Z","name_a2s":"Uncletopia | Sydney | 1 | All Maps","protocol":17,"map":"cp_mountainlab","folder":"tf","game":"Team Fortress","app_id":440,"player_count":0,"max_players":24,"Bots":0,"server_type":"Dedicated","server_os":"Linux","password":true,"vac":true,"version":"7757534","steam_id":85568392924470001,"keywords":["cp","nocrits","nodmgspread","uncletopia"],"game_id":440,"stv_port":27016,"stv_name":"Uncletopia | Sydney | 1 | All Maps | STV","players":null},{"server_id":123,"name":"Uncletopia | Sydney | 2 | All Maps","name_short":"syd-2","host":"syd-1.au.uncletopia.com","port":27025,"enabled":true,"region":"au","cc":"au","latitude":-33.865143,"longitude":151.2099,"reserved":0,"last_update":"0001-01-01T00:00:00Z","name_a2s":"Uncletopia | Sydney | 2 | All Maps","protocol":17,"map":"pl_badwater","folder":"tf","game":"Team Fortress","app_id":440,"player_count":0,"max_players":24,"Bots":0,"server_type":"Dedicated","server_os":"Linux","password":true,"vac":true,"version":"7757534","steam_id":85568392924470002,"keywords":["nocrits","nodmgspread","payload","uncletopia"],"game_id":440,"stv_port":27026,"stv_name":"Uncletopia | Sydney | 2 | All Maps | STV","players":null},{"server_id":395,"name":"Uncletopia | Sydney | 3 | All Maps","name_short":"syd-3","host":"syd-1.au.uncletopia.com","port":27035,"enabled":true,"region":"au","cc":"au","latitude":-33.865143,"longitude":151.2099,"reserved":0,"last_update":"0001-01-01T00:00:00Z","name_a2s":"Uncletopia | Sydney | 3 | All Maps","protocol":17,"map":"pl_pier","folder":"tf","game":"Team Fortress","app_id":440,"player_count":0,"max_players":24,"Bots":0,"server_type":"Dedicated","server_os":"Linux","password":true,"vac":true,"version":"7757534","steam_id":85568392925194467,"keywords":["nocrits","nodmgspread","payload","uncletopia"],"game_id":440,"stv_port":27036,"stv_name":"Uncletopia | Sydney | 3 | All Maps | STV","players":null},{"server_id":396,"name":"Uncletopia | Sydney | 4 | All Maps","name_short":"syd-4","host":"syd-1.au.uncletopia.com","port":27045,"enabled":true,"region":"au","cc":"au","latitude":-33.865143,"longitude":151.2099,"reserved":0,"last_update":"0001-01-01T00:00:00Z","name_a2s":"Uncletopia | Sydney | 4 | All Maps","protocol":17,"map":"koth_cascade","folder":"tf","game":"Team Fortress","app_id":440,"player_count":0,"max_players":24,"Bots":0,"server_type":"Dedicated","server_os":"Linux","password":true,"vac":true,"version":"7757534","steam_id":85568392925397958,"keywords":["cp","nocrits","nodmgspread","uncletopia"],"game_id":440,"stv_port":27046,"stv_name":"Uncletopia | Sydney | 4 | All Maps | STV","players":null},{"server_id":58,"name":"Uncletopia | Sydney | 5 | Stopwatch Beta","name_short":"syd-5","host":"syd-1.au.uncletopia.com","port":27055,"enabled":true,"region":"au","cc":"au","latitude":-33.865143,"longitude":151.2099,"reserved":0,"last_update":"0001-01-01T00:00:00Z","name_a2s":"Uncletopia | Sydney | 5 | Stopwatch Beta","protocol":17,"map":"koth_highpass","folder":"tf","game":"Team Fortress","app_id":440,"player_count":0,"max_players":24,"Bots":0,"server_type":"Dedicated","server_os":"Linux","password":true,"vac":true,"version":"7757534","steam_id":85568392925397959,"keywords":["cp","nocrits","nodmgspread","uncletopia"],"game_id":440,"stv_port":27056,"stv_name":"Uncletopia | Sydney | 5 | Stopwatch Beta | STV","players":null},{"server_id":59,"name":"Uncletopia | Sydney | 6 | Community","name_short":"syd-6","host":"syd-1.au.uncletopia.com","port":27065,"enabled":true,"region":"au","cc":"au","latitude":-33.865143,"longitude":151.2099,"reserved":0,"last_update":"0001-01-01T00:00:00Z","name_a2s":"Uncletopia | Sydney | 6 | Community","protocol":17,"map":"workshop/koth_trenchfoot_b1a.ugc731436616","folder":"tf","game":"Team Fortress","app_id":440,"player_count":0,"max_players":24,"Bots":0,"server_type":"Dedicated","server_os":"Linux","password":true,"vac":true,"version":"7757534","steam_id":85568392925397960,"keywords":["cp","nocrits","nodmgspread","uncletopia"],"game_id":440,"stv_port":27066,"stv_name":"Uncletopia | Sydney | 6 | Community | STV","players":null},{"server_id":49,"name":"Uncletopia | Warsaw | 1 | All Maps","name_short":"waw-1","host":"waw-1.pl.uncletopia.com","port":27015,"enabled":true,"region":"eu","cc":"pl","latitude":52.2297,"longitude":21.017532,"reserved":0,"last_update":"0001-01-01T00:00:00Z","name_a2s":"","protocol":0,"map":"","folder":"","game":"","app_id":0,"player_count":0,"max_players":0,"Bots":0,"server_type":"","server_os":"","password":false,"vac":false,"version":"","steam_id":0,"keywords":null,"game_id":0,"stv_port":0,"stv_name":"","players":null},{"server_id":50,"name":"Uncletopia | Warsaw | 2 | All Maps","name_short":"waw-2","host":"waw-1.pl.uncletopia.com","port":27025,"enabled":true,"region":"eu","cc":"pl","latitude":52.2297,"longitude":21.017532,"reserved":0,"last_update":"0001-01-01T00:00:00Z","name_a2s":"Uncletopia | Warsaw | 2 | All Maps","protocol":17,"map":"cp_mountainlab","folder":"tf","game":"Team Fortress","app_id":440,"player_count":0,"max_players":24,"Bots":0,"server_type":"Dedicated","server_os":"Linux","password":true,"vac":true,"version":"7757534","steam_id":85568392925397851,"keywords":["cp","nocrits","nodmgspread","uncletopia"],"game_id":440,"stv_port":27026,"stv_name":"Uncletopia | Warsaw | 2 | All Maps | STV","players":null},{"server_id":51,"name":"Uncletopia | Warsaw | 3 | All Maps","name_short":"waw-3","host":"waw-1.pl.uncletopia.com","port":27035,"enabled":true,"region":"eu","cc":"pl","latitude":52.2297,"longitude":21.017532,"reserved":0,"last_update":"0001-01-01T00:00:00Z","name_a2s":"Uncletopia | Warsaw | 3 | All Maps","protocol":17,"map":"cp_snakewater_final1","folder":"tf","game":"Team Fortress","app_id":440,"player_count":0,"max_players":24,"Bots":0,"server_type":"Dedicated","server_os":"Linux","password":true,"vac":true,"version":"7757534","steam_id":85568392925397852,"keywords":["cp","nocrits","nodmgspread","uncletopia"],"game_id":440,"stv_port":27036,"stv_name":"Uncletopia | Warsaw | 3 | All Maps | STV","players":null},{"server_id":52,"name":"Uncletopia | Warsaw | 4 | All Maps","name_short":"waw-4","host":"waw-1.pl.uncletopia.com","port":27045,"enabled":true,"region":"eu","cc":"pl","latitude":52.2297,"longitude":21.017532,"reserved":0,"last_update":"0001-01-01T00:00:00Z","name_a2s":"Uncletopia | Warsaw | 4 | All Maps","protocol":17,"map":"pl_borneo","folder":"tf","game":"Team Fortress","app_id":440,"player_count":0,"max_players":24,"Bots":0,"server_type":"Dedicated","server_os":"Linux","password":true,"vac":true,"version":"7757534","steam_id":85568392925397853,"keywords":["nocrits","nodmgspread","payload","uncletopia"],"game_id":440,"stv_port":27046,"stv_name":"Uncletopia | Warsaw | 4 | All Maps | STV","players":null},{"server_id":53,"name":"Uncletopia | Warsaw | 5 | Stopwatch Beta","name_short":"waw-5","host":"waw-1.pl.uncletopia.com","port":27055,"enabled":true,"region":"eu","cc":"pl","latitude":52.2297,"longitude":21.017532,"reserved":0,"last_update":"0001-01-01T00:00:00Z","name_a2s":"Uncletopia | Warsaw | 5 | Stopwatch Beta","protocol":17,"map":"pl_barnblitz","folder":"tf","game":"Team Fortress","app_id":440,"player_count":0,"max_players":24,"Bots":0,"server_type":"Dedicated","server_os":"Linux","password":true,"vac":true,"version":"7757534","steam_id":85568392925397854,"keywords":["nocrits","nodmgspread","payload","uncletopia"],"game_id":440,"stv_port":27056,"stv_name":"Uncletopia | Warsaw | 5 | Stopwatch Beta | STV","players":null},{"server_id":54,"name":"Uncletopia | Warsaw | 6 | Community","name_short":"waw-6","host":"waw-1.pl.uncletopia.com","port":27065,"enabled":true,"region":"eu","cc":"pl","latitude":52.2297,"longitude":21.017532,"reserved":0,"last_update":"0001-01-01T00:00:00Z","name_a2s":"Uncletopia | Warsaw | 6 | Community","protocol":17,"map":"workshop/koth_trenchfoot_b1a.ugc731436616","folder":"tf","game":"Team Fortress","app_id":440,"player_count":0,"max_players":24,"Bots":0,"server_type":"Dedicated","server_os":"Linux","password":true,"vac":true,"version":"7757534","steam_id":85568392925397856,"keywords":["cp","nocrits","nodmgspread","uncletopia"],"game_id":440,"stv_port":27066,"stv_name":"Uncletopia | Warsaw | 6 | Community | STV","players":null}]}