{"status":true,"message":"","result":[{"server_id":9,"name":"Uncletopia | Atlanta | 1 | All Maps","name_short":"atl-1","host":"atl-1.us.uncletopia.com","port":27015,"enabled":true,"region":"us-east","cc":"us","latitude":33.753746,"longitude":-84.38633,"reserved":0,"last_update":"0001-01-01T00:00:00Z","name_a2s":"Uncletopia | Atlanta | 1 | All Maps","protocol":17,"map":"pl_borneo","folder":"tf","game":"Team Fortress","app_id":440,"player_count":24,"max_players":24,"Bots":0,"server_type":"Dedicated","server_os":"Linux","password":true,"vac":true,"version":"7757534","steam_id":85568392924469982,"keywords":["nocrits","nodmgspread","payload","uncletopia"],"game_id":440,"stv_port":27016,"stv_name":"Uncletopia | Atlanta | 1 | All Maps | STV","players":[{"user_id":541,"name":"nomad","steam_id":76561197998740399,"connected_time":1270000000000,"state":"active","ping":69},{"user_id":530,"name":"Mage","steam_id":76561198285026879,"connected_time":2329000000000,"state":"active","ping":78},{"user_id":550,"name":"Dr.Zarann","steam_id":76561198163952958,"connected_time":780000000000,"state":"active","ping":62},{"user_id":332,"name":"eish","steam_id":76561198089463603,"connected_time":18647000000000,"state":"active","ping":122},{"user_id":531,"name":"ATL1 | BeastRyder","steam_id":76561198330281584,"connected_time":2124000000000,"state":"active","ping":81},{"user_id":547,"name":"stink","steam_id":76561198099318923,"connected_time":986000000000,"state":"active","ping":75},{"user_id":527,"name":"ATL1 | Vee (very cool)","steam_id":76561198330432889,"connected_time":2376000000000,"state":"active","ping":69},{"user_id":552,"name":"ATL1 | Avo","steam_id":76561197993340494,"connected_time":766000000000,"state":"active","ping":61},{"user_id":581,"name":"SparkStorm","steam_id":76561198095817025,"connected_time":30000000000,"state":"active","ping":39},{"user_id":518,"name":"dj funnybone","steam_id":76561199384195720,"connected_time":3046000000000,"state":"active","ping":72},{"user_id":487,"name":"The sad vanilla","steam_id":76561198268621447,"connected_time":5006000000000,"state":"active","ping":89},{"user_id":554,"name":"Oddball","steam_id":76561198040440984,"connected_time":752000000000,"state":"active","ping":94},{"user_id":543,"name":"Albino Jellyfish","steam_id":76561198208561097,"connected_time":1266000000000,"state":"active","ping":67},{"user_id":517,"name":"noided","steam_id":76561198353924837,"connected_time":3238000000000,"state":"active","ping":88},{"user_id":485,"name":"Intro Bonito","steam_id":76561198119478838,"connected_time":5100000000000,"state":"active","ping":56},{"user_id":577,"name":"cheetaz","steam_id":76561198224614084,"connected_time":216000000000,"state":"active","ping":65},{"user_id":529,"name":"fortnite.jimmy.2014","steam_id":76561199177672325,"connected_time":2372000000000,"state":"active","ping":39},{"user_id":558,"name":"Bookmark","steam_id":76561198210918443,"connected_time":735000000000,"state":"active","ping":104},{"user_id":560,"name":"✯Agent Æ120✯","steam_id":76561198202370363,"connected_time":677000000000,"state":"active","ping":66},{"user_id":491,"name":"TheFryingDutchman","steam_id":76561199193784099,"connected_time":4911000000000,"state":"active","ping":84},{"user_id":494,"name":"morphine","steam_id":76561198072124799,"connected_time":4715000000000,"state":"active","ping":99},{"user_id":570,"name":"I'm stoned","steam_id":76561199068785538,"connected_time":518000000000,"state":"active","ping":54},{"user_id":520,"name":"Cereal","steam_id":76561198045889032,"connected_time":2660000000000,"state":"active","ping":108},{"user_id":489,"name":"sansa musa","steam_id":76561198163723555,"connected_time":4992000000000,"state":"active","ping":80}]},{"server_id":104,"name":"Uncletopia | Atlanta | 2 | All Maps","name_short":"atl-2","host":"atl-1.us.uncletopia.com","port":27025,"enabled":true,"region":"us-east","cc":"us","latitude":33.753746,"longitude":-84.38633,"reserved":0,"last_update":"0001-01-01T00:00:00Z","name_a2s":"Uncletopia | Atlanta | 2 | All Maps","protocol":17,"map":"pl_barnblitz","folder":"tf","game":"Team Fortress","app_id":440,"player_count":24,"max_players":24,"Bots":0,"server_type":"Dedicated","server_os":"Linux","password":true,"vac":true,"version":"7757534","steam_id":85568392924469983,"keywords":["nocrits","nodmgspread","payload","uncletopia"],"game_id":440,"stv_port":27026,"stv_name":"Uncletopia | Atlanta | 2 | All Maps | STV","players":[{"user_id":383,"name":"OrangeShoes","steam_id":76561197971249940,"connected_time":267000000000,"state":"active","ping":89},{"user_id":387,"name":"Minlit","steam_id":76561198205832799,"connected_time":214000000000,"state":"active","ping":75},{"user_id":381,"name":"Azure","steam_id":76561198140198644,"connected_time":299000000000,"state":"active","ping":75},{"user_id":335,"name":"qjkxkcd","steam_id":76561198035922283,"connected_time":3771000000000,"state":"active","ping":69},{"user_id":384,"name":"1 poo poo pantaloons fan","steam_id":76561198050278145,"connected_time":262000000000,"state":"active","ping":122},{"user_id":379,"name":"sxl","steam_id":76561198150627999,"connected_time":529000000000,"state":"active","ping":82},{"user_id":388,"name":"Dimi","steam_id":76561198042666366,"connected_time":129000000000,"state":"active","ping":111},{"user_id":327,"name":"Deterrent","steam_id":76561198256763734,"connected_time":4446000000000,"state":"active","ping":45},{"user_id":363,"name":"suicide in fragments","steam_id":76561198071430182,"connected_time":1615000000000,"state":"active","ping":75},{"user_id":346,"name":"GAMBU","steam_id":76561198320866421,"connected_time":3373000000000,"state":"active","ping":49},{"user_id":385,"name":"silly little feller","steam_id":76561198041975003,"connected_time":249000000000,"state":"active","ping":62},{"user_id":349,"name":"Ghandi","steam_id":76561198046702733,"connected_time":2843000000000,"state":"active","ping":75},{"user_id":377,"name":"big ol' buford","steam_id":76561198290675957,"connected_time":785000000000,"state":"active","ping":60},{"user_id":375,"name":"scarecrow (evil)","steam_id":76561198082979347,"connected_time":1131000000000,"state":"active","ping":74},{"user_id":374,"name":"oat milf","steam_id":76561198805266653,"connected_time":1174000000000,"state":"active","ping":78},{"user_id":332,"name":"eman","steam_id":76561198204395721,"connected_time":4153000000000,"state":"active","ping":107},{"user_id":341,"name":"please god help me","steam_id":76561198150803812,"connected_time":3630000000000,"state":"active","ping":112},{"user_id":353,"name":"SuperNovaFox","steam_id":76561198052172564,"connected_time":2564000000000,"state":"active","ping":76},{"user_id":389,"name":"Patisserie","steam_id":76561198239169752,"connected_time":115000000000,"state":"active","ping":63},{"user_id":345,"name":"can you hear it","steam_id":76561198379808804,"connected_time":3451000000000,"state":"active","ping":107},{"user_id":342,"name":"uh-oh!","steam_id":76561198300349976,"connected_time":3626000000000,"state":"active","ping":95},{"user_id":369,"name":"Pascal","steam_id":76561198902657591,"connected_time":1211000000000,"state":"active","ping":50},{"user_id":311,"name":"brock","steam_id":76561199015537819,"connected_time":5805000000000,"state":"active","ping":56},{"user_id":365,"name":"iluvtoust","steam_id":76561198869269207,"connected_time":1605000000000,"state":"active","ping":61}]},{"server_id":400,"name":"Uncletopia | Atlanta | 3 | Community","name_short":"atl-3","host":"atl-1.us.uncletopia.com","port":27035,"enabled":true,"region":"us-east","cc":"us","latitude":33.753746,"longitude":-84.38633,"reserved":0,"last_update":"0001-01-01T00:00:00Z","name_a2s":"Uncletopia | Atlanta | 3 | Community","protocol":17,"map":"workshop/pl_cashworks_final1.ugc2904065412","folder":"tf","game":"Team Fortress","app_id":440,"player_count":24,"max_players":24,"Bots":0,"server_type":"Dedicated","server_os":"Linux","password":true,"vac":true,"version":"7757534","steam_id":85568392924515187,"keywords":["nocrits","nodmgspread","payload","uncletopia"],"game_id":440,"stv_port":27036,"stv_name":"Uncletopia | Atlanta | 3 | Community | STV","players":[{"user_id":71,"name":"DeckofDragons","steam_id":76561198057398213,"connected_time":5766000000000,"state":"active","ping":90},{"user_id":72,"name":"The Ghost of Jay Leno","steam_id":76561198058938897,"connected_time":5726000000000,"state":"active","ping":76},{"user_id":146,"name":"Kzjytsugn","steam_id":76561198130241974,"connected_time":155000000000,"state":"active","ping":105},{"user_id":94,"name":"carrion goat","steam_id":76561198262064871,"connected_time":3968000000000,"state":"active","ping":59},{"user_id":24,"name":"Dask","steam_id":76561198043385839,"connected_time":7294000000000,"state":"active","ping":73},{"user_id":127,"name":"noahjwarner09","steam_id":76561199444479988,"connected_time":1434000000000,"state":"active","ping":80},{"user_id":120,"name":"silly jester","steam_id":76561198079609974,"connected_time":2079000000000,"state":"active","ping":119},{"user_id":137,"name":"Iman..?","steam_id":76561198063677510,"connected_time":689000000000,"state":"active","ping":74},{"user_id":123,"name":"Rotation","steam_id":76561198865324866,"connected_time":1762000000000,"state":"active","ping":174},{"user_id":126,"name":"Lost CS player","steam_id":76561198892387723,"connected_time":1476000000000,"state":"active","ping":74},{"user_id":134,"name":"viper","steam_id":76561198839942937,"connected_time":773000000000,"state":"active","ping":91},{"user_id":118,"name":"Ramalho","steam_id":76561198909009076,"connected_time":2135000000000,"state":"active","ping":183},{"user_id":147,"name":"presumably dead arm","steam_id":76561198072179483,"connected_time":153000000000,"state":"active","ping":103},{"user_id":111,"name":"bryyte","steam_id":76561198012377833,"connected_time":2619000000000,"state":"active","ping":68},{"user_id":104,"name":"nft airshotter","steam_id":76561198158137522,"connected_time":3505000000000,"state":"active","ping":41},{"user_id":105,"name":"Sexual Butt","steam_id":76561198102241399,"connected_time":3447000000000,"state":"active","ping":79},{"user_id":138,"name":"hill of the king","steam_id":76561198099491925,"connected_time":684000000000,"state":"active","ping":61},{"user_id":142,"name":"Bitchmurderer3000","steam_id":76561199013470960,"connected_time":443000000000,"state":"active","ping":87},{"user_id":139,"name":"★ dane","steam_id":76561198354081121,"connected_time":617000000000,"state":"active","ping":77},{"user_id":109,"name":"Yoru","steam_id":76561198119698950,"connected_time":2935000000000,"state":"active","ping":124},{"user_id":119,"name":"KentYardAssociate","steam_id":76561198290499758,"connected_time":2132000000000,"state":"active","ping":97},{"user_id":145,"name":"john trevolta","steam_id":76561197998867160,"connected_time":222000000000,"state":"active","ping":85},{"user_id":132,"name":"bigbubbar","steam_id":76561198068654532,"connected_time":898000000000,"state":"active","ping":116},{"user_id":115,"name":"Yubber","steam_id":76561199005095270,"connected_time":2356000000000,"state":"active","ping":87}]},{"server_id":401,"name":"Uncletopia | Atlanta | 4 | No Payload","name_short":"atl-4","host":"atl-1.us.uncletopia.com","port":27045,"enabled":true,"region":"us-east","cc":"us","latitude":33.753746,"longitude":-84.38633,"reserved":0,"last_update":"0001-01-01T00:00:00Z","name_a2s":"","protocol":0,"map":"","folder":"","game":"","app_id":0,"player_count":0,"max_players":0,"Bots":0,"server_type":"","server_os":"","password":false,"vac":false,"version":"","steam_id":0,"keywords":null,"game_id":0,"stv_port":0,"stv_name":"","players":null},{"server_id":2,"name":"Uncletopia | Chicago | 1 | All Maps","name_short":"chi-1","host":"chi-1.us.uncletopia.com","port":27015,"enabled":true,"region":"us-central","cc":"us","latitude":41.881832,"longitude":-87.62318,"reserved":0,"last_update":"0001-01-01T00:00:00Z","name_a2s":"Uncletopia | Chicago | 1 | All Maps","protocol":17,"map":"pl_badwater","folder":"tf","game":"Team Fortress","app_id":440,"player_count":24,"max_players":24,"Bots":0,"server_type":"Dedicated","server_os":"Linux","password":true,"vac":true,"version":"7757534","steam_id":85568392924469984,"keywords":["nocrits","nodmgspread","payload","uncletopia"],"game_id":440,"stv_port":27016,"stv_name":"Uncletopia | Chicago | 1 | All Maps | STV","players":[{"user_id":517,"name":"he_who_grills","steam_id":76561198039626676,"connected_time":4332000000000,"state":"active","ping":59},{"user_id":556,"name":"authentic garfield bong","steam_id":76561198067104539,"connected_time":428000000000,"state":"active","ping":60},{"user_id":496,"name":"FrumpyGoldsmith","steam_id":76561199036534127,"connected_time":5569000000000,"state":"active","ping":71},{"user_id":523,"name":"AYAYA!!!","steam_id":76561198992102180,"connected_time":3776000000000,"state":"active","ping":47},{"user_id":551,"name":"Zilla","steam_id":76561199019851193,"connected_time":509000000000,"state":"active","ping":60},{"user_id":558,"name":"Swifgz","steam_id":76561198162875756,"connected_time":214000000000,"state":"active","ping":59},{"user_id":546,"name":"Quark","steam_id":76561198328155605,"connected_time":1014000000000,"state":"active","ping":51},{"user_id":540,"name":"THICCBEEF GRANDPA","steam_id":76561197993550572,"connected_time":1566000000000,"state":"active","ping":73},{"user_id":542,"name":"slep.py","steam_id":76561197988287144,"connected_time":1524000000000,"state":"active","ping":49},{"user_id":554,"name":"Ras","steam_id":76561198123546775,"connected_time":471000000000,"state":"active","ping":62},{"user_id":498,"name":"ArcanianArcher","steam_id":76561198088445076,"connected_time":5264000000000,"state":"active","ping":70},{"user_id":550,"name":"beta central","steam_id":76561198301876831,"connected_time":747000000000,"state":"active","ping":60},{"user_id":530,"name":"Adam (Cursed Confetti Creature)","steam_id":76561198317690197,"connected_time":2141000000000,"state":"active","ping":46},{"user_id":501,"name":"blob","steam_id":76561198122375328,"connected_time":4569000000000,"state":"active","ping":57},{"user_id":552,"name":"Project_Counter","steam_id":76561198152786076,"connected_time":483000000000,"state":"active","ping":77},{"user_id":526,"name":"remote_tenor","steam_id":76561198102941724,"connected_time":3570000000000,"state":"active","ping":81},{"user_id":503,"name":"David De Bergerac","steam_id":76561198010306294,"connected_time":4564000000000,"state":"active","ping":86},{"user_id":557,"name":"Keirb","steam_id":76561198027031567,"connected_time":423000000000,"state":"active","ping":115},{"user_id":495,"name":"xXBigWingmanFanXx","steam_id":76561198067904392,"connected_time":6084000000000,"state":"active","ping":68},{"user_id":484,"name":"Astoriae!","steam_id":76561199090168858,"connected_time":7092000000000,"state":"active","ping":81},{"user_id":535,"name":"hej","steam_id":76561197996366940,"connected_time":2116000000000,"state":"active","ping":60},{"user_id":555,"name":"Swshbcklr","steam_id":76561197969421355,"connected_time":471000000000,"state":"active","ping":56},{"user_id":486,"name":"Low DROOPing Fruit","steam_id":76561198856700517,"connected_time":6802000000000,"state":"active","ping":73},{"user_id":548,"name":"Astro Knight","steam_id":76561198062767484,"connected_time":822000000000,"state":"active","ping":84}]},{"server_id":106,"name":"Uncletopia | Chicago | 2 | All Maps","name_short":"chi-2","host":"chi-1.us.uncletopia.com","port":27025,"enabled":true,"region":"us-central","cc":"us","latitude":41.881832,"longitude":-87.62318,"reserved":0,"last_update":"0001-01-01T00:00:00Z","name_a2s":"Uncletopia | Chicago | 2 | All Maps","protocol":17,"map":"pl_badwater","folder":"tf","game":"Team Fortress","app_id":440,"player_count":24,"max_players":24,"Bots":0,"server_type":"Dedicated","server_os":"Linux","password":true,"vac":true,"version":"7757534","steam_id":85568392924469985,"keywords":["nocrits","nodmgspread","payload","uncletopia"],"game_id":440,"stv_port":27026,"stv_name":"Uncletopia | Chicago | 2 | All Maps | STV","players":[{"user_id":373,"name":"Peepster","steam_id":76561198297854733,"connected_time":2158000000000,"state":"active","ping":72},{"user_id":363,"name":"bill","steam_id":76561199142779872,"connected_time":3101000000000,"state":"active","ping":61},{"user_id":335,"name":"Hammerhead","steam_id":76561198897122890,"connected_time":4559000000000,"state":"active","ping":57},{"user_id":391,"name":"enmgxcltayiqoacx","steam_id":76561197974965536,"connected_time":1503000000000,"state":"active","ping":59},{"user_id":392,"name":"Pop","steam_id":76561199012562851,"connected_time":1121000000000,"state":"active","ping":85},{"user_id":390,"name":"raidlps","steam_id":76561199208003679,"connected_time":1607000000000,"state":"active","ping":83},{"user_id":386,"name":"Ranger Plague","steam_id":76561198174647666,"connected_time":1863000000000,"state":"active","ping":72},{"user_id":387,"name":"turnip","steam_id":76561197999375941,"connected_time":1770000000000,"state":"active","ping":70},{"user_id":331,"name":"EvilMrPotoo ｡◕‿◕｡","steam_id":76561198012566870,"connected_time":5130000000000,"state":"active","ping":52},{"user_id":380,"name":"Carl7001","steam_id":76561198970538435,"connected_time":1944000000000,"state":"active","ping":45},{"user_id":393,"name":"DarthEthanBoy","steam_id":76561198441643581,"connected_time":560000000000,"state":"active","ping":74},{"user_id":382,"name":"Goober Gaming","steam_id":76561198095550617,"connected_time":1930000000000,"state":"active","ping":58},{"user_id":370,"name":"BatBread","steam_id":76561198047064919,"connected_time":2944000000000,"state":"active","ping":70},{"user_id":383,"name":"orcluvr69","steam_id":76561198068712028,"connected_time":1926000000000,"state":"active","ping":66},{"user_id":374,"name":"Geejohn Fiddlewhopper","steam_id":76561199210164029,"connected_time":2138000000000,"state":"active","ping":55},{"user_id":323,"name":"Dr. Dick","steam_id":76561198138011922,"connected_time":5642000000000,"state":"active","ping":71},{"user_id":376,"name":"Salad gaming (real)","steam_id":76561198298310744,"connected_time":2078000000000,"state":"active","ping":68},{"user_id":332,"name":"bobby peanstalk","steam_id":76561198040495463,"connected_time":5020000000000,"state":"active","ping":60},{"user_id":361,"name":"Warpy","steam_id":76561198055852599,"connected_time":3225000000000,"state":"active","ping":85},{"user_id":330,"name":"Ka Xin Yu","steam_id":76561198057116531,"connected_time":5184000000000,"state":"active","ping":50},{"user_id":385,"name":"Cock McBig Huge","steam_id":76561198400815024,"connected_time":1872000000000,"state":"active","ping":95},{"user_id":353,"name":"Baka!⑨⑨⑨⑨","steam_id":76561198152948254,"connected_time":3371000000000,"state":"active","ping":59},{"user_id":317,"name":"liftin'","steam_id":76561199089515791,"connected_time":5994000000000,"state":"active","ping":107},{"user_id":298,"name":"Sex Enjoyer","steam_id":76561198972105423,"connected_time":7102000000000,"state":"active","ping":73}]},{"server_id":402,"name":"Uncletopia | Chicago | 3 | All Maps","name_short":"chi-3","host":"chi-1.us.uncletopia.com","port":27035,"enabled":true,"region":"us-central","cc":"us","latitude":41.881832,"longitude":-87.62318,"reserved":0,"last_update":"0001-01-01T00:00:00Z","name_a2s":"Uncletopia | Chicago | 3 | All Maps","protocol":17,"map":"pl_barnblitz","folder":"tf","game":"Team Fortress","app_id":440,"player_count":24,"max_players":24,"Bots":0,"server_type":"Dedicated","server_os":"Linux","password":true,"vac":true,"version":"7757534","steam_id":85568392924515191,"keywords":["nocrits","nodmgspread","payload","uncletopia"],"game_id":440,"stv_port":27036,"stv_name":"Uncletopia | Chicago | 3 | All Maps | STV","players":[{"user_id":240,"name":"HUMAN MAN (REAL)","steam_id":76561198033647490,"connected_time":4337000000000,"state":"active","ping":62},{"user_id":307,"name":"steggy","steam_id":76561198000564263,"connected_time":708000000000,"state":"active","ping":75},{"user_id":241,"name":"Warbler","steam_id":76561198132094572,"connected_time":4336000000000,"state":"active","ping":65},{"user_id":300,"name":"!! BRO IS FLABBERGASTED !!","steam_id":76561198135036396,"connected_time":1477000000000,"state":"active","ping":79},{"user_id":302,"name":"Ultimate WWE Loli Super Slam!","steam_id":76561198009950045,"connected_time":1194000000000,"state":"active","ping":70},{"user_id":293,"name":"Model of a Modern Major General","steam_id":76561198237304364,"connected_time":1652000000000,"state":"active","ping":107},{"user_id":305,"name":"moist priest","steam_id":76561198066823778,"connected_time":903000000000,"state":"active","ping":86},{"user_id":299,"name":"Tom Clancy Brown Mr Krabs","steam_id":76561198263004448,"connected_time":1516000000000,"state":"active","ping":82},{"user_id":308,"name":"Motreir","steam_id":76561198151717946,"connected_time":518000000000,"state":"active","ping":84},{"user_id":286,"name":"Bread Baker","steam_id":76561198185335103,"connected_time":2105000000000,"state":"active","ping":54},{"user_id":260,"name":"Drainbow","steam_id":76561198421913648,"connected_time":3767000000000,"state":"active","ping":99},{"user_id":243,"name":"Doc Romie","steam_id":76561198953778878,"connected_time":4317000000000,"state":"active","ping":55},{"user_id":287,"name":"INoob5430","steam_id":76561198251896612,"connected_time":2040000000000,"state":"active","ping":47},{"user_id":294,"name":"Lunar Lepidoptera","steam_id":76561198014593467,"connected_time":1624000000000,"state":"active","ping":59},{"user_id":246,"name":"Joseph Stalin","steam_id":76561198126234142,"connected_time":4296000000000,"state":"active","ping":85},{"user_id":297,"name":"Tyler :D","steam_id":76561198299879257,"connected_time":1574000000000,"state":"active","ping":75},{"user_id":290,"name":"Vapeinhand","steam_id":76561198134439943,"connected_time":1864000000000,"state":"active","ping":66},{"user_id":306,"name":"EZ PZ 23Z","steam_id":76561198037605602,"connected_time":892000000000,"state":"active","ping":61},{"user_id":303,"name":"chinese guy balloon","steam_id":76561198106690989,"connected_time":1190000000000,"state":"active","ping":68},{"user_id":304,"name":"java","steam_id":76561198030276792,"connected_time":914000000000,"state":"active","ping":75},{"user_id":262,"name":"Faraday","steam_id":76561198089928357,"connected_time":3221000000000,"state":"active","ping":76},{"user_id":291,"name":"[ibb™]Shadow20X6-ENGI","steam_id":76561198019292755,"connected_time":1839000000000,"state":"active","ping":105},{"user_id":301,"name":"slasher4713","steam_id":76561199033532858,"connected_time":1352000000000,"state":"active","ping":72},{"user_id":270,"name":"squidDMV","steam_id":76561199481268436,"connected_time":2956000000000,"state":"active","ping":77}]},{"server_id":403,"name":"Uncletopia | Chicago | 4 | All Maps","name_short":"chi-4","host":"chi-1.us.uncletopia.com","port":27045,"enabled":true,"region":"us-central","cc":"us","latitude":41.881832,"longitude":-87.62318,"reserved":0,"last_update":"0001-01-01T00:00:00Z","name_a2s":"Uncletopia | Chicago | 4 | All Maps","protocol":17,"map":"pl_upward","folder":"tf","game":"Team Fortress","app_id":440,"player_count":24,"max_players":24,"Bots":0,"server_type":"Dedicated","server_os":"Linux","password":true,"vac":true,"version":"7757534","steam_id":85568392924515193,"keywords":["nocrits","nodmgspread","payload","uncletopia"],"game_id":440,"stv_port":27046,"stv_name":"Uncletopia | Chicago | 4 | All Maps | STV","players":[{"user_id":246,"name":"TechnoNeko22","steam_id":76561198335866466,"connected_time":935000000000,"state":"active","ping":91},{"user_id":243,"name":"Superman123389","steam_id":76561198267472539,"connected_time":1358000000000,"state":"active","ping":91},{"user_id":169,"name":"Dr. Robotniks Mean Bean Machine","steam_id":76561198047980627,"connected_time":7885000000000,"state":"active","ping":56},{"user_id":247,"name":"Stapler","steam_id":76561198099295077,"connected_time":927000000000,"state":"active","ping":90},{"user_id":215,"name":"Cats in 3D","steam_id":76561198048051416,"connected_time":3905000000000,"state":"active","ping":62},{"user_id":257,"name":"Notation","steam_id":76561198119509319,"connected_time":113000000000,"state":"active","ping":60},{"user_id":244,"name":"Kerpal45","steam_id":76561198153340350,"connected_time":1342000000000,"state":"active","ping":93},{"user_id":171,"name":"bosnianrhapsody","steam_id":76561199000018960,"connected_time":7869000000000,"state":"active","ping":60},{"user_id":248,"name":"Seico Bass","steam_id":76561198123498500,"connected_time":921000000000,"state":"active","ping":87},{"user_id":237,"name":"vanilla gorilla","steam_id":76561197989019617,"connected_time":1848000000000,"state":"active","ping":48},{"user_id":249,"name":"mellowhype","steam_id":76561198040675606,"connected_time":917000000000,"state":"active","ping":71},{"user_id":159,"name":"Acehay14","steam_id":76561198052373291,"connected_time":7981000000000,"state":"active","ping":54},{"user_id":235,"name":"WhiteRabbit","steam_id":76561198027579538,"connected_time":2302000000000,"state":"active","ping":70},{"user_id":250,"name":"Average Kanye Fan (2023)","steam_id":76561198976821898,"connected_time":916000000000,"state":"active","ping":97},{"user_id":142,"name":"Dr.Holiday","steam_id":76561198353465692,"connected_time":10194000000000,"state":"active","ping":75},{"user_id":168,"name":"Digitic","steam_id":76561198080295536,"connected_time":7888000000000,"state":"active","ping":78},{"user_id":245,"name":"J1407B","steam_id":76561199003447981,"connected_time":1072000000000,"state":"active","ping":128},{"user_id":251,"name":"Shalien","steam_id":76561198154432765,"connected_time":911000000000,"state":"active","ping":107},{"user_id":252,"name":"Vintage TV","steam_id":76561198800334545,"connected_time":911000000000,"state":"active","ping":101},{"user_id":187,"name":"DoubleX2000","steam_id":76561198164134387,"connected_time":6934000000000,"state":"active","ping":105},{"user_id":229,"name":"you've been deuced on!","steam_id":76561198236028020,"connected_time":2859000000000,"state":"active","ping":109},{"user_id":256,"name":"SaucySandwichKid","steam_id":76561199372590934,"connected_time":283000000000,"state":"active","ping":76},{"user_id":255,"name":"Pat4laifu","steam_id":76561198133618292,"connected_time":640000000000,"state":"active","ping":61},{"user_id":239,"name":"J_Bug","steam_id":76561198163362175,"connected_time":1846000000000,"state":"active","ping":69}]},{"server_id":36,"name":"Uncletopia | Chicago | 5 | All Maps","name_short":"chi-5","host":"chi-2.us.uncletopia.com","port":27015,"enabled":true,"region":"us-central","cc":"us","latitude":41.881832,"longitude":-87.62318,"reserved":0,"last_update":"0001-01-01T00:00:00Z","name_a2s":"Uncletopia | Chicago | 5 | All Maps","protocol":17,"map":"pl_goldrush","folder":"tf","game":"Team Fortress","app_id":440,"player_count":24,"max_players":24,"Bots":0,"server_type":"Dedicated","server_os":"Linux","password":true,"vac":true,"version":"7757534","steam_id":85568392924866362,"keywords":["nocrits","nodmgspread","payload","uncletopia"],"game_id":440,"stv_port":27016,"stv_name":"Uncletopia | Chicago | 5 | All Maps | STV","players":[{"user_id":507,"name":"ClericsRose (She/Her)","steam_id":76561198011013806,"connected_time":720000000000,"state":"active","ping":74},{"user_id":515,"name":"Glazed","steam_id":76561198043020404,"connected_time":492000000000,"state":"active","ping":92},{"user_id":439,"name":"shadow wizard money gang","steam_id":76561198089421742,"connected_time":4188000000000,"state":"active","ping":120},{"user_id":518,"name":"RedSock","steam_id":76561198161243404,"connected_time":472000000000,"state":"active","ping":45},{"user_id":487,"name":"MADHEAD347","steam_id":76561199475145723,"connected_time":1612000000000,"state":"active","ping":84},{"user_id":520,"name":"AkimboAoki","steam_id":76561198158323058,"connected_time":334000000000,"state":"active","ping":97},{"user_id":488,"name":"i want to fuck you","steam_id":76561198081220016,"connected_time":1585000000000,"state":"active","ping":49},{"user_id":472,"name":"Post Shart Clarity","steam_id":76561198108762862,"connected_time":2761000000000,"state":"active","ping":71},{"user_id":484,"name":"Thewaffleman141","steam_id":76561198083068694,"connected_time":1757000000000,"state":"active","ping":80},{"user_id":514,"name":"Danger Days by MCR","steam_id":76561199107068627,"connected_time":545000000000,"state":"active","ping":51},{"user_id":461,"name":"hottest woman ever","steam_id":76561198040260143,"connected_time":2835000000000,"state":"active","ping":70},{"user_id":462,"name":"[DATS➡] Sugar Meowth","steam_id":76561197995251793,"connected_time":2826000000000,"state":"active","ping":90},{"user_id":508,"name":"One Shot and A Miss","steam_id":76561198124269698,"connected_time":710000000000,"state":"active","ping":64},{"user_id":509,"name":"Crackmire","steam_id":76561199016285746,"connected_time":707000000000,"state":"active","ping":82},{"user_id":490,"name":"88","steam_id":76561198017539604,"connected_time":1569000000000,"state":"active","ping":74},{"user_id":517,"name":"hightower npc","steam_id":76561198097588802,"connected_time":482000000000,"state":"active","ping":54},{"user_id":504,"name":"shannievan","steam_id":76561199229532901,"connected_time":778000000000,"state":"active","ping":78},{"user_id":454,"name":"Musica Universalis","steam_id":76561198184794174,"connected_time":3382000000000,"state":"active","ping":91},{"user_id":519,"name":"GarlicDipp","steam_id":76561198064438763,"connected_time":432000000000,"state":"active","ping":91},{"user_id":483,"name":"cringe_#abandontf2","steam_id":76561199074872253,"connected_time":1812000000000,"state":"active","ping":67},{"user_id":496,"name":"Toasty Gyro","steam_id":76561198001026643,"connected_time":1335000000000,"state":"active","ping":47},{"user_id":513,"name":"^^","steam_id":76561198987579589,"connected_time":551000000000,"state":"active","ping":50},{"user_id":499,"name":"a table","steam_id":76561198158461279,"connected_time":1252000000000,"state":"active","ping":75},{"user_id":521,"name":"Rhutebeer","steam_id":76561198018302761,"connected_time":158000000000,"state":"active","ping":101}]},{"server_id":37,"name":"Uncletopia | Chicago | 6 | All Maps","name_short":"chi-6","host":"chi-2.us.uncletopia.com","port":27025,"enabled":true,"region":"us-central","cc":"us","latitude":41.881832,"longitude":-87.62318,"reserved":0,"last_update":"0001-01-01T00:00:00Z","name_a2s":"Uncletopia | Chicago | 6 | All Maps","protocol":17,"map":"koth_viaduct","folder":"tf","game":"Team Fortress","app_id":440,"player_count":24,"max_players":24,"Bots":0,"server_type":"Dedicated","server_os":"Linux","password":true,"vac":true,"version":"7757534","steam_id":85568392924866363,"keywords":["cp","nocrits","nodmgspread","uncletopia"],"game_id":440,"stv_port":27026,"stv_name":"Uncletopia | Chicago | 6 | All Maps | STV","players":[{"user_id":590,"name":"Hovg9000.TV","steam_id":76561199191556710,"connected_time":4238000000000,"state":"active","ping":82},{"user_id":617,"name":"MrVegasAguitar","steam_id":76561198084466946,"connected_time":2403000000000,"state":"active","ping":94},{"user_id":584,"name":",.oli86u7;p9gmtbhyk,nj[l,l[.;","steam_id":76561198079488962,"connected_time":4828000000000,"state":"active","ping":96},{"user_id":633,"name":"RoFrogle","steam_id":76561199078941377,"connected_time":1468000000000,"state":"active","ping":65},{"user_id":645,"name":"kimwano...","steam_id":76561198354992436,"connected_time":718000000000,"state":"active","ping":83},{"user_id":610,"name":"viaodeegsm","steam_id":76561198025295263,"connected_time":2802000000000,"state":"active","ping":73},{"user_id":636,"name":"Bonk Co.","steam_id":76561198009355408,"connected_time":1041000000000,"state":"active","ping":104},{"user_id":638,"name":"soof","steam_id":76561198043762955,"connected_time":1030000000000,"state":"active","ping":61},{"user_id":626,"name":"FoodzAreGoodz","steam_id":76561198309262052,"connected_time":1936000000000,"state":"active","ping":112},{"user_id":647,"name":"Monkey","steam_id":76561198031015186,"connected_time":662000000000,"state":"active","ping":84},{"user_id":635,"name":"OddSlaush","steam_id":76561198043898488,"connected_time":1049000000000,"state":"active","ping":94},{"user_id":581,"name":"willow","steam_id":76561198068266114,"connected_time":5234000000000,"state":"active","ping":63},{"user_id":641,"name":"Romo","steam_id":76561198243101572,"connected_time":947000000000,"state":"active","ping":82},{"user_id":604,"name":"one man one cheeseburger","steam_id":76561199100342013,"connected_time":3708000000000,"state":"active","ping":95},{"user_id":624,"name":"Mann","steam_id":76561199030987614,"connected_time":1989000000000,"state":"active","ping":81},{"user_id":648,"name":"Tesla2489","steam_id":76561199046020064,"connected_time":602000000000,"state":"active","ping":78},{"user_id":606,"name":"Ghost","steam_id":76561198110914180,"connected_time":2887000000000,"state":"active","ping":178},{"user_id":603,"name":"Nuwrox1","steam_id":76561198406951007,"connected_time":3836000000000,"state":"active","ping":59},{"user_id":564,"name":"Tsukiortu","steam_id":76561198086796109,"connected_time":5816000000000,"state":"active","ping":74},{"user_id":630,"name":"Furious George","steam_id":76561198405111646,"connected_time":1860000000000,"state":"active","ping":101},{"user_id":605,"name":"kyu ^.^","steam_id":76561198126358045,"connected_time":3699000000000,"state":"active","ping":81},{"user_id":649,"name":"Accina","steam_id":76561199185153789,"connected_time":100000000000,"state":"active","ping":88},{"user_id":644,"name":"McGangBang","steam_id":76561198862379865,"connected_time":876000000000,"state":"active","ping":59},{"user_id":596,"name":"Mommy Mishima","steam_id":76561198124311404,"connected_time":4201000000000,"state":"active","ping":79}]},{"server_id":38,"name":"Uncletopia | Chicago | 7 | Stopwatch Beta","name_short":"chi-7","host":"chi-2.us.uncletopia.com","port":27035,"enabled":true,"region":"us-central","cc":"us","latitude":41.881832,"longitude":-87.62318,"reserved":0,"last_update":"0001-01-01T00:00:00Z","name_a2s":"Uncletopia | Chicago | 7 | Stopwatch Beta","protocol":17,"map":"pl_barnblitz","folder":"tf","game":"Team Fortress","app_id":440,"player_count":0,"max_players":24,"Bots":0,"server_type":"Dedicated","server_os":"Linux","password":true,"vac":true,"version":"7757534","steam_id":85568392924866364,"keywords":["nocrits","nodmgspread","payload","uncletopia"],"game_id":440,"stv_port":27036,"stv_name":"Uncletopia | Chicago | 7 | Stopwatch Beta | STV","players":null},{"server_id":39,"name":"Uncletopia | Chicago | 8 | Community","name_short":"chi-8","host":"chi-2.us.uncletopia.com","port":27045,"enabled":true,"region":"us-central","cc":"us","latitude":41.881832,"longitude":-87.62318,"reserved":0,"last_update":"0001-01-01T00:00:00Z","name_a2s":"Uncletopia | Chicago | 8 | Community","protocol":17,"map":"workshop/koth_ramjam_rc1.ugc459778887","folder":"tf","game":"Team Fortress","app_id":440,"player_count":23,"max_players":24,"Bots":0,"server_type":"Dedicated","server_os":"Linux","password":true,"vac":true,"version":"7757534","steam_id":85568392924866365,"keywords":["cp","nocrits","nodmgspread","uncletopia"],"game_id":440,"stv_port":27046,"stv_name":"Uncletopia | Chicago | 8 | Community | STV","players":[{"user_id":106,"name":"RexCreeper456","steam_id":76561199319578396,"connected_time":3249000000000,"state":"active","ping":64},{"user_id":140,"name":"engie","steam_id":76561199229629045,"connected_time":661000000000,"state":"active","ping":104},{"user_id":143,"name":"KaleScrooge","steam_id":76561199229442595,"connected_time":306000000000,"state":"active","ping":141},{"user_id":107,"name":"Sp0ons","steam_id":76561198844817638,"connected_time":3032000000000,"state":"active","ping":96},{"user_id":132,"name":"donkley kong","steam_id":76561199067637033,"connected_time":1106000000000,"state":"active","ping":77},{"user_id":89,"name":"Bread Zoo","steam_id":76561198013732450,"connected_time":4607000000000,"state":"active","ping":52},{"user_id":84,"name":"BrainlezBrainiac","steam_id":76561199193942805,"connected_time":5599000000000,"state":"active","ping":84},{"user_id":126,"name":"Buckethead","steam_id":76561198210181296,"connected_time":1603000000000,"state":"active","ping":128},{"user_id":104,"name":"Ⓑ⓪⓪ⓣⓨⓒⓐⓚⓔⓢ","steam_id":76561198088776421,"connected_time":3381000000000,"state":"active","ping":61},{"user_id":92,"name":"jolo","steam_id":76561198042831480,"connected_time":4404000000000,"state":"active","ping":61},{"user_id":134,"name":"Wario","steam_id":76561198352732164,"connected_time":1061000000000,"state":"active","ping":112},{"user_id":119,"name":"DaggerDouk","steam_id":76561199035811769,"connected_time":2148000000000,"state":"active","ping":80},{"user_id":136,"name":"Doofy","steam_id":76561198417482150,"connected_time":981000000000,"state":"active","ping":81},{"user_id":135,"name":"Mr. Siames","steam_id":76561198400600098,"connected_time":1032000000000,"state":"active","ping":121},{"user_id":133,"name":"JellyBeanBrainz","steam_id":76561198052510482,"connected_time":1102000000000,"state":"active","ping":68},{"user_id":113,"name":"Soup0fTheDay","steam_id":76561199039857744,"connected_time":2387000000000,"state":"active","ping":53},{"user_id":137,"name":"Kaprinae","steam_id":76561199260109617,"connected_time":965000000000,"state":"active","ping":74},{"user_id":144,"name":"Zoot","steam_id":76561198121944243,"connected_time":182000000000,"state":"active","ping":75},{"user_id":83,"name":"caRat","steam_id":76561198859267372,"connected_time":5603000000000,"state":"active","ping":94},{"user_id":141,"name":"james may","steam_id":76561198043857339,"connected_time":498000000000,"state":"active","ping":105},{"user_id":139,"name":"The indomitable human spirit","steam_id":76561198282395338,"connected_time":762000000000,"state":"active","ping":65},{"user_id":127,"name":"Wet Cheeto","steam_id":76561198153855379,"connected_time":1597000000000,"state":"active","ping":60},{"user_id":131,"name":"BigNugs","steam_id":76561198056402610,"connected_time":1343000000000,"state":"active","ping":70}]},{"server_id":8,"name":"Uncletopia | Dallas | 1 | All Maps","name_short":"dal-1","host":"dal-1.us.uncletopia.com","port":27015,"enabled":true,"region":"us-central","cc":"us","latitude":32.779167,"longitude":-96.80889,"reserved":0,"last_update":"0001-01-01T00:00:00Z","name_a2s":"Uncletopia | Dallas | 1 | All Maps","protocol":17,"map":"cp_mountainlab","folder":"tf","game":"Team Fortress","app_id":440,"player_count":24,"max_players":24,"Bots":0,"server_type":"Dedicated","server_os":"Linux","password":true,"vac":true,"version":"7757534","steam_id":85568392924469986,"keywords":["cp","nocrits","nodmgspread","uncletopia"],"game_id":440,"stv_port":27016,"stv_name":"Uncletopia | Dallas | 1 | All Maps | STV","players":[{"user_id":362,"name":"digiorno","steam_id":76561198220073852,"connected_time":901000000000,"state":"active","ping":59},{"user_id":349,"name":"M1lkc84","steam_id":76561199229332245,"connected_time":2835000000000,"state":"active","ping":71},{"user_id":368,"name":"Hawai'i","steam_id":76561198212866289,"connected_time":719000000000,"state":"active","ping":83},{"user_id":361,"name":"Nidus | IFN.GG","steam_id":76561198886277516,"connected_time":1114000000000,"state":"active","ping":60},{"user_id":345,"name":"Mr.Cucumber","steam_id":76561198286197055,"connected_time":2986000000000,"state":"active","ping":63},{"user_id":367,"name":"GON","steam_id":76561198122066914,"connected_time":723000000000,"state":"active","ping":74},{"user_id":304,"name":"Bullwinkle J. Moose","steam_id":76561198075977196,"connected_time":6360000000000,"state":"active","ping":61},{"user_id":376,"name":"Magechaos","steam_id":76561198026852227,"connected_time":354000000000,"state":"active","ping":88},{"user_id":364,"name":"rep","steam_id":76561198070164185,"connected_time":741000000000,"state":"active","ping":62},{"user_id":346,"name":"The Robot Menace","steam_id":76561198043390413,"connected_time":2964000000000,"state":"active","ping":55},{"user_id":365,"name":"grenade gnoblin","steam_id":76561198093329130,"connected_time":738000000000,"state":"active","ping":50},{"user_id":297,"name":"Local Talent","steam_id":76561199053290637,"connected_time":6722000000000,"state":"active","ping":80},{"user_id":330,"name":"Daddy Topps","steam_id":76561198203594332,"connected_time":4434000000000,"state":"active","ping":100},{"user_id":370,"name":"Soice","steam_id":76561199085061387,"connected_time":710000000000,"state":"active","ping":84},{"user_id":366,"name":"Not A Rapper","steam_id":76561198077523537,"connected_time":735000000000,"state":"active","ping":96},{"user_id":359,"name":"Look a Bird","steam_id":76561198016294724,"connected_time":1696000000000,"state":"active","ping":86},{"user_id":363,"name":"OwlOddity","steam_id":76561198389068053,"connected_time":749000000000,"state":"active","ping":55},{"user_id":372,"name":"MeMyBongusAndTheGreatOutdoors","steam_id":76561198097708978,"connected_time":523000000000,"state":"active","ping":53},{"user_id":318,"name":"Big Yoshi","steam_id":76561199160576376,"connected_time":5271000000000,"state":"active","ping":110},{"user_id":343,"name":"「Jimbo Reference」","steam_id":76561198016078541,"connected_time":3384000000000,"state":"active","ping":87},{"user_id":344,"name":"Walmus","steam_id":76561198111416393,"connected_time":3198000000000,"state":"active","ping":75},{"user_id":332,"name":"Nightlygalad","steam_id":76561198170693990,"connected_time":4044000000000,"state":"active","ping":85},{"user_id":348,"name":"Grinski","steam_id":76561198054787727,"connected_time":2868000000000,"state":"active","ping":104},{"user_id":335,"name":"Brown_Dream","steam_id":76561198975766145,"connected_time":3594000000000,"state":"active","ping":81}]},{"server_id":108,"name":"Uncletopia | Dallas | 2 | All Maps","name_short":"dal-2","host":"dal-1.us.uncletopia.com","port":27025,"enabled":true,"region":"us-central","cc":"us","latitude":32.779167,"longitude":-96.80889,"reserved":0,"last_update":"0001-01-01T00:00:00Z","name_a2s":"Uncletopia | Dallas | 2 | All Maps","protocol":17,"map":"pl_upward","folder":"tf","game":"Team Fortress","app_id":440,"player_count":24,"max_players":24,"Bots":0,"server_type":"Dedicated","server_os":"Linux","password":true,"vac":true,"version":"7757534","steam_id":85568392924469988,"keywords":["nocrits","nodmgspread","payload","uncletopia"],"game_id":440,"stv_port":27026,"stv_name":"Uncletopia | Dallas | 2 | All Maps | STV","players":[{"user_id":571,"name":"Jacob Hornberger 2016 dice","steam_id":76561198204549723,"connected_time":2601000000000,"state":"active","ping":133},{"user_id":554,"name":"xZackAttack27x","steam_id":76561198035446639,"connected_time":4044000000000,"state":"active","ping":37},{"user_id":506,"name":"0x01FE","steam_id":76561198838881917,"connected_time":8205000000000,"state":"active","ping":60},{"user_id":590,"name":"Worst Scenario","steam_id":76561199052130229,"connected_time":1545000000000,"state":"active","ping":93},{"user_id":544,"name":"pyco.bot","steam_id":76561199060005960,"connected_time":4763000000000,"state":"active","ping":100},{"user_id":611,"name":"UnkownGamerLOL","steam_id":76561198225902368,"connected_time":50000000000,"state":"active","ping":70},{"user_id":610,"name":"Tom","steam_id":76561198218455220,"connected_time":328000000000,"state":"active","ping":92},{"user_id":597,"name":"Amish Robot","steam_id":76561198041156065,"connected_time":601000000000,"state":"active","ping":67},{"user_id":598,"name":"DrummerDiddles","steam_id":76561198327364451,"connected_time":586000000000,"state":"active","ping":75},{"user_id":605,"name":"lazybones21","steam_id":76561198994854327,"connected_time":458000000000,"state":"active","ping":99},{"user_id":602,"name":"4 life","steam_id":76561198175961598,"connected_time":493000000000,"state":"active","ping":103},{"user_id":595,"name":"Knower","steam_id":76561198036213722,"connected_time":639000000000,"state":"active","ping":75},{"user_id":533,"name":"8th Ward","steam_id":76561198405839882,"connected_time":5692000000000,"state":"active","ping":60},{"user_id":596,"name":"License","steam_id":76561197967501494,"connected_time":632000000000,"state":"active","ping":78},{"user_id":577,"name":"Mr Beast","steam_id":76561198206922368,"connected_time":2518000000000,"state":"active","ping":91},{"user_id":599,"name":"Emperor Dankatine","steam_id":76561198044741086,"connected_time":582000000000,"state":"active","ping":85},{"user_id":553,"name":"HullCracker","steam_id":76561198799705164,"connected_time":4272000000000,"state":"active","ping":112},{"user_id":549,"name":"LCramer","steam_id":76561198175714162,"connected_time":4744000000000,"state":"active","ping":72},{"user_id":608,"name":"Sudo","steam_id":76561198123714026,"connected_time":400000000000,"state":"active","ping":100},{"user_id":609,"name":"Transformouse","steam_id":76561198004669368,"connected_time":373000000000,"state":"active","ping":58},{"user_id":603,"name":"ihave80hp","steam_id":76561199251621911,"connected_time":473000000000,"state":"active","ping":109},{"user_id":579,"name":"Skill Saw Stan","steam_id":76561199013064727,"connected_time":2467000000000,"state":"active","ping":101},{"user_id":550,"name":"Gеяо","steam_id":76561198082463658,"connected_time":4739000000000,"state":"active","ping":110},{"user_id":578,"name":"Francis Cockrel 2016","steam_id":76561198078391538,"connected_time":2513000000000,"state":"active","ping":76}]},{"server_id":5,"name":"Uncletopia | Frankfurt | 1 | All Maps","name_short":"frk-1","host":"frk-1.de.uncletopia.com","port":27015,"enabled":true,"region":"eu","cc":"de","latitude":50.110924,"longitude":8.682127,"reserved":0,"last_update":"0001-01-01T00:00:00Z","name_a2s":"Uncletopia | Frankfurt | 1 | All Maps","protocol":17,"map":"pl_frontier_final","folder":"tf","game":"Team Fortress","app_id":440,"player_count":0,"max_players":24,"Bots":0,"server_type":"Dedicated","server_os":"Linux","password":true,"vac":true,"version":"7757534","steam_id":85568392924469989,"keywords":["nocrits","nodmgspread","payload","uncletopia"],"game_id":440,"stv_port":27016,"stv_name":"Uncletopia | Frankfurt | 1 | All Maps | STV","players":null},{"server_id":110,"name":"Uncletopia | Frankfurt | 2 | All Maps","name_short":"frk-2","host":"frk-1.de.uncletopia.com","port":27025,"enabled":true,"region":"eu","cc":"de","latitude":50.110924,"longitude":8.682127,"reserved":0,"last_update":"0001-01-01T00:00:00Z","name_a2s":"Uncletopia | Frankfurt | 2 | All Maps","protocol":17,"map":"pl_upward","folder":"tf","game":"Team Fortress","app_id":440,"player_count":7,"max_players":24,"Bots":0,"server_type":"Dedicated","server_os":"Linux","password":true,"vac":true,"version":"7757534","steam_id":85568392924469990,"keywords":["nocrits","nodmgspread","payload","uncletopia"],"game_id":440,"stv_port":27026,"stv_name":"Uncletopia | Frankfurt | 2 | All Maps | STV","players":[{"user_id":736,"name":"joyful","steam_id":76561198057631622,"connected_time":364000000000,"state":"active","ping":173},{"user_id":729,"name":"Black Sheep","steam_id":76561198042244701,"connected_time":1383000000000,"state":"active","ping":72},{"user_id":613,"name":"shh... tiny carrots r sleeping","steam_id":76561198069649097,"connected_time":14427000000000,"state":"active","ping":55},{"user_id":726,"name":"PowerKAT [TTV] Emptiness_CTS","steam_id":76561198182129870,"connected_time":1846000000000,"state":"active","ping":78},{"user_id":712,"name":"™⁧⁧乃ȽOOD PRINCΞ","steam_id":76561198137835796,"connected_time":3223000000000,"state":"active","ping":45},{"user_id":682,"name":"Pronton","steam_id":76561198082502910,"connected_time":7763000000000,"state":"active","ping":45},{"user_id":704,"name":"gort","steam_id":76561198060339391,"connected_time":5004000000000,"state":"active","ping":30}]},{"server_id":308,"name":"Uncletopia | Frankfurt | 3 | All Maps","name_short":"frk-3","host":"frk-1.de.uncletopia.com","port":27035,"enabled":true,"region":"eu","cc":"de","latitude":50.110924,"longitude":8.682127,"reserved":0,"last_update":"0001-01-01T00:00:00Z","name_a2s":"Uncletopia | Frankfurt | 3 | All Maps","protocol":17,"map":"pl_snowycoast","folder":"tf","game":"Team Fortress","app_id":440,"player_count":0,"max_players":24,"Bots":0,"server_type":"Dedicated","server_os":"Linux","password":true,"vac":true,"version":"7757534","steam_id":85568392924504274,"keywords":["nocrits","nodmgspread","payload","uncletopia"],"game_id":440,"stv_port":27036,"stv_name":"Uncletopia | Frankfurt | 3 | All Maps | STV","players":null},{"server_id":309,"name":"Uncletopia | Frankfurt | 4 | All Maps","name_short":"frk-4","host":"frk-1.de.uncletopia.com","port":27045,"enabled":true,"region":"eu","cc":"de","latitude":50.110924,"longitude":8.682127,"reserved":0,"last_update":"0001-01-01T00:00:00Z","name_a2s":"Uncletopia | Frankfurt | 4 | All Maps","protocol":17,"map":"cp_altitude","folder":"tf","game":"Team Fortress","app_id":440,"player_count":0,"max_players":24,"Bots":0,"server_type":"Dedicated","server_os":"Linux","password":true,"vac":true,"version":"7757534","steam_id":85568392924504275,"keywords":["cp","nocrits","nodmgspread","uncletopia"],"game_id":440,"stv_port":27046,"stv_name":"Uncletopia | Frankfurt | 4 | All Maps | STV","players":null},{"server_id":310,"name":"Uncletopia | Frankfurt | 5 | All Maps","name_short":"frk-5","host":"frk-1.de.uncletopia.com","port":27055,"enabled":true,"region":"eu","cc":"de","latitude":50.110924,"longitude":8.682127,"reserved":0,"last_update":"0001-01-01T00:00:00Z","name_a2s":"Uncletopia | Frankfurt | 5 | All Maps","protocol":17,"map":"koth_highpass","folder":"tf","game":"Team Fortress","app_id":440,"player_count":0,"max_players":24,"Bots":0,"server_type":"Dedicated","server_os":"Linux","password":true,"vac":true,"version":"7757534","steam_id":85568392924504277,"keywords":["cp","nocrits","nodmgspread","uncletopia"],"game_id":440,"stv_port":27056,"stv_name":"Uncletopia | Frankfurt | 5 | All Maps | STV","players":null},{"server_id":311,"name":"Uncletopia | Frankfurt | 6 | All Maps","name_short":"frk-6","host":"frk-1.de.uncletopia.com","port":27065,"enabled":true,"region":"eu","cc":"de","latitude":50.110924,"longitude":8.682127,"reserved":0,"last_update":"0001-01-01T00:00:00Z","name_a2s":"Uncletopia | Frankfurt | 6 | All Maps","protocol":17,"map":"koth_highpass","folder":"tf","game":"Team Fortress","app_id":440,"player_count":0,"max_players":24,"Bots":0,"server_type":"Dedicated","server_os":"Linux","password":true,"vac":true,"version":"7757534","steam_id":85568392924504278,"keywords":["cp","nocrits","nodmgspread","uncletopia"],"game_id":440,"stv_port":27066,"stv_name":"Uncletopia | Frankfurt | 6 | All Maps | STV","players":null},{"server_id":23,"name":"Uncletopia | Frankfurt | 7 | Stopwatch Beta","name_short":"frk-7","host":"frk-1.de.uncletopia.com","port":27075,"enabled":true,"region":"eu","cc":"de","latitude":50.110924,"longitude":8.682127,"reserved":0,"last_update":"0001-01-01T00:00:00Z","name_a2s":"Uncletopia | Frankfurt | 7 | Stopwatch Beta","protocol":17,"map":"workshop/koth_ramjam_rc1.ugc459778887","folder":"tf","game":"Team Fortress","app_id":440,"player_count":0,"max_players":24,"Bots":0,"server_type":"Dedicated","server_os":"Linux","password":true,"vac":true,"version":"7757534","steam_id":85568392924742827,"keywords":["cp","nocrits","nodmgspread","uncletopia"],"game_id":440,"stv_port":27076,"stv_name":"Uncletopia | Frankfurt | 7 | Stopwatch Beta | STV","players":null},{"server_id":24,"name":"Uncletopia | Frankfurt | 8 | Community","name_short":"frk-8","host":"frk-1.de.uncletopia.com","port":27085,"enabled":true,"region":"eu","cc":"de","latitude":50.110924,"longitude":8.682127,"reserved":0,"last_update":"0001-01-01T00:00:00Z","name_a2s":"Uncletopia | Frankfurt | 8 | Community","protocol":17,"map":"koth_lakeside_final","folder":"tf","game":"Team Fortress","app_id":440,"player_count":0,"max_players":24,"Bots":0,"server_type":"Dedicated","server_os":"Linux","password":true,"vac":true,"version":"7757534","steam_id":85568392924742828,"keywords":["cp","nocrits","nodmgspread","uncletopia"],"game_id":440,"stv_port":27086,"stv_name":"Uncletopia | Frankfurt | 8 | Community | STV","players":null},{"server_id":202,"name":"Uncletopia | Hong Kong | 1 | All Maps","name_short":"hgk-1","host":"hgk-1.hk.uncletopia.com","port":27015,"enabled":true,"region":"asia","cc":"hk","latitude":22.302711,"longitude":114.177216,"reserved":0,"last_update":"0001-01-01T00:00:00Z","name_a2s":"Uncletopia | Hong Kong | 1 | All Maps","protocol":17,"map":"pl_borneo","folder":"tf","game":"Team Fortress","app_id":440,"player_count":23,"max_players":24,"Bots":0,"server_type":"Dedicated","server_os":"Linux","password":true,"vac":true,"version":"7757534","steam_id":85568392924494504,"keywords":["nocrits","nodmgspread","payload","uncletopia"],"game_id":440,"stv_port":27016,"stv_name":"Uncletopia | Hong Kong | 1 | All Maps | STV","players":[{"user_id":72,"name":"doctor morbin' (real)","steam_id":76561199365241695,"connected_time":4053000000000,"state":"active","ping":75},{"user_id":55,"name":"Leroy","steam_id":76561199137927625,"connected_time":5320000000000,"state":"active","ping":93},{"user_id":26,"name":"3wfFbdrjEze5d2G","steam_id":76561198435900451,"connected_time":7896000000000,"state":"active","ping":118},{"user_id":97,"name":"Xx_EpicTrickstabber_xX","steam_id":76561199024960087,"connected_time":1407000000000,"state":"active","ping":76},{"user_id":65,"name":"no vc no c","steam_id":76561197989503095,"connected_time":5025000000000,"state":"active","ping":89},{"user_id":43,"name":"m 1 k o","steam_id":76561198337154745,"connected_time":6264000000000,"state":"active","ping":123},{"user_id":92,"name":"corpse_cadaver","steam_id":76561199225360457,"connected_time":2411000000000,"state":"active","ping":68},{"user_id":90,"name":"screaming sniper","steam_id":76561199085568674,"connected_time":2602000000000,"state":"active","ping":67},{"user_id":49,"name":"soda of melon","steam_id":76561198870774355,"connected_time":5744000000000,"state":"active","ping":119},{"user_id":73,"name":"Samoyed","steam_id":76561198299150410,"connected_time":4013000000000,"state":"active","ping":144},{"user_id":112,"name":"Humungousaur","steam_id":76561199259311360,"connected_time":252000000000,"state":"active","ping":73},{"user_id":104,"name":"DeKratic","steam_id":76561198953035881,"connected_time":837000000000,"state":"active","ping":113},{"user_id":88,"name":"eyes","steam_id":76561198858606228,"connected_time":2780000000000,"state":"active","ping":63},{"user_id":105,"name":"Yand","steam_id":76561198996210435,"connected_time":810000000000,"state":"active","ping":97},{"user_id":106,"name":"\"SKS\"","steam_id":76561198187995386,"connected_time":656000000000,"state":"active","ping":87},{"user_id":71,"name":"Milk❤","steam_id":76561198163911560,"connected_time":4151000000000,"state":"active","ping":125},{"user_id":101,"name":"David Keithson","steam_id":76561199279393636,"connected_time":1106000000000,"state":"active","ping":83},{"user_id":89,"name":"Bird Thongchai","steam_id":76561198131270946,"connected_time":2705000000000,"state":"active","ping":102},{"user_id":109,"name":"Corhix","steam_id":76561198968706355,"connected_time":523000000000,"state":"active","ping":57},{"user_id":107,"name":"Saggle","steam_id":76561198056075147,"connected_time":594000000000,"state":"active","ping":141},{"user_id":110,"name":"Puddin","steam_id":76561198140052918,"connected_time":438000000000,"state":"active","ping":100},{"user_id":64,"name":"Noyour","steam_id":76561198323259830,"connected_time":5144000000000,"state":"active","ping":120},{"user_id":68,"name":"urotsuki with da doobie","steam_id":76561198074339034,"connected_time":4949000000000,"state":"active","ping":76}]},{"server_id":1,"name":"Uncletopia | Los Angeles | 1 | All Maps","name_short":"lax-1","host":"lax-1.us.uncletopia.com","port":27015,"enabled":true,"region":"us-west","cc":"us","latitude":33.94279,"longitude":-118.41004,"reserved":0,"last_update":"0001-01-01T00:00:00Z","name_a2s":"Uncletopia | Los Angeles | 1 | All Maps","protocol":17,"map":"koth_viaduct","folder":"tf","game":"Team Fortress","app_id":440,"player_count":0,"max_players":24,"Bots":0,"server_type":"Dedicated","server_os":"Linux","password":true,"vac":true,"version":"7757534","steam_id":85568392924469991,"keywords":["cp","nocrits","nodmgspread","uncletopia"],"game_id":440,"stv_port":27016,"stv_name":"Uncletopia | Los Angeles | 1 | All Maps | STV","players":null},{"server_id":112,"name":"Uncletopia | Los Angeles | 2 | All Maps","name_short":"lax-2","host":"lax-1.us.uncletopia.com","port":27025,"enabled":true,"region":"us-west","cc":"us","latitude":33.94279,"longitude":-118.41004,"reserved":0,"last_update":"0001-01-01T00:00:00Z","name_a2s":"Uncletopia | Los Angeles | 2 | All Maps","protocol":17,"map":"pl_barnblitz","folder":"tf","game":"Team Fortress","app_id":440,"player_count":24,"max_players":24,"Bots":0,"server_type":"Dedicated","server_os":"Linux","password":true,"vac":true,"version":"7757534","steam_id":85568392924469992,"keywords":["nocrits","nodmgspread","payload","uncletopia"],"game_id":440,"stv_port":27026,"stv_name":"Uncletopia | Los Angeles | 2 | All Maps | STV","players":[{"user_id":349,"name":"[Bandit]","steam_id":76561197986919852,"connected_time":4222000000000,"state":"active","ping":71},{"user_id":383,"name":"GLXy","steam_id":76561198207551544,"connected_time":1050000000000,"state":"active","ping":107},{"user_id":386,"name":"Weakest Dwarf Enjoyer","steam_id":76561197993227472,"connected_time":867000000000,"state":"active","ping":88},{"user_id":387,"name":"Ronnie Pickering!","steam_id":76561198041842118,"connected_time":849000000000,"state":"active","ping":53},{"user_id":373,"name":"SpinnerSpecial","steam_id":76561198065661869,"connected_time":1703000000000,"state":"active","ping":106},{"user_id":376,"name":"Altruisticailuridae","steam_id":76561198335295596,"connected_time":1537000000000,"state":"active","ping":54},{"user_id":310,"name":"精液Blev Blev精液","steam_id":76561198208972565,"connected_time":7770000000000,"state":"active","ping":133},{"user_id":339,"name":"Chalupa Jones","steam_id":76561198335855588,"connected_time":4717000000000,"state":"active","ping":50},{"user_id":384,"name":"Sheev Palpatine","steam_id":76561198252332430,"connected_time":994000000000,"state":"active","ping":78},{"user_id":390,"name":"Xtar","steam_id":76561198301774048,"connected_time":812000000000,"state":"active","ping":89},{"user_id":396,"name":"WaywardFinn","steam_id":76561198040391296,"connected_time":504000000000,"state":"active","ping":119},{"user_id":369,"name":"Poop Train Conductor","steam_id":76561198073677619,"connected_time":1975000000000,"state":"active","ping":78},{"user_id":389,"name":"Dingus","steam_id":76561198121488783,"connected_time":819000000000,"state":"active","ping":54},{"user_id":331,"name":"El Super Monkey Ball","steam_id":76561198135634819,"connected_time":5526000000000,"state":"active","ping":48},{"user_id":391,"name":"Michael Fettuccine","steam_id":76561198056953903,"connected_time":793000000000,"state":"active","ping":51},{"user_id":397,"name":"beblonski","steam_id":76561198067053408,"connected_time":237000000000,"state":"active","ping":50},{"user_id":337,"name":"♥Cat in a Tub♥","steam_id":76561198170443243,"connected_time":4775000000000,"state":"active","ping":59},{"user_id":368,"name":"cicada","steam_id":76561198069190432,"connected_time":2095000000000,"state":"active","ping":108},{"user_id":385,"name":"Jack Horner","steam_id":76561199435609906,"connected_time":946000000000,"state":"active","ping":100},{"user_id":348,"name":"Lemonade Juice","steam_id":76561198402892608,"connected_time":4272000000000,"state":"active","ping":44},{"user_id":393,"name":"MusKle Sandwich","steam_id":76561198088118846,"connected_time":777000000000,"state":"active","ping":56},{"user_id":395,"name":"Idiotden","steam_id":76561199340950135,"connected_time":757000000000,"state":"active","ping":47},{"user_id":298,"name":"A Shiny Meat Bicycle","steam_id":76561198358757709,"connected_time":8692000000000,"state":"active","ping":123},{"user_id":398,"name":"PunyHappyFace","steam_id":76561198118059305,"connected_time":235000000000,"state":"active","ping":47}]},{"server_id":324,"name":"Uncletopia | Los Angeles | 3 | All Maps","name_short":"lax-3","host":"lax-1.us.uncletopia.com","port":27035,"enabled":true,"region":"us-west","cc":"us","latitude":33.94279,"longitude":-118.41004,"reserved":0,"last_update":"0001-01-01T00:00:00Z","name_a2s":"Uncletopia | Los Angeles | 3 | All Maps","protocol":17,"map":"ctf_2fort","folder":"tf","game":"Team Fortress","app_id":440,"player_count":24,"max_players":24,"Bots":0,"server_type":"Dedicated","server_os":"Linux","password":true,"vac":true,"version":"7757534","steam_id":85568392924510198,"keywords":["ctf","nocrits","nodmgspread","uncletopia"],"game_id":440,"stv_port":27036,"stv_name":"Uncletopia | Los Angeles | 3 | All Maps | STV","players":[{"user_id":597,"name":"NaeNaeChungusBozo","steam_id":76561199446407203,"connected_time":498000000000,"state":"active","ping":115},{"user_id":574,"name":"Pez","steam_id":76561199197778137,"connected_time":1622000000000,"state":"active","ping":59},{"user_id":588,"name":"[PINGU™] Tiny Tuna","steam_id":76561198193611579,"connected_time":821000000000,"state":"active","ping":116},{"user_id":598,"name":"mfwjuarez","steam_id":76561198856769712,"connected_time":494000000000,"state":"active","ping":80},{"user_id":599,"name":"Auggy","steam_id":76561198041816037,"connected_time":489000000000,"state":"active","ping":67},{"user_id":600,"name":"Overmeme","steam_id":76561199455124144,"connected_time":459000000000,"state":"active","ping":83},{"user_id":613,"name":"JoySlip","steam_id":76561198269476149,"connected_time":29000000000,"state":"active","ping":45},{"user_id":612,"name":"Bronze Age Furvert","steam_id":76561198859118263,"connected_time":122000000000,"state":"active","ping":120},{"user_id":609,"name":"sudoku_fiend","steam_id":76561198152029104,"connected_time":213000000000,"state":"active","ping":466},{"user_id":606,"name":"dailyspesh","steam_id":76561197988072369,"connected_time":308000000000,"state":"active","ping":115},{"user_id":602,"name":"Cassius Money","steam_id":76561197979696414,"connected_time":378000000000,"state":"active","ping":98},{"user_id":579,"name":"Eden Hazard","steam_id":76561198089241053,"connected_time":1457000000000,"state":"active","ping":96},{"user_id":587,"name":"Dunder Muffin","steam_id":76561198165352188,"connected_time":1040000000000,"state":"active","ping":62},{"user_id":610,"name":"Halibard","steam_id":76561198011239659,"connected_time":205000000000,"state":"active","ping":103},{"user_id":595,"name":"Laxoloni","steam_id":76561199197045700,"connected_time":596000000000,"state":"active","ping":72},{"user_id":586,"name":"Termed1124","steam_id":76561198873995670,"connected_time":1263000000000,"state":"active","ping":57},{"user_id":611,"name":"Juevos","steam_id":76561198066142119,"connected_time":125000000000,"state":"active","ping":65},{"user_id":570,"name":"XxDragon4321xX","steam_id":76561198046705735,"connected_time":2425000000000,"state":"active","ping":70},{"user_id":567,"name":"MBK®Furryy","steam_id":76561198200785531,"connected_time":3083000000000,"state":"active","ping":35},{"user_id":548,"name":"a chicken","steam_id":76561198313121580,"connected_time":4592000000000,"state":"active","ping":44},{"user_id":527,"name":"HAT-WEARING™ Maggot Gamer Cat","steam_id":76561197973992705,"connected_time":5237000000000,"state":"active","ping":69},{"user_id":608,"name":"xxballfondlerxx","steam_id":76561197991546630,"connected_time":259000000000,"state":"active","ping":102},{"user_id":573,"name":"donutdagger","steam_id":76561199203048300,"connected_time":1899000000000,"state":"active","ping":68},{"user_id":584,"name":"Just a Good Friend","steam_id":76561198140052403,"connected_time":1296000000000,"state":"active","ping":48}]},{"server_id":25,"name":"Uncletopia | Los Angeles | 4 | Stopwatch Beta","name_short":"lax-4","host":"lax-1.us.uncletopia.com","port":27045,"enabled":true,"region":"us-west","cc":"us","latitude":33.94279,"longitude":-118.41004,"reserved":0,"last_update":"0001-01-01T00:00:00Z","name_a2s":"Uncletopia | Los Angeles | 4 | Stopwatch Beta","protocol":17,"map":"workshop/koth_ashville_final.ugc2130459942","folder":"tf","game":"Team Fortress","app_id":440,"player_count":1,"max_players":24,"Bots":0,"server_type":"Dedicated","server_os":"Linux","password":true,"vac":true,"version":"7757534","steam_id":85568392924510199,"keywords":["cp","nocrits","nodmgspread","uncletopia"],"game_id":440,"stv_port":27046,"stv_name":"Uncletopia | Los Angeles | 4 | Stopwatch Beta | STV","players":[{"user_id":22,"name":"Thequirka","steam_id":76561198968058652,"connected_time":1177000000000,"state":"active","ping":72}]},{"server_id":11,"name":"Uncletopia | London | 1 | All Maps","name_short":"lon-1","host":"lon-1.uk.uncletopia.com","port":27015,"enabled":true,"region":"eu","cc":"gb","latitude":51.509865,"longitude":-0.118092,"reserved":0,"last_update":"0001-01-01T00:00:00Z","name_a2s":"Uncletopia | London | 1 | All Maps","protocol":17,"map":"koth_viaduct","folder":"tf","game":"Team Fortress","app_id":440,"player_count":23,"max_players":24,"Bots":0,"server_type":"Dedicated","server_os":"Linux","password":true,"vac":true,"version":"7757534","steam_id":85568392924367362,"keywords":["cp","nocrits","nodmgspread","uncletopia"],"game_id":440,"stv_port":27016,"stv_name":"Uncletopia | London | 1 | All Maps | STV","players":[{"user_id":1117,"name":"IceDreamer","steam_id":76561197997569989,"connected_time":3106000000000,"state":"active","ping":44},{"user_id":1099,"name":"DDUUCCKK","steam_id":76561198141953050,"connected_time":4944000000000,"state":"active","ping":57},{"user_id":1159,"name":"Virgil","steam_id":76561198248786778,"connected_time":396000000000,"state":"active","ping":109},{"user_id":1139,"name":"New","steam_id":76561198402195911,"connected_time":1579000000000,"state":"active","ping":113},{"user_id":1130,"name":"scrumpy","steam_id":76561198218787232,"connected_time":2202000000000,"state":"active","ping":39},{"user_id":1143,"name":"Linnet","steam_id":76561198058972930,"connected_time":1187000000000,"state":"active","ping":72},{"user_id":1108,"name":"RobTheKid","steam_id":76561198346638308,"connected_time":3773000000000,"state":"active","ping":54},{"user_id":1131,"name":"spooz","steam_id":76561198100590571,"connected_time":2147000000000,"state":"active","ping":51},{"user_id":1148,"name":"Dapper","steam_id":76561198081694974,"connected_time":1047000000000,"state":"active","ping":44},{"user_id":1163,"name":"Vitamin Weee","steam_id":76561199183937747,"connected_time":150000000000,"state":"active","ping":97},{"user_id":1153,"name":"whisky man","steam_id":76561198047782441,"connected_time":620000000000,"state":"active","ping":49},{"user_id":1146,"name":"Tank","steam_id":76561199059174576,"connected_time":1109000000000,"state":"active","ping":177},{"user_id":1147,"name":"Peep","steam_id":76561198132508552,"connected_time":1091000000000,"state":"active","ping":70},{"user_id":1149,"name":"Kazoo","steam_id":76561198075937521,"connected_time":1045000000000,"state":"active","ping":155},{"user_id":1138,"name":"Clusterfart","steam_id":76561198150242043,"connected_time":1803000000000,"state":"active","ping":155},{"user_id":1152,"name":"Striker","steam_id":76561198100173021,"connected_time":802000000000,"state":"active","ping":62},{"user_id":1154,"name":"Jimmy","steam_id":76561198873412350,"connected_time":615000000000,"state":"active","ping":51},{"user_id":1155,"name":"Will Walters","steam_id":76561198249138216,"connected_time":538000000000,"state":"active","ping":156},{"user_id":1156,"name":"tïger","steam_id":76561198260483157,"connected_time":533000000000,"state":"active","ping":80},{"user_id":1102,"name":"Sheep with a whip","steam_id":76561197981149859,"connected_time":4707000000000,"state":"active","ping":91},{"user_id":1157,"name":"dysesthesia","steam_id":76561198027159018,"connected_time":518000000000,"state":"active","ping":158},{"user_id":1158,"name":"Effie","steam_id":76561198261842068,"connected_time":514000000000,"state":"active","ping":133},{"user_id":1161,"name":"olf","steam_id":76561198095487438,"connected_time":353000000000,"state":"active","ping":85}]},{"server_id":114,"name":"Uncletopia | London | 2 | All Maps","name_short":"lon-2","host":"lon-1.uk.uncletopia.com","port":27025,"enabled":true,"region":"eu","cc":"gb","latitude":51.509865,"longitude":-0.118092,"reserved":0,"last_update":"0001-01-01T00:00:00Z","name_a2s":"Uncletopia | London | 2 | All Maps","protocol":17,"map":"pl_pier","folder":"tf","game":"Team Fortress","app_id":440,"player_count":0,"max_players":24,"Bots":0,"server_type":"Dedicated","server_os":"Linux","password":true,"vac":true,"version":"7757534","steam_id":85568392924470941,"keywords":["nocrits","nodmgspread","payload","uncletopia"],"game_id":440,"stv_port":27026,"stv_name":"Uncletopia | London | 2 | All Maps | STV","players":null},{"server_id":320,"name":"Uncletopia | London | 3 | All Maps","name_short":"lon-3","host":"lon-1.uk.uncletopia.com","port":27035,"enabled":true,"region":"eu","cc":"gb","latitude":51.509865,"longitude":-0.118092,"reserved":0,"last_update":"0001-01-01T00:00:00Z","name_a2s":"Uncletopia | London | 3 | All Maps","protocol":17,"map":"koth_lakeside_final","folder":"tf","game":"Team Fortress","app_id":440,"player_count":0,"max_players":24,"Bots":0,"server_type":"Dedicated","server_os":"Linux","password":true,"vac":true,"version":"7757534","steam_id":85568392924510192,"keywords":["cp","nocrits","nodmgspread","uncletopia"],"game_id":440,"stv_port":27036,"stv_name":"Uncletopia | London | 3 | All Maps | STV","players":null},{"server_id":321,"name":"Uncletopia | London | 4 | All Maps","name_short":"lon-4","host":"lon-1.uk.uncletopia.com","port":27045,"enabled":true,"region":"eu","cc":"gb","latitude":51.509865,"longitude":-0.118092,"reserved":0,"last_update":"0001-01-01T00:00:00Z","name_a2s":"Uncletopia | London | 4 | All Maps","protocol":17,"map":"pl_borneo","folder":"tf","game":"Team Fortress","app_id":440,"player_count":0,"max_players":24,"Bots":0,"server_type":"Dedicated","server_os":"Linux","password":true,"vac":true,"version":"7757534","steam_id":85568392924510193,"keywords":["nocrits","nodmgspread","payload","uncletopia"],"game_id":440,"stv_port":27046,"stv_name":"Uncletopia | London | 4 | All Maps | STV","players":null},{"server_id":21,"name":"Uncletopia | London | 5 | All Maps","name_short":"lon-5","host":"lon-1.uk.uncletopia.com","port":27055,"enabled":true,"region":"eu","cc":"gb","latitude":51.509865,"longitude":-0.118092,"reserved":0,"last_update":"0001-01-01T00:00:00Z","name_a2s":"Uncletopia | London | 5 | All Maps","protocol":17,"map":"koth_viaduct","folder":"tf","game":"Team Fortress","app_id":440,"player_count":0,"max_players":24,"Bots":0,"server_type":"Dedicated","server_os":"Linux","password":true,"vac":true,"version":"7757534","steam_id":85568392924742829,"keywords":["cp","nocrits","nodmgspread","uncletopia"],"game_id":440,"stv_port":27056,"stv_name":"Uncletopia | London | 5 | All Maps | STV","players":null},{"server_id":22,"name":"Uncletopia | London | 6 | All Maps","name_short":"lon-6","host":"lon-1.uk.uncletopia.com","port":27065,"enabled":true,"region":"eu","cc":"gb","latitude":51.509865,"longitude":-0.118092,"reserved":0,"last_update":"0001-01-01T00:00:00Z","name_a2s":"Uncletopia | London | 6 | All Maps","protocol":17,"map":"koth_highpass","folder":"tf","game":"Team Fortress","app_id":440,"player_count":5,"max_players":24,"Bots":0,"server_type":"Dedicated","server_os":"Linux","password":true,"vac":true,"version":"7757534","steam_id":85568392924742830,"keywords":["cp","nocrits","nodmgspread","uncletopia"],"game_id":440,"stv_port":27066,"stv_name":"Uncletopia | London | 6 | All Maps | STV","players":[{"user_id":511,"name":"mimikyufan21","steam_id":76561199074381585,"connected_time":100000000000,"state":"active","ping":199},{"user_id":471,"name":"i forgor","steam_id":76561199120622265,"connected_time":6413000000000,"state":"active","ping":156},{"user_id":503,"name":"Derp","steam_id":76561198997908632,"connected_time":2608000000000,"state":"active","ping":78},{"user_id":510,"name":"Tx_madmash","steam_id":76561198924656512,"connected_time":1928000000000,"state":"active","ping":121},{"user_id":505,"name":"ShiKiTo","steam_id":76561199213277918,"connected_time":2554000000000,"state":"active","ping":106}]},{"server_id":40,"name":"Uncletopia | London | 7 | No Payload","name_short":"lon-7","host":"lon-1.uk.uncletopia.com","port":27075,"enabled":true,"region":"eu","cc":"gb","latitude":51.509865,"longitude":-0.118092,"reserved":0,"last_update":"0001-01-01T00:00:00Z","name_a2s":"Uncletopia | London | 7 | No Payload","protocol":17,"map":"cp_gravelpit","folder":"tf","game":"Team Fortress","app_id":440,"player_count":0,"max_players":24,"Bots":0,"server_type":"Dedicated","server_os":"Linux","password":true,"vac":true,"version":"7757534","steam_id":85568392924964314,"keywords":["cp","nocrits","nodmgspread","uncletopia"],"game_id":440,"stv_port":27076,"stv_name":"Uncletopia | London | 7 | No Payload | STV","players":null},{"server_id":41,"name":"Uncletopia | London | 8 | Community","name_short":"lon-8","host":"lon-1.uk.uncletopia.com","port":27085,"enabled":true,"region":"eu","cc":"gb","latitude":51.509865,"longitude":-0.118092,"reserved":0,"last_update":"0001-01-01T00:00:00Z","name_a2s":"Uncletopia | London | 8 | Community","protocol":17,"map":"workshop/pl_boundary_final1.ugc456799153","folder":"tf","game":"Team Fortress","app_id":440,"player_count":0,"max_players":24,"Bots":0,"server_type":"Dedicated","server_os":"Linux","password":true,"vac":true,"version":"7757534","steam_id":85568392924964315,"keywords":["nocrits","nodmgspread","payload","uncletopia"],"game_id":440,"stv_port":27086,"stv_name":"Uncletopia | London | 8 | Community | STV","players":null},{"server_id":300,"name":"Uncletopia | Montréal | 1 | All Maps","name_short":"mtl-1","host":"mtl-1.ca.uncletopia.com","port":27015,"enabled":true,"region":"us-east","cc":"ca","latitude":45.50889,"longitude":-73.56167,"reserved":0,"last_update":"0001-01-01T00:00:00Z","name_a2s":"Uncletopia | Montréal | 1 | All Maps","protocol":17,"map":"pl_upward","folder":"tf","game":"Team Fortress","app_id":440,"player_count":20,"max_players":24,"Bots":0,"server_type":"Dedicated","server_os":"Linux","password":true,"vac":true,"version":"7757534","steam_id":85568392924500087,"keywords":["nocrits","nodmgspread","payload","uncletopia"],"game_id":440,"stv_port":27016,"stv_name":"Uncletopia | Montréal | 1 | All Maps | STV","players":[{"user_id":422,"name":"Vulcan","steam_id":76561198061409396,"connected_time":11000000000,"state":"spawning","ping":76},{"user_id":416,"name":"\u003e:3","steam_id":76561198083607304,"connected_time":206000000000,"state":"spawning","ping":71},{"user_id":384,"name":"emseaeye","steam_id":76561198161499803,"connected_time":1123000000000,"state":"spawning","ping":65},{"user_id":417,"name":"Jon_595","steam_id":76561198846843547,"connected_time":110000000000,"state":"spawning","ping":47},{"user_id":365,"name":"Xpiredd","steam_id":76561198449525437,"connected_time":3462000000000,"state":"spawning","ping":40},{"user_id":343,"name":"OPOC","steam_id":76561198026539183,"connected_time":5223000000000,"state":"spawning","ping":37},{"user_id":366,"name":"Aegis","steam_id":76561198272052750,"connected_time":3347000000000,"state":"spawning","ping":80},{"user_id":362,"name":"Zach Reeee","steam_id":76561198096698210,"connected_time":4077000000000,"state":"spawning","ping":73},{"user_id":391,"name":"ProofOFPurchase(spy)","steam_id":76561198403394571,"connected_time":1002000000000,"state":"spawning","ping":122},{"user_id":418,"name":"Jones","steam_id":76561198046037216,"connected_time":57000000000,"state":"spawning","ping":81},{"user_id":419,"name":"Vit","steam_id":76561198044101991,"connected_time":45000000000,"state":"spawning","ping":60},{"user_id":350,"name":"Flerkjerk","steam_id":76561199346074410,"connected_time":4900000000000,"state":"spawning","ping":62},{"user_id":420,"name":"Average Joe","steam_id":76561198102203180,"connected_time":41000000000,"state":"connecting","ping":75},{"user_id":400,"name":"🅜🅔🅔🅚🅢🅣🅔\ufffd\ufffd\ufffd","steam_id":76561197999748343,"connected_time":634000000000,"state":"spawning","ping":74},{"user_id":251,"name":"Monsieur l'INGENIEUR","steam_id":76561198090504334,"connected_time":11385000000000,"state":"spawning","ping":30},{"user_id":395,"name":"CM32MAker","steam_id":76561199157487382,"connected_time":867000000000,"state":"spawning","ping":85},{"user_id":399,"name":"grate_fiter-232","steam_id":76561198073424589,"connected_time":677000000000,"state":"spawning","ping":55},{"user_id":397,"name":"Bottom Ramen","steam_id":76561197970450546,"connected_time":793000000000,"state":"spawning","ping":120},{"user_id":406,"name":"Vaudeville Villain","steam_id":76561199212093339,"connected_time":366000000000,"state":"spawning","ping":84},{"user_id":413,"name":"Fuzzy","steam_id":76561199100612353,"connected_time":242000000000,"state":"spawning","ping":108}]},{"server_id":301,"name":"Uncletopia | Montréal | 2 | All Maps","name_short":"mtl-2","host":"mtl-1.ca.uncletopia.com","port":27025,"enabled":true,"region":"us-east","cc":"ca","latitude":45.50889,"longitude":-73.56167,"reserved":0,"last_update":"0001-01-01T00:00:00Z","name_a2s":"Uncletopia | Montréal | 2 | All Maps","protocol":17,"map":"cp_dustbowl","folder":"tf","game":"Team Fortress","app_id":440,"player_count":0,"max_players":24,"Bots":0,"server_type":"Dedicated","server_os":"Linux","password":true,"vac":true,"version":"7757534","steam_id":85568392924500088,"keywords":["cp","nocrits","nodmgspread","uncletopia"],"game_id":440,"stv_port":27026,"stv_name":"Uncletopia | Montréal | 2 | All Maps | STV","players":null},{"server_id":302,"name":"Uncletopia | Montréal | 3 | All Maps","name_short":"mtl-3","host":"mtl-1.ca.uncletopia.com","port":27035,"enabled":true,"region":"us-east","cc":"ca","latitude":45.50889,"longitude":-73.56167,"reserved":0,"last_update":"0001-01-01T00:00:00Z","name_a2s":"Uncletopia | Montréal | 3 | All Maps","protocol":17,"map":"cp_sunshine","folder":"tf","game":"Team Fortress","app_id":440,"player_count":0,"max_players":24,"Bots":0,"server_type":"Dedicated","server_os":"Linux","password":true,"vac":true,"version":"7757534","steam_id":85568392924500089,"keywords":["cp","nocrits","nodmgspread","uncletopia"],"game_id":440,"stv_port":27036,"stv_name":"Uncletopia | Montréal | 3 | All Maps | STV","players":null},{"server_id":303,"name":"Uncletopia | Montréal | 4 | No Payload","name_short":"mtl-4","host":"mtl-1.ca.uncletopia.com","port":27045,"enabled":true,"region":"us-east","cc":"ca","latitude":45.50889,"longitude":-73.56167,"reserved":0,"last_update":"0001-01-01T00:00:00Z","name_a2s":"Uncletopia | Montréal | 4 | No Payload","protocol":17,"map":"cp_gorge","folder":"tf","game":"Team Fortress","app_id":440,"player_count":0,"max_players":24,"Bots":0,"server_type":"Dedicated","server_os":"Linux","password":true,"vac":true,"version":"7757534","steam_id":85568392924500090,"keywords":["cp","nocrits","nodmgspread","uncletopia"],"game_id":440,"stv_port":27046,"stv_name":"Uncletopia | Montréal | 4 | No Payload | STV","players":null},{"server_id":13,"name":"Uncletopia | New York City | 1 | All Maps","name_short":"nyc-1","host":"nyc-1.us.uncletopia.com","port":27015,"enabled":true,"region":"us-east","cc":"us","latitude":40.73061,"longitude":-73.93524,"reserved":0,"last_update":"0001-01-01T00:00:00Z","name_a2s":"Uncletopia | New York City | 1 | All Maps","protocol":17,"map":"koth_harvest_final","folder":"tf","game":"Team Fortress","app_id":440,"player_count":23,"max_players":24,"Bots":0,"server_type":"Dedicated","server_os":"Linux","password":true,"vac":true,"version":"7757534","steam_id":85568392924469993,"keywords":["cp","nocrits","nodmgspread","uncletopia"],"game_id":440,"stv_port":27016,"stv_name":"Uncletopia | New York City | 1 | All Maps | STV","players":[{"user_id":441,"name":"canadian birds","steam_id":76561198059466588,"connected_time":1661000000000,"state":"active","ping":64},{"user_id":427,"name":"Fistables","steam_id":76561198055775460,"connected_time":1880000000000,"state":"active","ping":66},{"user_id":420,"name":"Ping","steam_id":76561198072947773,"connected_time":2751000000000,"state":"active","ping":72},{"user_id":452,"name":"Sapphireblitz","steam_id":76561198272635379,"connected_time":351000000000,"state":"active","ping":75},{"user_id":448,"name":"nut.","steam_id":76561198313363097,"connected_time":830000000000,"state":"active","ping":89},{"user_id":401,"name":"Festive Conch Shell","steam_id":76561198042072993,"connected_time":3883000000000,"state":"active","ping":56},{"user_id":378,"name":"Ramblet","steam_id":76561199026783260,"connected_time":5308000000000,"state":"active","ping":55},{"user_id":428,"name":"Scorp","steam_id":76561198070619615,"connected_time":1873000000000,"state":"active","ping":84},{"user_id":443,"name":"jack merridew","steam_id":76561199206622559,"connected_time":1532000000000,"state":"active","ping":37},{"user_id":396,"name":"Daddys Home","steam_id":76561198034702011,"connected_time":4037000000000,"state":"active","ping":56},{"user_id":402,"name":"Festive Syntax Error","steam_id":76561198101567629,"connected_time":3879000000000,"state":"active","ping":49},{"user_id":437,"name":"Zero","steam_id":76561199383267408,"connected_time":1717000000000,"state":"active","ping":85},{"user_id":447,"name":"Arizona","steam_id":76561198131207161,"connected_time":863000000000,"state":"active","ping":47},{"user_id":430,"name":"Bananadu","steam_id":76561198078062042,"connected_time":1821000000000,"state":"active","ping":44},{"user_id":456,"name":"superwarm07","steam_id":76561199196313157,"connected_time":234000000000,"state":"active","ping":92},{"user_id":438,"name":"Loner-senpai","steam_id":76561198197706467,"connected_time":1716000000000,"state":"active","ping":131},{"user_id":453,"name":"oddlyobtuselemon1654","steam_id":76561198877069773,"connected_time":294000000000,"state":"active","ping":73},{"user_id":434,"name":"Red Purger","steam_id":76561198058337162,"connected_time":1808000000000,"state":"active","ping":117},{"user_id":455,"name":"silliness inbound","steam_id":76561198350946279,"connected_time":259000000000,"state":"active","ping":52},{"user_id":446,"name":"Urbanzpinapple","steam_id":76561198115426938,"connected_time":1231000000000,"state":"active","ping":72},{"user_id":450,"name":"Ludcmorais","steam_id":76561198359217809,"connected_time":533000000000,"state":"active","ping":175},{"user_id":449,"name":"Gian","steam_id":76561198041434512,"connected_time":623000000000,"state":"active","ping":98},{"user_id":451,"name":"Pork and Beans but twice","steam_id":76561198843209969,"connected_time":531000000000,"state":"active","ping":61}]},{"server_id":14,"name":"Uncletopia | New York City | 2 | All Maps","name_short":"nyc-2","host":"nyc-1.us.uncletopia.com","port":27025,"enabled":true,"region":"us-east","cc":"us","latitude":40.73061,"longitude":-73.93524,"reserved":0,"last_update":"0001-01-01T00:00:00Z","name_a2s":"Uncletopia | New York City | 2 | All Maps","protocol":17,"map":"cp_dustbowl","folder":"tf","game":"Team Fortress","app_id":440,"player_count":25,"max_players":24,"Bots":0,"server_type":"Dedicated","server_os":"Linux","password":true,"vac":true,"version":"7757534","steam_id":85568392924469994,"keywords":["cp","nocrits","nodmgspread","uncletopia"],"game_id":440,"stv_port":27026,"stv_name":"Uncletopia | New York City | 2 | All Maps | STV","players":[{"user_id":544,"name":"☼plump helmet roast [20]☼","steam_id":76561198046283896,"connected_time":334000000000,"state":"active","ping":98},{"user_id":548,"name":"allie","steam_id":76561198105658448,"connected_time":289000000000,"state":"active","ping":30},{"user_id":541,"name":"Gaben Gaming","steam_id":76561198330119627,"connected_time":361000000000,"state":"active","ping":75},{"user_id":543,"name":"Defiant Statement.","steam_id":76561199101373436,"connected_time":343000000000,"state":"active","ping":68},{"user_id":489,"name":"The Greendale Human Beings","steam_id":76561198055433422,"connected_time":3661000000000,"state":"active","ping":64},{"user_id":547,"name":"Bluedime","steam_id":76561198123181025,"connected_time":310000000000,"state":"active","ping":54},{"user_id":549,"name":"chilis baby back ribs","steam_id":76561198813516435,"connected_time":287000000000,"state":"active","ping":106},{"user_id":560,"name":"Butters495","steam_id":76561197998689042,"connected_time":104000000000,"state":"active","ping":95},{"user_id":442,"name":"Thunderous","steam_id":76561198192752793,"connected_time":5769000000000,"state":"active","ping":56},{"user_id":540,"name":"CoconutNeutral","steam_id":76561198277110108,"connected_time":542000000000,"state":"active","ping":73},{"user_id":509,"name":"Rainbow","steam_id":76561198065285896,"connected_time":2852000000000,"state":"active","ping":76},{"user_id":531,"name":"ThePacBruno","steam_id":76561198046084545,"connected_time":1770000000000,"state":"active","ping":170},{"user_id":520,"name":"Erebus","steam_id":76561199061956673,"connected_time":2709000000000,"state":"active","ping":86},{"user_id":550,"name":"dansal","steam_id":76561197997042510,"connected_time":284000000000,"state":"active","ping":95},{"user_id":554,"name":"Grand Piano Tuna","steam_id":76561198135137213,"connected_time":199000000000,"state":"active","ping":107},{"user_id":546,"name":"Sim","steam_id":76561198119227922,"connected_time":331000000000,"state":"active","ping":53},{"user_id":502,"name":"UnrealIncident","steam_id":76561197986642195,"connected_time":3010000000000,"state":"active","ping":141},{"user_id":501,"name":"AGargant","steam_id":76561198057858958,"connected_time":3041000000000,"state":"active","ping":100},{"user_id":552,"name":"Psychosis","steam_id":76561198078659070,"connected_time":278000000000,"state":"active","ping":70},{"user_id":553,"name":"Bear bird","steam_id":76561198166769479,"connected_time":254000000000,"state":"active","ping":61},{"user_id":504,"name":"rakiru","steam_id":76561198004043761,"connected_time":2995000000000,"state":"active","ping":143},{"user_id":542,"name":"SnareString","steam_id":76561199082119457,"connected_time":347000000000,"state":"active","ping":125},{"user_id":505,"name":"Ham Sammy","steam_id":76561197997538159,"connected_time":2982000000000,"state":"active","ping":121},{"user_id":508,"name":"Valkyrie","steam_id":76561198086456970,"connected_time":2962000000000,"state":"active","ping":75},{"user_id":562,"name":"SWISS!","steam_id":76561198271971252,"connected_time":5000000000,"state":"spawning","ping":427}]},{"server_id":15,"name":"Uncletopia | New York City | 3 | Stopwatch Beta","name_short":"nyc-3","host":"nyc-1.us.uncletopia.com","port":27035,"enabled":true,"region":"us-east","cc":"us","latitude":40.73061,"longitude":-73.93524,"reserved":0,"last_update":"0001-01-01T00:00:00Z","name_a2s":"Uncletopia | New York City | 3 | Stopwatch Beta","protocol":17,"map":"cp_gullywash_final1","folder":"tf","game":"Team Fortress","app_id":440,"player_count":24,"max_players":24,"Bots":0,"server_type":"Dedicated","server_os":"Linux","password":true,"vac":true,"version":"7757534","steam_id":85568392924742820,"keywords":["cp","nocrits","nodmgspread","uncletopia"],"game_id":440,"stv_port":27036,"stv_name":"Uncletopia | New York City | 3 | Stopwatch Beta | STV","players":[{"user_id":607,"name":"Simply Mystic","steam_id":76561198055495647,"connected_time":115000000000,"state":"active","ping":85},{"user_id":579,"name":"Sableye","steam_id":76561198061247147,"connected_time":1566000000000,"state":"active","ping":73},{"user_id":587,"name":"Takeover","steam_id":76561197996081461,"connected_time":1235000000000,"state":"active","ping":41},{"user_id":608,"name":"Your Local NPR Station","steam_id":76561198143830279,"connected_time":102000000000,"state":"active","ping":55},{"user_id":602,"name":"Cyrano","steam_id":76561198043669706,"connected_time":382000000000,"state":"active","ping":61},{"user_id":605,"name":"Turk Turkleton","steam_id":76561198073265101,"connected_time":136000000000,"state":"active","ping":74},{"user_id":590,"name":"Feistypanda34","steam_id":76561198260910134,"connected_time":1158000000000,"state":"active","ping":79},{"user_id":564,"name":"i suck ass at tf2 fr fr","steam_id":76561198277163301,"connected_time":2686000000000,"state":"active","ping":75},{"user_id":606,"name":"faze waadden","steam_id":76561198325569425,"connected_time":136000000000,"state":"active","ping":83},{"user_id":556,"name":"i fell in luv w dah bandz","steam_id":76561198042600523,"connected_time":2991000000000,"state":"active","ping":85},{"user_id":591,"name":"Aristotle Voulton","steam_id":76561198100174923,"connected_time":1154000000000,"state":"active","ping":90},{"user_id":592,"name":"cold spaghetti","steam_id":76561198983037944,"connected_time":1108000000000,"state":"active","ping":69},{"user_id":604,"name":"faze pantalla","steam_id":76561198250215734,"connected_time":150000000000,"state":"active","ping":85},{"user_id":593,"name":"nous","steam_id":76561198046278452,"connected_time":1105000000000,"state":"active","ping":117},{"user_id":594,"name":"bare","steam_id":76561198046624654,"connected_time":1090000000000,"state":"active","ping":55},{"user_id":584,"name":"Duncan Idaho","steam_id":76561197988963861,"connected_time":1346000000000,"state":"active","ping":111},{"user_id":600,"name":"thixon","steam_id":76561198046655575,"connected_time":864000000000,"state":"active","ping":46},{"user_id":609,"name":"Japheth","steam_id":76561198012902961,"connected_time":101000000000,"state":"active","ping":69},{"user_id":498,"name":"the private","steam_id":76561198232500756,"connected_time":4835000000000,"state":"active","ping":93},{"user_id":597,"name":"Kered13","steam_id":76561197985666167,"connected_time":1069000000000,"state":"active","ping":56},{"user_id":598,"name":"Monochi","steam_id":76561198093093118,"connected_time":1064000000000,"state":"active","ping":90},{"user_id":610,"name":"Bottle","steam_id":76561198044031558,"connected_time":81000000000,"state":"active","ping":48},{"user_id":611,"name":"Thermalpwn","steam_id":76561198027552989,"connected_time":80000000000,"state":"active","ping":85},{"user_id":329,"name":"WALL-E","steam_id":76561198154701370,"connected_time":16687000000000,"state":"active","ping":56}]},{"server_id":16,"name":"Uncletopia | New York City | 4 | Community","name_short":"nyc-4","host":"nyc-1.us.uncletopia.com","port":27045,"enabled":true,"region":"us-east","cc":"us","latitude":40.73061,"longitude":-73.93524,"reserved":0,"last_update":"0001-01-01T00:00:00Z","name_a2s":"Uncletopia | New York City | 4 | Community","protocol":17,"map":"workshop/pl_fifthcurve_rc1.ugc648227046","folder":"tf","game":"Team Fortress","app_id":440,"player_count":0,"max_players":24,"Bots":0,"server_type":"Dedicated","server_os":"Linux","password":true,"vac":true,"version":"7757534","steam_id":85568392924742821,"keywords":["nocrits","nodmgspread","payload","uncletopia"],"game_id":440,"stv_port":27046,"stv_name":"Uncletopia | New York City | 4 | Community | STV","players":null},{"server_id":142,"name":"Uncletopia | São Paulo | 1 | All Maps","name_short":"sao-1","host":"sao-1.br.uncletopia.com","port":27015,"enabled":true,"region":"sa","cc":"br","latitude":-23.533773,"longitude":-46.62529,"reserved":0,"last_update":"0001-01-01T00:00:00Z","name_a2s":"Uncletopia | São Paulo | 1 | All Maps","protocol":17,"map":"koth_lakeside_final","folder":"tf","game":"Team Fortress","app_id":440,"player_count":0,"max_players":24,"Bots":0,"server_type":"Dedicated","server_os":"Linux","password":true,"vac":true,"version":"7757534","steam_id":85568392924469996,"keywords":["cp","nocrits","nodmgspread","uncletopia"],"game_id":440,"stv_port":27016,"stv_name":"Uncletopia | São Paulo | 1 | All Maps | STV","players":null},{"server_id":143,"name":"Uncletopia | São Paulo | 2 | All Maps","name_short":"sao-2","host":"sao-2.br.uncletopia.com","port":27015,"enabled":true,"region":"sa","cc":"br","latitude":-23.533773,"longitude":-46.62529,"reserved":0,"last_update":"0001-01-01T00:00:00Z","name_a2s":"Uncletopia | São Paulo | 2 | All Maps","protocol":17,"map":"pl_upward","folder":"tf","game":"Team Fortress","app_id":440,"player_count":0,"max_players":24,"Bots":0,"server_type":"Dedicated","server_os":"Linux","password":true,"vac":true,"version":"7757534","steam_id":85568392924485349,"keywords":["nocrits","nodmgspread","payload","uncletopia"],"game_id":440,"stv_port":27016,"stv_name":"Uncletopia | São Paulo | 2 | All Maps | STV","players":null},{"server_id":7,"name":"Uncletopia | Seattle | 1 | All Maps","name_short":"sea-1","host":"sea-1.us.uncletopia.com","port":27015,"enabled":true,"region":"us-west","cc":"us","latitude":47.608013,"longitude":-122.33517,"reserved":0,"last_update":"0001-01-01T00:00:00Z","name_a2s":"Uncletopia | Seattle | 1 | All Maps","protocol":17,"map":"pl_frontier_final","folder":"tf","game":"Team Fortress","app_id":440,"player_count":24,"max_players":24,"Bots":0,"server_type":"Dedicated","server_os":"Linux","password":true,"vac":true,"version":"7757534","steam_id":85568392924469997,"keywords":["nocrits","nodmgspread","payload","uncletopia"],"game_id":440,"stv_port":27016,"stv_name":"Uncletopia | Seattle | 1 | All Maps | STV","players":[{"user_id":593,"name":"CreativeUsername","steam_id":76561198186045503,"connected_time":1277000000000,"state":"active","ping":104},{"user_id":582,"name":"2j psych ward boiwife","steam_id":76561198206752128,"connected_time":1921000000000,"state":"active","ping":153},{"user_id":594,"name":"Lane","steam_id":76561197965828506,"connected_time":1276000000000,"state":"active","ping":79},{"user_id":609,"name":"lavender","steam_id":76561199069518286,"connected_time":410000000000,"state":"active","ping":69},{"user_id":411,"name":"rat gets the cheese","steam_id":76561198031234032,"connected_time":16505000000000,"state":"active","ping":106},{"user_id":610,"name":"MORE BOUNCE TO THE OUNCE","steam_id":76561198243399336,"connected_time":133000000000,"state":"active","ping":84},{"user_id":561,"name":"Dongus","steam_id":76561197979056451,"connected_time":4002000000000,"state":"active","ping":47},{"user_id":603,"name":"Surfing Garchomp","steam_id":76561199107236884,"connected_time":669000000000,"state":"active","ping":64},{"user_id":604,"name":"hardfork","steam_id":76561197960958019,"connected_time":619000000000,"state":"active","ping":51},{"user_id":590,"name":"hypotenuse","steam_id":76561198062479158,"connected_time":1600000000000,"state":"active","ping":62},{"user_id":606,"name":"EzPzJapanezy","steam_id":76561198014194723,"connected_time":509000000000,"state":"active","ping":60},{"user_id":608,"name":"FiddyFoMike","steam_id":76561198057072581,"connected_time":465000000000,"state":"active","ping":66},{"user_id":566,"name":"Thanks Ants","steam_id":76561197966221018,"connected_time":3340000000000,"state":"active","ping":53},{"user_id":605,"name":"S O L I D","steam_id":76561198086095072,"connected_time":614000000000,"state":"active","ping":109},{"user_id":548,"name":"❤ Ashley ❤","steam_id":76561198056428303,"connected_time":5167000000000,"state":"active","ping":75},{"user_id":602,"name":"Hassium","steam_id":76561198162541373,"connected_time":724000000000,"state":"active","ping":59},{"user_id":550,"name":"exephur","steam_id":76561198135763234,"connected_time":5030000000000,"state":"active","ping":71},{"user_id":598,"name":"Wafflemuscle","steam_id":76561198868628982,"connected_time":889000000000,"state":"active","ping":51},{"user_id":537,"name":"Tea","steam_id":76561198004133638,"connected_time":6344000000000,"state":"active","ping":91},{"user_id":600,"name":"[prYsm]","steam_id":76561198034304371,"connected_time":865000000000,"state":"active","ping":93},{"user_id":559,"name":"self sufficient kitten","steam_id":76561197960592612,"connected_time":4297000000000,"state":"active","ping":55},{"user_id":580,"name":"The King of Piss World","steam_id":76561198082806956,"connected_time":2296000000000,"state":"active","ping":113},{"user_id":597,"name":"ChefMike","steam_id":76561198414034069,"connected_time":1034000000000,"state":"active","ping":117},{"user_id":583,"name":"Dr. drippenstein","steam_id":76561198209380493,"connected_time":1919000000000,"state":"active","ping":115}]},{"server_id":119,"name":"Uncletopia | Seattle | 2 | All Maps","name_short":"sea-2","host":"sea-1.us.uncletopia.com","port":27025,"enabled":true,"region":"us-west","cc":"us","latitude":47.608013,"longitude":-122.33517,"reserved":0,"last_update":"0001-01-01T00:00:00Z","name_a2s":"Uncletopia | Seattle | 2 | All Maps","protocol":17,"map":"cp_snakewater_final1","folder":"tf","game":"Team Fortress","app_id":440,"player_count":24,"max_players":24,"Bots":0,"server_type":"Dedicated","server_os":"Linux","password":true,"vac":true,"version":"7757534","steam_id":85568392924469998,"keywords":["cp","nocrits","nodmgspread","uncletopia"],"game_id":440,"stv_port":27026,"stv_name":"Uncletopia | Seattle | 2 | All Maps | STV","players":[{"user_id":304,"name":"BLU3","steam_id":76561198059652670,"connected_time":4492000000000,"state":"active","ping":46},{"user_id":327,"name":"ORANGE","steam_id":76561198000401769,"connected_time":2796000000000,"state":"active","ping":46},{"user_id":370,"name":"MrLargeNinChrg","steam_id":76561198979157018,"connected_time":704000000000,"state":"active","ping":60},{"user_id":366,"name":"hug a bee","steam_id":76561198119635547,"connected_time":812000000000,"state":"active","ping":48},{"user_id":375,"name":"William P. Ennis","steam_id":76561198073464877,"connected_time":534000000000,"state":"active","ping":97},{"user_id":383,"name":"Zeubiess","steam_id":76561198074392917,"connected_time":79000000000,"state":"active","ping":66},{"user_id":367,"name":"creamy","steam_id":76561198157435832,"connected_time":777000000000,"state":"active","ping":107},{"user_id":373,"name":"Rise for the National Spamton","steam_id":76561198138468982,"connected_time":675000000000,"state":"active","ping":39},{"user_id":369,"name":"Matches *♥‧₊˚           ","steam_id":76561198048925904,"connected_time":714000000000,"state":"active","ping":90},{"user_id":329,"name":"help me","steam_id":76561198844273999,"connected_time":2791000000000,"state":"active","ping":43},{"user_id":353,"name":"Pneumo.","steam_id":76561197987911883,"connected_time":1682000000000,"state":"active","ping":70},{"user_id":338,"name":"dash","steam_id":76561198043889548,"connected_time":2197000000000,"state":"active","ping":75},{"user_id":379,"name":"LLama","steam_id":76561198323298672,"connected_time":317000000000,"state":"active","ping":57},{"user_id":371,"name":"Fargo","steam_id":76561198044703931,"connected_time":698000000000,"state":"active","ping":77},{"user_id":381,"name":"Harley [Ramiel]","steam_id":76561198079510840,"connected_time":129000000000,"state":"active","ping":60},{"user_id":380,"name":"Kafuka","steam_id":76561198014404374,"connected_time":235000000000,"state":"active","ping":40},{"user_id":372,"name":"JPEG Image","steam_id":76561199126026126,"connected_time":698000000000,"state":"active","ping":87},{"user_id":374,"name":"luggnagg","steam_id":76561198044116086,"connected_time":588000000000,"state":"active","ping":95},{"user_id":303,"name":"Corpe","steam_id":76561198054490549,"connected_time":4540000000000,"state":"active","ping":55},{"user_id":334,"name":"NayrTheMayor","steam_id":76561198853726475,"connected_time":2682000000000,"state":"active","ping":62},{"user_id":376,"name":"Wookiee","steam_id":76561198139642742,"connected_time":473000000000,"state":"active","ping":112},{"user_id":363,"name":"The unsung hero","steam_id":76561199198863237,"connected_time":1300000000000,"state":"active","ping":128},{"user_id":326,"name":"Trogdor","steam_id":76561198121353181,"connected_time":2826000000000,"state":"active","ping":80},{"user_id":365,"name":"River Rat","steam_id":76561198116383976,"connected_time":948000000000,"state":"active","ping":65}]},{"server_id":406,"name":"Uncletopia | Seattle | 3 | Stopwatch Beta","name_short":"sea-3","host":"sea-1.us.uncletopia.com","port":27035,"enabled":true,"region":"us-west","cc":"us","latitude":47.608013,"longitude":-122.33517,"reserved":0,"last_update":"0001-01-01T00:00:00Z","name_a2s":"Uncletopia | Seattle | 3 | Stopwatch Beta","protocol":17,"map":"workshop/koth_ramjam_rc1.ugc459778887","folder":"tf","game":"Team Fortress","app_id":440,"player_count":24,"max_players":24,"Bots":0,"server_type":"Dedicated","server_os":"Linux","password":true,"vac":true,"version":"7757534","steam_id":85568392924515217,"keywords":["cp","nocrits","nodmgspread","uncletopia"],"game_id":440,"stv_port":27036,"stv_name":"Uncletopia | Seattle | 3 | Stopwatch Beta | STV","players":[{"user_id":124,"name":"joji fan fr","steam_id":76561198975706117,"connected_time":253000000000,"state":"active","ping":81},{"user_id":119,"name":"G.bo","steam_id":76561198085176270,"connected_time":575000000000,"state":"active","ping":82},{"user_id":61,"name":"westward","steam_id":76561198805512350,"connected_time":4203000000000,"state":"active","ping":60},{"user_id":104,"name":"Xanathar","steam_id":76561197985749277,"connected_time":1504000000000,"state":"active","ping":88},{"user_id":38,"name":"CashGordon","steam_id":76561197975594096,"connected_time":4907000000000,"state":"active","ping":38},{"user_id":120,"name":"Chicken Soup","steam_id":76561197989268948,"connected_time":569000000000,"state":"active","ping":127},{"user_id":97,"name":"Null | Crack Clan","steam_id":76561198895762836,"connected_time":2406000000000,"state":"active","ping":76},{"user_id":127,"name":"DatBackflipTho","steam_id":76561198083062587,"connected_time":59000000000,"state":"active","ping":192},{"user_id":126,"name":"Mendo","steam_id":76561198068884273,"connected_time":94000000000,"state":"active","ping":132},{"user_id":25,"name":"Mario","steam_id":76561198321794277,"connected_time":6208000000000,"state":"active","ping":74},{"user_id":128,"name":"GruncleRick","steam_id":76561198044783898,"connected_time":57000000000,"state":"spawning","ping":389},{"user_id":121,"name":"OneLess","steam_id":76561198150870338,"connected_time":535000000000,"state":"active","ping":105},{"user_id":123,"name":"nyna ♡","steam_id":76561198029320773,"connected_time":348000000000,"state":"active","ping":47},{"user_id":106,"name":"SpaceDonut9","steam_id":76561199013502859,"connected_time":1318000000000,"state":"active","ping":90},{"user_id":129,"name":"Mister Mystical Perfection","steam_id":76561198036444997,"connected_time":49000000000,"state":"active","ping":44},{"user_id":109,"name":"Junko","steam_id":76561198146089003,"connected_time":1189000000000,"state":"active","ping":104},{"user_id":110,"name":"GravyPouch","steam_id":76561198067539038,"connected_time":1164000000000,"state":"active","ping":112},{"user_id":117,"name":"Pesky Bee","steam_id":76561198042679485,"connected_time":720000000000,"state":"active","ping":67},{"user_id":131,"name":"crypltingh","steam_id":76561199008585183,"connected_time":21000000000,"state":"active","ping":119},{"user_id":69,"name":"Reisen Udongein Inaba","steam_id":76561198051082314,"connected_time":4074000000000,"state":"active","ping":76},{"user_id":113,"name":"pmstr","steam_id":76561198039366409,"connected_time":1113000000000,"state":"active","ping":54},{"user_id":116,"name":"Cloud","steam_id":76561198272454184,"connected_time":876000000000,"state":"active","ping":179},{"user_id":87,"name":"RAM DEALERSHIP","steam_id":76561198240066240,"connected_time":2926000000000,"state":"active","ping":48},{"user_id":74,"name":"boulder","steam_id":76561198347225801,"connected_time":4010000000000,"state":"active","ping":48}]},{"server_id":17,"name":"Uncletopia | San Francisco | 1 | All Maps","name_short":"sfo-1","host":"sfo-1.us.uncletopia.com","port":27015,"enabled":true,"region":"us-west","cc":"us","latitude":37.77397,"longitude":-122.4313,"reserved":0,"last_update":"0001-01-01T00:00:00Z","name_a2s":"Uncletopia | San Francisco | 1 | All Maps","protocol":17,"map":"pl_badwater","folder":"tf","game":"Team Fortress","app_id":440,"player_count":24,"max_players":24,"Bots":0,"server_type":"Dedicated","server_os":"Linux","password":true,"vac":true,"version":"7757534","steam_id":85568392924469999,"keywords":["nocrits","nodmgspread","payload","uncletopia"],"game_id":440,"stv_port":27016,"stv_name":"Uncletopia | San Francisco | 1 | All Maps | STV","players":[{"user_id":321,"name":"Amoxicilina","steam_id":76561198168486429,"connected_time":1542000000000,"state":"active","ping":103},{"user_id":281,"name":"Frank Accardi","steam_id":76561198017275707,"connected_time":3670000000000,"state":"active","ping":84},{"user_id":312,"name":"mela ♡","steam_id":76561198301598124,"connected_time":1759000000000,"state":"active","ping":78},{"user_id":300,"name":"A UsedNom","steam_id":76561198402832756,"connected_time":2617000000000,"state":"active","ping":53},{"user_id":307,"name":"Space_Cowboy","steam_id":76561198202240772,"connected_time":2411000000000,"state":"active","ping":98},{"user_id":292,"name":"Dani","steam_id":76561198348012378,"connected_time":2984000000000,"state":"active","ping":147},{"user_id":132,"name":"gerbniak","steam_id":76561199412109852,"connected_time":10483000000000,"state":"active","ping":59},{"user_id":328,"name":"121256","steam_id":76561197974860359,"connected_time":978000000000,"state":"active","ping":89},{"user_id":339,"name":"LegendaryR'QA","steam_id":76561198049660110,"connected_time":483000000000,"state":"active","ping":52},{"user_id":317,"name":"BasedGod","steam_id":76561198061177973,"connected_time":1621000000000,"state":"active","ping":45},{"user_id":314,"name":"Taco+Taco=Burrito","steam_id":76561198063128663,"connected_time":1647000000000,"state":"active","ping":53},{"user_id":323,"name":"SiltyStar85","steam_id":76561198309175923,"connected_time":1452000000000,"state":"active","ping":132},{"user_id":340,"name":"Jambi","steam_id":76561198846091685,"connected_time":458000000000,"state":"active","ping":73},{"user_id":325,"name":"ForAPessimistImPrettyOptimistic","steam_id":76561198170128009,"connected_time":1339000000000,"state":"active","ping":54},{"user_id":336,"name":"murder is OK","steam_id":76561199041466962,"connected_time":721000000000,"state":"active","ping":54},{"user_id":344,"name":"Jimmy","steam_id":76561198857959855,"connected_time":235000000000,"state":"active","ping":55},{"user_id":264,"name":"kr1tsurf3r","steam_id":76561198076402476,"connected_time":4448000000000,"state":"active","ping":70},{"user_id":311,"name":"Buswolley","steam_id":76561197995205571,"connected_time":1819000000000,"state":"active","ping":55},{"user_id":327,"name":"RusticCarp42989","steam_id":76561198361151865,"connected_time":990000000000,"state":"active","ping":113},{"user_id":313,"name":"FayeTheGay (she/her)","steam_id":76561199366682904,"connected_time":1747000000000,"state":"active","ping":81},{"user_id":320,"name":"perc 10","steam_id":76561198116471653,"connected_time":1589000000000,"state":"active","ping":52},{"user_id":342,"name":"Catgirl Jamie","steam_id":76561198098480978,"connected_time":427000000000,"state":"active","ping":81},{"user_id":306,"name":"beeble!","steam_id":76561198219538525,"connected_time":2428000000000,"state":"active","ping":104},{"user_id":343,"name":"Meet The Kazoo","steam_id":76561199229748300,"connected_time":421000000000,"state":"active","ping":67}]},{"server_id":18,"name":"Uncletopia | San Francisco | 2 | All Maps","name_short":"sfo-2","host":"sfo-1.us.uncletopia.com","port":27025,"enabled":true,"region":"us-west","cc":"us","latitude":37.77397,"longitude":-122.4313,"reserved":0,"last_update":"0001-01-01T00:00:00Z","name_a2s":"Uncletopia | San Francisco | 2 | All Maps","protocol":17,"map":"koth_highpass","folder":"tf","game":"Team Fortress","app_id":440,"player_count":0,"max_players":24,"Bots":0,"server_type":"Dedicated","server_os":"Linux","password":true,"vac":true,"version":"7757534","steam_id":85568392924470000,"keywords":["cp","nocrits","nodmgspread","uncletopia"],"game_id":440,"stv_port":27026,"stv_name":"Uncletopia | San Francisco | 2 | All Maps | STV","players":null},{"server_id":19,"name":"Uncletopia | San Francisco | 3 | Stopwatch Beta","name_short":"sfo-3","host":"sfo-1.us.uncletopia.com","port":27035,"enabled":true,"region":"us-west","cc":"us","latitude":37.77397,"longitude":-122.4313,"reserved":0,"last_update":"0001-01-01T00:00:00Z","name_a2s":"Uncletopia | San Francisco | 3 | Stopwatch Beta","protocol":17,"map":"workshop/koth_ashville_final.ugc2130459942","folder":"tf","game":"Team Fortress","app_id":440,"player_count":1,"max_players":24,"Bots":0,"server_type":"Dedicated","server_os":"Linux","password":true,"vac":true,"version":"7757534","steam_id":85568392924742824,"keywords":["cp","nocrits","nodmgspread","uncletopia"],"game_id":440,"stv_port":27036,"stv_name":"Uncletopia | San Francisco | 3 | Stopwatch Beta | STV","players":[{"user_id":10,"name":"InfiniteEl235","steam_id":76561198382579853,"connected_time":127000000000,"state":"active","ping":52}]},{"server_id":20,"name":"Uncletopia | San Francisco | 4 | Community","name_short":"sfo-4","host":"sfo-1.us.uncletopia.com","port":27045,"enabled":true,"region":"us-west","cc":"us","latitude":37.77397,"longitude":-122.4313,"reserved":0,"last_update":"0001-01-01T00:00:00Z","name_a2s":"Uncletopia | San Francisco | 4 | Community","protocol":17,"map":"workshop/rd_asteroid_redux_b1.ugc2154902912","folder":"tf","game":"Team Fortress","app_id":440,"player_count":0,"max_players":24,"Bots":0,"server_type":"Dedicated","server_os":"Linux","password":true,"vac":true,"version":"7757534","steam_id":85568392924742826,"keywords":["beta","nocrits","nodmgspread","rd","uncletopia"],"game_id":440,"stv_port":27046,"stv_name":"Uncletopia | San Francisco | 4 | Community | STV","players":null},{"server_id":141,"name":"Uncletopia | Sydney | 1 | All Maps","name_short":"syd-1","host":"syd-1.au.uncletopia.com","port":27015,"enabled":true,"region":"au","cc":"au","latitude":-33.865143,"longitude":151.2099,"reserved":0,"last_update":"0001-01-01T00:00:00Z","name_a2s":"Uncletopia | Sydney | 1 | All Maps","protocol":17,"map":"pl_upward","folder":"tf","game":"Team Fortress","app_id":440,"player_count":23,"max_players":24,"Bots":0,"server_type":"Dedicated","server_os":"Linux","password":true,"vac":true,"version":"7757534","steam_id":85568392924470001,"keywords":["nocrits","nodmgspread","payload","uncletopia"],"game_id":440,"stv_port":27016,"stv_name":"Uncletopia | Sydney | 1 | All Maps | STV","players":[{"user_id":313,"name":"Warren","steam_id":76561198120350917,"connected_time":654000000000,"state":"active","ping":42},{"user_id":277,"name":"HSmileyFace","steam_id":76561198062385882,"connected_time":3904000000000,"state":"active","ping":70},{"user_id":292,"name":"El Chupacabra","steam_id":76561198070641651,"connected_time":1961000000000,"state":"active","ping":45},{"user_id":308,"name":"Bigrichard","steam_id":76561198032092945,"connected_time":870000000000,"state":"active","ping":80},{"user_id":269,"name":"Muffin","steam_id":76561198075391119,"connected_time":4582000000000,"state":"active","ping":55},{"user_id":274,"name":"KingGodzilla","steam_id":76561198054002248,"connected_time":4174000000000,"state":"active","ping":47},{"user_id":309,"name":"Bunny","steam_id":76561198881578060,"connected_time":868000000000,"state":"active","ping":69},{"user_id":286,"name":"BruceWillis235","steam_id":76561198884324029,"connected_time":2789000000000,"state":"active","ping":88},{"user_id":319,"name":"Owlenstein™","steam_id":76561198093983826,"connected_time":39000000000,"state":"active","ping":127},{"user_id":291,"name":"[GG] Cryo","steam_id":76561198062014383,"connected_time":2220000000000,"state":"active","ping":58},{"user_id":314,"name":"saudi ambassador messi","steam_id":76561198031293430,"connected_time":615000000000,"state":"active","ping":88},{"user_id":316,"name":"helton1 #RemoveCrossbow","steam_id":76561198841855657,"connected_time":272000000000,"state":"active","ping":55},{"user_id":238,"name":"Selling Anti-Matter for $543","steam_id":76561198070708382,"connected_time":5877000000000,"state":"active","ping":45},{"user_id":259,"name":"mushroom","steam_id":76561197992336470,"connected_time":5097000000000,"state":"active","ping":90},{"user_id":271,"name":"Verbally Disabled (F2P)","steam_id":76561199417923156,"connected_time":4482000000000,"state":"active","ping":59},{"user_id":317,"name":"Al","steam_id":76561197990676197,"connected_time":249000000000,"state":"active","ping":45},{"user_id":300,"name":"Ratbagus","steam_id":76561197993827486,"connected_time":1493000000000,"state":"active","ping":75},{"user_id":312,"name":"Kremmen","steam_id":76561198051368641,"connected_time":730000000000,"state":"active","ping":60},{"user_id":318,"name":"Chris","steam_id":76561198088227961,"connected_time":244000000000,"state":"active","ping":69},{"user_id":278,"name":"Captain Canadia","steam_id":76561198167967735,"connected_time":3867000000000,"state":"active","ping":48},{"user_id":279,"name":"Kass","steam_id":76561198396196545,"connected_time":3813000000000,"state":"active","ping":71},{"user_id":287,"name":"Whyyan","steam_id":76561198123825900,"connected_time":2757000000000,"state":"active","ping":59},{"user_id":303,"name":"ManFlabs","steam_id":76561198971245592,"connected_time":1159000000000,"state":"active","ping":63}]},{"server_id":123,"name":"Uncletopia | Sydney | 2 | All Maps","name_short":"syd-2","host":"syd-1.au.uncletopia.com","port":27025,"enabled":true,"region":"au","cc":"au","latitude":-33.865143,"longitude":151.2099,"reserved":0,"last_update":"0001-01-01T00:00:00Z","name_a2s":"Uncletopia | Sydney | 2 | All Maps","protocol":17,"map":"koth_viaduct","folder":"tf","game":"Team Fortress","app_id":440,"player_count":23,"max_players":24,"Bots":0,"server_type":"Dedicated","server_os":"Linux","password":true,"vac":true,"version":"7757534","steam_id":85568392924470002,"keywords":["cp","nocrits","nodmgspread","uncletopia"],"game_id":440,"stv_port":27026,"stv_name":"Uncletopia | Sydney | 2 | All Maps | STV","players":[{"user_id":68,"name":"Asl:3x","steam_id":76561198972095766,"connected_time":1601000000000,"state":"active","ping":45},{"user_id":65,"name":"oldbie","steam_id":76561198053297711,"connected_time":1638000000000,"state":"active","ping":85},{"user_id":17,"name":"Doc Choc","steam_id":76561198361892328,"connected_time":5805000000000,"state":"active","ping":75},{"user_id":29,"name":"Jellyfish_kurage","steam_id":76561198425670698,"connected_time":3292000000000,"state":"active","ping":54},{"user_id":61,"name":"LeBeau","steam_id":76561198006666260,"connected_time":1722000000000,"state":"active","ping":50},{"user_id":78,"name":"Candler","steam_id":76561198302841509,"connected_time":1173000000000,"state":"active","ping":52},{"user_id":83,"name":"FrOStY","steam_id":76561198088155805,"connected_time":542000000000,"state":"active","ping":64},{"user_id":49,"name":"sav","steam_id":76561198058760041,"connected_time":2146000000000,"state":"active","ping":71},{"user_id":75,"name":"Cloud","steam_id":76561198055657103,"connected_time":1320000000000,"state":"active","ping":57},{"user_id":40,"name":"I SNORT PEPSI","steam_id":76561199223203432,"connected_time":2426000000000,"state":"active","ping":61},{"user_id":42,"name":"GOLD//","steam_id":76561198122686090,"connected_time":2415000000000,"state":"active","ping":71},{"user_id":52,"name":"Precipire","steam_id":76561198076159518,"connected_time":2085000000000,"state":"active","ping":56},{"user_id":73,"name":"hazz_mcpie -BvM-","steam_id":76561198092450084,"connected_time":1525000000000,"state":"active","ping":81},{"user_id":82,"name":"Planch","steam_id":76561199272069665,"connected_time":925000000000,"state":"active","ping":67},{"user_id":66,"name":"koyaa","steam_id":76561198047484772,"connected_time":1628000000000,"state":"active","ping":81},{"user_id":48,"name":"RustyMeat","steam_id":76561198119162442,"connected_time":2171000000000,"state":"active","ping":66},{"user_id":80,"name":"itsnothenry","steam_id":76561197966455767,"connected_time":1145000000000,"state":"active","ping":58},{"user_id":84,"name":"wm1","steam_id":76561198061960926,"connected_time":473000000000,"state":"active","ping":96},{"user_id":85,"name":"mental institute gaming","steam_id":76561198815730749,"connected_time":410000000000,"state":"active","ping":58},{"user_id":67,"name":"Sentry Gun (EpicGuy4227)","steam_id":76561198094132328,"connected_time":1628000000000,"state":"active","ping":54},{"user_id":74,"name":"smite","steam_id":76561198845304189,"connected_time":1434000000000,"state":"active","ping":77},{"user_id":71,"name":"Monkey Mæn","steam_id":76561198122470022,"connected_time":1570000000000,"state":"active","ping":72},{"user_id":72,"name":"Quatz","steam_id":76561198048810399,"connected_time":1558000000000,"state":"active","ping":64}]},{"server_id":395,"name":"Uncletopia | Sydney | 3 | All Maps","name_short":"syd-3","host":"syd-1.au.uncletopia.com","port":27035,"enabled":true,"region":"au","cc":"au","latitude":-33.865143,"longitude":151.2099,"reserved":0,"last_update":"0001-01-01T00:00:00Z","name_a2s":"Uncletopia | Sydney | 3 | All Maps","protocol":17,"map":"pl_snowycoast","folder":"tf","game":"Team Fortress","app_id":440,"player_count":0,"max_players":24,"Bots":0,"server_type":"Dedicated","server_os":"Linux","password":true,"vac":true,"version":"7757534","steam_id":85568392925194467,"keywords":["nocrits","nodmgspread","payload","uncletopia"],"game_id":440,"stv_port":27036,"stv_name":"Uncletopia | Sydney | 3 | All Maps | STV","players":null},{"server_id":396,"name":"Uncletopia | Sydney | 4 | All Maps","name_short":"syd-4","host":"syd-1.au.uncletopia.com","port":27045,"enabled":true,"region":"au","cc":"au","latitude":-33.865143,"longitude":151.2099,"reserved":0,"last_update":"0001-01-01T00:00:00Z","name_a2s":"Uncletopia | Sydney | 4 | All Maps","protocol":17,"map":"koth_highpass","folder":"tf","game":"Team Fortress","app_id":440,"player_count":0,"max_players":24,"Bots":0,"server_type":"Dedicated","server_os":"Linux","password":true,"vac":true,"version":"7757534","steam_id":85568392925397958,"keywords":["cp","nocrits","nodmgspread","uncletopia"],"game_id":440,"stv_port":27046,"stv_name":"Uncletopia | Sydney | 4 | All Maps | STV","players":null},{"server_id":58,"name":"Uncletopia | Sydney | 5 | Stopwatch Beta","name_short":"syd-5","host":"syd-1.au.uncletopia.com","port":27055,"enabled":true,"region":"au","cc":"au","latitude":-33.865143,"longitude":151.2099,"reserved":0,"last_update":"0001-01-01T00:00:00Z","name_a2s":"Uncletopia | Sydney | 5 | Stopwatch Beta","protocol":17,"map":"cp_granary","folder":"tf","game":"Team Fortress","app_id":440,"player_count":0,"max_players":24,"Bots":0,"server_type":"Dedicated","server_os":"Linux","password":true,"vac":true,"version":"7757534","steam_id":85568392925397959,"keywords":["cp","nocrits","nodmgspread","uncletopia"],"game_id":440,"stv_port":27056,"stv_name":"Uncletopia | Sydney | 5 | Stopwatch Beta | STV","players":null},{"server_id":59,"name":"Uncletopia | Sydney | 6 | Community","name_short":"syd-6","host":"syd-1.au.uncletopia.com","port":27065,"enabled":true,"region":"au","cc":"au","latitude":-33.865143,"longitude":151.2099,"reserved":0,"last_update":"0001-01-01T00:00:00Z","name_a2s":"Uncletopia | Sydney | 6 | Community","protocol":17,"map":"workshop/cp_logjam_rc12.ugc454812035","folder":"tf","game":"Team Fortress","app_id":440,"player_count":0,"max_players":24,"Bots":0,"server_type":"Dedicated","server_os":"Linux","password":true,"vac":true,"version":"7757534","steam_id":85568392925397960,"keywords":["cp","nocrits","nodmgspread","uncletopia"],"game_id":440,"stv_port":27066,"stv_name":"Uncletopia | Sydney | 6 | Community | STV","players":null},{"server_id":49,"name":"Uncletopia | Warsaw | 1 | All Maps","name_short":"waw-1","host":"waw-1.pl.uncletopia.com","port":27015,"enabled":true,"region":"eu","cc":"pl","latitude":52.2297,"longitude":21.017532,"reserved":0,"last_update":"0001-01-01T00:00:00Z","name_a2s":"","protocol":0,"map":"","folder":"","game":"","app_id":0,"player_count":0,"max_players":0,"Bots":0,"server_type":"","server_os":"","password":false,"vac":false,"version":"","steam_id":0,"keywords":null,"game_id":0,"stv_port":0,"stv_name":"","players":null},{"server_id":50,"name":"Uncletopia | Warsaw | 2 | All Maps","name_short":"waw-2","host":"waw-1.pl.uncletopia.com","port":27025,"enabled":true,"region":"eu","cc":"pl","latitude":52.2297,"longitude":21.017532,"reserved":0,"last_update":"0001-01-01T00:00:00Z","name_a2s":"Uncletopia | Warsaw | 2 | All Maps","protocol":17,"map":"pl_snowycoast","folder":"tf","game":"Team Fortress","app_id":440,"player_count":0,"max_players":24,"Bots":0,"server_type":"Dedicated","server_os":"Linux","password":true,"vac":true,"version":"7757534","steam_id":85568392925397851,"keywords":["nocrits","nodmgspread","payload","uncletopia"],"game_id":440,"stv_port":27026,"stv_name":"Uncletopia | Warsaw | 2 | All Maps | STV","players":null},{"server_id":51,"name":"Uncletopia | Warsaw | 3 | All Maps","name_short":"waw-3","host":"waw-1.pl.uncletopia.com","port":27035,"enabled":true,"region":"eu","cc":"pl","latitude":52.2297,"longitude":21.017532,"reserved":0,"last_update":"0001-01-01T00:00:00Z","name_a2s":"Uncletopia | Warsaw | 3 | All Maps","protocol":17,"map":"koth_viaduct","folder":"tf","game":"Team Fortress","app_id":440,"player_count":0,"max_players":24,"Bots":0,"server_type":"Dedicated","server_os":"Linux","password":true,"vac":true,"version":"7757534","steam_id":85568392925397852,"keywords":["cp","nocrits","nodmgspread","uncletopia"],"game_id":440,"stv_port":27036,"stv_name":"Uncletopia | Warsaw | 3 | All Maps | STV","players":null},{"server_id":52,"name":"Uncletopia | Warsaw | 4 | All Maps","name_short":"waw-4","host":"waw-1.pl.uncletopia.com","port":27045,"enabled":true,"region":"eu","cc":"pl","latitude":52.2297,"longitude":21.017532,"reserved":0,"last_update":"0001-01-01T00:00:00Z","name_a2s":"Uncletopia | Warsaw | 4 | All Maps","protocol":17,"map":"koth_lakeside_final","folder":"tf","game":"Team Fortress","app_id":440,"player_count":0,"max_players":24,"Bots":0,"server_type":"Dedicated","server_os":"Linux","password":true,"vac":true,"version":"7757534","steam_id":85568392925397853,"keywords":["cp","nocrits","nodmgspread","uncletopia"],"game_id":440,"stv_port":27046,"stv_name":"Uncletopia | Warsaw | 4 | All Maps | STV","players":null},{"server_id":53,"name":"Uncletopia | Warsaw | 5 | Stopwatch Beta","name_short":"waw-5","host":"waw-1.pl.uncletopia.com","port":27055,"enabled":true,"region":"eu","cc":"pl","latitude":52.2297,"longitude":21.017532,"reserved":0,"last_update":"0001-01-01T00:00:00Z","name_a2s":"Uncletopia | Warsaw | 5 | Stopwatch Beta","protocol":17,"map":"workshop/koth_clearcut_b15.ugc2107050255","folder":"tf","game":"Team Fortress","app_id":440,"player_count":0,"max_players":24,"Bots":0,"server_type":"Dedicated","server_os":"Linux","password":true,"vac":true,"version":"7757534","steam_id":85568392925397854,"keywords":["cp","nocrits","nodmgspread","uncletopia"],"game_id":440,"stv_port":27056,"stv_name":"Uncletopia | Warsaw | 5 | Stopwatch Beta | STV","players":null},{"server_id":54,"name":"Uncletopia | Warsaw | 6 | Community","name_short":"waw-6","host":"waw-1.pl.uncletopia.com","port":27065,"enabled":true,"region":"eu","cc":"pl","latitude":52.2297,"longitude":21.017532,"reserved":0,"last_update":"0001-01-01T00:00:00Z","name_a2s":"Uncletopia | Warsaw | 6 | Community","protocol":17,"map":"koth_lakeside_final","folder":"tf","game":"Team Fortress","app_id":440,"player_count":0,"max_players":24,"Bots":0,"server_type":"Dedicated","server_os":"Linux","password":true,"vac":true,"version":"7757534","steam_id":85568392925397856,"keywords":["cp","nocrits","nodmgspread","uncletopia"],"game_id":440,"stv_port":27066,"stv_name":"Uncletopia | Warsaw | 6 | Community | STV","players":null}]}