{"status":true,"message":"","result":[{"server_id":9,"name":"Uncletopia | Atlanta | 1 | All Maps","name_short":"atl-1","host":"atl-1.us.uncletopia.com","port":27015,"enabled":true,"region":"us-east","cc":"us","latitude":33.753746,"longitude":-84.38633,"reserved":0,"last_update":"0001-01-01T00:00:00Z","name_a2s":"Uncletopia | Atlanta | 1 | All Maps","protocol":17,"map":"pl_snowycoast","folder":"tf","game":"Team Fortress","app_id":440,"player_count":24,"max_players":24,"Bots":0,"server_type":"Dedicated","server_os":"Linux","password":true,"vac":true,"version":"7961495","steam_id":85568392924469982,"keywords":["nocrits","nodmgspread","payload","uncletopia"],"game_id":440,"stv_port":27016,"stv_name":"Uncletopia | Atlanta | 1 | All Maps | STV","players":[{"user_id":186,"name":"Willly the WHALE","steam_id":76561198927517471,"connected_time":2183000000000,"state":"active","ping":46},{"user_id":180,"name":"lurid","steam_id":76561199134999203,"connected_time":2282000000000,"state":"active","ping":58},{"user_id":192,"name":"Tyco","steam_id":76561197978414167,"connected_time":1572000000000,"state":"active","ping":56},{"user_id":183,"name":"Mantis Toboggan","steam_id":76561197996309419,"connected_time":2273000000000,"state":"active","ping":47},{"user_id":215,"name":"JohnFMX","steam_id":76561198175608097,"connected_time":3000000000,"state":"spawning","ping":45},{"user_id":188,"name":"BOUZENZEL","steam_id":76561198095000722,"connected_time":2149000000000,"state":"active","ping":59},{"user_id":155,"name":"Punchy","steam_id":76561198200000641,"connected_time":4542000000000,"state":"active","ping":61},{"user_id":204,"name":"Xavibite","steam_id":76561198209380493,"connected_time":1144000000000,"state":"active","ping":69},{"user_id":162,"name":"aaaxel","steam_id":76561198137430598,"connected_time":3564000000000,"state":"active","ping":75},{"user_id":203,"name":"Monkey Mode","steam_id":76561197961267543,"connected_time":1339000000000,"state":"active","ping":56},{"user_id":71,"name":"CoffeeZombi","steam_id":76561198172708053,"connected_time":10285000000000,"state":"active","ping":54},{"user_id":211,"name":"That_MF","steam_id":76561198077553888,"connected_time":331000000000,"state":"active","ping":67},{"user_id":194,"name":"ACKnowledge","steam_id":76561198036189303,"connected_time":1564000000000,"state":"active","ping":62},{"user_id":80,"name":"lil hog","steam_id":76561199230929836,"connected_time":9170000000000,"state":"active","ping":88},{"user_id":197,"name":"trianamarco780","steam_id":76561199084319677,"connected_time":1468000000000,"state":"active","ping":108},{"user_id":196,"name":"Pancakes","steam_id":76561198097983190,"connected_time":1499000000000,"state":"active","ping":70},{"user_id":210,"name":"zonc","steam_id":76561198322104962,"connected_time":344000000000,"state":"active","ping":86},{"user_id":212,"name":"Ian","steam_id":76561199078852180,"connected_time":242000000000,"state":"active","ping":84},{"user_id":205,"name":"switch hitter","steam_id":76561198069954956,"connected_time":872000000000,"state":"active","ping":45},{"user_id":190,"name":"Sappho of Lesbos","steam_id":76561198115931381,"connected_time":2037000000000,"state":"active","ping":54},{"user_id":193,"name":"Rated_C","steam_id":76561199226478414,"connected_time":1570000000000,"state":"active","ping":93},{"user_id":208,"name":"Intro Bonito","steam_id":76561198119478838,"connected_time":646000000000,"state":"active","ping":56},{"user_id":195,"name":"FLiP aSiAN coNneCtioNz+-","steam_id":76561198120757569,"connected_time":1549000000000,"state":"active","ping":64},{"user_id":200,"name":"Universe Man","steam_id":76561197997710655,"connected_time":1431000000000,"state":"active","ping":60}]},{"server_id":104,"name":"Uncletopia | Atlanta | 2 | All Maps","name_short":"atl-2","host":"atl-1.us.uncletopia.com","port":27025,"enabled":true,"region":"us-east","cc":"us","latitude":33.753746,"longitude":-84.38633,"reserved":0,"last_update":"0001-01-01T00:00:00Z","name_a2s":"Uncletopia | Atlanta | 2 | All Maps","protocol":17,"map":"koth_cascade","folder":"tf","game":"Team Fortress","app_id":440,"player_count":0,"max_players":24,"Bots":0,"server_type":"Dedicated","server_os":"Linux","password":true,"vac":true,"version":"7961495","steam_id":85568392924469983,"keywords":["cp","nocrits","nodmgspread","uncletopia"],"game_id":440,"stv_port":27026,"stv_name":"Uncletopia | Atlanta | 2 | All Maps | STV","players":null},{"server_id":400,"name":"Uncletopia | Atlanta | 3 | Stopwatch","name_short":"atl-3","host":"atl-1.us.uncletopia.com","port":27035,"enabled":true,"region":"us-east","cc":"us","latitude":33.753746,"longitude":-84.38633,"reserved":0,"last_update":"0001-01-01T00:00:00Z","name_a2s":"Uncletopia | Atlanta | 3 | Stopwatch","protocol":17,"map":"workshop/cp_reckoner_rc6.ugc674719999","folder":"tf","game":"Team Fortress","app_id":440,"player_count":0,"max_players":24,"Bots":0,"server_type":"Dedicated","server_os":"Linux","password":true,"vac":true,"version":"7961495","steam_id":85568392924515187,"keywords":["cp","nocrits","nodmgspread","uncletopia"],"game_id":440,"stv_port":27036,"stv_name":"Uncletopia | Atlanta | 3 | Stopwatch | STV","players":null},{"server_id":401,"name":"Uncletopia | Atlanta | 4 | Community","name_short":"atl-4","host":"atl-1.us.uncletopia.com","port":27045,"enabled":true,"region":"us-east","cc":"us","latitude":33.753746,"longitude":-84.38633,"reserved":0,"last_update":"0001-01-01T00:00:00Z","name_a2s":"Uncletopia | Atlanta | 4 | Community","protocol":17,"map":"workshop/cp_indulge.ugc528106646","folder":"tf","game":"Team Fortress","app_id":440,"player_count":19,"max_players":24,"Bots":0,"server_type":"Dedicated","server_os":"Linux","password":true,"vac":true,"version":"7961495","steam_id":85568392924515188,"keywords":["cp","nocrits","nodmgspread","uncletopia"],"game_id":440,"stv_port":27046,"stv_name":"Uncletopia | Atlanta | 4 | Community | STV","players":[{"user_id":138,"name":"Sagoogoo","steam_id":76561198176061614,"connected_time":1898000000000,"state":"active","ping":61},{"user_id":140,"name":"TerracottaP","steam_id":76561199402983168,"connected_time":1859000000000,"state":"active","ping":56},{"user_id":155,"name":"Boone","steam_id":76561198837687228,"connected_time":643000000000,"state":"active","ping":69},{"user_id":47,"name":"Junk","steam_id":76561198024382753,"connected_time":7105000000000,"state":"active","ping":57},{"user_id":127,"name":"the.land.of.avalon","steam_id":76561198245431668,"connected_time":2519000000000,"state":"active","ping":80},{"user_id":160,"name":"Steak-Pocketer","steam_id":76561198277651410,"connected_time":144000000000,"state":"active","ping":45},{"user_id":136,"name":"tooth","steam_id":76561197986437643,"connected_time":2044000000000,"state":"active","ping":54},{"user_id":162,"name":"shpae","steam_id":76561198124453376,"connected_time":48000000000,"state":"active","ping":79},{"user_id":124,"name":"GuyGoom","steam_id":76561198254522178,"connected_time":2568000000000,"state":"active","ping":75},{"user_id":163,"name":"Jokerz","steam_id":76561199453766677,"connected_time":36000000000,"state":"active","ping":45},{"user_id":156,"name":"Spare(8)Ball","steam_id":76561197982432995,"connected_time":575000000000,"state":"active","ping":113},{"user_id":128,"name":"Stop voting for PL","steam_id":76561198138420251,"connected_time":2446000000000,"state":"active","ping":78},{"user_id":144,"name":"Anomet","steam_id":76561198060246255,"connected_time":1323000000000,"state":"active","ping":55},{"user_id":93,"name":"Ratlympics Gold Medalist","steam_id":76561198064981004,"connected_time":5424000000000,"state":"active","ping":66},{"user_id":145,"name":"BlazeHX","steam_id":76561198827408017,"connected_time":1233000000000,"state":"active","ping":51},{"user_id":129,"name":"Sack Stomper","steam_id":76561198154616010,"connected_time":2444000000000,"state":"active","ping":69},{"user_id":148,"name":"Triforce141","steam_id":76561198063896776,"connected_time":1016000000000,"state":"active","ping":56},{"user_id":149,"name":"james_bondage","steam_id":76561199476062624,"connected_time":964000000000,"state":"active","ping":75},{"user_id":135,"name":"terance","steam_id":76561199163372180,"connected_time":2195000000000,"state":"active","ping":63}]},{"server_id":2,"name":"Uncletopia | Chicago | 1 | All Maps","name_short":"chi-1","host":"chi-1.us.uncletopia.com","port":27015,"enabled":true,"region":"us-central","cc":"us","latitude":41.881832,"longitude":-87.62318,"reserved":0,"last_update":"0001-01-01T00:00:00Z","name_a2s":"Uncletopia | Chicago | 1 | All Maps","protocol":17,"map":"pl_swiftwater_final1","folder":"tf","game":"Team Fortress","app_id":440,"player_count":24,"max_players":24,"Bots":0,"server_type":"Dedicated","server_os":"Linux","password":true,"vac":true,"version":"7961495","steam_id":85568392924469984,"keywords":["nocrits","nodmgspread","payload","uncletopia"],"game_id":440,"stv_port":27016,"stv_name":"Uncletopia | Chicago | 1 | All Maps | STV","players":[{"user_id":315,"name":"carly","steam_id":76561198094118479,"connected_time":3084000000000,"state":"active","ping":97},{"user_id":280,"name":"blob","steam_id":76561198122375328,"connected_time":4446000000000,"state":"active","ping":55},{"user_id":303,"name":"Lord_Manship","steam_id":76561198045168765,"connected_time":3325000000000,"state":"active","ping":67},{"user_id":336,"name":"Big Donnie","steam_id":76561198396789061,"connected_time":1115000000000,"state":"active","ping":83},{"user_id":298,"name":"martybanana","steam_id":76561198083528997,"connected_time":3434000000000,"state":"active","ping":62},{"user_id":344,"name":"Black Rose Oncore","steam_id":76561198040489960,"connected_time":420000000000,"state":"active","ping":72},{"user_id":330,"name":"Sentry Gun (American)","steam_id":76561198313770809,"connected_time":1883000000000,"state":"active","ping":50},{"user_id":349,"name":"Gingoguy","steam_id":76561198088931297,"connected_time":79000000000,"state":"active","ping":55},{"user_id":343,"name":"A_vacuum","steam_id":76561199160874929,"connected_time":839000000000,"state":"active","ping":54},{"user_id":301,"name":"starfungus","steam_id":76561198158312789,"connected_time":3412000000000,"state":"active","ping":79},{"user_id":345,"name":"Cave Dweller","steam_id":76561198374825685,"connected_time":390000000000,"state":"active","ping":102},{"user_id":285,"name":"Sturmwolken [1312]","steam_id":76561198260905784,"connected_time":4206000000000,"state":"active","ping":55},{"user_id":342,"name":"Feather","steam_id":76561199182209891,"connected_time":890000000000,"state":"active","ping":65},{"user_id":348,"name":"Eiriel benadryl","steam_id":76561198319992602,"connected_time":111000000000,"state":"active","ping":77},{"user_id":338,"name":"The Great Eagle Scourge of 1822","steam_id":76561198325086209,"connected_time":996000000000,"state":"active","ping":104},{"user_id":335,"name":"goallpeashooters222","steam_id":76561199443722096,"connected_time":1594000000000,"state":"active","ping":43},{"user_id":332,"name":"Siz","steam_id":76561198072962154,"connected_time":1863000000000,"state":"active","ping":65},{"user_id":346,"name":"Farmer2145","steam_id":76561198217084115,"connected_time":386000000000,"state":"active","ping":66},{"user_id":347,"name":"Traceback","steam_id":76561197993212340,"connected_time":376000000000,"state":"active","ping":71},{"user_id":320,"name":"Ginger Jesus","steam_id":76561198052386458,"connected_time":2816000000000,"state":"active","ping":66},{"user_id":341,"name":"LocaKola","steam_id":76561198173435430,"connected_time":935000000000,"state":"active","ping":61},{"user_id":337,"name":"Ganondorf","steam_id":76561198010421059,"connected_time":1076000000000,"state":"active","ping":56},{"user_id":340,"name":"Torensz64(But weezer)","steam_id":76561198239036482,"connected_time":957000000000,"state":"active","ping":42},{"user_id":274,"name":"sidhaktheguy","steam_id":76561198306006593,"connected_time":4644000000000,"state":"active","ping":59}]},{"server_id":106,"name":"Uncletopia | Chicago | 2 | All Maps","name_short":"chi-2","host":"chi-1.us.uncletopia.com","port":27025,"enabled":true,"region":"us-central","cc":"us","latitude":41.881832,"longitude":-87.62318,"reserved":0,"last_update":"0001-01-01T00:00:00Z","name_a2s":"Uncletopia | Chicago | 2 | All Maps","protocol":17,"map":"cp_steel","folder":"tf","game":"Team Fortress","app_id":440,"player_count":24,"max_players":24,"Bots":0,"server_type":"Dedicated","server_os":"Linux","password":true,"vac":true,"version":"7961495","steam_id":85568392924469985,"keywords":["cp","nocrits","nodmgspread","uncletopia"],"game_id":440,"stv_port":27026,"stv_name":"Uncletopia | Chicago | 2 | All Maps | STV","players":[{"user_id":419,"name":"Sir Real with Milk","steam_id":76561198090356880,"connected_time":800000000000,"state":"active","ping":45},{"user_id":425,"name":"solar controller","steam_id":76561198838282369,"connected_time":605000000000,"state":"active","ping":77},{"user_id":432,"name":"klevmeister","steam_id":76561198799106535,"connected_time":247000000000,"state":"active","ping":69},{"user_id":423,"name":"Crow","steam_id":76561198146419439,"connected_time":611000000000,"state":"active","ping":105},{"user_id":437,"name":"Ax0L_","steam_id":76561199008960175,"connected_time":42000000000,"state":"active","ping":52},{"user_id":374,"name":"fenix_bear","steam_id":76561198370043426,"connected_time":4263000000000,"state":"active","ping":45},{"user_id":378,"name":"warrior","steam_id":76561199044742609,"connected_time":4042000000000,"state":"active","ping":43},{"user_id":422,"name":"MrDragadon","steam_id":76561199058815749,"connected_time":646000000000,"state":"active","ping":149},{"user_id":370,"name":"Xeryeon","steam_id":76561198326228385,"connected_time":4907000000000,"state":"active","ping":82},{"user_id":402,"name":"Villain_7","steam_id":76561198985858094,"connected_time":1816000000000,"state":"active","ping":67},{"user_id":436,"name":"Skiddy","steam_id":76561198125942665,"connected_time":124000000000,"state":"active","ping":69},{"user_id":427,"name":"Huntpk","steam_id":76561198340591674,"connected_time":544000000000,"state":"active","ping":39},{"user_id":224,"name":"The True Caniac","steam_id":76561198844434119,"connected_time":15786000000000,"state":"active","ping":102},{"user_id":304,"name":"TheGreythreat","steam_id":76561198021995538,"connected_time":10852000000000,"state":"active","ping":48},{"user_id":369,"name":"xrawkii","steam_id":76561198964312553,"connected_time":5003000000000,"state":"active","ping":76},{"user_id":428,"name":"Reginald the Deceased Gentleman","steam_id":76561198322068512,"connected_time":459000000000,"state":"active","ping":120},{"user_id":434,"name":"Swamp-Cap","steam_id":76561199045984851,"connected_time":216000000000,"state":"active","ping":62},{"user_id":410,"name":"Obama Gaming","steam_id":76561198165829024,"connected_time":1302000000000,"state":"active","ping":116},{"user_id":414,"name":"MechaSixVII","steam_id":76561198014927379,"connected_time":1142000000000,"state":"active","ping":58},{"user_id":429,"name":"Shrebbie","steam_id":76561198875230824,"connected_time":429000000000,"state":"active","ping":57},{"user_id":394,"name":"TheoLynwood","steam_id":76561198079596878,"connected_time":2264000000000,"state":"active","ping":61},{"user_id":431,"name":"Sir Iasis","steam_id":76561198035666760,"connected_time":288000000000,"state":"active","ping":51},{"user_id":433,"name":"freshly lobotomized","steam_id":76561199064660270,"connected_time":224000000000,"state":"active","ping":74},{"user_id":435,"name":"koko","steam_id":76561199346979443,"connected_time":143000000000,"state":"active","ping":61}]},{"server_id":402,"name":"Uncletopia | Chicago | 3 | All Maps","name_short":"chi-3","host":"chi-1.us.uncletopia.com","port":27035,"enabled":true,"region":"us-central","cc":"us","latitude":41.881832,"longitude":-87.62318,"reserved":0,"last_update":"0001-01-01T00:00:00Z","name_a2s":"Uncletopia | Chicago | 3 | All Maps","protocol":17,"map":"pl_borneo","folder":"tf","game":"Team Fortress","app_id":440,"player_count":24,"max_players":24,"Bots":0,"server_type":"Dedicated","server_os":"Linux","password":true,"vac":true,"version":"7961495","steam_id":85568392924515191,"keywords":["nocrits","nodmgspread","payload","uncletopia"],"game_id":440,"stv_port":27036,"stv_name":"Uncletopia | Chicago | 3 | All Maps | STV","players":[{"user_id":272,"name":"det ringme","steam_id":76561198170859755,"connected_time":2113000000000,"state":"active","ping":75},{"user_id":251,"name":"El Bondin","steam_id":76561198820792434,"connected_time":3261000000000,"state":"active","ping":100},{"user_id":282,"name":"Mega_Man23","steam_id":76561198138341391,"connected_time":1107000000000,"state":"active","ping":60},{"user_id":299,"name":"Letters","steam_id":76561198035508148,"connected_time":62000000000,"state":"active","ping":63},{"user_id":273,"name":"THE WIND IS PUSHING ME","steam_id":76561197993151595,"connected_time":2050000000000,"state":"active","ping":86},{"user_id":285,"name":"QueenCity","steam_id":76561199228037385,"connected_time":425000000000,"state":"active","ping":68},{"user_id":291,"name":"e doctor","steam_id":76561198081851446,"connected_time":186000000000,"state":"active","ping":46},{"user_id":287,"name":"Brastion","steam_id":76561198257707303,"connected_time":323000000000,"state":"active","ping":75},{"user_id":232,"name":"crox","steam_id":76561199024792831,"connected_time":3928000000000,"state":"active","ping":63},{"user_id":288,"name":"Average 2fort Enjoyer","steam_id":76561199041245415,"connected_time":261000000000,"state":"active","ping":74},{"user_id":289,"name":"Dragus","steam_id":76561198032967285,"connected_time":237000000000,"state":"active","ping":47},{"user_id":301,"name":"mr.edderkopper","steam_id":76561198152614478,"connected_time":37000000000,"state":"active","ping":47},{"user_id":290,"name":"KaosInfinite","steam_id":76561198009126350,"connected_time":225000000000,"state":"active","ping":91},{"user_id":248,"name":"SK54","steam_id":76561198262038276,"connected_time":3277000000000,"state":"active","ping":61},{"user_id":293,"name":"get scrongled, idiot","steam_id":76561198115874625,"connected_time":137000000000,"state":"active","ping":73},{"user_id":294,"name":"TheSmokingMan","steam_id":76561198032652995,"connected_time":135000000000,"state":"active","ping":69},{"user_id":284,"name":"Eweliffervin","steam_id":76561198045118478,"connected_time":811000000000,"state":"active","ping":71},{"user_id":295,"name":"Cobalt","steam_id":76561198353896624,"connected_time":135000000000,"state":"active","ping":98},{"user_id":296,"name":"jorjor wells","steam_id":76561199073429082,"connected_time":122000000000,"state":"active","ping":71},{"user_id":283,"name":"Nefy","steam_id":76561198030017316,"connected_time":1091000000000,"state":"active","ping":78},{"user_id":297,"name":"I. C. Wiener","steam_id":76561198062777610,"connected_time":104000000000,"state":"active","ping":100},{"user_id":298,"name":"Kerosene","steam_id":76561198025479618,"connected_time":98000000000,"state":"active","ping":64},{"user_id":300,"name":"Legit_Jaxer","steam_id":76561198172234053,"connected_time":52000000000,"state":"active","ping":131},{"user_id":264,"name":"Joseph Stalin","steam_id":76561198126234142,"connected_time":2977000000000,"state":"active","ping":73}]},{"server_id":403,"name":"Uncletopia | Chicago | 4 | All Maps","name_short":"chi-4","host":"chi-1.us.uncletopia.com","port":27045,"enabled":true,"region":"us-central","cc":"us","latitude":41.881832,"longitude":-87.62318,"reserved":0,"last_update":"0001-01-01T00:00:00Z","name_a2s":"Uncletopia | Chicago | 4 | All Maps","protocol":17,"map":"koth_lazarus","folder":"tf","game":"Team Fortress","app_id":440,"player_count":24,"max_players":24,"Bots":0,"server_type":"Dedicated","server_os":"Linux","password":true,"vac":true,"version":"7961495","steam_id":85568392924515193,"keywords":["cp","nocrits","nodmgspread","uncletopia"],"game_id":440,"stv_port":27046,"stv_name":"Uncletopia | Chicago | 4 | All Maps | STV","players":[{"user_id":14,"name":"Kitchen Sink Gaming","steam_id":76561198930293420,"connected_time":2510000000000,"state":"active","ping":70},{"user_id":15,"name":"Mosquito Born Illness Survivor","steam_id":76561198097300909,"connected_time":2453000000000,"state":"active","ping":59},{"user_id":57,"name":"anonpain","steam_id":76561198081317092,"connected_time":28000000000,"state":"active","ping":56},{"user_id":51,"name":"obser","steam_id":76561199039337171,"connected_time":510000000000,"state":"active","ping":74},{"user_id":25,"name":"ttv/ shouleil","steam_id":76561198970370243,"connected_time":1514000000000,"state":"active","ping":59},{"user_id":20,"name":"twitch.tv/firepow10","steam_id":76561198111259720,"connected_time":1864000000000,"state":"active","ping":74},{"user_id":58,"name":"Just a BLU Toon","steam_id":76561198273199771,"connected_time":13000000000,"state":"spawning","ping":109},{"user_id":22,"name":"san","steam_id":76561198051928674,"connected_time":1736000000000,"state":"active","ping":57},{"user_id":52,"name":"chikin.sauce","steam_id":76561198042464635,"connected_time":445000000000,"state":"active","ping":85},{"user_id":24,"name":"Smashy","steam_id":76561198030704307,"connected_time":1574000000000,"state":"active","ping":79},{"user_id":44,"name":"uh oh stinky","steam_id":76561198240881488,"connected_time":872000000000,"state":"active","ping":59},{"user_id":27,"name":"Osteo-Oligarch","steam_id":76561198164731896,"connected_time":1485000000000,"state":"active","ping":68},{"user_id":45,"name":"alfredodan #playingwithfans","steam_id":76561198025011044,"connected_time":845000000000,"state":"active","ping":77},{"user_id":53,"name":"Do Online Now Guys","steam_id":76561198120551862,"connected_time":400000000000,"state":"active","ping":61},{"user_id":48,"name":"Allen Poe","steam_id":76561198115937355,"connected_time":841000000000,"state":"active","ping":61},{"user_id":32,"name":"Soy King","steam_id":76561198263025614,"connected_time":1062000000000,"state":"active","ping":89},{"user_id":49,"name":"SpongedSocks","steam_id":76561198374009086,"connected_time":737000000000,"state":"active","ping":60},{"user_id":55,"name":"SleepiestCrow","steam_id":76561198042018679,"connected_time":312000000000,"state":"active","ping":58},{"user_id":47,"name":"Low Tier All Class Unusual","steam_id":76561198378587138,"connected_time":845000000000,"state":"active","ping":74},{"user_id":56,"name":"Anomalous Materials Scientist","steam_id":76561198092542997,"connected_time":215000000000,"state":"active","ping":64},{"user_id":38,"name":"Glump","steam_id":76561198068199307,"connected_time":967000000000,"state":"active","ping":61},{"user_id":39,"name":"Turtleball","steam_id":76561198039375711,"connected_time":949000000000,"state":"active","ping":57},{"user_id":43,"name":"Fenn(e)","steam_id":76561198333101532,"connected_time":882000000000,"state":"active","ping":79},{"user_id":42,"name":"the keebler","steam_id":76561199486326945,"connected_time":910000000000,"state":"active","ping":79}]},{"server_id":36,"name":"Uncletopia | Chicago | 5 | All Maps","name_short":"chi-5","host":"chi-2.us.uncletopia.com","port":27015,"enabled":true,"region":"us-central","cc":"us","latitude":41.881832,"longitude":-87.62318,"reserved":0,"last_update":"0001-01-01T00:00:00Z","name_a2s":"Uncletopia | Chicago | 5 | All Maps","protocol":17,"map":"pl_badwater","folder":"tf","game":"Team Fortress","app_id":440,"player_count":0,"max_players":24,"Bots":0,"server_type":"Dedicated","server_os":"Linux","password":true,"vac":true,"version":"7961495","steam_id":85568392924866362,"keywords":["nocrits","nodmgspread","payload","uncletopia"],"game_id":440,"stv_port":27016,"stv_name":"Uncletopia | Chicago | 5 | All Maps | STV","players":null},{"server_id":37,"name":"Uncletopia | Chicago | 6 | All Maps","name_short":"chi-6","host":"chi-2.us.uncletopia.com","port":27025,"enabled":true,"region":"us-central","cc":"us","latitude":41.881832,"longitude":-87.62318,"reserved":0,"last_update":"0001-01-01T00:00:00Z","name_a2s":"Uncletopia | Chicago | 6 | All Maps","protocol":17,"map":"koth_highpass","folder":"tf","game":"Team Fortress","app_id":440,"player_count":0,"max_players":24,"Bots":0,"server_type":"Dedicated","server_os":"Linux","password":true,"vac":true,"version":"7961495","steam_id":85568392924866363,"keywords":["cp","nocrits","nodmgspread","uncletopia"],"game_id":440,"stv_port":27026,"stv_name":"Uncletopia | Chicago | 6 | All Maps | STV","players":null},{"server_id":38,"name":"Uncletopia | Chicago | 7 | Stopwatch","name_short":"chi-7","host":"chi-2.us.uncletopia.com","port":27035,"enabled":true,"region":"us-central","cc":"us","latitude":41.881832,"longitude":-87.62318,"reserved":0,"last_update":"0001-01-01T00:00:00Z","name_a2s":"Uncletopia | Chicago | 7 | Stopwatch","protocol":17,"map":"pl_borneo","folder":"tf","game":"Team Fortress","app_id":440,"player_count":0,"max_players":24,"Bots":0,"server_type":"Dedicated","server_os":"Linux","password":true,"vac":true,"version":"7961495","steam_id":85568392924866364,"keywords":["nocrits","nodmgspread","payload","uncletopia"],"game_id":440,"stv_port":27036,"stv_name":"Uncletopia | Chicago | 7 | Stopwatch | STV","players":null},{"server_id":39,"name":"Uncletopia | Chicago | 8 | Community","name_short":"chi-8","host":"chi-2.us.uncletopia.com","port":27045,"enabled":true,"region":"us-central","cc":"us","latitude":41.881832,"longitude":-87.62318,"reserved":0,"last_update":"0001-01-01T00:00:00Z","name_a2s":"Uncletopia | Chicago | 8 | Community","protocol":17,"map":"workshop/koth_slaughter_rc1.ugc1712845210","folder":"tf","game":"Team Fortress","app_id":440,"player_count":0,"max_players":24,"Bots":0,"server_type":"Dedicated","server_os":"Linux","password":true,"vac":true,"version":"7961495","steam_id":85568392924866365,"keywords":["cp","nocrits","nodmgspread","uncletopia"],"game_id":440,"stv_port":27046,"stv_name":"Uncletopia | Chicago | 8 | Community | STV","players":null},{"server_id":8,"name":"Uncletopia | Dallas | 1 | All Maps","name_short":"dal-1","host":"dal-1.us.uncletopia.com","port":27015,"enabled":true,"region":"us-central","cc":"us","latitude":32.779167,"longitude":-96.80889,"reserved":0,"last_update":"0001-01-01T00:00:00Z","name_a2s":"Uncletopia | Dallas | 1 | All Maps","protocol":17,"map":"pl_upward","folder":"tf","game":"Team Fortress","app_id":440,"player_count":15,"max_players":24,"Bots":0,"server_type":"Dedicated","server_os":"Linux","password":true,"vac":true,"version":"7961495","steam_id":85568392924469986,"keywords":["nocrits","nodmgspread","payload","uncletopia"],"game_id":440,"stv_port":27016,"stv_name":"Uncletopia | Dallas | 1 | All Maps | STV","players":[{"user_id":209,"name":"crustycheeseblock","steam_id":76561198947654861,"connected_time":1103000000000,"state":"active","ping":37},{"user_id":201,"name":"Thunder_str1k3s","steam_id":76561198831698049,"connected_time":1656000000000,"state":"active","ping":82},{"user_id":210,"name":"TheMan","steam_id":76561199083537308,"connected_time":1051000000000,"state":"active","ping":77},{"user_id":219,"name":"Shattered Glass","steam_id":76561198116835391,"connected_time":505000000000,"state":"active","ping":86},{"user_id":205,"name":"Dr. Han","steam_id":76561198811130843,"connected_time":1359000000000,"state":"active","ping":87},{"user_id":222,"name":"MeMyBongusAndTheGreatOutdoors","steam_id":76561198097708978,"connected_time":69000000000,"state":"active","ping":46},{"user_id":213,"name":"locked cathode tube","steam_id":76561198085044565,"connected_time":659000000000,"state":"active","ping":88},{"user_id":208,"name":"Dementophobic_Dude","steam_id":76561199470601524,"connected_time":1194000000000,"state":"active","ping":72},{"user_id":196,"name":"The janitor(El coyote)","steam_id":76561198414300607,"connected_time":2302000000000,"state":"active","ping":72},{"user_id":214,"name":"10,932,182 Views","steam_id":76561198392913430,"connected_time":625000000000,"state":"active","ping":231},{"user_id":216,"name":"ihave80hp","steam_id":76561199251621911,"connected_time":569000000000,"state":"active","ping":47},{"user_id":221,"name":"ShapedSilver","steam_id":76561199073305310,"connected_time":359000000000,"state":"active","ping":50},{"user_id":187,"name":"Colonel Knacker","steam_id":76561198151578423,"connected_time":2507000000000,"state":"active","ping":53},{"user_id":223,"name":"Flower","steam_id":76561198075443147,"connected_time":33000000000,"state":"active","ping":181},{"user_id":199,"name":"ExplosiveGamer21","steam_id":76561198132370955,"connected_time":2238000000000,"state":"active","ping":75}]},{"server_id":108,"name":"Uncletopia | Dallas | 2 | All Maps","name_short":"dal-2","host":"dal-1.us.uncletopia.com","port":27025,"enabled":true,"region":"us-central","cc":"us","latitude":32.779167,"longitude":-96.80889,"reserved":0,"last_update":"0001-01-01T00:00:00Z","name_a2s":"Uncletopia | Dallas | 2 | All Maps","protocol":17,"map":"pl_snowycoast","folder":"tf","game":"Team Fortress","app_id":440,"player_count":0,"max_players":24,"Bots":0,"server_type":"Dedicated","server_os":"Linux","password":true,"vac":true,"version":"7961495","steam_id":85568392924469988,"keywords":["nocrits","nodmgspread","payload","uncletopia"],"game_id":440,"stv_port":27026,"stv_name":"Uncletopia | Dallas | 2 | All Maps | STV","players":null},{"server_id":404,"name":"Uncletopia | Dallas | 3 | All Maps","name_short":"dal-3","host":"dal-1.us.uncletopia.com","port":27035,"enabled":true,"region":"us-central","cc":"us","latitude":32.779167,"longitude":-96.80889,"reserved":0,"last_update":"0001-01-01T00:00:00Z","name_a2s":"Uncletopia | Dallas | 3 | All Maps","protocol":17,"map":"pl_swiftwater_final1","folder":"tf","game":"Team Fortress","app_id":440,"player_count":23,"max_players":24,"Bots":0,"server_type":"Dedicated","server_os":"Linux","password":true,"vac":true,"version":"7961495","steam_id":85568392924515219,"keywords":["nocrits","nodmgspread","payload","uncletopia"],"game_id":440,"stv_port":27036,"stv_name":"Uncletopia | Dallas | 3 | All Maps | STV","players":[{"user_id":236,"name":"astrobob911","steam_id":76561199099110654,"connected_time":1835000000000,"state":"active","ping":97},{"user_id":232,"name":"BrainlezBrainiac","steam_id":76561199193942805,"connected_time":1960000000000,"state":"active","ping":70},{"user_id":231,"name":"leumas","steam_id":76561198240408540,"connected_time":1984000000000,"state":"active","ping":89},{"user_id":230,"name":"5k RPM","steam_id":76561198926416886,"connected_time":2103000000000,"state":"active","ping":66},{"user_id":244,"name":"fr","steam_id":76561198327633561,"connected_time":1653000000000,"state":"active","ping":75},{"user_id":235,"name":"sunny4182","steam_id":76561198069380992,"connected_time":1926000000000,"state":"active","ping":58},{"user_id":245,"name":"Woomy","steam_id":76561198070242372,"connected_time":1632000000000,"state":"active","ping":63},{"user_id":254,"name":"Fluffy_Toast","steam_id":76561199120045918,"connected_time":330000000000,"state":"active","ping":78},{"user_id":253,"name":"Squiggle","steam_id":76561198257197535,"connected_time":351000000000,"state":"active","ping":71},{"user_id":241,"name":"Riff III","steam_id":76561198066921423,"connected_time":1718000000000,"state":"active","ping":55},{"user_id":238,"name":"krd","steam_id":76561198347660282,"connected_time":1808000000000,"state":"active","ping":109},{"user_id":180,"name":"fish","steam_id":76561198111396488,"connected_time":4805000000000,"state":"active","ping":47},{"user_id":213,"name":"Ice","steam_id":76561198045076794,"connected_time":2866000000000,"state":"active","ping":72},{"user_id":166,"name":"Ryoko","steam_id":76561198084725087,"connected_time":6228000000000,"state":"active","ping":99},{"user_id":239,"name":"SanitysEdge","steam_id":76561198130732813,"connected_time":1805000000000,"state":"active","ping":77},{"user_id":240,"name":"LeFunnyMan","steam_id":76561199081645289,"connected_time":1791000000000,"state":"active","ping":64},{"user_id":135,"name":"DMM","steam_id":76561198065426171,"connected_time":8246000000000,"state":"active","ping":59},{"user_id":246,"name":"turingsghost","steam_id":76561198029318657,"connected_time":1622000000000,"state":"active","ping":39},{"user_id":255,"name":"Precious from \"Precious\"","steam_id":76561199170057249,"connected_time":324000000000,"state":"active","ping":49},{"user_id":190,"name":"BOTH | Sunshine","steam_id":76561198885528098,"connected_time":4526000000000,"state":"active","ping":94},{"user_id":251,"name":"9/11 Airlines","steam_id":76561198096306325,"connected_time":524000000000,"state":"active","ping":78},{"user_id":256,"name":"Shyki","steam_id":76561199146984256,"connected_time":72000000000,"state":"active","ping":81},{"user_id":225,"name":"guy","steam_id":76561198079925551,"connected_time":2462000000000,"state":"active","ping":89}]},{"server_id":405,"name":"Uncletopia | Dallas | 4 | Community","name_short":"dal-4","host":"dal-1.us.uncletopia.com","port":27045,"enabled":true,"region":"us-central","cc":"us","latitude":32.779167,"longitude":-96.80889,"reserved":0,"last_update":"0001-01-01T00:00:00Z","name_a2s":"Uncletopia | Dallas | 4 | Community","protocol":17,"map":"workshop/koth_synthetic_rc6a.ugc1549817316","folder":"tf","game":"Team Fortress","app_id":440,"player_count":0,"max_players":24,"Bots":0,"server_type":"Dedicated","server_os":"Linux","password":true,"vac":true,"version":"7961495","steam_id":85568392924515220,"keywords":["cp","nocrits","nodmgspread","uncletopia"],"game_id":440,"stv_port":27046,"stv_name":"Uncletopia | Dallas | 4 | Community | STV","players":null},{"server_id":5,"name":"Uncletopia | Frankfurt | 1 | All Maps","name_short":"frk-1","host":"frk-1.de.uncletopia.com","port":27015,"enabled":true,"region":"eu","cc":"de","latitude":50.110924,"longitude":8.682127,"reserved":0,"last_update":"0001-01-01T00:00:00Z","name_a2s":"Uncletopia | Frankfurt | 1 | All Maps","protocol":17,"map":"pl_pier","folder":"tf","game":"Team Fortress","app_id":440,"player_count":23,"max_players":24,"Bots":0,"server_type":"Dedicated","server_os":"Linux","password":true,"vac":true,"version":"7961495","steam_id":85568392924469989,"keywords":["nocrits","nodmgspread","payload","uncletopia"],"game_id":440,"stv_port":27016,"stv_name":"Uncletopia | Frankfurt | 1 | All Maps | STV","players":[{"user_id":885,"name":"romos","steam_id":76561199123161420,"connected_time":2189000000000,"state":"active","ping":54},{"user_id":946,"name":"Vermuth","steam_id":76561198013515390,"connected_time":405000000000,"state":"active","ping":51},{"user_id":871,"name":"RIBS GROW BACK","steam_id":76561198123659806,"connected_time":3320000000000,"state":"active","ping":75},{"user_id":897,"name":"Kildon","steam_id":76561198134661558,"connected_time":1563000000000,"state":"active","ping":88},{"user_id":896,"name":"Rahu 'Siebren' Godless","steam_id":76561198276259175,"connected_time":1585000000000,"state":"active","ping":99},{"user_id":944,"name":"Wild_Xray26","steam_id":76561198059386050,"connected_time":431000000000,"state":"active","ping":75},{"user_id":855,"name":"Davido01","steam_id":76561198089406245,"connected_time":4349000000000,"state":"active","ping":59},{"user_id":947,"name":"dre","steam_id":76561198252628006,"connected_time":393000000000,"state":"active","ping":60},{"user_id":881,"name":"omnibombulator","steam_id":76561198025858897,"connected_time":2569000000000,"state":"active","ping":59},{"user_id":878,"name":"VIN WEASEL","steam_id":76561198014387066,"connected_time":2992000000000,"state":"active","ping":44},{"user_id":933,"name":"Barbiehunter #SaveTF2","steam_id":76561198071630928,"connected_time":710000000000,"state":"active","ping":45},{"user_id":875,"name":"Doruk Küçükduman","steam_id":76561198399815628,"connected_time":3167000000000,"state":"active","ping":73},{"user_id":814,"name":"Carl","steam_id":76561198045638738,"connected_time":6804000000000,"state":"active","ping":59},{"user_id":919,"name":"mug","steam_id":76561198128067979,"connected_time":1069000000000,"state":"active","ping":43},{"user_id":912,"name":"=OKB= P4NTH3R","steam_id":76561197999204603,"connected_time":1273000000000,"state":"active","ping":52},{"user_id":865,"name":"anders McFlanders","steam_id":76561198022811995,"connected_time":3857000000000,"state":"active","ping":53},{"user_id":819,"name":"cheriberry","steam_id":76561198093577036,"connected_time":6665000000000,"state":"active","ping":59},{"user_id":949,"name":"Rigby","steam_id":76561198021552128,"connected_time":176000000000,"state":"active","ping":79},{"user_id":910,"name":"Leviticus Cornwall","steam_id":76561197993702685,"connected_time":1286000000000,"state":"active","ping":70},{"user_id":884,"name":"Team Discovery Channel!","steam_id":76561198007653168,"connected_time":2353000000000,"state":"active","ping":71},{"user_id":948,"name":"Bigworldguy","steam_id":76561198998378933,"connected_time":392000000000,"state":"active","ping":61},{"user_id":879,"name":"fettuccine alfredo","steam_id":76561198134596219,"connected_time":2930000000000,"state":"active","ping":60},{"user_id":911,"name":"hawkblob","steam_id":76561198803720565,"connected_time":1285000000000,"state":"active","ping":77}]},{"server_id":110,"name":"Uncletopia | Frankfurt | 2 | All Maps","name_short":"frk-2","host":"frk-1.de.uncletopia.com","port":27025,"enabled":true,"region":"eu","cc":"de","latitude":50.110924,"longitude":8.682127,"reserved":0,"last_update":"0001-01-01T00:00:00Z","name_a2s":"Uncletopia | Frankfurt | 2 | All Maps","protocol":17,"map":"cp_dustbowl","folder":"tf","game":"Team Fortress","app_id":440,"player_count":22,"max_players":24,"Bots":0,"server_type":"Dedicated","server_os":"Linux","password":true,"vac":true,"version":"7961495","steam_id":85568392924469990,"keywords":["cp","nocrits","nodmgspread","uncletopia"],"game_id":440,"stv_port":27026,"stv_name":"Uncletopia | Frankfurt | 2 | All Maps | STV","players":[{"user_id":506,"name":"Spinya","steam_id":76561198086653667,"connected_time":5685000000000,"state":"active","ping":67},{"user_id":530,"name":"jagermeister madness","steam_id":76561198324357479,"connected_time":4132000000000,"state":"active","ping":75},{"user_id":598,"name":"ok","steam_id":76561198320042443,"connected_time":679000000000,"state":"active","ping":103},{"user_id":607,"name":"joni","steam_id":76561198413766717,"connected_time":75000000000,"state":"active","ping":52},{"user_id":608,"name":"mr.resetti","steam_id":76561198974520642,"connected_time":28000000000,"state":"active","ping":49},{"user_id":529,"name":"John Doe","steam_id":76561198369597903,"connected_time":4172000000000,"state":"active","ping":86},{"user_id":576,"name":"Monkey","steam_id":76561198048385029,"connected_time":2005000000000,"state":"active","ping":58},{"user_id":582,"name":"ashley","steam_id":76561198448551449,"connected_time":1727000000000,"state":"active","ping":44},{"user_id":547,"name":"DoctorDrew","steam_id":76561197962400538,"connected_time":3375000000000,"state":"active","ping":149},{"user_id":606,"name":"★poyo★","steam_id":76561198150078959,"connected_time":107000000000,"state":"active","ping":69},{"user_id":583,"name":"_Shkoot","steam_id":76561198318170398,"connected_time":1718000000000,"state":"active","ping":51},{"user_id":599,"name":"onixed","steam_id":76561198995478547,"connected_time":660000000000,"state":"active","ping":52},{"user_id":585,"name":"Key Lyor Selph","steam_id":76561198256704286,"connected_time":1686000000000,"state":"active","ping":69},{"user_id":602,"name":"Bonca","steam_id":76561198137503531,"connected_time":456000000000,"state":"active","ping":75},{"user_id":554,"name":"Lance Corporal Boiled Egg","steam_id":76561197989717358,"connected_time":2880000000000,"state":"active","ping":54},{"user_id":541,"name":"Blu","steam_id":76561198147814781,"connected_time":3747000000000,"state":"active","ping":71},{"user_id":600,"name":"cold#panda","steam_id":76561199220136710,"connected_time":657000000000,"state":"active","ping":127},{"user_id":601,"name":"giogg155","steam_id":76561198963892339,"connected_time":628000000000,"state":"active","ping":92},{"user_id":507,"name":"DudeoftheRock","steam_id":76561198059401865,"connected_time":5682000000000,"state":"active","ping":71},{"user_id":569,"name":"Hurans","steam_id":76561198064853199,"connected_time":2232000000000,"state":"active","ping":59},{"user_id":542,"name":"minx","steam_id":76561198075551260,"connected_time":3734000000000,"state":"active","ping":94}]},{"server_id":308,"name":"Uncletopia | Frankfurt | 3 | All Maps","name_short":"frk-3","host":"frk-1.de.uncletopia.com","port":27035,"enabled":true,"region":"eu","cc":"de","latitude":50.110924,"longitude":8.682127,"reserved":0,"last_update":"0001-01-01T00:00:00Z","name_a2s":"Uncletopia | Frankfurt | 3 | All Maps","protocol":17,"map":"cp_process_final","folder":"tf","game":"Team Fortress","app_id":440,"player_count":24,"max_players":24,"Bots":0,"server_type":"Dedicated","server_os":"Linux","password":true,"vac":true,"version":"7961495","steam_id":85568392924504274,"keywords":["cp","nocrits","nodmgspread","uncletopia"],"game_id":440,"stv_port":27036,"stv_name":"Uncletopia | Frankfurt | 3 | All Maps | STV","players":[{"user_id":456,"name":"Over Extended","steam_id":76561199089290269,"connected_time":443000000000,"state":"active","ping":62},{"user_id":457,"name":"Nithle","steam_id":76561198025372740,"connected_time":394000000000,"state":"active","ping":45},{"user_id":458,"name":"Koroshy","steam_id":76561198104002221,"connected_time":384000000000,"state":"active","ping":51},{"user_id":463,"name":"The Lady","steam_id":76561198029895809,"connected_time":268000000000,"state":"active","ping":75},{"user_id":425,"name":"Sch","steam_id":76561198071341689,"connected_time":2300000000000,"state":"active","ping":53},{"user_id":428,"name":"tallen","steam_id":76561198061708595,"connected_time":2028000000000,"state":"active","ping":84},{"user_id":392,"name":"Endy","steam_id":76561198252942184,"connected_time":4215000000000,"state":"active","ping":96},{"user_id":453,"name":"spillr-.-","steam_id":76561198031330889,"connected_time":753000000000,"state":"active","ping":46},{"user_id":460,"name":"slippin jimmy","steam_id":76561198090788590,"connected_time":358000000000,"state":"active","ping":45},{"user_id":363,"name":"monocle chicken","steam_id":76561199020106029,"connected_time":6609000000000,"state":"active","ping":79},{"user_id":461,"name":"Petight","steam_id":76561197999438798,"connected_time":317000000000,"state":"active","ping":45},{"user_id":470,"name":"the grongle","steam_id":76561198989398023,"connected_time":40000000000,"state":"active","ping":107},{"user_id":400,"name":"Final","steam_id":76561199002963056,"connected_time":4022000000000,"state":"active","ping":51},{"user_id":464,"name":".....","steam_id":76561198819901435,"connected_time":222000000000,"state":"active","ping":79},{"user_id":465,"name":"ant753","steam_id":76561198103458889,"connected_time":221000000000,"state":"active","ping":64},{"user_id":451,"name":"Skatnaset","steam_id":76561198298457353,"connected_time":817000000000,"state":"active","ping":62},{"user_id":466,"name":"Mr. Hunts","steam_id":76561197981910397,"connected_time":193000000000,"state":"active","ping":72},{"user_id":467,"name":"zak","steam_id":76561197998895428,"connected_time":186000000000,"state":"active","ping":60},{"user_id":455,"name":"✪Beer☭","steam_id":76561198129884760,"connected_time":488000000000,"state":"active","ping":61},{"user_id":468,"name":"꒒ꍏꈤ꓄ꍟꋪꈤ","steam_id":76561198994857134,"connected_time":133000000000,"state":"active","ping":129},{"user_id":469,"name":"Kappa","steam_id":76561198089341471,"connected_time":86000000000,"state":"active","ping":60},{"user_id":432,"name":"Arc","steam_id":76561198805049375,"connected_time":1877000000000,"state":"active","ping":59},{"user_id":412,"name":"donatofina","steam_id":76561198353497885,"connected_time":3598000000000,"state":"active","ping":96},{"user_id":382,"name":"breadbear \u003c3","steam_id":76561198036895007,"connected_time":5312000000000,"state":"active","ping":87}]},{"server_id":309,"name":"Uncletopia | Frankfurt | 4 | All Maps","name_short":"frk-4","host":"frk-1.de.uncletopia.com","port":27045,"enabled":true,"region":"eu","cc":"de","latitude":50.110924,"longitude":8.682127,"reserved":0,"last_update":"0001-01-01T00:00:00Z","name_a2s":"Uncletopia | Frankfurt | 4 | All Maps","protocol":17,"map":"ctf_2fort","folder":"tf","game":"Team Fortress","app_id":440,"player_count":19,"max_players":24,"Bots":0,"server_type":"Dedicated","server_os":"Linux","password":true,"vac":true,"version":"7961495","steam_id":85568392924504275,"keywords":["ctf","nocrits","nodmgspread","uncletopia"],"game_id":440,"stv_port":27046,"stv_name":"Uncletopia | Frankfurt | 4 | All Maps | STV","players":[{"user_id":278,"name":"♥Medical student♥","steam_id":76561199119401415,"connected_time":3929000000000,"state":"active","ping":127},{"user_id":274,"name":"StarDoc2222","steam_id":76561199389114520,"connected_time":4076000000000,"state":"active","ping":138},{"user_id":297,"name":"Musicano","steam_id":76561198114541088,"connected_time":2910000000000,"state":"active","ping":78},{"user_id":322,"name":"HayLeX","steam_id":76561198130997343,"connected_time":545000000000,"state":"active","ping":71},{"user_id":326,"name":"G_raff","steam_id":76561199048512726,"connected_time":266000000000,"state":"active","ping":74},{"user_id":271,"name":"Lauchboiz | Unterlippen-Eddy","steam_id":76561198039793350,"connected_time":4181000000000,"state":"active","ping":44},{"user_id":325,"name":"max","steam_id":76561198039534890,"connected_time":470000000000,"state":"active","ping":60},{"user_id":316,"name":"Meam19","steam_id":76561198183562071,"connected_time":1415000000000,"state":"active","ping":59},{"user_id":315,"name":"ran is running","steam_id":76561199443185667,"connected_time":1491000000000,"state":"active","ping":129},{"user_id":328,"name":"TriThePenguin","steam_id":76561199434164421,"connected_time":45000000000,"state":"spawning","ping":318},{"user_id":329,"name":"DRYG","steam_id":76561197994299134,"connected_time":17000000000,"state":"active","ping":60},{"user_id":330,"name":"HazelForest","steam_id":76561198171827033,"connected_time":15000000000,"state":"active","ping":50},{"user_id":209,"name":"dog?","steam_id":76561199232839385,"connected_time":8851000000000,"state":"active","ping":88},{"user_id":269,"name":"Lauchboiz | Bannic","steam_id":76561198060362129,"connected_time":4288000000000,"state":"active","ping":45},{"user_id":298,"name":"Kral1003","steam_id":76561198813600089,"connected_time":2901000000000,"state":"active","ping":80},{"user_id":310,"name":"1995 Lexus LS400 II XF20 1UZ-FE","steam_id":76561199036420464,"connected_time":2198000000000,"state":"active","ping":69},{"user_id":300,"name":"DeterminedXD[HUN]","steam_id":76561199469006453,"connected_time":2866000000000,"state":"active","ping":80},{"user_id":265,"name":"moseley519","steam_id":76561198045485374,"connected_time":4828000000000,"state":"active","ping":56},{"user_id":233,"name":"Carry Krypl","steam_id":76561198136938121,"connected_time":7100000000000,"state":"active","ping":45}]},{"server_id":310,"name":"Uncletopia | Frankfurt | 5 | All Maps","name_short":"frk-5","host":"frk-1.de.uncletopia.com","port":27055,"enabled":true,"region":"eu","cc":"de","latitude":50.110924,"longitude":8.682127,"reserved":0,"last_update":"0001-01-01T00:00:00Z","name_a2s":"Uncletopia | Frankfurt | 5 | All Maps","protocol":17,"map":"pl_badwater","folder":"tf","game":"Team Fortress","app_id":440,"player_count":23,"max_players":24,"Bots":0,"server_type":"Dedicated","server_os":"Linux","password":true,"vac":true,"version":"7961495","steam_id":85568392924504277,"keywords":["nocrits","nodmgspread","payload","uncletopia"],"game_id":440,"stv_port":27056,"stv_name":"Uncletopia | Frankfurt | 5 | All Maps | STV","players":[{"user_id":479,"name":"TylowStar","steam_id":76561198357107806,"connected_time":4751000000000,"state":"active","ping":74},{"user_id":517,"name":"AWP Bodyshot :) ❤","steam_id":76561198029928533,"connected_time":1587000000000,"state":"active","ping":45},{"user_id":540,"name":"KLAMA  ❤","steam_id":76561198351549661,"connected_time":191000000000,"state":"active","ping":66},{"user_id":521,"name":"BuzzBees ❤","steam_id":76561198101502273,"connected_time":1126000000000,"state":"active","ping":61},{"user_id":534,"name":"R A S M U S","steam_id":76561198279799226,"connected_time":697000000000,"state":"active","ping":84},{"user_id":468,"name":"compact disc","steam_id":76561198154677956,"connected_time":5594000000000,"state":"active","ping":60},{"user_id":538,"name":"RoastedPotato","steam_id":76561199031811033,"connected_time":296000000000,"state":"active","ping":59},{"user_id":537,"name":"Švarcas","steam_id":76561198841646694,"connected_time":390000000000,"state":"active","ping":68},{"user_id":523,"name":"doomer","steam_id":76561198977420882,"connected_time":1103000000000,"state":"active","ping":49},{"user_id":541,"name":"rockBustaz","steam_id":76561198088290698,"connected_time":116000000000,"state":"active","ping":47},{"user_id":508,"name":"igvanhoute","steam_id":76561199509386378,"connected_time":2342000000000,"state":"active","ping":60},{"user_id":542,"name":"Hundehunde (137)","steam_id":76561198028683991,"connected_time":108000000000,"state":"active","ping":47},{"user_id":510,"name":"3L","steam_id":76561198007208996,"connected_time":2013000000000,"state":"active","ping":43},{"user_id":481,"name":"Supercoxylac","steam_id":76561198376300138,"connected_time":4461000000000,"state":"active","ping":62},{"user_id":530,"name":"MISTER SIUUU","steam_id":76561198018330092,"connected_time":747000000000,"state":"active","ping":62},{"user_id":490,"name":"jeff","steam_id":76561198272815746,"connected_time":3737000000000,"state":"active","ping":59},{"user_id":543,"name":"executive producer larry david","steam_id":76561198057868438,"connected_time":35000000000,"state":"active","ping":53},{"user_id":494,"name":"General Solemeni from TF2","steam_id":76561198261001389,"connected_time":3238000000000,"state":"active","ping":57},{"user_id":503,"name":"yipieeee :DDD","steam_id":76561198076219289,"connected_time":2699000000000,"state":"active","ping":52},{"user_id":520,"name":"Haha?","steam_id":76561198056882245,"connected_time":1168000000000,"state":"active","ping":46},{"user_id":535,"name":"Udinese Dion","steam_id":76561198067931573,"connected_time":577000000000,"state":"active","ping":63},{"user_id":536,"name":"Spotmonkey","steam_id":76561198003994092,"connected_time":546000000000,"state":"active","ping":58},{"user_id":515,"name":"KittyKate ❤","steam_id":76561198116340817,"connected_time":1821000000000,"state":"active","ping":67}]},{"server_id":311,"name":"Uncletopia | Frankfurt | 6 | All Maps","name_short":"frk-6","host":"frk-1.de.uncletopia.com","port":27065,"enabled":true,"region":"eu","cc":"de","latitude":50.110924,"longitude":8.682127,"reserved":0,"last_update":"0001-01-01T00:00:00Z","name_a2s":"Uncletopia | Frankfurt | 6 | All Maps","protocol":17,"map":"pl_borneo","folder":"tf","game":"Team Fortress","app_id":440,"player_count":19,"max_players":24,"Bots":0,"server_type":"Dedicated","server_os":"Linux","password":true,"vac":true,"version":"7961495","steam_id":85568392924504278,"keywords":["nocrits","nodmgspread","payload","uncletopia"],"game_id":440,"stv_port":27066,"stv_name":"Uncletopia | Frankfurt | 6 | All Maps | STV","players":[{"user_id":426,"name":"DEFENDOR62","steam_id":76561199386703896,"connected_time":73000000000,"state":"active","ping":52},{"user_id":428,"name":"three rats in a trenchcoat","steam_id":76561197983889333,"connected_time":19000000000,"state":"active","ping":50},{"user_id":356,"name":"Estamie","steam_id":76561198058527691,"connected_time":5047000000000,"state":"active","ping":60},{"user_id":420,"name":"Гипер_Беброид","steam_id":76561198818209120,"connected_time":1611000000000,"state":"active","ping":88},{"user_id":409,"name":"caos","steam_id":76561198151268007,"connected_time":2273000000000,"state":"active","ping":75},{"user_id":424,"name":"Behind you","steam_id":76561198102420849,"connected_time":987000000000,"state":"active","ping":61},{"user_id":427,"name":"Bobo","steam_id":76561198052308399,"connected_time":60000000000,"state":"active","ping":45},{"user_id":422,"name":"Çodar","steam_id":76561198235518444,"connected_time":1012000000000,"state":"active","ping":49},{"user_id":425,"name":"BD[PL]","steam_id":76561198115995871,"connected_time":266000000000,"state":"active","ping":65},{"user_id":412,"name":"Darkmaen","steam_id":76561198060543390,"connected_time":2146000000000,"state":"active","ping":46},{"user_id":390,"name":"bottomest g","steam_id":76561198138928548,"connected_time":3222000000000,"state":"active","ping":45},{"user_id":421,"name":"Jude!","steam_id":76561197983597798,"connected_time":1228000000000,"state":"active","ping":50},{"user_id":415,"name":"Benzo Fury","steam_id":76561198025259336,"connected_time":2074000000000,"state":"active","ping":50},{"user_id":403,"name":"Blyatwork","steam_id":76561198825379598,"connected_time":2766000000000,"state":"active","ping":44},{"user_id":400,"name":"Stoneley","steam_id":76561199182443625,"connected_time":2812000000000,"state":"active","ping":56},{"user_id":419,"name":"randem_","steam_id":76561198338793755,"connected_time":1649000000000,"state":"active","ping":51},{"user_id":407,"name":"klaymen47","steam_id":76561198007188338,"connected_time":2513000000000,"state":"active","ping":67},{"user_id":368,"name":"LadyMissfit","steam_id":76561198042236349,"connected_time":4849000000000,"state":"active","ping":65},{"user_id":423,"name":"Gugu gaga","steam_id":76561198161822358,"connected_time":1004000000000,"state":"active","ping":60}]},{"server_id":23,"name":"Uncletopia | Frankfurt | 7 | Stopwatch","name_short":"frk-7","host":"frk-1.de.uncletopia.com","port":27075,"enabled":true,"region":"eu","cc":"de","latitude":50.110924,"longitude":8.682127,"reserved":0,"last_update":"0001-01-01T00:00:00Z","name_a2s":"Uncletopia | Frankfurt | 7 | Stopwatch","protocol":17,"map":"workshop/koth_product_final.ugc454272353","folder":"tf","game":"Team Fortress","app_id":440,"player_count":0,"max_players":24,"Bots":0,"server_type":"Dedicated","server_os":"Linux","password":true,"vac":true,"version":"7961495","steam_id":85568392924742827,"keywords":["cp","nocrits","nodmgspread","uncletopia"],"game_id":440,"stv_port":27076,"stv_name":"Uncletopia | Frankfurt | 7 | Stopwatch | STV","players":null},{"server_id":24,"name":"Uncletopia | Frankfurt | 8 | Community","name_short":"frk-8","host":"frk-1.de.uncletopia.com","port":27085,"enabled":true,"region":"eu","cc":"de","latitude":50.110924,"longitude":8.682127,"reserved":0,"last_update":"0001-01-01T00:00:00Z","name_a2s":"Uncletopia | Frankfurt | 8 | Community","protocol":17,"map":"workshop/cp_indulge.ugc528106646","folder":"tf","game":"Team Fortress","app_id":440,"player_count":0,"max_players":24,"Bots":0,"server_type":"Dedicated","server_os":"Linux","password":true,"vac":true,"version":"7961495","steam_id":85568392924742828,"keywords":["cp","nocrits","nodmgspread","uncletopia"],"game_id":440,"stv_port":27086,"stv_name":"Uncletopia | Frankfurt | 8 | Community | STV","players":null},{"server_id":202,"name":"Uncletopia | Hong Kong | 1 | All Maps","name_short":"hgk-1","host":"hgk-1.hk.uncletopia.com","port":27015,"enabled":true,"region":"asia","cc":"hk","latitude":22.302711,"longitude":114.177216,"reserved":0,"last_update":"0001-01-01T00:00:00Z","name_a2s":"Uncletopia | Hong Kong | 1 | All Maps","protocol":17,"map":"koth_cascade","folder":"tf","game":"Team Fortress","app_id":440,"player_count":0,"max_players":24,"Bots":0,"server_type":"Dedicated","server_os":"Linux","password":true,"vac":true,"version":"7961495","steam_id":85568392924494504,"keywords":["cp","nocrits","nodmgspread","uncletopia"],"game_id":440,"stv_port":27016,"stv_name":"Uncletopia | Hong Kong | 1 | All Maps | STV","players":null},{"server_id":1,"name":"Uncletopia | Los Angeles | 1 | All Maps","name_short":"lax-1","host":"lax-1.us.uncletopia.com","port":27015,"enabled":true,"region":"us-west","cc":"us","latitude":33.94279,"longitude":-118.41004,"reserved":0,"last_update":"0001-01-01T00:00:00Z","name_a2s":"Uncletopia | Los Angeles | 1 | All Maps","protocol":17,"map":"pl_upward","folder":"tf","game":"Team Fortress","app_id":440,"player_count":0,"max_players":24,"Bots":0,"server_type":"Dedicated","server_os":"Linux","password":true,"vac":true,"version":"7961495","steam_id":85568392924469991,"keywords":["nocrits","nodmgspread","payload","uncletopia"],"game_id":440,"stv_port":27016,"stv_name":"Uncletopia | Los Angeles | 1 | All Maps | STV","players":null},{"server_id":112,"name":"Uncletopia | Los Angeles | 2 | All Maps","name_short":"lax-2","host":"lax-1.us.uncletopia.com","port":27025,"enabled":true,"region":"us-west","cc":"us","latitude":33.94279,"longitude":-118.41004,"reserved":0,"last_update":"0001-01-01T00:00:00Z","name_a2s":"Uncletopia | Los Angeles | 2 | All Maps","protocol":17,"map":"koth_lakeside_final","folder":"tf","game":"Team Fortress","app_id":440,"player_count":15,"max_players":24,"Bots":0,"server_type":"Dedicated","server_os":"Linux","password":true,"vac":true,"version":"7961495","steam_id":85568392924469992,"keywords":["cp","nocrits","nodmgspread","uncletopia"],"game_id":440,"stv_port":27026,"stv_name":"Uncletopia | Los Angeles | 2 | All Maps | STV","players":[{"user_id":67,"name":"edgebug b-roll","steam_id":76561198043558709,"connected_time":63000000000,"state":"active","ping":62},{"user_id":59,"name":"Salt Baron","steam_id":76561198073417386,"connected_time":960000000000,"state":"active","ping":46},{"user_id":68,"name":"EatSomeBEES","steam_id":76561198047334307,"connected_time":20000000000,"state":"active","ping":69},{"user_id":51,"name":"[girlkisser esports] transfiend","steam_id":76561198407600762,"connected_time":1890000000000,"state":"active","ping":60},{"user_id":44,"name":"Type Three Dabeetus","steam_id":76561198062710038,"connected_time":2328000000000,"state":"active","ping":37},{"user_id":45,"name":"usedhalfcart","steam_id":76561198072621852,"connected_time":2269000000000,"state":"active","ping":66},{"user_id":46,"name":"Clagger","steam_id":76561198066701092,"connected_time":2218000000000,"state":"active","ping":59},{"user_id":47,"name":"B0b-1","steam_id":76561198093902432,"connected_time":2196000000000,"state":"active","ping":77},{"user_id":60,"name":"breakfast kitty","steam_id":76561199001918194,"connected_time":922000000000,"state":"active","ping":53},{"user_id":49,"name":"Eden","steam_id":76561198045115123,"connected_time":2016000000000,"state":"active","ping":134},{"user_id":69,"name":"TemmZz","steam_id":76561199204183212,"connected_time":11000000000,"state":"active","ping":221},{"user_id":63,"name":"deeeefers","steam_id":76561198082592496,"connected_time":714000000000,"state":"active","ping":72},{"user_id":64,"name":"X0X2","steam_id":76561198418503762,"connected_time":569000000000,"state":"active","ping":135},{"user_id":65,"name":"Macro","steam_id":76561199442846226,"connected_time":510000000000,"state":"active","ping":107},{"user_id":66,"name":"Dell Conagher","steam_id":76561198269471732,"connected_time":403000000000,"state":"active","ping":75}]},{"server_id":324,"name":"Uncletopia | Los Angeles | 3 | All Maps","name_short":"lax-3","host":"lax-1.us.uncletopia.com","port":27035,"enabled":true,"region":"us-west","cc":"us","latitude":33.94279,"longitude":-118.41004,"reserved":0,"last_update":"0001-01-01T00:00:00Z","name_a2s":"Uncletopia | Los Angeles | 3 | All Maps","protocol":17,"map":"pl_hoodoo_final","folder":"tf","game":"Team Fortress","app_id":440,"player_count":0,"max_players":24,"Bots":0,"server_type":"Dedicated","server_os":"Linux","password":true,"vac":true,"version":"7961495","steam_id":85568392924510198,"keywords":["nocrits","nodmgspread","payload","uncletopia"],"game_id":440,"stv_port":27036,"stv_name":"Uncletopia | Los Angeles | 3 | All Maps | STV","players":null},{"server_id":25,"name":"Uncletopia | Los Angeles | 4 | Stopwatch","name_short":"lax-4","host":"lax-1.us.uncletopia.com","port":27045,"enabled":true,"region":"us-west","cc":"us","latitude":33.94279,"longitude":-118.41004,"reserved":0,"last_update":"0001-01-01T00:00:00Z","name_a2s":"Uncletopia | Los Angeles | 4 | Stopwatch","protocol":17,"map":"pl_upward","folder":"tf","game":"Team Fortress","app_id":440,"player_count":0,"max_players":24,"Bots":0,"server_type":"Dedicated","server_os":"Linux","password":true,"vac":true,"version":"7961495","steam_id":85568392924510199,"keywords":["nocrits","nodmgspread","payload","uncletopia"],"game_id":440,"stv_port":27046,"stv_name":"Uncletopia | Los Angeles | 4 | Stopwatch | STV","players":null},{"server_id":11,"name":"Uncletopia | London | 1 | All Maps","name_short":"lon-1","host":"lon-1.uk.uncletopia.com","port":27015,"enabled":true,"region":"eu","cc":"gb","latitude":51.509865,"longitude":-0.118092,"reserved":0,"last_update":"0001-01-01T00:00:00Z","name_a2s":"Uncletopia | London | 1 | All Maps","protocol":17,"map":"pl_upward","folder":"tf","game":"Team Fortress","app_id":440,"player_count":24,"max_players":24,"Bots":0,"server_type":"Dedicated","server_os":"Linux","password":true,"vac":true,"version":"7961495","steam_id":85568392924367362,"keywords":["nocrits","nodmgspread","payload","uncletopia"],"game_id":440,"stv_port":27016,"stv_name":"Uncletopia | London | 1 | All Maps | STV","players":[{"user_id":697,"name":"mag̶p̶i̶e ✿","steam_id":76561198797266244,"connected_time":174000000000,"state":"active","ping":78},{"user_id":537,"name":"[KZ] TenGr1_G4m3r","steam_id":76561198107460765,"connected_time":11681000000000,"state":"active","ping":46},{"user_id":550,"name":"hitbox criminal","steam_id":76561198079277466,"connected_time":9762000000000,"state":"active","ping":75},{"user_id":694,"name":"Laru","steam_id":76561197998838438,"connected_time":678000000000,"state":"active","ping":82},{"user_id":640,"name":"Grim the lemon","steam_id":76561199083433988,"connected_time":3770000000000,"state":"active","ping":46},{"user_id":636,"name":"♡ Birdy ♡","steam_id":76561198139632682,"connected_time":3777000000000,"state":"active","ping":90},{"user_id":700,"name":"Teavana","steam_id":76561198128024926,"connected_time":37000000000,"state":"active","ping":52},{"user_id":602,"name":"whimsy.","steam_id":76561198878171763,"connected_time":4920000000000,"state":"active","ping":52},{"user_id":637,"name":"⸸aura⸸","steam_id":76561198066258544,"connected_time":3776000000000,"state":"active","ping":65},{"user_id":686,"name":"Healix","steam_id":76561198130270161,"connected_time":1649000000000,"state":"active","ping":60},{"user_id":699,"name":"Ganasti","steam_id":76561198382925185,"connected_time":78000000000,"state":"active","ping":80},{"user_id":684,"name":"Aaron","steam_id":76561197990046953,"connected_time":1675000000000,"state":"active","ping":60},{"user_id":696,"name":"Cheese_Fiend","steam_id":76561198026899984,"connected_time":570000000000,"state":"active","ping":62},{"user_id":629,"name":"Lyra","steam_id":76561198043601838,"connected_time":3790000000000,"state":"active","ping":69},{"user_id":566,"name":"Leon S. Kennedy (B4DA$$)","steam_id":76561198168207306,"connected_time":8523000000000,"state":"active","ping":98},{"user_id":681,"name":"cactopus","steam_id":76561198837919828,"connected_time":1864000000000,"state":"active","ping":110},{"user_id":687,"name":"itransition UKRAINE","steam_id":76561198080912087,"connected_time":1615000000000,"state":"active","ping":60},{"user_id":695,"name":"Kahvi","steam_id":76561198723244199,"connected_time":678000000000,"state":"active","ping":89},{"user_id":690,"name":"BreadBubbles","steam_id":76561198174332826,"connected_time":1062000000000,"state":"active","ping":67},{"user_id":606,"name":"Smokio","steam_id":76561198069650580,"connected_time":4554000000000,"state":"active","ping":90},{"user_id":641,"name":"mertefe","steam_id":76561199237126613,"connected_time":3766000000000,"state":"active","ping":85},{"user_id":575,"name":"rigel_","steam_id":76561198148640847,"connected_time":7185000000000,"state":"active","ping":75},{"user_id":600,"name":"Doctor Mobius","steam_id":76561197971281806,"connected_time":5082000000000,"state":"active","ping":60},{"user_id":646,"name":"hqdefault.png","steam_id":76561198106049954,"connected_time":3740000000000,"state":"active","ping":79}]},{"server_id":114,"name":"Uncletopia | London | 2 | All Maps","name_short":"lon-2","host":"lon-1.uk.uncletopia.com","port":27025,"enabled":true,"region":"eu","cc":"gb","latitude":51.509865,"longitude":-0.118092,"reserved":0,"last_update":"0001-01-01T00:00:00Z","name_a2s":"Uncletopia | London | 2 | All Maps","protocol":17,"map":"koth_highpass","folder":"tf","game":"Team Fortress","app_id":440,"player_count":22,"max_players":24,"Bots":0,"server_type":"Dedicated","server_os":"Linux","password":true,"vac":true,"version":"7961495","steam_id":85568392924470941,"keywords":["cp","nocrits","nodmgspread","uncletopia"],"game_id":440,"stv_port":27026,"stv_name":"Uncletopia | London | 2 | All Maps | STV","players":[{"user_id":152,"name":"ROX","steam_id":76561198272289320,"connected_time":2690000000000,"state":"active","ping":48},{"user_id":156,"name":"CrangSign","steam_id":76561198370580355,"connected_time":1560000000000,"state":"active","ping":54},{"user_id":175,"name":"Kiers","steam_id":76561198834266801,"connected_time":145000000000,"state":"active","ping":62},{"user_id":144,"name":"JaneDoe","steam_id":76561198067081506,"connected_time":2802000000000,"state":"active","ping":73},{"user_id":60,"name":"robsan","steam_id":76561198137375391,"connected_time":9204000000000,"state":"active","ping":85},{"user_id":164,"name":"Chiers","steam_id":76561198073461642,"connected_time":895000000000,"state":"active","ping":63},{"user_id":171,"name":"choob303","steam_id":76561198206375860,"connected_time":536000000000,"state":"active","ping":59},{"user_id":101,"name":"exo","steam_id":76561197961154694,"connected_time":6340000000000,"state":"active","ping":45},{"user_id":172,"name":"888888888","steam_id":76561198163081194,"connected_time":513000000000,"state":"active","ping":45},{"user_id":177,"name":"640x480","steam_id":76561198304515309,"connected_time":92000000000,"state":"active","ping":75},{"user_id":167,"name":"flamingosaurus","steam_id":76561198051455397,"connected_time":759000000000,"state":"active","ping":45},{"user_id":162,"name":"❤ [HoneyBe_] ❤","steam_id":76561198288930154,"connected_time":922000000000,"state":"active","ping":57},{"user_id":147,"name":"точно проверено","steam_id":76561198005742337,"connected_time":2769000000000,"state":"active","ping":69},{"user_id":114,"name":"xx_soy_xx","steam_id":76561198333779084,"connected_time":5231000000000,"state":"active","ping":52},{"user_id":176,"name":"Joe","steam_id":76561198061717026,"connected_time":122000000000,"state":"active","ping":42},{"user_id":174,"name":"KÅL SKÅL!!!","steam_id":76561198065351707,"connected_time":498000000000,"state":"active","ping":60},{"user_id":126,"name":"✪ m_br3","steam_id":76561198044981990,"connected_time":4316000000000,"state":"active","ping":77},{"user_id":127,"name":"LittleXobee","steam_id":76561198384657111,"connected_time":4316000000000,"state":"active","ping":61},{"user_id":148,"name":"wx4fu7","steam_id":76561198033728669,"connected_time":2765000000000,"state":"active","ping":73},{"user_id":128,"name":"tomasae","steam_id":76561198386962693,"connected_time":4310000000000,"state":"active","ping":63},{"user_id":129,"name":"Grumtsior","steam_id":76561198043563111,"connected_time":4290000000000,"state":"active","ping":78},{"user_id":168,"name":"Zyned","steam_id":76561198308711585,"connected_time":693000000000,"state":"active","ping":89}]},{"server_id":320,"name":"Uncletopia | London | 3 | All Maps","name_short":"lon-3","host":"lon-1.uk.uncletopia.com","port":27035,"enabled":true,"region":"eu","cc":"gb","latitude":51.509865,"longitude":-0.118092,"reserved":0,"last_update":"0001-01-01T00:00:00Z","name_a2s":"Uncletopia | London | 3 | All Maps","protocol":17,"map":"cp_steel","folder":"tf","game":"Team Fortress","app_id":440,"player_count":24,"max_players":24,"Bots":0,"server_type":"Dedicated","server_os":"Linux","password":true,"vac":true,"version":"7961495","steam_id":85568392924510192,"keywords":["cp","nocrits","nodmgspread","uncletopia"],"game_id":440,"stv_port":27036,"stv_name":"Uncletopia | London | 3 | All Maps | STV","players":[{"user_id":383,"name":"GalaxyShorts","steam_id":76561199333879046,"connected_time":2963000000000,"state":"active","ping":42},{"user_id":422,"name":"Blar","steam_id":76561198042438229,"connected_time":882000000000,"state":"active","ping":45},{"user_id":420,"name":"DankDuck","steam_id":76561198160086418,"connected_time":897000000000,"state":"active","ping":90},{"user_id":435,"name":",","steam_id":76561198347020945,"connected_time":255000000000,"state":"active","ping":95},{"user_id":432,"name":"Flyingmeadow","steam_id":76561198144687723,"connected_time":478000000000,"state":"active","ping":139},{"user_id":392,"name":"the","steam_id":76561198075563365,"connected_time":2409000000000,"state":"active","ping":60},{"user_id":423,"name":"Henry","steam_id":76561198108018305,"connected_time":871000000000,"state":"active","ping":86},{"user_id":402,"name":"larrykys","steam_id":76561198175274971,"connected_time":2020000000000,"state":"active","ping":58},{"user_id":330,"name":"sticks","steam_id":76561198127099299,"connected_time":6246000000000,"state":"active","ping":42},{"user_id":424,"name":"Helios","steam_id":76561198114459383,"connected_time":845000000000,"state":"active","ping":57},{"user_id":436,"name":"Milk","steam_id":76561198125876588,"connected_time":218000000000,"state":"active","ping":43},{"user_id":401,"name":"yuno appreciator","steam_id":76561198083286511,"connected_time":2043000000000,"state":"active","ping":42},{"user_id":438,"name":"the quotient rule","steam_id":76561198188642265,"connected_time":159000000000,"state":"active","ping":48},{"user_id":439,"name":"Kaza","steam_id":76561198033509686,"connected_time":131000000000,"state":"active","ping":47},{"user_id":410,"name":"I.C. Wiener","steam_id":76561197999912254,"connected_time":1792000000000,"state":"active","ping":77},{"user_id":434,"name":"cazador","steam_id":76561198123096922,"connected_time":433000000000,"state":"active","ping":102},{"user_id":379,"name":"Grimm","steam_id":76561198044684227,"connected_time":3528000000000,"state":"active","ping":47},{"user_id":426,"name":"LizaЯdlЧ","steam_id":76561198176750238,"connected_time":811000000000,"state":"active","ping":66},{"user_id":406,"name":"Kamanie","steam_id":76561198135448255,"connected_time":1941000000000,"state":"active","ping":75},{"user_id":416,"name":"Hannü","steam_id":76561197969886128,"connected_time":1188000000000,"state":"active","ping":45},{"user_id":427,"name":"Anabolic minion","steam_id":76561198377533237,"connected_time":796000000000,"state":"active","ping":77},{"user_id":442,"name":"Dr. Livesey","steam_id":76561198071049943,"connected_time":28000000000,"state":"active","ping":71},{"user_id":441,"name":"Tort","steam_id":76561198329646769,"connected_time":57000000000,"state":"active","ping":48},{"user_id":429,"name":"Ixsus\u003c3","steam_id":76561198094756869,"connected_time":765000000000,"state":"active","ping":73}]},{"server_id":321,"name":"Uncletopia | London | 4 | All Maps","name_short":"lon-4","host":"lon-1.uk.uncletopia.com","port":27045,"enabled":true,"region":"eu","cc":"gb","latitude":51.509865,"longitude":-0.118092,"reserved":0,"last_update":"0001-01-01T00:00:00Z","name_a2s":"Uncletopia | London | 4 | All Maps","protocol":17,"map":"pl_snowycoast","folder":"tf","game":"Team Fortress","app_id":440,"player_count":20,"max_players":24,"Bots":0,"server_type":"Dedicated","server_os":"Linux","password":true,"vac":true,"version":"7961495","steam_id":85568392924510193,"keywords":["nocrits","nodmgspread","payload","uncletopia"],"game_id":440,"stv_port":27046,"stv_name":"Uncletopia | London | 4 | All Maps | STV","players":[{"user_id":383,"name":"Wholesomescientist","steam_id":76561198067099727,"connected_time":4064000000000,"state":"active","ping":44},{"user_id":418,"name":"yush","steam_id":76561198121688934,"connected_time":1059000000000,"state":"active","ping":76},{"user_id":406,"name":"Random Bagel","steam_id":76561198047213821,"connected_time":1779000000000,"state":"active","ping":74},{"user_id":366,"name":"Zamorocian","steam_id":76561198076604017,"connected_time":5705000000000,"state":"active","ping":30},{"user_id":402,"name":"Mimik","steam_id":76561198799742232,"connected_time":2046000000000,"state":"active","ping":169},{"user_id":373,"name":"Macci - Obismal","steam_id":76561198050485404,"connected_time":5413000000000,"state":"active","ping":86},{"user_id":428,"name":"Jeikku","steam_id":76561198078651679,"connected_time":234000000000,"state":"active","ping":112},{"user_id":422,"name":"Prox","steam_id":76561198351490981,"connected_time":749000000000,"state":"active","ping":31},{"user_id":423,"name":"Quartermistress","steam_id":76561198140199123,"connected_time":606000000000,"state":"active","ping":41},{"user_id":427,"name":"ShadowTwin","steam_id":76561198046658200,"connected_time":348000000000,"state":"active","ping":40},{"user_id":385,"name":"Ronnie Ringus","steam_id":76561198365862502,"connected_time":3672000000000,"state":"active","ping":39},{"user_id":421,"name":"zinzyk","steam_id":76561198128011822,"connected_time":948000000000,"state":"active","ping":60},{"user_id":426,"name":"Princess Peach","steam_id":76561198260272240,"connected_time":493000000000,"state":"active","ping":45},{"user_id":404,"name":"Cynosure","steam_id":76561198121286517,"connected_time":1917000000000,"state":"active","ping":34},{"user_id":419,"name":"Sholunan","steam_id":76561198062435739,"connected_time":1056000000000,"state":"active","ping":49},{"user_id":368,"name":"Mr. Beat","steam_id":76561198142421819,"connected_time":5645000000000,"state":"active","ping":47},{"user_id":382,"name":"sneaky trickster","steam_id":76561198119039496,"connected_time":4474000000000,"state":"active","ping":43},{"user_id":416,"name":"Rock..","steam_id":76561198004641963,"connected_time":1129000000000,"state":"active","ping":77},{"user_id":425,"name":"Ethee05","steam_id":76561198221013980,"connected_time":552000000000,"state":"active","ping":46},{"user_id":369,"name":"func_sam","steam_id":76561198122456936,"connected_time":5635000000000,"state":"active","ping":56}]},{"server_id":21,"name":"Uncletopia | London | 5 | All Maps","name_short":"lon-5","host":"lon-1.uk.uncletopia.com","port":27055,"enabled":true,"region":"eu","cc":"gb","latitude":51.509865,"longitude":-0.118092,"reserved":0,"last_update":"0001-01-01T00:00:00Z","name_a2s":"Uncletopia | London | 5 | All Maps","protocol":17,"map":"cp_process_final","folder":"tf","game":"Team Fortress","app_id":440,"player_count":6,"max_players":24,"Bots":0,"server_type":"Dedicated","server_os":"Linux","password":true,"vac":true,"version":"7961495","steam_id":85568392924742829,"keywords":["cp","nocrits","nodmgspread","uncletopia"],"game_id":440,"stv_port":27056,"stv_name":"Uncletopia | London | 5 | All Maps | STV","players":[{"user_id":370,"name":"SpinnyVinny","steam_id":76561198356116829,"connected_time":31000000000,"state":"active","ping":51},{"user_id":368,"name":"MeBandae","steam_id":76561198910770432,"connected_time":360000000000,"state":"active","ping":61},{"user_id":369,"name":"niandits","steam_id":76561198419798900,"connected_time":330000000000,"state":"active","ping":102},{"user_id":362,"name":"spencer pooties","steam_id":76561198123044544,"connected_time":676000000000,"state":"active","ping":62},{"user_id":323,"name":"sevius","steam_id":76561199275250303,"connected_time":3134000000000,"state":"active","ping":54},{"user_id":304,"name":"𝓹𝓱𝓪𝓷𝓽𝓸𝓶","steam_id":76561199095923041,"connected_time":4141000000000,"state":"active","ping":133}]},{"server_id":22,"name":"Uncletopia | London | 6 | All Maps","name_short":"lon-6","host":"lon-1.uk.uncletopia.com","port":27065,"enabled":true,"region":"eu","cc":"gb","latitude":51.509865,"longitude":-0.118092,"reserved":0,"last_update":"0001-01-01T00:00:00Z","name_a2s":"Uncletopia | London | 6 | All Maps","protocol":17,"map":"pl_swiftwater_final1","folder":"tf","game":"Team Fortress","app_id":440,"player_count":24,"max_players":24,"Bots":0,"server_type":"Dedicated","server_os":"Linux","password":true,"vac":true,"version":"7961495","steam_id":85568392924742830,"keywords":["nocrits","nodmgspread","payload","uncletopia"],"game_id":440,"stv_port":27066,"stv_name":"Uncletopia | London | 6 | All Maps | STV","players":[{"user_id":159,"name":"jamkel #savetf2","steam_id":76561199088464666,"connected_time":282000000000,"state":"active","ping":106},{"user_id":94,"name":"РеДаНоВеЦ ^_^","steam_id":76561199032612973,"connected_time":3609000000000,"state":"active","ping":77},{"user_id":123,"name":"Ealum","steam_id":76561198055366023,"connected_time":2306000000000,"state":"active","ping":38},{"user_id":135,"name":"wiserclub6","steam_id":76561198312144351,"connected_time":1578000000000,"state":"active","ping":95},{"user_id":117,"name":"t0ksi","steam_id":76561198107240798,"connected_time":2668000000000,"state":"active","ping":77},{"user_id":146,"name":"medick","steam_id":76561199380849468,"connected_time":725000000000,"state":"active","ping":60},{"user_id":145,"name":"DatBoiCosta","steam_id":76561198111796974,"connected_time":750000000000,"state":"active","ping":68},{"user_id":136,"name":"『Dorarhim』","steam_id":76561198220232352,"connected_time":1393000000000,"state":"active","ping":46},{"user_id":147,"name":"Spurt","steam_id":76561198078523852,"connected_time":656000000000,"state":"active","ping":51},{"user_id":143,"name":"killerdiam","steam_id":76561198806422317,"connected_time":765000000000,"state":"active","ping":46},{"user_id":144,"name":"TMTS","steam_id":76561198020260520,"connected_time":756000000000,"state":"active","ping":70},{"user_id":150,"name":"LiterallyRyanGosling","steam_id":76561199017856691,"connected_time":617000000000,"state":"active","ping":56},{"user_id":160,"name":"grr","steam_id":76561199429407130,"connected_time":186000000000,"state":"active","ping":85},{"user_id":120,"name":"The_Jaystone","steam_id":76561198126280691,"connected_time":2558000000000,"state":"active","ping":45},{"user_id":128,"name":"Swiss_Nostalgia","steam_id":76561199159896259,"connected_time":2179000000000,"state":"active","ping":48},{"user_id":116,"name":"sAmasam","steam_id":76561198114953928,"connected_time":2785000000000,"state":"active","ping":62},{"user_id":151,"name":"koji","steam_id":76561198051636999,"connected_time":596000000000,"state":"active","ping":60},{"user_id":154,"name":"DJ Yellow","steam_id":76561198018172903,"connected_time":532000000000,"state":"active","ping":46},{"user_id":100,"name":"Welder","steam_id":76561198355300561,"connected_time":3508000000000,"state":"active","ping":72},{"user_id":153,"name":"Sebab","steam_id":76561198122706821,"connected_time":552000000000,"state":"active","ping":45},{"user_id":161,"name":"sword machine","steam_id":76561198895235231,"connected_time":113000000000,"state":"active","ping":57},{"user_id":156,"name":"veltek","steam_id":76561198112681438,"connected_time":509000000000,"state":"active","ping":81},{"user_id":162,"name":"Bloody","steam_id":76561198013249229,"connected_time":88000000000,"state":"active","ping":59},{"user_id":157,"name":"STiNGHAN","steam_id":76561198023989090,"connected_time":507000000000,"state":"active","ping":64}]},{"server_id":40,"name":"Uncletopia | London | 7 | Stopwatch","name_short":"lon-7","host":"lon-1.uk.uncletopia.com","port":27075,"enabled":true,"region":"eu","cc":"gb","latitude":51.509865,"longitude":-0.118092,"reserved":0,"last_update":"0001-01-01T00:00:00Z","name_a2s":"Uncletopia | London | 7 | Stopwatch","protocol":17,"map":"koth_highpass","folder":"tf","game":"Team Fortress","app_id":440,"player_count":0,"max_players":24,"Bots":0,"server_type":"Dedicated","server_os":"Linux","password":true,"vac":true,"version":"7961495","steam_id":85568392924964314,"keywords":["cp","nocrits","nodmgspread","uncletopia"],"game_id":440,"stv_port":27076,"stv_name":"Uncletopia | London | 7 | Stopwatch | STV","players":null},{"server_id":41,"name":"Uncletopia | London | 8 | Community","name_short":"lon-8","host":"lon-1.uk.uncletopia.com","port":27085,"enabled":true,"region":"eu","cc":"gb","latitude":51.509865,"longitude":-0.118092,"reserved":0,"last_update":"0001-01-01T00:00:00Z","name_a2s":"Uncletopia | London | 8 | Community","protocol":17,"map":"workshop/pl_divulgence_b4b.ugc2884808746","folder":"tf","game":"Team Fortress","app_id":440,"player_count":0,"max_players":24,"Bots":0,"server_type":"Dedicated","server_os":"Linux","password":true,"vac":true,"version":"7961495","steam_id":85568392924964315,"keywords":["nocrits","nodmgspread","payload","uncletopia"],"game_id":440,"stv_port":27086,"stv_name":"Uncletopia | London | 8 | Community | STV","players":null},{"server_id":300,"name":"Uncletopia | Montréal | 1 | One Thousand Uncles","name_short":"mtl-1","host":"mtl-1.ca.uncletopia.com","port":27015,"enabled":true,"region":"us-east","cc":"ca","latitude":45.50889,"longitude":-73.56167,"reserved":0,"last_update":"0001-01-01T00:00:00Z","name_a2s":"Uncletopia | Montréal | 1 | One Thousand Uncles","protocol":17,"map":"pl_chilly","folder":"tf","game":"Team Fortress","app_id":440,"player_count":19,"max_players":32,"Bots":16,"server_type":"Dedicated","server_os":"Linux","password":true,"vac":true,"version":"7961495","steam_id":85568392924500087,"keywords":["alltalk","bots","danepve","increased_maxplayers","norespawntime","payload","uncletopia"],"game_id":440,"stv_port":0,"stv_name":"","players":[{"user_id":60,"name":"TarekInnit","steam_id":76561198298618127,"connected_time":2471000000000,"state":"active","ping":131},{"user_id":83,"name":"MagikarpEX","steam_id":76561198166172279,"connected_time":700000000000,"state":"active","ping":56},{"user_id":78,"name":"Dyminotus","steam_id":76561199230612261,"connected_time":2360000000000,"state":"active","ping":81}]},{"server_id":301,"name":"Uncletopia | Montréal | 2 | One Thousand Uncles","name_short":"mtl-2","host":"mtl-1.ca.uncletopia.com","port":27025,"enabled":true,"region":"us-east","cc":"ca","latitude":45.50889,"longitude":-73.56167,"reserved":0,"last_update":"0001-01-01T00:00:00Z","name_a2s":"Uncletopia | Montréal | 2 | One Thousand Uncles","protocol":17,"map":"pl_chilly","folder":"tf","game":"Team Fortress","app_id":440,"player_count":0,"max_players":32,"Bots":0,"server_type":"Dedicated","server_os":"Linux","password":true,"vac":true,"version":"7961495","steam_id":85568392924500088,"keywords":["alltalk","danepve","increased_maxplayers","norespawntime","payload","uncletopia"],"game_id":440,"stv_port":0,"stv_name":"","players":null},{"server_id":302,"name":"Uncletopia | Montréal | 3 | One Thousand Uncles","name_short":"mtl-3","host":"mtl-1.ca.uncletopia.com","port":27035,"enabled":true,"region":"us-east","cc":"ca","latitude":45.50889,"longitude":-73.56167,"reserved":0,"last_update":"0001-01-01T00:00:00Z","name_a2s":"Uncletopia | Montréal | 3 | One Thousand Uncles","protocol":17,"map":"pl_hoodoo_final","folder":"tf","game":"Team Fortress","app_id":440,"player_count":0,"max_players":32,"Bots":0,"server_type":"Dedicated","server_os":"Linux","password":true,"vac":true,"version":"7961495","steam_id":85568392924500089,"keywords":["alltalk","danepve","increased_maxplayers","norespawntime","payload","uncletopia"],"game_id":440,"stv_port":0,"stv_name":"","players":null},{"server_id":13,"name":"Uncletopia | New York City | 1 | All Maps","name_short":"nyc-1","host":"nyc-1.us.uncletopia.com","port":27015,"enabled":true,"region":"us-east","cc":"us","latitude":40.73061,"longitude":-73.93524,"reserved":0,"last_update":"0001-01-01T00:00:00Z","name_a2s":"Uncletopia | New York City | 1 | All Maps","protocol":17,"map":"pl_pier","folder":"tf","game":"Team Fortress","app_id":440,"player_count":24,"max_players":24,"Bots":0,"server_type":"Dedicated","server_os":"Linux","password":true,"vac":true,"version":"7961495","steam_id":85568392924469993,"keywords":["nocrits","nodmgspread","payload","uncletopia"],"game_id":440,"stv_port":27016,"stv_name":"Uncletopia | New York City | 1 | All Maps | STV","players":[{"user_id":88,"name":"Chezaus","steam_id":76561198317397837,"connected_time":321000000000,"state":"active","ping":56},{"user_id":66,"name":"Mr. Pink","steam_id":76561198065858172,"connected_time":2105000000000,"state":"active","ping":45},{"user_id":68,"name":"Deterrent","steam_id":76561198256763734,"connected_time":2086000000000,"state":"active","ping":64},{"user_id":21,"name":"menonamed","steam_id":76561198199564382,"connected_time":4859000000000,"state":"active","ping":45},{"user_id":51,"name":"Nilantive","steam_id":76561198177565082,"connected_time":3203000000000,"state":"active","ping":53},{"user_id":93,"name":"Chicken Nugget","steam_id":76561198082601232,"connected_time":184000000000,"state":"active","ping":55},{"user_id":61,"name":"Neacrock","steam_id":76561199178338856,"connected_time":2525000000000,"state":"active","ping":45},{"user_id":57,"name":"THGAwesome","steam_id":76561198162847218,"connected_time":2740000000000,"state":"active","ping":63},{"user_id":52,"name":"marshmellowguy","steam_id":76561199008710694,"connected_time":3169000000000,"state":"active","ping":110},{"user_id":56,"name":"Larry Cañonga","steam_id":76561198081053203,"connected_time":2793000000000,"state":"active","ping":121},{"user_id":95,"name":"BeefClapper420","steam_id":76561198080892634,"connected_time":25000000000,"state":"active","ping":49},{"user_id":82,"name":"Reiner","steam_id":76561199201762178,"connected_time":670000000000,"state":"active","ping":73},{"user_id":83,"name":"Tedenfe Mitralop","steam_id":76561198319921588,"connected_time":665000000000,"state":"active","ping":170},{"user_id":59,"name":"your very own pocket medic","steam_id":76561199489320369,"connected_time":2651000000000,"state":"active","ping":54},{"user_id":71,"name":"ṽ⧉ cookie","steam_id":76561197998884823,"connected_time":2025000000000,"state":"active","ping":76},{"user_id":62,"name":"baunter","steam_id":76561198024311871,"connected_time":2303000000000,"state":"active","ping":106},{"user_id":89,"name":"confield","steam_id":76561198004322265,"connected_time":301000000000,"state":"active","ping":66},{"user_id":39,"name":"Arthur","steam_id":76561198051882162,"connected_time":3918000000000,"state":"active","ping":83},{"user_id":90,"name":"StarLy","steam_id":76561198174428289,"connected_time":286000000000,"state":"active","ping":88},{"user_id":92,"name":"DanDog","steam_id":76561198274722633,"connected_time":251000000000,"state":"active","ping":149},{"user_id":74,"name":"Jason","steam_id":76561198107058140,"connected_time":1424000000000,"state":"active","ping":48},{"user_id":84,"name":"overwatch refugee","steam_id":76561199003985688,"connected_time":606000000000,"state":"active","ping":98},{"user_id":94,"name":"drake","steam_id":76561198151190171,"connected_time":63000000000,"state":"active","ping":56},{"user_id":91,"name":"Always Here for You","steam_id":76561198219252313,"connected_time":270000000000,"state":"active","ping":70}]},{"server_id":14,"name":"Uncletopia | New York City | 2 | All Maps","name_short":"nyc-2","host":"nyc-1.us.uncletopia.com","port":27025,"enabled":true,"region":"us-east","cc":"us","latitude":40.73061,"longitude":-73.93524,"reserved":0,"last_update":"0001-01-01T00:00:00Z","name_a2s":"Uncletopia | New York City | 2 | All Maps","protocol":17,"map":"pl_upward","folder":"tf","game":"Team Fortress","app_id":440,"player_count":24,"max_players":24,"Bots":0,"server_type":"Dedicated","server_os":"Linux","password":true,"vac":true,"version":"7961495","steam_id":85568392924469994,"keywords":["nocrits","nodmgspread","payload","uncletopia"],"game_id":440,"stv_port":27026,"stv_name":"Uncletopia | New York City | 2 | All Maps | STV","players":[{"user_id":220,"name":"Ones","steam_id":76561199072202376,"connected_time":1567000000000,"state":"active","ping":59},{"user_id":235,"name":"Griffin","steam_id":76561198159339442,"connected_time":570000000000,"state":"active","ping":71},{"user_id":190,"name":"Chromatic Bliss","steam_id":76561198252604816,"connected_time":3843000000000,"state":"active","ping":69},{"user_id":206,"name":"The Undead Knight","steam_id":76561198010654500,"connected_time":2864000000000,"state":"active","ping":73},{"user_id":201,"name":"Oni","steam_id":76561198112066584,"connected_time":2956000000000,"state":"active","ping":74},{"user_id":179,"name":"brisky","steam_id":76561198869675719,"connected_time":4926000000000,"state":"active","ping":59},{"user_id":95,"name":"Harry S. Truman","steam_id":76561197993339757,"connected_time":9808000000000,"state":"active","ping":54},{"user_id":233,"name":"big ol' buford","steam_id":76561198290675957,"connected_time":643000000000,"state":"active","ping":75},{"user_id":202,"name":"LANDOFTAWN","steam_id":76561199180861116,"connected_time":2940000000000,"state":"active","ping":81},{"user_id":242,"name":"slowdance","steam_id":76561198097427947,"connected_time":26000000000,"state":"active","ping":161},{"user_id":185,"name":"ndvr (femboy (REAL))","steam_id":76561199379200102,"connected_time":4315000000000,"state":"active","ping":44},{"user_id":219,"name":"toritora","steam_id":76561198023859737,"connected_time":1953000000000,"state":"active","ping":46},{"user_id":191,"name":"barry steakfries","steam_id":76561199472218520,"connected_time":3789000000000,"state":"active","ping":57},{"user_id":223,"name":"A_Malebolgia","steam_id":76561198097722818,"connected_time":1204000000000,"state":"active","ping":75},{"user_id":238,"name":"Brawmario","steam_id":76561198025313430,"connected_time":415000000000,"state":"active","ping":169},{"user_id":240,"name":"CuSO4","steam_id":76561199278147589,"connected_time":210000000000,"state":"active","ping":46},{"user_id":217,"name":"EL Matador","steam_id":76561197971206879,"connected_time":2098000000000,"state":"active","ping":52},{"user_id":237,"name":"Just a Baby","steam_id":76561198018660838,"connected_time":473000000000,"state":"active","ping":50},{"user_id":227,"name":"Dokkibai","steam_id":76561198355935693,"connected_time":1095000000000,"state":"active","ping":61},{"user_id":208,"name":"ugly.","steam_id":76561198016826181,"connected_time":2756000000000,"state":"active","ping":61},{"user_id":222,"name":"Bother","steam_id":76561198336750909,"connected_time":1391000000000,"state":"active","ping":46},{"user_id":241,"name":"lfty","steam_id":76561198283841707,"connected_time":194000000000,"state":"active","ping":60},{"user_id":221,"name":"absurdly high number of gecs","steam_id":76561198022806102,"connected_time":1566000000000,"state":"active","ping":58},{"user_id":243,"name":"you forgot the sauce","steam_id":76561198387016713,"connected_time":0,"state":"spawning","ping":0}]},{"server_id":15,"name":"Uncletopia | New York City | 3 | Stopwatch","name_short":"nyc-3","host":"nyc-1.us.uncletopia.com","port":27035,"enabled":true,"region":"us-east","cc":"us","latitude":40.73061,"longitude":-73.93524,"reserved":0,"last_update":"0001-01-01T00:00:00Z","name_a2s":"Uncletopia | New York City | 3 | Stopwatch","protocol":17,"map":"workshop/koth_ashville_final.ugc2130459942","folder":"tf","game":"Team Fortress","app_id":440,"player_count":0,"max_players":24,"Bots":0,"server_type":"Dedicated","server_os":"Linux","password":true,"vac":true,"version":"7961495","steam_id":85568392924742820,"keywords":["cp","nocrits","nodmgspread","uncletopia"],"game_id":440,"stv_port":27036,"stv_name":"Uncletopia | New York City | 3 | Stopwatch | STV","players":null},{"server_id":16,"name":"Uncletopia | New York City | 4 | Community","name_short":"nyc-4","host":"nyc-1.us.uncletopia.com","port":27045,"enabled":true,"region":"us-east","cc":"us","latitude":40.73061,"longitude":-73.93524,"reserved":0,"last_update":"0001-01-01T00:00:00Z","name_a2s":"Uncletopia | New York City | 4 | Community","protocol":17,"map":"workshop/cp_overgrown_rc8.ugc503939302","folder":"tf","game":"Team Fortress","app_id":440,"player_count":0,"max_players":24,"Bots":0,"server_type":"Dedicated","server_os":"Linux","password":true,"vac":true,"version":"7961495","steam_id":85568392924742821,"keywords":["cp","nocrits","nodmgspread","uncletopia"],"game_id":440,"stv_port":27046,"stv_name":"Uncletopia | New York City | 4 | Community | STV","players":null},{"server_id":142,"name":"Uncletopia | São Paulo | 1 | All Maps","name_short":"sao-1","host":"sao-1.br.uncletopia.com","port":27015,"enabled":true,"region":"sa","cc":"br","latitude":-23.533773,"longitude":-46.62529,"reserved":0,"last_update":"0001-01-01T00:00:00Z","name_a2s":"Uncletopia | São Paulo | 1 | All Maps","protocol":17,"map":"pl_borneo","folder":"tf","game":"Team Fortress","app_id":440,"player_count":0,"max_players":24,"Bots":0,"server_type":"Dedicated","server_os":"Linux","password":true,"vac":true,"version":"7961495","steam_id":85568392924469996,"keywords":["nocrits","nodmgspread","payload","uncletopia"],"game_id":440,"stv_port":27016,"stv_name":"Uncletopia | São Paulo | 1 | All Maps | STV","players":null},{"server_id":143,"name":"Uncletopia | São Paulo | 2 | Community","name_short":"sao-2","host":"sao-2.br.uncletopia.com","port":27015,"enabled":true,"region":"sa","cc":"br","latitude":-23.533773,"longitude":-46.62529,"reserved":0,"last_update":"0001-01-01T00:00:00Z","name_a2s":"Uncletopia | São Paulo | 2 | Community","protocol":17,"map":"workshop/cp_croissant_final.ugc458840209","folder":"tf","game":"Team Fortress","app_id":440,"player_count":0,"max_players":24,"Bots":0,"server_type":"Dedicated","server_os":"Linux","password":true,"vac":true,"version":"7961495","steam_id":85568392924485349,"keywords":["cp","nocrits","nodmgspread","uncletopia"],"game_id":440,"stv_port":27016,"stv_name":"Uncletopia | São Paulo | 2 | Community | STV","players":null},{"server_id":7,"name":"Uncletopia | Seattle | 1 | All Maps","name_short":"sea-1","host":"sea-1.us.uncletopia.com","port":27015,"enabled":true,"region":"us-west","cc":"us","latitude":47.608013,"longitude":-122.33517,"reserved":0,"last_update":"0001-01-01T00:00:00Z","name_a2s":"Uncletopia | Seattle | 1 | All Maps","protocol":17,"map":"pl_pier","folder":"tf","game":"Team Fortress","app_id":440,"player_count":24,"max_players":24,"Bots":0,"server_type":"Dedicated","server_os":"Linux","password":true,"vac":true,"version":"7961495","steam_id":85568392924469997,"keywords":["nocrits","nodmgspread","payload","uncletopia"],"game_id":440,"stv_port":27016,"stv_name":"Uncletopia | Seattle | 1 | All Maps | STV","players":[{"user_id":399,"name":"a chicken","steam_id":76561198313121580,"connected_time":824000000000,"state":"active","ping":89},{"user_id":371,"name":"SnailYT","steam_id":76561198332040385,"connected_time":2848000000000,"state":"active","ping":49},{"user_id":402,"name":"Dog","steam_id":76561198041841128,"connected_time":663000000000,"state":"active","ping":78},{"user_id":404,"name":"Brain Magic","steam_id":76561198010201477,"connected_time":551000000000,"state":"active","ping":76},{"user_id":392,"name":"gungon","steam_id":76561198099843841,"connected_time":1452000000000,"state":"active","ping":77},{"user_id":303,"name":"captainspatklz","steam_id":76561198432167270,"connected_time":5537000000000,"state":"active","ping":110},{"user_id":394,"name":"tabascomilk","steam_id":76561198355094896,"connected_time":1436000000000,"state":"active","ping":115},{"user_id":396,"name":"Petrivus","steam_id":76561198202152453,"connected_time":1360000000000,"state":"active","ping":45},{"user_id":269,"name":"Nom Skirrett","steam_id":76561198014600788,"connected_time":8881000000000,"state":"active","ping":61},{"user_id":369,"name":"The Yiddish Dictionary","steam_id":76561198986862889,"connected_time":2966000000000,"state":"active","ping":47},{"user_id":353,"name":"Leonardo Decappaccino","steam_id":76561198829737019,"connected_time":4117000000000,"state":"active","ping":93},{"user_id":408,"name":"Lily Thorn","steam_id":76561198305488625,"connected_time":248000000000,"state":"active","ping":59},{"user_id":405,"name":"Guwop","steam_id":76561197970425737,"connected_time":476000000000,"state":"active","ping":100},{"user_id":406,"name":"Lord Shmeck","steam_id":76561198023851456,"connected_time":449000000000,"state":"active","ping":46},{"user_id":400,"name":"William Lovett","steam_id":76561197991063996,"connected_time":717000000000,"state":"active","ping":98},{"user_id":281,"name":"CheeseCake488","steam_id":76561199407617942,"connected_time":7847000000000,"state":"active","ping":109},{"user_id":401,"name":"Frank","steam_id":76561198126681511,"connected_time":714000000000,"state":"active","ping":76},{"user_id":375,"name":"Greskrendtregk","steam_id":76561197969553142,"connected_time":2652000000000,"state":"active","ping":52},{"user_id":387,"name":"goofy goober","steam_id":76561199024079388,"connected_time":2052000000000,"state":"active","ping":49},{"user_id":403,"name":"Dextersbrain","steam_id":76561198011831579,"connected_time":593000000000,"state":"active","ping":61},{"user_id":379,"name":"Keamy","steam_id":76561199471434875,"connected_time":2608000000000,"state":"active","ping":45},{"user_id":373,"name":"Mignyanne :3","steam_id":76561198048754056,"connected_time":2669000000000,"state":"active","ping":67},{"user_id":381,"name":"benji","steam_id":76561198084417967,"connected_time":2344000000000,"state":"active","ping":59},{"user_id":332,"name":"Oknoarguement","steam_id":76561198275357701,"connected_time":4729000000000,"state":"active","ping":93}]},{"server_id":119,"name":"Uncletopia | Seattle | 2 | All Maps","name_short":"sea-2","host":"sea-1.us.uncletopia.com","port":27025,"enabled":true,"region":"us-west","cc":"us","latitude":47.608013,"longitude":-122.33517,"reserved":0,"last_update":"0001-01-01T00:00:00Z","name_a2s":"Uncletopia | Seattle | 2 | All Maps","protocol":17,"map":"koth_cascade","folder":"tf","game":"Team Fortress","app_id":440,"player_count":0,"max_players":24,"Bots":0,"server_type":"Dedicated","server_os":"Linux","password":true,"vac":true,"version":"7961495","steam_id":85568392924469998,"keywords":["cp","nocrits","nodmgspread","uncletopia"],"game_id":440,"stv_port":27026,"stv_name":"Uncletopia | Seattle | 2 | All Maps | STV","players":null},{"server_id":406,"name":"Uncletopia | Seattle | 3 | Stopwatch","name_short":"sea-3","host":"sea-1.us.uncletopia.com","port":27035,"enabled":true,"region":"us-west","cc":"us","latitude":47.608013,"longitude":-122.33517,"reserved":0,"last_update":"0001-01-01T00:00:00Z","name_a2s":"Uncletopia | Seattle | 3 | Stopwatch","protocol":17,"map":"koth_highpass","folder":"tf","game":"Team Fortress","app_id":440,"player_count":0,"max_players":24,"Bots":0,"server_type":"Dedicated","server_os":"Linux","password":true,"vac":true,"version":"7961495","steam_id":85568392924515217,"keywords":["cp","nocrits","nodmgspread","uncletopia"],"game_id":440,"stv_port":27036,"stv_name":"Uncletopia | Seattle | 3 | Stopwatch | STV","players":null},{"server_id":17,"name":"Uncletopia | San Francisco | 1 | All Maps","name_short":"sfo-1","host":"sfo-1.us.uncletopia.com","port":27015,"enabled":true,"region":"us-west","cc":"us","latitude":37.77397,"longitude":-122.4313,"reserved":0,"last_update":"0001-01-01T00:00:00Z","name_a2s":"Uncletopia | San Francisco | 1 | All Maps","protocol":17,"map":"koth_highpass","folder":"tf","game":"Team Fortress","app_id":440,"player_count":0,"max_players":24,"Bots":0,"server_type":"Dedicated","server_os":"Linux","password":true,"vac":true,"version":"7961495","steam_id":85568392924469999,"keywords":["cp","nocrits","nodmgspread","uncletopia"],"game_id":440,"stv_port":27016,"stv_name":"Uncletopia | San Francisco | 1 | All Maps | STV","players":null},{"server_id":18,"name":"Uncletopia | San Francisco | 2 | All Maps","name_short":"sfo-2","host":"sfo-1.us.uncletopia.com","port":27025,"enabled":true,"region":"us-west","cc":"us","latitude":37.77397,"longitude":-122.4313,"reserved":0,"last_update":"0001-01-01T00:00:00Z","name_a2s":"Uncletopia | San Francisco | 2 | All Maps","protocol":17,"map":"koth_viaduct","folder":"tf","game":"Team Fortress","app_id":440,"player_count":0,"max_players":24,"Bots":0,"server_type":"Dedicated","server_os":"Linux","password":true,"vac":true,"version":"7961495","steam_id":85568392924470000,"keywords":["cp","nocrits","nodmgspread","uncletopia"],"game_id":440,"stv_port":27026,"stv_name":"Uncletopia | San Francisco | 2 | All Maps | STV","players":null},{"server_id":19,"name":"Uncletopia | San Francisco | 3 | Stopwatch","name_short":"sfo-3","host":"sfo-1.us.uncletopia.com","port":27035,"enabled":true,"region":"us-west","cc":"us","latitude":37.77397,"longitude":-122.4313,"reserved":0,"last_update":"0001-01-01T00:00:00Z","name_a2s":"Uncletopia | San Francisco | 3 | Stopwatch","protocol":17,"map":"workshop/koth_product_final.ugc454272353","folder":"tf","game":"Team Fortress","app_id":440,"player_count":0,"max_players":24,"Bots":0,"server_type":"Dedicated","server_os":"Linux","password":true,"vac":true,"version":"7961495","steam_id":85568392924742824,"keywords":["cp","nocrits","nodmgspread","uncletopia"],"game_id":440,"stv_port":27036,"stv_name":"Uncletopia | San Francisco | 3 | Stopwatch | STV","players":null},{"server_id":20,"name":"Uncletopia | San Francisco | 4 | Community","name_short":"sfo-4","host":"sfo-1.us.uncletopia.com","port":27045,"enabled":true,"region":"us-west","cc":"us","latitude":37.77397,"longitude":-122.4313,"reserved":0,"last_update":"0001-01-01T00:00:00Z","name_a2s":"Uncletopia | San Francisco | 4 | Community","protocol":17,"map":"workshop/pl_cactuscanyon_redux_final2.ugc2579644293","folder":"tf","game":"Team Fortress","app_id":440,"player_count":0,"max_players":24,"Bots":0,"server_type":"Dedicated","server_os":"Linux","password":true,"vac":true,"version":"7961495","steam_id":85568392924742826,"keywords":["nocrits","nodmgspread","payload","uncletopia"],"game_id":440,"stv_port":27046,"stv_name":"Uncletopia | San Francisco | 4 | Community | STV","players":null},{"server_id":141,"name":"Uncletopia | Sydney | 1 | All Maps","name_short":"syd-1","host":"syd-1.au.uncletopia.com","port":27015,"enabled":true,"region":"au","cc":"au","latitude":-33.865143,"longitude":151.2099,"reserved":0,"last_update":"0001-01-01T00:00:00Z","name_a2s":"Uncletopia | Sydney | 1 | All Maps","protocol":17,"map":"koth_nucleus","folder":"tf","game":"Team Fortress","app_id":440,"player_count":0,"max_players":24,"Bots":0,"server_type":"Dedicated","server_os":"Linux","password":true,"vac":true,"version":"7961495","steam_id":85568392924470001,"keywords":["cp","nocrits","nodmgspread","uncletopia"],"game_id":440,"stv_port":27016,"stv_name":"Uncletopia | Sydney | 1 | All Maps | STV","players":null},{"server_id":123,"name":"Uncletopia | Sydney | 2 | All Maps","name_short":"syd-2","host":"syd-1.au.uncletopia.com","port":27025,"enabled":true,"region":"au","cc":"au","latitude":-33.865143,"longitude":151.2099,"reserved":0,"last_update":"0001-01-01T00:00:00Z","name_a2s":"Uncletopia | Sydney | 2 | All Maps","protocol":17,"map":"cp_fastlane","folder":"tf","game":"Team Fortress","app_id":440,"player_count":0,"max_players":24,"Bots":0,"server_type":"Dedicated","server_os":"Linux","password":true,"vac":true,"version":"7961495","steam_id":85568392924470002,"keywords":["cp","nocrits","nodmgspread","uncletopia"],"game_id":440,"stv_port":27026,"stv_name":"Uncletopia | Sydney | 2 | All Maps | STV","players":null},{"server_id":395,"name":"Uncletopia | Sydney | 3 | All Maps","name_short":"syd-3","host":"syd-1.au.uncletopia.com","port":27035,"enabled":true,"region":"au","cc":"au","latitude":-33.865143,"longitude":151.2099,"reserved":0,"last_update":"0001-01-01T00:00:00Z","name_a2s":"Uncletopia | Sydney | 3 | All Maps","protocol":17,"map":"cp_metalworks","folder":"tf","game":"Team Fortress","app_id":440,"player_count":0,"max_players":24,"Bots":0,"server_type":"Dedicated","server_os":"Linux","password":true,"vac":true,"version":"7961495","steam_id":85568392925194467,"keywords":["cp","nocrits","nodmgspread","uncletopia"],"game_id":440,"stv_port":27036,"stv_name":"Uncletopia | Sydney | 3 | All Maps | STV","players":null},{"server_id":396,"name":"Uncletopia | Sydney | 4 | All Maps","name_short":"syd-4","host":"syd-1.au.uncletopia.com","port":27045,"enabled":true,"region":"au","cc":"au","latitude":-33.865143,"longitude":151.2099,"reserved":0,"last_update":"0001-01-01T00:00:00Z","name_a2s":"Uncletopia | Sydney | 4 | All Maps","protocol":17,"map":"koth_cascade","folder":"tf","game":"Team Fortress","app_id":440,"player_count":0,"max_players":24,"Bots":0,"server_type":"Dedicated","server_os":"Linux","password":true,"vac":true,"version":"7961495","steam_id":85568392925397958,"keywords":["cp","nocrits","nodmgspread","uncletopia"],"game_id":440,"stv_port":27046,"stv_name":"Uncletopia | Sydney | 4 | All Maps | STV","players":null},{"server_id":58,"name":"Uncletopia | Sydney | 5 | Stopwatch","name_short":"syd-5","host":"syd-1.au.uncletopia.com","port":27055,"enabled":true,"region":"au","cc":"au","latitude":-33.865143,"longitude":151.2099,"reserved":0,"last_update":"0001-01-01T00:00:00Z","name_a2s":"Uncletopia | Sydney | 5 | Stopwatch","protocol":17,"map":"workshop/koth_product_final.ugc454272353","folder":"tf","game":"Team Fortress","app_id":440,"player_count":0,"max_players":24,"Bots":0,"server_type":"Dedicated","server_os":"Linux","password":true,"vac":true,"version":"7961495","steam_id":85568392925397959,"keywords":["cp","nocrits","nodmgspread","uncletopia"],"game_id":440,"stv_port":27056,"stv_name":"Uncletopia | Sydney | 5 | Stopwatch | STV","players":null},{"server_id":59,"name":"Uncletopia | Sydney | 6 | Community","name_short":"syd-6","host":"syd-1.au.uncletopia.com","port":27065,"enabled":true,"region":"au","cc":"au","latitude":-33.865143,"longitude":151.2099,"reserved":0,"last_update":"0001-01-01T00:00:00Z","name_a2s":"Uncletopia | Sydney | 6 | Community","protocol":17,"map":"workshop/koth_trenchfoot_ab1.ugc731436616","folder":"tf","game":"Team Fortress","app_id":440,"player_count":0,"max_players":24,"Bots":0,"server_type":"Dedicated","server_os":"Linux","password":true,"vac":true,"version":"7961495","steam_id":85568392925397960,"keywords":["cp","nocrits","nodmgspread","uncletopia"],"game_id":440,"stv_port":27066,"stv_name":"Uncletopia | Sydney | 6 | Community | STV","players":null},{"server_id":49,"name":"Uncletopia | Warsaw | 1 | One Thousand Uncles","name_short":"waw-1","host":"waw-1.pl.uncletopia.com","port":27015,"enabled":true,"region":"eu","cc":"pl","latitude":52.2297,"longitude":21.017532,"reserved":0,"last_update":"0001-01-01T00:00:00Z","name_a2s":"Uncletopia | Warsaw | 1 | One Thousand Uncles","protocol":17,"map":"pl_hoodoo_final","folder":"tf","game":"Team Fortress","app_id":440,"player_count":27,"max_players":32,"Bots":16,"server_type":"Dedicated","server_os":"Linux","password":true,"vac":true,"version":"7961495","steam_id":85568392925397850,"keywords":["alltalk","bots","danepve","increased_maxplayers","norespawntime","payload","uncletopia"],"game_id":440,"stv_port":0,"stv_name":"","players":[{"user_id":613,"name":"Frying Pan gaming","steam_id":76561199230315253,"connected_time":2710000000000,"state":"active","ping":38},{"user_id":631,"name":"Junkie","steam_id":76561199435573349,"connected_time":1296000000000,"state":"active","ping":98},{"user_id":638,"name":"nigngll","steam_id":76561199084680369,"connected_time":292000000000,"state":"active","ping":42},{"user_id":581,"name":"-Tofu ツ","steam_id":76561198080337556,"connected_time":4322000000000,"state":"active","ping":97},{"user_id":618,"name":"Soldier TF2","steam_id":76561198041456843,"connected_time":2258000000000,"state":"active","ping":83},{"user_id":584,"name":"adv6","steam_id":76561198029789989,"connected_time":3926000000000,"state":"active","ping":76},{"user_id":594,"name":"turknaskooyun","steam_id":76561199222306117,"connected_time":3102000000000,"state":"active","ping":110},{"user_id":624,"name":"MZ","steam_id":76561199161046583,"connected_time":1868000000000,"state":"active","ping":181},{"user_id":629,"name":"jupi","steam_id":76561198882713406,"connected_time":1508000000000,"state":"active","ping":80},{"user_id":512,"name":"Squidiot","steam_id":76561198042754907,"connected_time":7891000000000,"state":"active","ping":64},{"user_id":630,"name":"Who?","steam_id":76561198271901063,"connected_time":1448000000000,"state":"active","ping":87}]},{"server_id":50,"name":"Uncletopia | Warsaw | 2 | One Thousand Uncles","name_short":"waw-2","host":"waw-1.pl.uncletopia.com","port":27025,"enabled":true,"region":"eu","cc":"pl","latitude":52.2297,"longitude":21.017532,"reserved":0,"last_update":"0001-01-01T00:00:00Z","name_a2s":"Uncletopia | Warsaw | 2 | One Thousand Uncles","protocol":17,"map":"pl_thundermountain","folder":"tf","game":"Team Fortress","app_id":440,"player_count":24,"max_players":32,"Bots":16,"server_type":"Dedicated","server_os":"Linux","password":true,"vac":true,"version":"7961495","steam_id":85568392925397851,"keywords":["alltalk","bots","danepve","increased_maxplayers","norespawntime","payload","uncletopia"],"game_id":440,"stv_port":0,"stv_name":"","players":[{"user_id":332,"name":"skike","steam_id":76561198071079992,"connected_time":6000000000,"state":"spawning","ping":96},{"user_id":320,"name":"Dark Wizart","steam_id":76561198377689439,"connected_time":1480000000000,"state":"active","ping":58},{"user_id":302,"name":"Speed-Dial","steam_id":76561198012428315,"connected_time":1894000000000,"state":"active","ping":75},{"user_id":247,"name":"poon","steam_id":76561198049740395,"connected_time":5691000000000,"state":"active","ping":167},{"user_id":250,"name":"[1VS23] BAKELITE","steam_id":76561198190816499,"connected_time":5292000000000,"state":"active","ping":45},{"user_id":251,"name":"HueJazz","steam_id":76561198168125993,"connected_time":5291000000000,"state":"active","ping":48},{"user_id":326,"name":"Voks_","steam_id":76561198159687785,"connected_time":1033000000000,"state":"active","ping":62},{"user_id":278,"name":"max","steam_id":76561198820054164,"connected_time":3063000000000,"state":"active","ping":80}]},{"server_id":51,"name":"Uncletopia | Warsaw | 3 | All Maps","name_short":"waw-3","host":"waw-1.pl.uncletopia.com","port":27035,"enabled":true,"region":"eu","cc":"pl","latitude":52.2297,"longitude":21.017532,"reserved":0,"last_update":"0001-01-01T00:00:00Z","name_a2s":"Uncletopia | Warsaw | 3 | All Maps","protocol":17,"map":"koth_lakeside_final","folder":"tf","game":"Team Fortress","app_id":440,"player_count":5,"max_players":24,"Bots":0,"server_type":"Dedicated","server_os":"Linux","password":true,"vac":true,"version":"7961495","steam_id":85568392925397852,"keywords":["cp","nocrits","nodmgspread","uncletopia"],"game_id":440,"stv_port":27036,"stv_name":"Uncletopia | Warsaw | 3 | All Maps | STV","players":[{"user_id":15,"name":"TheRock","steam_id":76561198386889558,"connected_time":1807000000000,"state":"active","ping":49},{"user_id":16,"name":"Guthlaf","steam_id":76561198153564078,"connected_time":1800000000000,"state":"active","ping":48},{"user_id":17,"name":"Hrabia","steam_id":76561198164608139,"connected_time":1747000000000,"state":"active","ping":44},{"user_id":18,"name":"wojzlo01","steam_id":76561199508575910,"connected_time":1736000000000,"state":"active","ping":61},{"user_id":19,"name":"Ursyn","steam_id":76561198287800213,"connected_time":1732000000000,"state":"active","ping":51}]},{"server_id":52,"name":"Uncletopia | Warsaw | 4 | All Maps","name_short":"waw-4","host":"waw-1.pl.uncletopia.com","port":27045,"enabled":true,"region":"eu","cc":"pl","latitude":52.2297,"longitude":21.017532,"reserved":0,"last_update":"0001-01-01T00:00:00Z","name_a2s":"Uncletopia | Warsaw | 4 | All Maps","protocol":17,"map":"cp_dustbowl","folder":"tf","game":"Team Fortress","app_id":440,"player_count":23,"max_players":24,"Bots":0,"server_type":"Dedicated","server_os":"Linux","password":true,"vac":true,"version":"7961495","steam_id":85568392925397853,"keywords":["cp","nocrits","nodmgspread","uncletopia"],"game_id":440,"stv_port":27046,"stv_name":"Uncletopia | Warsaw | 4 | All Maps | STV","players":[{"user_id":40,"name":"8onJour","steam_id":76561198995725491,"connected_time":1409000000000,"state":"active","ping":61},{"user_id":41,"name":"garfield gaming","steam_id":76561199060384919,"connected_time":1303000000000,"state":"active","ping":63},{"user_id":54,"name":"General Dummkopfs","steam_id":76561198071315425,"connected_time":921000000000,"state":"active","ping":60},{"user_id":44,"name":"gůrt","steam_id":76561198079358775,"connected_time":1194000000000,"state":"active","ping":45},{"user_id":45,"name":"Sex Monster","steam_id":76561199426920744,"connected_time":1183000000000,"state":"active","ping":90},{"user_id":16,"name":"Captain Puddleboat","steam_id":76561198053913970,"connected_time":2689000000000,"state":"active","ping":73},{"user_id":17,"name":"Dylans","steam_id":76561198018544554,"connected_time":2682000000000,"state":"active","ping":75},{"user_id":19,"name":"Olipie","steam_id":76561198058481343,"connected_time":2607000000000,"state":"active","ping":60},{"user_id":20,"name":"Stucent","steam_id":76561198147498713,"connected_time":2590000000000,"state":"active","ping":75},{"user_id":46,"name":"Purple One","steam_id":76561198086278363,"connected_time":1170000000000,"state":"active","ping":78},{"user_id":22,"name":"Uclite","steam_id":76561198855054140,"connected_time":2565000000000,"state":"active","ping":89},{"user_id":47,"name":"yer_nerd","steam_id":76561199435454093,"connected_time":1156000000000,"state":"active","ping":144},{"user_id":49,"name":"Lavi","steam_id":76561198000911853,"connected_time":1115000000000,"state":"active","ping":76},{"user_id":64,"name":"d","steam_id":76561198114847909,"connected_time":45000000000,"state":"active","ping":74},{"user_id":50,"name":"Ev","steam_id":76561198311186832,"connected_time":987000000000,"state":"active","ping":105},{"user_id":37,"name":"Gen","steam_id":76561198021775885,"connected_time":1515000000000,"state":"active","ping":62},{"user_id":51,"name":"TheEngieCat","steam_id":76561198133442247,"connected_time":983000000000,"state":"active","ping":87},{"user_id":52,"name":"bakedmilk","steam_id":76561198256246036,"connected_time":978000000000,"state":"active","ping":76},{"user_id":30,"name":"mumbler","steam_id":76561197970641239,"connected_time":2275000000000,"state":"active","ping":60},{"user_id":34,"name":"mata","steam_id":76561198129526578,"connected_time":1738000000000,"state":"active","ping":31},{"user_id":36,"name":"mekintoch","steam_id":76561198122525383,"connected_time":1729000000000,"state":"active","ping":40},{"user_id":38,"name":"goop","steam_id":76561198190073005,"connected_time":1500000000000,"state":"active","ping":66},{"user_id":53,"name":"G-Smokesz Gaming","steam_id":76561198278095231,"connected_time":956000000000,"state":"active","ping":66}]},{"server_id":53,"name":"Uncletopia | Warsaw | 5 | Stopwatch","name_short":"waw-5","host":"waw-1.pl.uncletopia.com","port":27055,"enabled":true,"region":"eu","cc":"pl","latitude":52.2297,"longitude":21.017532,"reserved":0,"last_update":"0001-01-01T00:00:00Z","name_a2s":"Uncletopia | Warsaw | 5 | Stopwatch","protocol":17,"map":"workshop/koth_ashville_final.ugc2130459942","folder":"tf","game":"Team Fortress","app_id":440,"player_count":0,"max_players":24,"Bots":0,"server_type":"Dedicated","server_os":"Linux","password":true,"vac":true,"version":"7961495","steam_id":85568392925397854,"keywords":["cp","nocrits","nodmgspread","uncletopia"],"game_id":440,"stv_port":27056,"stv_name":"Uncletopia | Warsaw | 5 | Stopwatch | STV","players":null},{"server_id":54,"name":"Uncletopia | Warsaw | 6 | Community","name_short":"waw-6","host":"waw-1.pl.uncletopia.com","port":27065,"enabled":true,"region":"eu","cc":"pl","latitude":52.2297,"longitude":21.017532,"reserved":0,"last_update":"0001-01-01T00:00:00Z","name_a2s":"Uncletopia | Warsaw | 6 | Community","protocol":17,"map":"workshop/koth_jamram_rc1a.ugc2964065613","folder":"tf","game":"Team Fortress","app_id":440,"player_count":0,"max_players":24,"Bots":0,"server_type":"Dedicated","server_os":"Linux","password":true,"vac":true,"version":"7961495","steam_id":85568392925397856,"keywords":["cp","nocrits","nodmgspread","uncletopia"],"game_id":440,"stv_port":27066,"stv_name":"Uncletopia | Warsaw | 6 | Community | STV","players":null}]}