{"status":true,"message":"","result":[{"server_id":9,"name":"Uncletopia | Atlanta | 1 | All Maps","name_short":"atl-1","host":"atl-1.us.uncletopia.com","port":27015,"enabled":true,"region":"us-east","cc":"us","latitude":33.753746,"longitude":-84.38633,"reserved":0,"last_update":"0001-01-01T00:00:00Z","name_a2s":"Uncletopia | Atlanta | 1 | All Maps","protocol":17,"map":"pl_frontier_final","folder":"tf","game":"Team Fortress","app_id":440,"player_count":23,"max_players":24,"Bots":0,"server_type":"Dedicated","server_os":"Linux","password":true,"vac":true,"version":"7961495","steam_id":85568392924469982,"keywords":["nocrits","nodmgspread","payload","uncletopia"],"game_id":440,"stv_port":27016,"stv_name":"Uncletopia | Atlanta | 1 | All Maps | STV","players":[{"user_id":511,"name":"Vee (very cool)","steam_id":76561198330432889,"connected_time":12213000000000,"state":"active","ping":62},{"user_id":654,"name":"cupcup","steam_id":76561198116227192,"connected_time":900000000000,"state":"active","ping":105},{"user_id":618,"name":"Dr.Zarann","steam_id":76561198163952958,"connected_time":5288000000000,"state":"active","ping":67},{"user_id":656,"name":"TheBrocklobster","steam_id":76561198039682984,"connected_time":812000000000,"state":"active","ping":104},{"user_id":645,"name":"Avery?","steam_id":76561198097052117,"connected_time":1147000000000,"state":"active","ping":74},{"user_id":666,"name":"TacoMan4Life","steam_id":76561198832562728,"connected_time":321000000000,"state":"active","ping":112},{"user_id":667,"name":"drevott74","steam_id":76561199262592779,"connected_time":213000000000,"state":"active","ping":109},{"user_id":663,"name":"DethSQRL","steam_id":76561199149628610,"connected_time":534000000000,"state":"active","ping":61},{"user_id":668,"name":".Komi.","steam_id":76561199036099287,"connected_time":188000000000,"state":"active","ping":59},{"user_id":538,"name":"CoffeeZombi","steam_id":76561198172708053,"connected_time":11251000000000,"state":"active","ping":52},{"user_id":651,"name":"Jankyo","steam_id":76561198083339492,"connected_time":952000000000,"state":"active","ping":68},{"user_id":647,"name":"Dumgum","steam_id":76561198044960992,"connected_time":1000000000000,"state":"active","ping":66},{"user_id":659,"name":"Irfan Dadaboi","steam_id":76561198140429819,"connected_time":621000000000,"state":"active","ping":118},{"user_id":650,"name":"Bones0010","steam_id":76561198096186958,"connected_time":955000000000,"state":"active","ping":62},{"user_id":652,"name":"Sir.TopHats","steam_id":76561198267326839,"connected_time":951000000000,"state":"active","ping":75},{"user_id":669,"name":"Sweater-Fan","steam_id":76561199389567214,"connected_time":110000000000,"state":"active","ping":64},{"user_id":641,"name":"Shame","steam_id":76561198100490994,"connected_time":1508000000000,"state":"active","ping":72},{"user_id":642,"name":"Whisk #GOOD GAMER","steam_id":76561198272318229,"connected_time":1504000000000,"state":"active","ping":88},{"user_id":655,"name":"ball","steam_id":76561198394080554,"connected_time":897000000000,"state":"active","ping":110},{"user_id":660,"name":"sonic1394","steam_id":76561198054636788,"connected_time":615000000000,"state":"active","ping":82},{"user_id":661,"name":"Krel","steam_id":76561198287045069,"connected_time":612000000000,"state":"active","ping":79},{"user_id":639,"name":"Bag","steam_id":76561198012395490,"connected_time":1528000000000,"state":"active","ping":60},{"user_id":664,"name":"SpruceClient8","steam_id":76561198385573007,"connected_time":467000000000,"state":"active","ping":53}]},{"server_id":104,"name":"Uncletopia | Atlanta | 2 | All Maps","name_short":"atl-2","host":"atl-1.us.uncletopia.com","port":27025,"enabled":true,"region":"us-east","cc":"us","latitude":33.753746,"longitude":-84.38633,"reserved":0,"last_update":"0001-01-01T00:00:00Z","name_a2s":"Uncletopia | Atlanta | 2 | All Maps","protocol":17,"map":"pl_badwater","folder":"tf","game":"Team Fortress","app_id":440,"player_count":21,"max_players":24,"Bots":0,"server_type":"Dedicated","server_os":"Linux","password":true,"vac":true,"version":"7961495","steam_id":85568392924469983,"keywords":["nocrits","nodmgspread","payload","uncletopia"],"game_id":440,"stv_port":27026,"stv_name":"Uncletopia | Atlanta | 2 | All Maps | STV","players":[{"user_id":581,"name":"Koishi","steam_id":76561198054541054,"connected_time":6851000000000,"state":"active","ping":59},{"user_id":654,"name":"killeroverscore123","steam_id":76561199168131321,"connected_time":723000000000,"state":"active","ping":72},{"user_id":636,"name":"Career","steam_id":76561198028542212,"connected_time":1986000000000,"state":"active","ping":55},{"user_id":658,"name":"GreenApples","steam_id":76561198120559543,"connected_time":159000000000,"state":"active","ping":101},{"user_id":659,"name":"Dullahan","steam_id":76561198119668908,"connected_time":123000000000,"state":"active","ping":101},{"user_id":614,"name":"No, this is Patrick","steam_id":76561198058776774,"connected_time":4288000000000,"state":"active","ping":60},{"user_id":606,"name":"illious","steam_id":76561198169925494,"connected_time":4869000000000,"state":"active","ping":59},{"user_id":627,"name":"suck her dick sunday","steam_id":76561199328635967,"connected_time":3267000000000,"state":"active","ping":57},{"user_id":638,"name":"Shystie","steam_id":76561198025371440,"connected_time":1941000000000,"state":"active","ping":86},{"user_id":660,"name":"sithreis","steam_id":76561198000564263,"connected_time":83000000000,"state":"active","ping":56},{"user_id":657,"name":"Regin360","steam_id":76561198271970751,"connected_time":341000000000,"state":"active","ping":167},{"user_id":652,"name":"broomstick","steam_id":76561198302171600,"connected_time":1049000000000,"state":"active","ping":59},{"user_id":630,"name":"Punished Shitster","steam_id":76561198150452857,"connected_time":3057000000000,"state":"active","ping":82},{"user_id":664,"name":"opossum","steam_id":76561198148905570,"connected_time":31000000000,"state":"active","ping":62},{"user_id":661,"name":"AlecTheNefarious","steam_id":76561198035291230,"connected_time":80000000000,"state":"active","ping":63},{"user_id":662,"name":"lanoc","steam_id":76561198055415367,"connected_time":75000000000,"state":"active","ping":44},{"user_id":651,"name":"InsulinDealer","steam_id":76561197994220909,"connected_time":1229000000000,"state":"active","ping":106},{"user_id":663,"name":"Steak-Pocketer","steam_id":76561198277651410,"connected_time":34000000000,"state":"active","ping":46},{"user_id":593,"name":"E4Estrogen","steam_id":76561198085813708,"connected_time":6345000000000,"state":"active","ping":46},{"user_id":665,"name":"Juice","steam_id":76561198075111427,"connected_time":29000000000,"state":"active","ping":86},{"user_id":634,"name":"cholmes","steam_id":76561198076057648,"connected_time":2486000000000,"state":"active","ping":85}]},{"server_id":400,"name":"Uncletopia | Atlanta | 3 | Stopwatch","name_short":"atl-3","host":"atl-1.us.uncletopia.com","port":27035,"enabled":true,"region":"us-east","cc":"us","latitude":33.753746,"longitude":-84.38633,"reserved":0,"last_update":"0001-01-01T00:00:00Z","name_a2s":"Uncletopia | Atlanta | 3 | Stopwatch","protocol":17,"map":"workshop/cp_reckoner_rc6.ugc674719999","folder":"tf","game":"Team Fortress","app_id":440,"player_count":0,"max_players":24,"Bots":0,"server_type":"Dedicated","server_os":"Linux","password":true,"vac":true,"version":"7961495","steam_id":85568392924515187,"keywords":["cp","nocrits","nodmgspread","uncletopia"],"game_id":440,"stv_port":27036,"stv_name":"Uncletopia | Atlanta | 3 | Stopwatch | STV","players":null},{"server_id":401,"name":"Uncletopia | Atlanta | 4 | Community","name_short":"atl-4","host":"atl-1.us.uncletopia.com","port":27045,"enabled":true,"region":"us-east","cc":"us","latitude":33.753746,"longitude":-84.38633,"reserved":0,"last_update":"0001-01-01T00:00:00Z","name_a2s":"Uncletopia | Atlanta | 4 | Community","protocol":17,"map":"workshop/koth_product_final.ugc454272353","folder":"tf","game":"Team Fortress","app_id":440,"player_count":0,"max_players":24,"Bots":0,"server_type":"Dedicated","server_os":"Linux","password":true,"vac":true,"version":"7961495","steam_id":85568392924515188,"keywords":["cp","nocrits","nodmgspread","uncletopia"],"game_id":440,"stv_port":27046,"stv_name":"Uncletopia | Atlanta | 4 | Community | STV","players":null},{"server_id":2,"name":"Uncletopia | Chicago | 1 | All Maps","name_short":"chi-1","host":"chi-1.us.uncletopia.com","port":27015,"enabled":true,"region":"us-central","cc":"us","latitude":41.881832,"longitude":-87.62318,"reserved":0,"last_update":"0001-01-01T00:00:00Z","name_a2s":"Uncletopia | Chicago | 1 | All Maps","protocol":17,"map":"pl_borneo","folder":"tf","game":"Team Fortress","app_id":440,"player_count":24,"max_players":24,"Bots":0,"server_type":"Dedicated","server_os":"Linux","password":true,"vac":true,"version":"7961495","steam_id":85568392924469984,"keywords":["nocrits","nodmgspread","payload","uncletopia"],"game_id":440,"stv_port":27016,"stv_name":"Uncletopia | Chicago | 1 | All Maps | STV","players":[{"user_id":759,"name":"Jokergamma","steam_id":76561198807984541,"connected_time":7699000000000,"state":"active","ping":60},{"user_id":853,"name":"The_Skull_boy","steam_id":76561198227692664,"connected_time":610000000000,"state":"active","ping":98},{"user_id":841,"name":"Blargh","steam_id":76561198044095816,"connected_time":994000000000,"state":"active","ping":60},{"user_id":834,"name":"cy","steam_id":76561198885893295,"connected_time":1793000000000,"state":"active","ping":46},{"user_id":816,"name":"M","steam_id":76561198174958927,"connected_time":3042000000000,"state":"active","ping":68},{"user_id":817,"name":"Dottie [She/They]","steam_id":76561198282046179,"connected_time":3038000000000,"state":"active","ping":73},{"user_id":842,"name":"winning","steam_id":76561198003206947,"connected_time":949000000000,"state":"active","ping":59},{"user_id":827,"name":"elyktsorb","steam_id":76561198158964488,"connected_time":2661000000000,"state":"active","ping":45},{"user_id":821,"name":"zzzz","steam_id":76561198310495200,"connected_time":2969000000000,"state":"active","ping":47},{"user_id":781,"name":"Bojangalo","steam_id":76561198058682640,"connected_time":6146000000000,"state":"active","ping":62},{"user_id":855,"name":"soona","steam_id":76561198127325351,"connected_time":258000000000,"state":"active","ping":69},{"user_id":857,"name":"non_ai","steam_id":76561198270951938,"connected_time":65000000000,"state":"active","ping":64},{"user_id":854,"name":"Colin102004","steam_id":76561198202384334,"connected_time":599000000000,"state":"active","ping":69},{"user_id":819,"name":"Captain Crunch","steam_id":76561199141538581,"connected_time":2993000000000,"state":"active","ping":104},{"user_id":845,"name":"Chanter","steam_id":76561198246701796,"connected_time":868000000000,"state":"active","ping":78},{"user_id":836,"name":"SandHanitizer","steam_id":76561198234676500,"connected_time":1653000000000,"state":"active","ping":60},{"user_id":846,"name":"frank","steam_id":76561198137777483,"connected_time":857000000000,"state":"active","ping":73},{"user_id":839,"name":"Dama","steam_id":76561198023139465,"connected_time":1084000000000,"state":"active","ping":45},{"user_id":837,"name":"collacot","steam_id":76561198243248798,"connected_time":1554000000000,"state":"active","ping":74},{"user_id":856,"name":"Townze","steam_id":76561198081827165,"connected_time":199000000000,"state":"active","ping":53},{"user_id":823,"name":"Meat Dragon","steam_id":76561198120319256,"connected_time":2933000000000,"state":"active","ping":47},{"user_id":824,"name":"player4","steam_id":76561197985140870,"connected_time":2811000000000,"state":"active","ping":119},{"user_id":808,"name":"Kuato","steam_id":76561198070591328,"connected_time":4417000000000,"state":"active","ping":57},{"user_id":850,"name":"BigBubble42","steam_id":76561198136286123,"connected_time":833000000000,"state":"active","ping":59}]},{"server_id":106,"name":"Uncletopia | Chicago | 2 | All Maps","name_short":"chi-2","host":"chi-1.us.uncletopia.com","port":27025,"enabled":true,"region":"us-central","cc":"us","latitude":41.881832,"longitude":-87.62318,"reserved":0,"last_update":"0001-01-01T00:00:00Z","name_a2s":"Uncletopia | Chicago | 2 | All Maps","protocol":17,"map":"cp_dustbowl","folder":"tf","game":"Team Fortress","app_id":440,"player_count":24,"max_players":24,"Bots":0,"server_type":"Dedicated","server_os":"Linux","password":true,"vac":true,"version":"7961495","steam_id":85568392924469985,"keywords":["cp","nocrits","nodmgspread","uncletopia"],"game_id":440,"stv_port":27026,"stv_name":"Uncletopia | Chicago | 2 | All Maps | STV","players":[{"user_id":740,"name":"Sprinx","steam_id":76561198112614381,"connected_time":6172000000000,"state":"active","ping":66},{"user_id":813,"name":"WatchWill","steam_id":76561198157237945,"connected_time":2183000000000,"state":"active","ping":89},{"user_id":797,"name":"Piyono","steam_id":76561197962188504,"connected_time":4246000000000,"state":"active","ping":61},{"user_id":823,"name":"Le Meilleur","steam_id":76561198054581325,"connected_time":1010000000000,"state":"active","ping":51},{"user_id":819,"name":"creature","steam_id":76561198216695681,"connected_time":1261000000000,"state":"active","ping":55},{"user_id":825,"name":"jneubauer1620","steam_id":76561199228634006,"connected_time":409000000000,"state":"active","ping":50},{"user_id":714,"name":"Elias","steam_id":76561198106431732,"connected_time":9402000000000,"state":"active","ping":56},{"user_id":702,"name":"MedRed™ #IATAH","steam_id":76561198002962970,"connected_time":9763000000000,"state":"active","ping":92},{"user_id":676,"name":"hej","steam_id":76561197996366940,"connected_time":11657000000000,"state":"active","ping":60},{"user_id":798,"name":"Mk","steam_id":76561198139790822,"connected_time":4236000000000,"state":"active","ping":156},{"user_id":817,"name":"only a spoonful","steam_id":76561198113180616,"connected_time":1672000000000,"state":"active","ping":60},{"user_id":419,"name":"runescape legend","steam_id":76561198077791373,"connected_time":22123000000000,"state":"active","ping":49},{"user_id":815,"name":"Zoramine Fae","steam_id":76561198346753422,"connected_time":1813000000000,"state":"active","ping":37},{"user_id":824,"name":"An Alternate","steam_id":76561198041773387,"connected_time":903000000000,"state":"active","ping":75},{"user_id":816,"name":"Daksuki","steam_id":76561198084127751,"connected_time":1719000000000,"state":"active","ping":75},{"user_id":700,"name":"Lia_Rein","steam_id":76561198151569597,"connected_time":10418000000000,"state":"active","ping":141},{"user_id":803,"name":"Remix.SMG","steam_id":76561198052895933,"connected_time":3615000000000,"state":"active","ping":83},{"user_id":820,"name":"BMoney","steam_id":76561198799389030,"connected_time":1138000000000,"state":"active","ping":135},{"user_id":753,"name":"russames","steam_id":76561198007535911,"connected_time":5595000000000,"state":"active","ping":59},{"user_id":821,"name":"Trader Yohan","steam_id":76561198048956010,"connected_time":1082000000000,"state":"active","ping":115},{"user_id":826,"name":"Zedifo","steam_id":76561198044032070,"connected_time":158000000000,"state":"active","ping":136},{"user_id":800,"name":"HalfDead","steam_id":76561198049700226,"connected_time":4213000000000,"state":"active","ping":81},{"user_id":822,"name":"soldeir on drugs","steam_id":76561199504753959,"connected_time":1079000000000,"state":"active","ping":74},{"user_id":809,"name":"Skudge Sister","steam_id":76561198041766766,"connected_time":2760000000000,"state":"active","ping":65}]},{"server_id":402,"name":"Uncletopia | Chicago | 3 | All Maps","name_short":"chi-3","host":"chi-1.us.uncletopia.com","port":27035,"enabled":true,"region":"us-central","cc":"us","latitude":41.881832,"longitude":-87.62318,"reserved":0,"last_update":"0001-01-01T00:00:00Z","name_a2s":"Uncletopia | Chicago | 3 | All Maps","protocol":17,"map":"pl_barnblitz","folder":"tf","game":"Team Fortress","app_id":440,"player_count":24,"max_players":24,"Bots":0,"server_type":"Dedicated","server_os":"Linux","password":true,"vac":true,"version":"7961495","steam_id":85568392924515191,"keywords":["nocrits","nodmgspread","payload","uncletopia"],"game_id":440,"stv_port":27036,"stv_name":"Uncletopia | Chicago | 3 | All Maps | STV","players":[{"user_id":441,"name":"gps","steam_id":76561198067492304,"connected_time":2829000000000,"state":"active","ping":82},{"user_id":467,"name":"stblaine","steam_id":76561198088229155,"connected_time":503000000000,"state":"active","ping":104},{"user_id":465,"name":"ninety9dragonfly","steam_id":76561198363406983,"connected_time":519000000000,"state":"active","ping":107},{"user_id":466,"name":"Sarbanes-Oxley","steam_id":76561197975898479,"connected_time":515000000000,"state":"active","ping":76},{"user_id":470,"name":"toastii","steam_id":76561198064658477,"connected_time":340000000000,"state":"active","ping":56},{"user_id":469,"name":"him/her","steam_id":76561198122238340,"connected_time":414000000000,"state":"active","ping":86},{"user_id":471,"name":"Lead Licker","steam_id":76561198162668339,"connected_time":330000000000,"state":"active","ping":50},{"user_id":458,"name":"Drapph","steam_id":76561199384213314,"connected_time":1648000000000,"state":"active","ping":52},{"user_id":394,"name":"Robyn Goodfellowe","steam_id":76561198074719241,"connected_time":6582000000000,"state":"active","ping":70},{"user_id":446,"name":"SofaKing","steam_id":76561198176691859,"connected_time":2357000000000,"state":"active","ping":91},{"user_id":459,"name":"for the king","steam_id":76561197973488858,"connected_time":1648000000000,"state":"active","ping":58},{"user_id":411,"name":"`o2","steam_id":76561197992030936,"connected_time":5579000000000,"state":"active","ping":72},{"user_id":463,"name":"Im Groot","steam_id":76561198294943420,"connected_time":613000000000,"state":"active","ping":68},{"user_id":448,"name":"H0wlr","steam_id":76561198012332824,"connected_time":2292000000000,"state":"active","ping":52},{"user_id":455,"name":"dirty30","steam_id":76561198021226566,"connected_time":1914000000000,"state":"active","ping":103},{"user_id":472,"name":"Lae","steam_id":76561198185527278,"connected_time":303000000000,"state":"active","ping":68},{"user_id":461,"name":"Chicago Shoplifter","steam_id":76561197986530028,"connected_time":1204000000000,"state":"active","ping":88},{"user_id":375,"name":"Mufalito","steam_id":76561198951889482,"connected_time":8352000000000,"state":"active","ping":139},{"user_id":473,"name":"Grimtton","steam_id":76561199136851948,"connected_time":294000000000,"state":"active","ping":63},{"user_id":428,"name":"astrobob911","steam_id":76561199099110654,"connected_time":4455000000000,"state":"active","ping":70},{"user_id":452,"name":"vareh","steam_id":76561197993190926,"connected_time":2188000000000,"state":"active","ping":109},{"user_id":359,"name":"zpalmtree","steam_id":76561198134307620,"connected_time":9330000000000,"state":"active","ping":60},{"user_id":462,"name":"gogurt","steam_id":76561199051096093,"connected_time":1176000000000,"state":"active","ping":63}]},{"server_id":403,"name":"Uncletopia | Chicago | 4 | All Maps","name_short":"chi-4","host":"chi-1.us.uncletopia.com","port":27045,"enabled":true,"region":"us-central","cc":"us","latitude":41.881832,"longitude":-87.62318,"reserved":0,"last_update":"0001-01-01T00:00:00Z","name_a2s":"Uncletopia | Chicago | 4 | All Maps","protocol":17,"map":"pl_hoodoo_final","folder":"tf","game":"Team Fortress","app_id":440,"player_count":24,"max_players":24,"Bots":0,"server_type":"Dedicated","server_os":"Linux","password":true,"vac":true,"version":"7961495","steam_id":85568392924515193,"keywords":["nocrits","nodmgspread","payload","uncletopia"],"game_id":440,"stv_port":27046,"stv_name":"Uncletopia | Chicago | 4 | All Maps | STV","players":[{"user_id":630,"name":"Uluyo","steam_id":76561198065857148,"connected_time":3939000000000,"state":"active","ping":47},{"user_id":675,"name":"Wikked","steam_id":76561198196149207,"connected_time":596000000000,"state":"active","ping":138},{"user_id":654,"name":"Greenmax9","steam_id":76561198056050329,"connected_time":1661000000000,"state":"active","ping":74},{"user_id":647,"name":"Fever Dreams","steam_id":76561198116614620,"connected_time":2651000000000,"state":"active","ping":64},{"user_id":676,"name":"Ghoulenoir","steam_id":76561198074314573,"connected_time":552000000000,"state":"active","ping":59},{"user_id":674,"name":"Pyrovision Distributor","steam_id":76561198242118240,"connected_time":640000000000,"state":"active","ping":58},{"user_id":657,"name":"Black cook from restaurant","steam_id":76561198225578600,"connected_time":1530000000000,"state":"active","ping":43},{"user_id":671,"name":"Fuyutake","steam_id":76561199123206779,"connected_time":843000000000,"state":"active","ping":61},{"user_id":669,"name":"!warn No RDM allowed","steam_id":76561198408159536,"connected_time":1053000000000,"state":"active","ping":50},{"user_id":672,"name":"Diokat","steam_id":76561198203775996,"connected_time":780000000000,"state":"active","ping":61},{"user_id":629,"name":"mr ploobmeister","steam_id":76561198128908529,"connected_time":4181000000000,"state":"active","ping":79},{"user_id":661,"name":"DanDaMan","steam_id":76561199010054857,"connected_time":1371000000000,"state":"active","ping":53},{"user_id":662,"name":"ThatMailDude","steam_id":76561198074239121,"connected_time":1357000000000,"state":"active","ping":85},{"user_id":663,"name":"Rich Tigress Fina","steam_id":76561198034166729,"connected_time":1330000000000,"state":"active","ping":70},{"user_id":632,"name":"Ket","steam_id":76561198241951244,"connected_time":3920000000000,"state":"active","ping":78},{"user_id":677,"name":"kkb enjoyer","steam_id":76561199000258231,"connected_time":541000000000,"state":"active","ping":98},{"user_id":611,"name":"Nelson TF2EASY.COM","steam_id":76561198850327678,"connected_time":4580000000000,"state":"active","ping":99},{"user_id":633,"name":"Fatpoob","steam_id":76561198056730096,"connected_time":3769000000000,"state":"active","ping":55},{"user_id":680,"name":"benignWing","steam_id":76561198110353148,"connected_time":409000000000,"state":"active","ping":89},{"user_id":598,"name":"ਹੁੱਡ ਕਾਉਬੌਏ","steam_id":76561198021308963,"connected_time":4981000000000,"state":"active","ping":75},{"user_id":679,"name":"Cactus","steam_id":76561198149762619,"connected_time":453000000000,"state":"active","ping":111},{"user_id":650,"name":"Local 7/11","steam_id":76561198273494867,"connected_time":2389000000000,"state":"active","ping":69},{"user_id":681,"name":"Rusty","steam_id":76561198178868626,"connected_time":386000000000,"state":"active","ping":99},{"user_id":682,"name":"girlpilled unamerican","steam_id":76561198337705174,"connected_time":341000000000,"state":"active","ping":76}]},{"server_id":36,"name":"Uncletopia | Chicago | 5 | All Maps","name_short":"chi-5","host":"chi-2.us.uncletopia.com","port":27015,"enabled":true,"region":"us-central","cc":"us","latitude":41.881832,"longitude":-87.62318,"reserved":0,"last_update":"0001-01-01T00:00:00Z","name_a2s":"Uncletopia | Chicago | 5 | All Maps","protocol":17,"map":"pl_borneo","folder":"tf","game":"Team Fortress","app_id":440,"player_count":13,"max_players":24,"Bots":0,"server_type":"Dedicated","server_os":"Linux","password":true,"vac":true,"version":"7961495","steam_id":85568392924866362,"keywords":["nocrits","nodmgspread","payload","uncletopia"],"game_id":440,"stv_port":27016,"stv_name":"Uncletopia | Chicago | 5 | All Maps | STV","players":[{"user_id":561,"name":"TheHumanTaco119","steam_id":76561198996107520,"connected_time":2819000000000,"state":"active","ping":104},{"user_id":551,"name":"Kzjytsugn","steam_id":76561198130241974,"connected_time":4271000000000,"state":"active","ping":86},{"user_id":535,"name":"\"Flemmer\"","steam_id":76561198869188729,"connected_time":5685000000000,"state":"active","ping":45},{"user_id":599,"name":"Yongle","steam_id":76561198068591156,"connected_time":102000000000,"state":"active","ping":52},{"user_id":600,"name":"Novaya","steam_id":76561198263560946,"connected_time":76000000000,"state":"active","ping":46},{"user_id":475,"name":"Synthess","steam_id":76561198305140294,"connected_time":10699000000000,"state":"active","ping":46},{"user_id":586,"name":"DNA Polymerase","steam_id":76561198143738136,"connected_time":1524000000000,"state":"active","ping":87},{"user_id":566,"name":"The Horny","steam_id":76561198863639459,"connected_time":2548000000000,"state":"active","ping":182},{"user_id":598,"name":"deity main","steam_id":76561199251639888,"connected_time":344000000000,"state":"active","ping":60},{"user_id":596,"name":"RollingCow","steam_id":76561198067114237,"connected_time":566000000000,"state":"active","ping":72},{"user_id":547,"name":"lobster","steam_id":76561198147417707,"connected_time":4713000000000,"state":"active","ping":76},{"user_id":594,"name":"Chi-Chia","steam_id":76561198067955987,"connected_time":654000000000,"state":"active","ping":83},{"user_id":548,"name":"ุ","steam_id":76561198170624701,"connected_time":4710000000000,"state":"active","ping":75}]},{"server_id":37,"name":"Uncletopia | Chicago | 6 | All Maps","name_short":"chi-6","host":"chi-2.us.uncletopia.com","port":27025,"enabled":true,"region":"us-central","cc":"us","latitude":41.881832,"longitude":-87.62318,"reserved":0,"last_update":"0001-01-01T00:00:00Z","name_a2s":"Uncletopia | Chicago | 6 | All Maps","protocol":17,"map":"pl_upward","folder":"tf","game":"Team Fortress","app_id":440,"player_count":24,"max_players":24,"Bots":0,"server_type":"Dedicated","server_os":"Linux","password":true,"vac":true,"version":"7961495","steam_id":85568392924866363,"keywords":["nocrits","nodmgspread","payload","uncletopia"],"game_id":440,"stv_port":27026,"stv_name":"Uncletopia | Chicago | 6 | All Maps | STV","players":[{"user_id":427,"name":"Ligh3t","steam_id":76561198179178533,"connected_time":5453000000000,"state":"active","ping":63},{"user_id":436,"name":"Cooki","steam_id":76561198051705314,"connected_time":3735000000000,"state":"active","ping":62},{"user_id":479,"name":"Kiervce","steam_id":76561199175427371,"connected_time":279000000000,"state":"active","ping":61},{"user_id":462,"name":"Dukino","steam_id":76561198008455368,"connected_time":1776000000000,"state":"active","ping":57},{"user_id":472,"name":"Dabois","steam_id":76561199147193419,"connected_time":1171000000000,"state":"active","ping":108},{"user_id":399,"name":"SiltyStar85","steam_id":76561198309175923,"connected_time":7599000000000,"state":"active","ping":84},{"user_id":451,"name":"Veridian","steam_id":76561198096334078,"connected_time":2863000000000,"state":"active","ping":74},{"user_id":443,"name":"wetto","steam_id":76561198224811504,"connected_time":3190000000000,"state":"active","ping":60},{"user_id":447,"name":"Roken","steam_id":76561198037836282,"connected_time":3149000000000,"state":"active","ping":78},{"user_id":465,"name":"kaputon","steam_id":76561198146299782,"connected_time":1630000000000,"state":"active","ping":68},{"user_id":475,"name":"Nickson1","steam_id":76561198175839309,"connected_time":627000000000,"state":"active","ping":76},{"user_id":473,"name":"Siz","steam_id":76561198072962154,"connected_time":913000000000,"state":"active","ping":63},{"user_id":474,"name":"chill stoner guy w cool stories","steam_id":76561198120973162,"connected_time":690000000000,"state":"active","ping":78},{"user_id":481,"name":"rf","steam_id":76561198195359229,"connected_time":32000000000,"state":"active","ping":102},{"user_id":468,"name":"D(b) Hell","steam_id":76561198067869016,"connected_time":1573000000000,"state":"active","ping":45},{"user_id":429,"name":"RusticCarp42989","steam_id":76561198361151865,"connected_time":4880000000000,"state":"active","ping":109},{"user_id":480,"name":"Nibelsnarf (She/They)","steam_id":76561198137642054,"connected_time":57000000000,"state":"active","ping":90},{"user_id":469,"name":"DooDoo","steam_id":76561199253260081,"connected_time":1480000000000,"state":"active","ping":81},{"user_id":471,"name":"₪ insomniac","steam_id":76561198049548952,"connected_time":1327000000000,"state":"active","ping":77},{"user_id":478,"name":"DukeofWutang","steam_id":76561198010246343,"connected_time":370000000000,"state":"active","ping":105},{"user_id":439,"name":"Schizoid Despot","steam_id":76561198141902905,"connected_time":3693000000000,"state":"active","ping":46},{"user_id":461,"name":"Dovid65","steam_id":76561199277530814,"connected_time":1867000000000,"state":"active","ping":169},{"user_id":402,"name":"Amoxicilina","steam_id":76561198168486429,"connected_time":7371000000000,"state":"active","ping":119},{"user_id":482,"name":"CamoJakIV","steam_id":76561198081877794,"connected_time":24000000000,"state":"active","ping":73}]},{"server_id":38,"name":"Uncletopia | Chicago | 7 | Stopwatch","name_short":"chi-7","host":"chi-2.us.uncletopia.com","port":27035,"enabled":true,"region":"us-central","cc":"us","latitude":41.881832,"longitude":-87.62318,"reserved":0,"last_update":"0001-01-01T00:00:00Z","name_a2s":"Uncletopia | Chicago | 7 | Stopwatch","protocol":17,"map":"workshop/koth_product_final.ugc454272353","folder":"tf","game":"Team Fortress","app_id":440,"player_count":19,"max_players":24,"Bots":0,"server_type":"Dedicated","server_os":"Linux","password":true,"vac":true,"version":"7961495","steam_id":85568392924866364,"keywords":["cp","nocrits","nodmgspread","uncletopia"],"game_id":440,"stv_port":27036,"stv_name":"Uncletopia | Chicago | 7 | Stopwatch | STV","players":[{"user_id":500,"name":"CRABMAN","steam_id":76561198016139425,"connected_time":1835000000000,"state":"active","ping":87},{"user_id":513,"name":"Olitude","steam_id":76561199238964574,"connected_time":1268000000000,"state":"active","ping":67},{"user_id":496,"name":"thezranger","steam_id":76561198454086460,"connected_time":2552000000000,"state":"active","ping":102},{"user_id":497,"name":"Inspecteur Spie","steam_id":76561198082825407,"connected_time":2091000000000,"state":"active","ping":117},{"user_id":491,"name":"Whats Its Face, From That Thing","steam_id":76561198038214574,"connected_time":3084000000000,"state":"active","ping":71},{"user_id":449,"name":"MagikarpEX","steam_id":76561198166172279,"connected_time":5060000000000,"state":"active","ping":59},{"user_id":498,"name":"Soap Man","steam_id":76561198000490235,"connected_time":2089000000000,"state":"active","ping":107},{"user_id":499,"name":"King De","steam_id":76561198194427422,"connected_time":2012000000000,"state":"active","ping":45},{"user_id":502,"name":"Anyar","steam_id":76561198160174097,"connected_time":1807000000000,"state":"active","ping":76},{"user_id":521,"name":"monsterkill4567","steam_id":76561198272986367,"connected_time":370000000000,"state":"active","ping":104},{"user_id":506,"name":"dog.","steam_id":76561198170332855,"connected_time":1749000000000,"state":"active","ping":80},{"user_id":522,"name":"Gunkzilla","steam_id":76561198068228415,"connected_time":73000000000,"state":"active","ping":57},{"user_id":517,"name":"generic internet enjoyer","steam_id":76561199089567808,"connected_time":1024000000000,"state":"active","ping":80},{"user_id":483,"name":"cinamin.kake","steam_id":76561199003171233,"connected_time":3587000000000,"state":"active","ping":53},{"user_id":507,"name":"Poser01","steam_id":76561197999257332,"connected_time":1738000000000,"state":"active","ping":101},{"user_id":509,"name":"rum nitty","steam_id":76561198174788846,"connected_time":1711000000000,"state":"active","ping":45},{"user_id":518,"name":"Juliks","steam_id":76561198310144252,"connected_time":950000000000,"state":"active","ping":73},{"user_id":519,"name":"SCROWEN","steam_id":76561198150382695,"connected_time":806000000000,"state":"active","ping":82},{"user_id":510,"name":"Keith Cozart","steam_id":76561198146090015,"connected_time":1704000000000,"state":"active","ping":50}]},{"server_id":39,"name":"Uncletopia | Chicago | 8 | Community","name_short":"chi-8","host":"chi-2.us.uncletopia.com","port":27045,"enabled":true,"region":"us-central","cc":"us","latitude":41.881832,"longitude":-87.62318,"reserved":0,"last_update":"0001-01-01T00:00:00Z","name_a2s":"Uncletopia | Chicago | 8 | Community","protocol":17,"map":"workshop/pl_cactuscanyon_redux_final2.ugc2579644293","folder":"tf","game":"Team Fortress","app_id":440,"player_count":22,"max_players":24,"Bots":0,"server_type":"Dedicated","server_os":"Linux","password":true,"vac":true,"version":"7961495","steam_id":85568392924866365,"keywords":["nocrits","nodmgspread","payload","uncletopia"],"game_id":440,"stv_port":27046,"stv_name":"Uncletopia | Chicago | 8 | Community | STV","players":[{"user_id":201,"name":"Xquo","steam_id":76561198129005384,"connected_time":1642000000000,"state":"active","ping":58},{"user_id":202,"name":"Jurls","steam_id":76561198138077990,"connected_time":1632000000000,"state":"active","ping":82},{"user_id":224,"name":"RaptorJesus","steam_id":76561198451096442,"connected_time":153000000000,"state":"active","ping":59},{"user_id":222,"name":"TheMightyGod","steam_id":76561198220055968,"connected_time":227000000000,"state":"active","ping":83},{"user_id":212,"name":"CabezaGrande","steam_id":76561197972555502,"connected_time":999000000000,"state":"active","ping":102},{"user_id":223,"name":"IBA Chandler","steam_id":76561198403649648,"connected_time":194000000000,"state":"active","ping":52},{"user_id":226,"name":"Taskrabbits","steam_id":76561198366682546,"connected_time":102000000000,"state":"active","ping":77},{"user_id":124,"name":"Leonardo DiCaprio","steam_id":76561198121886765,"connected_time":7142000000000,"state":"active","ping":55},{"user_id":123,"name":"y0","steam_id":76561198143894333,"connected_time":7144000000000,"state":"active","ping":51},{"user_id":175,"name":"Lulee","steam_id":76561198044410549,"connected_time":3253000000000,"state":"active","ping":81},{"user_id":205,"name":"The All-Seeing Tim","steam_id":76561198075510786,"connected_time":1444000000000,"state":"active","ping":62},{"user_id":219,"name":"Tcmano","steam_id":76561198057233847,"connected_time":445000000000,"state":"active","ping":105},{"user_id":220,"name":"Gaio","steam_id":76561198136293406,"connected_time":320000000000,"state":"active","ping":53},{"user_id":225,"name":"Grand Wizard King","steam_id":76561198099802660,"connected_time":118000000000,"state":"active","ping":63},{"user_id":215,"name":"SuperEnderGuy","steam_id":76561198352732164,"connected_time":710000000000,"state":"active","ping":104},{"user_id":208,"name":"GoGo is a Drunk Slut","steam_id":76561198023080645,"connected_time":1181000000000,"state":"active","ping":76},{"user_id":216,"name":"Hawkborne","steam_id":76561198107249245,"connected_time":674000000000,"state":"active","ping":72},{"user_id":189,"name":"Super Bullshit Man","steam_id":76561198102416507,"connected_time":2770000000000,"state":"active","ping":49},{"user_id":195,"name":"Magnet Dood","steam_id":76561198364178746,"connected_time":2099000000000,"state":"active","ping":50},{"user_id":95,"name":"liquid bread","steam_id":76561198012441419,"connected_time":10841000000000,"state":"active","ping":61},{"user_id":217,"name":"GlitchNoodles","steam_id":76561199009135766,"connected_time":657000000000,"state":"active","ping":52},{"user_id":122,"name":"chunk","steam_id":76561198134775401,"connected_time":7393000000000,"state":"active","ping":73}]},{"server_id":8,"name":"Uncletopia | Dallas | 1 | All Maps","name_short":"dal-1","host":"dal-1.us.uncletopia.com","port":27015,"enabled":true,"region":"us-central","cc":"us","latitude":32.779167,"longitude":-96.80889,"reserved":0,"last_update":"0001-01-01T00:00:00Z","name_a2s":"Uncletopia | Dallas | 1 | All Maps","protocol":17,"map":"pl_barnblitz","folder":"tf","game":"Team Fortress","app_id":440,"player_count":24,"max_players":24,"Bots":0,"server_type":"Dedicated","server_os":"Linux","password":true,"vac":true,"version":"7961495","steam_id":85568392924469986,"keywords":["nocrits","nodmgspread","payload","uncletopia"],"game_id":440,"stv_port":27016,"stv_name":"Uncletopia | Dallas | 1 | All Maps | STV","players":[{"user_id":257,"name":"butterthoughts","steam_id":76561198025120284,"connected_time":1579000000000,"state":"active","ping":86},{"user_id":243,"name":"Lezabel","steam_id":76561198970753261,"connected_time":2516000000000,"state":"active","ping":73},{"user_id":256,"name":"kittytitty","steam_id":76561198122443568,"connected_time":1973000000000,"state":"active","ping":82},{"user_id":260,"name":"Andrew's Taint","steam_id":76561198131400543,"connected_time":1363000000000,"state":"active","ping":69},{"user_id":249,"name":"Albert Whiskers","steam_id":76561198124081839,"connected_time":2422000000000,"state":"active","ping":40},{"user_id":232,"name":"CeLeb144","steam_id":76561199089907740,"connected_time":4533000000000,"state":"active","ping":54},{"user_id":267,"name":"MeMyBongusAndTheGreatOutdoors","steam_id":76561198097708978,"connected_time":1158000000000,"state":"active","ping":51},{"user_id":251,"name":"wugmup","steam_id":76561199096287734,"connected_time":2275000000000,"state":"active","ping":80},{"user_id":219,"name":"PapaSmurf","steam_id":76561199201107408,"connected_time":5588000000000,"state":"active","ping":71},{"user_id":272,"name":"RAWRWAFL","steam_id":76561198032118386,"connected_time":747000000000,"state":"active","ping":75},{"user_id":246,"name":"OuterEos","steam_id":76561198151557939,"connected_time":2466000000000,"state":"active","ping":73},{"user_id":213,"name":"Metbol","steam_id":76561198001362410,"connected_time":6359000000000,"state":"active","ping":65},{"user_id":252,"name":"Engineer2650","steam_id":76561198121410799,"connected_time":2157000000000,"state":"active","ping":49},{"user_id":271,"name":"Team Fartpiss Poo","steam_id":76561199163591880,"connected_time":844000000000,"state":"active","ping":84},{"user_id":269,"name":"guts' theme (Cut \u0026 Looped)","steam_id":76561198012829728,"connected_time":1101000000000,"state":"active","ping":59},{"user_id":261,"name":"Cresant Ape","steam_id":76561198127425559,"connected_time":1348000000000,"state":"active","ping":51},{"user_id":263,"name":"wistful autumn","steam_id":76561198045810207,"connected_time":1260000000000,"state":"active","ping":83},{"user_id":248,"name":"Glühbirne","steam_id":76561198189278869,"connected_time":2447000000000,"state":"active","ping":133},{"user_id":228,"name":"Lickity Split","steam_id":76561198132051047,"connected_time":4691000000000,"state":"active","ping":126},{"user_id":262,"name":"SATURN","steam_id":76561198116023052,"connected_time":1278000000000,"state":"active","ping":117},{"user_id":250,"name":"PTR","steam_id":76561198237253772,"connected_time":2363000000000,"state":"active","ping":52},{"user_id":254,"name":"Gator Mcklusky","steam_id":76561198095744170,"connected_time":2102000000000,"state":"active","ping":109},{"user_id":185,"name":"MenacingMekhet","steam_id":76561198053165462,"connected_time":8179000000000,"state":"active","ping":69},{"user_id":273,"name":"PiolaCat","steam_id":76561199100535345,"connected_time":629000000000,"state":"active","ping":97}]},{"server_id":108,"name":"Uncletopia | Dallas | 2 | All Maps","name_short":"dal-2","host":"dal-1.us.uncletopia.com","port":27025,"enabled":true,"region":"us-central","cc":"us","latitude":32.779167,"longitude":-96.80889,"reserved":0,"last_update":"0001-01-01T00:00:00Z","name_a2s":"Uncletopia | Dallas | 2 | All Maps","protocol":17,"map":"pl_snowycoast","folder":"tf","game":"Team Fortress","app_id":440,"player_count":22,"max_players":24,"Bots":0,"server_type":"Dedicated","server_os":"Linux","password":true,"vac":true,"version":"7961495","steam_id":85568392924469988,"keywords":["nocrits","nodmgspread","payload","uncletopia"],"game_id":440,"stv_port":27026,"stv_name":"Uncletopia | Dallas | 2 | All Maps | STV","players":[{"user_id":494,"name":"SnareString","steam_id":76561199082119457,"connected_time":3382000000000,"state":"active","ping":91},{"user_id":493,"name":"Pile of Spinach","steam_id":76561198043068841,"connected_time":3393000000000,"state":"active","ping":75},{"user_id":495,"name":"Brody Yukin","steam_id":76561198084712019,"connected_time":3373000000000,"state":"active","ping":84},{"user_id":533,"name":"Certified Hood Classic","steam_id":76561199086159354,"connected_time":991000000000,"state":"active","ping":45},{"user_id":540,"name":"firefly","steam_id":76561198151308698,"connected_time":103000000000,"state":"active","ping":43},{"user_id":498,"name":"gayforgod","steam_id":76561198364882421,"connected_time":3197000000000,"state":"active","ping":76},{"user_id":522,"name":"Not Vladikr1","steam_id":76561198401495362,"connected_time":2478000000000,"state":"active","ping":79},{"user_id":524,"name":"Chris P. Bacon","steam_id":76561199083417745,"connected_time":2166000000000,"state":"active","ping":124},{"user_id":501,"name":"Therapy Goth","steam_id":76561198048448497,"connected_time":3159000000000,"state":"active","ping":76},{"user_id":513,"name":"daemon","steam_id":76561198001541433,"connected_time":2583000000000,"state":"active","ping":76},{"user_id":503,"name":"kiwi","steam_id":76561198052177917,"connected_time":3145000000000,"state":"active","ping":90},{"user_id":530,"name":"YEETBOI420","steam_id":76561199075136177,"connected_time":1958000000000,"state":"active","ping":90},{"user_id":544,"name":"MD","steam_id":76561197976300679,"connected_time":7000000000,"state":"spawning","ping":52},{"user_id":527,"name":"potato_games","steam_id":76561199120708182,"connected_time":2007000000000,"state":"active","ping":92},{"user_id":543,"name":"short bus enthusiast","steam_id":76561198069380992,"connected_time":52000000000,"state":"active","ping":56},{"user_id":542,"name":"Chekkaa","steam_id":76561198035140767,"connected_time":57000000000,"state":"active","ping":96},{"user_id":534,"name":"why","steam_id":76561199059732212,"connected_time":905000000000,"state":"active","ping":75},{"user_id":535,"name":"HOG RIDER","steam_id":76561198298589502,"connected_time":873000000000,"state":"active","ping":78},{"user_id":538,"name":"DEUTSCHLAND","steam_id":76561198188623218,"connected_time":268000000000,"state":"active","ping":90},{"user_id":519,"name":"ATLS1 | Strange Festive","steam_id":76561198050385093,"connected_time":2507000000000,"state":"active","ping":83},{"user_id":539,"name":"9/11 Airlines","steam_id":76561198096306325,"connected_time":178000000000,"state":"active","ping":84},{"user_id":521,"name":"C Papi","steam_id":76561198027779564,"connected_time":2505000000000,"state":"active","ping":70}]},{"server_id":404,"name":"Uncletopia | Dallas | 3 | All Maps","name_short":"dal-3","host":"dal-1.us.uncletopia.com","port":27035,"enabled":true,"region":"us-central","cc":"us","latitude":32.779167,"longitude":-96.80889,"reserved":0,"last_update":"0001-01-01T00:00:00Z","name_a2s":"Uncletopia | Dallas | 3 | All Maps","protocol":17,"map":"pl_swiftwater_final1","folder":"tf","game":"Team Fortress","app_id":440,"player_count":22,"max_players":24,"Bots":0,"server_type":"Dedicated","server_os":"Linux","password":true,"vac":true,"version":"7961495","steam_id":85568392924515219,"keywords":["nocrits","nodmgspread","payload","uncletopia"],"game_id":440,"stv_port":27036,"stv_name":"Uncletopia | Dallas | 3 | All Maps | STV","players":[{"user_id":334,"name":"❤ Ashleyyy ❤","steam_id":76561198056428303,"connected_time":226000000000,"state":"active","ping":74},{"user_id":331,"name":"riSygneD","steam_id":76561198331618687,"connected_time":910000000000,"state":"active","ping":68},{"user_id":257,"name":"Kirby","steam_id":76561199161858008,"connected_time":5895000000000,"state":"active","ping":64},{"user_id":270,"name":"Máquina de Fuego","steam_id":76561198119445407,"connected_time":5036000000000,"state":"active","ping":62},{"user_id":321,"name":"LOVEDRAGON","steam_id":76561198089908485,"connected_time":1162000000000,"state":"active","ping":106},{"user_id":324,"name":"Stick","steam_id":76561198001509374,"connected_time":1046000000000,"state":"active","ping":55},{"user_id":320,"name":"shellaa","steam_id":76561198044124102,"connected_time":1163000000000,"state":"active","ping":48},{"user_id":323,"name":"cupsovietxeno","steam_id":76561198997539399,"connected_time":1136000000000,"state":"active","ping":84},{"user_id":333,"name":"Blue Eyes Ace Dragon.","steam_id":76561198048214237,"connected_time":598000000000,"state":"active","ping":85},{"user_id":309,"name":"Kilian","steam_id":76561197964374101,"connected_time":2829000000000,"state":"active","ping":101},{"user_id":335,"name":"self sufficient kitten","steam_id":76561197960592612,"connected_time":210000000000,"state":"active","ping":95},{"user_id":319,"name":"Antifa Supersoldier","steam_id":76561198141816516,"connected_time":1169000000000,"state":"active","ping":45},{"user_id":316,"name":"Lain","steam_id":76561198029303534,"connected_time":1752000000000,"state":"active","ping":67},{"user_id":322,"name":"tingle shitmouth","steam_id":76561198055109192,"connected_time":1159000000000,"state":"active","ping":73},{"user_id":337,"name":"Dongus","steam_id":76561197979056451,"connected_time":78000000000,"state":"active","ping":105},{"user_id":283,"name":"have blue","steam_id":76561198054260599,"connected_time":3952000000000,"state":"active","ping":59},{"user_id":328,"name":"Rukks","steam_id":76561197993918954,"connected_time":998000000000,"state":"active","ping":88},{"user_id":329,"name":"CampinCarl","steam_id":76561197997373624,"connected_time":998000000000,"state":"active","ping":87},{"user_id":293,"name":"Marzbee115","steam_id":76561198095821025,"connected_time":3668000000000,"state":"active","ping":65},{"user_id":315,"name":"Captain Malarkey","steam_id":76561198869924281,"connected_time":1842000000000,"state":"active","ping":49},{"user_id":317,"name":"Baconator","steam_id":76561198941700660,"connected_time":1635000000000,"state":"active","ping":106},{"user_id":338,"name":"Karl_Marx_Onlyfans","steam_id":76561198212389613,"connected_time":74000000000,"state":"active","ping":90}]},{"server_id":405,"name":"Uncletopia | Dallas | 4 | Community","name_short":"dal-4","host":"dal-1.us.uncletopia.com","port":27045,"enabled":true,"region":"us-central","cc":"us","latitude":32.779167,"longitude":-96.80889,"reserved":0,"last_update":"0001-01-01T00:00:00Z","name_a2s":"Uncletopia | Dallas | 4 | Community","protocol":17,"map":"workshop/koth_product_final.ugc454272353","folder":"tf","game":"Team Fortress","app_id":440,"player_count":0,"max_players":24,"Bots":0,"server_type":"Dedicated","server_os":"Linux","password":true,"vac":true,"version":"7961495","steam_id":85568392924515220,"keywords":["cp","nocrits","nodmgspread","uncletopia"],"game_id":440,"stv_port":27046,"stv_name":"Uncletopia | Dallas | 4 | Community | STV","players":null},{"server_id":5,"name":"Uncletopia | Frankfurt | 1 | All Maps","name_short":"frk-1","host":"frk-1.de.uncletopia.com","port":27015,"enabled":true,"region":"eu","cc":"de","latitude":50.110924,"longitude":8.682127,"reserved":0,"last_update":"0001-01-01T00:00:00Z","name_a2s":"Uncletopia | Frankfurt | 1 | All Maps","protocol":17,"map":"cp_badlands","folder":"tf","game":"Team Fortress","app_id":440,"player_count":0,"max_players":24,"Bots":0,"server_type":"Dedicated","server_os":"Linux","password":true,"vac":true,"version":"7961495","steam_id":85568392924469989,"keywords":["cp","nocrits","nodmgspread","uncletopia"],"game_id":440,"stv_port":27016,"stv_name":"Uncletopia | Frankfurt | 1 | All Maps | STV","players":null},{"server_id":110,"name":"Uncletopia | Frankfurt | 2 | All Maps","name_short":"frk-2","host":"frk-1.de.uncletopia.com","port":27025,"enabled":true,"region":"eu","cc":"de","latitude":50.110924,"longitude":8.682127,"reserved":0,"last_update":"0001-01-01T00:00:00Z","name_a2s":"Uncletopia | Frankfurt | 2 | All Maps","protocol":17,"map":"plr_hightower","folder":"tf","game":"Team Fortress","app_id":440,"player_count":0,"max_players":24,"Bots":0,"server_type":"Dedicated","server_os":"Linux","password":true,"vac":true,"version":"7961495","steam_id":85568392924469990,"keywords":["nocrits","nodmgspread","payload","uncletopia"],"game_id":440,"stv_port":27026,"stv_name":"Uncletopia | Frankfurt | 2 | All Maps | STV","players":null},{"server_id":308,"name":"Uncletopia | Frankfurt | 3 | All Maps","name_short":"frk-3","host":"frk-1.de.uncletopia.com","port":27035,"enabled":true,"region":"eu","cc":"de","latitude":50.110924,"longitude":8.682127,"reserved":0,"last_update":"0001-01-01T00:00:00Z","name_a2s":"Uncletopia | Frankfurt | 3 | All Maps","protocol":17,"map":"cp_metalworks","folder":"tf","game":"Team Fortress","app_id":440,"player_count":0,"max_players":24,"Bots":0,"server_type":"Dedicated","server_os":"Linux","password":true,"vac":true,"version":"7961495","steam_id":85568392924504274,"keywords":["cp","nocrits","nodmgspread","uncletopia"],"game_id":440,"stv_port":27036,"stv_name":"Uncletopia | Frankfurt | 3 | All Maps | STV","players":null},{"server_id":309,"name":"Uncletopia | Frankfurt | 4 | All Maps","name_short":"frk-4","host":"frk-1.de.uncletopia.com","port":27045,"enabled":true,"region":"eu","cc":"de","latitude":50.110924,"longitude":8.682127,"reserved":0,"last_update":"0001-01-01T00:00:00Z","name_a2s":"Uncletopia | Frankfurt | 4 | All Maps","protocol":17,"map":"cp_gorge","folder":"tf","game":"Team Fortress","app_id":440,"player_count":0,"max_players":24,"Bots":0,"server_type":"Dedicated","server_os":"Linux","password":true,"vac":true,"version":"7961495","steam_id":85568392924504275,"keywords":["cp","nocrits","nodmgspread","uncletopia"],"game_id":440,"stv_port":27046,"stv_name":"Uncletopia | Frankfurt | 4 | All Maps | STV","players":null},{"server_id":310,"name":"Uncletopia | Frankfurt | 5 | All Maps","name_short":"frk-5","host":"frk-1.de.uncletopia.com","port":27055,"enabled":true,"region":"eu","cc":"de","latitude":50.110924,"longitude":8.682127,"reserved":0,"last_update":"0001-01-01T00:00:00Z","name_a2s":"Uncletopia | Frankfurt | 5 | All Maps","protocol":17,"map":"cp_mountainlab","folder":"tf","game":"Team Fortress","app_id":440,"player_count":0,"max_players":24,"Bots":0,"server_type":"Dedicated","server_os":"Linux","password":true,"vac":true,"version":"7961495","steam_id":85568392924504277,"keywords":["cp","nocrits","nodmgspread","uncletopia"],"game_id":440,"stv_port":27056,"stv_name":"Uncletopia | Frankfurt | 5 | All Maps | STV","players":null},{"server_id":311,"name":"Uncletopia | Frankfurt | 6 | All Maps","name_short":"frk-6","host":"frk-1.de.uncletopia.com","port":27065,"enabled":true,"region":"eu","cc":"de","latitude":50.110924,"longitude":8.682127,"reserved":0,"last_update":"0001-01-01T00:00:00Z","name_a2s":"Uncletopia | Frankfurt | 6 | All Maps","protocol":17,"map":"cp_coldfront","folder":"tf","game":"Team Fortress","app_id":440,"player_count":0,"max_players":24,"Bots":0,"server_type":"Dedicated","server_os":"Linux","password":true,"vac":true,"version":"7961495","steam_id":85568392924504278,"keywords":["cp","nocrits","nodmgspread","uncletopia"],"game_id":440,"stv_port":27066,"stv_name":"Uncletopia | Frankfurt | 6 | All Maps | STV","players":null},{"server_id":23,"name":"Uncletopia | Frankfurt | 7 | Stopwatch","name_short":"frk-7","host":"frk-1.de.uncletopia.com","port":27075,"enabled":true,"region":"eu","cc":"de","latitude":50.110924,"longitude":8.682127,"reserved":0,"last_update":"0001-01-01T00:00:00Z","name_a2s":"Uncletopia | Frankfurt | 7 | Stopwatch","protocol":17,"map":"cp_sunshine","folder":"tf","game":"Team Fortress","app_id":440,"player_count":0,"max_players":24,"Bots":0,"server_type":"Dedicated","server_os":"Linux","password":true,"vac":true,"version":"7961495","steam_id":85568392924742827,"keywords":["cp","nocrits","nodmgspread","uncletopia"],"game_id":440,"stv_port":27076,"stv_name":"Uncletopia | Frankfurt | 7 | Stopwatch | STV","players":null},{"server_id":24,"name":"Uncletopia | Frankfurt | 8 | Community","name_short":"frk-8","host":"frk-1.de.uncletopia.com","port":27085,"enabled":true,"region":"eu","cc":"de","latitude":50.110924,"longitude":8.682127,"reserved":0,"last_update":"0001-01-01T00:00:00Z","name_a2s":"Uncletopia | Frankfurt | 8 | Community","protocol":17,"map":"workshop/pl_boundary_final1.ugc456799153","folder":"tf","game":"Team Fortress","app_id":440,"player_count":0,"max_players":24,"Bots":0,"server_type":"Dedicated","server_os":"Linux","password":true,"vac":true,"version":"7961495","steam_id":85568392924742828,"keywords":["nocrits","nodmgspread","payload","uncletopia"],"game_id":440,"stv_port":27086,"stv_name":"Uncletopia | Frankfurt | 8 | Community | STV","players":null},{"server_id":202,"name":"Uncletopia | Hong Kong | 1 | All Maps","name_short":"hgk-1","host":"hgk-1.hk.uncletopia.com","port":27015,"enabled":true,"region":"asia","cc":"hk","latitude":22.302711,"longitude":114.177216,"reserved":0,"last_update":"0001-01-01T00:00:00Z","name_a2s":"Uncletopia | Hong Kong | 1 | All Maps","protocol":17,"map":"cp_process_final","folder":"tf","game":"Team Fortress","app_id":440,"player_count":1,"max_players":24,"Bots":0,"server_type":"Dedicated","server_os":"Linux","password":true,"vac":true,"version":"7961495","steam_id":85568392924494504,"keywords":["cp","nocrits","nodmgspread","uncletopia"],"game_id":440,"stv_port":27016,"stv_name":"Uncletopia | Hong Kong | 1 | All Maps | STV","players":[{"user_id":18,"name":"beepis","steam_id":76561198965473654,"connected_time":284000000000,"state":"active","ping":61}]},{"server_id":1,"name":"Uncletopia | Los Angeles | 1 | All Maps","name_short":"lax-1","host":"lax-1.us.uncletopia.com","port":27015,"enabled":true,"region":"us-west","cc":"us","latitude":33.94279,"longitude":-118.41004,"reserved":0,"last_update":"0001-01-01T00:00:00Z","name_a2s":"Uncletopia | Los Angeles | 1 | All Maps","protocol":17,"map":"cp_process_final","folder":"tf","game":"Team Fortress","app_id":440,"player_count":0,"max_players":24,"Bots":0,"server_type":"Dedicated","server_os":"Linux","password":true,"vac":true,"version":"7961495","steam_id":85568392924469991,"keywords":["cp","nocrits","nodmgspread","uncletopia"],"game_id":440,"stv_port":27016,"stv_name":"Uncletopia | Los Angeles | 1 | All Maps | STV","players":null},{"server_id":112,"name":"Uncletopia | Los Angeles | 2 | All Maps","name_short":"lax-2","host":"lax-1.us.uncletopia.com","port":27025,"enabled":true,"region":"us-west","cc":"us","latitude":33.94279,"longitude":-118.41004,"reserved":0,"last_update":"0001-01-01T00:00:00Z","name_a2s":"Uncletopia | Los Angeles | 2 | All Maps","protocol":17,"map":"koth_cascade","folder":"tf","game":"Team Fortress","app_id":440,"player_count":0,"max_players":24,"Bots":0,"server_type":"Dedicated","server_os":"Linux","password":true,"vac":true,"version":"7961495","steam_id":85568392924469992,"keywords":["cp","nocrits","nodmgspread","uncletopia"],"game_id":440,"stv_port":27026,"stv_name":"Uncletopia | Los Angeles | 2 | All Maps | STV","players":null},{"server_id":324,"name":"Uncletopia | Los Angeles | 3 | All Maps","name_short":"lax-3","host":"lax-1.us.uncletopia.com","port":27035,"enabled":true,"region":"us-west","cc":"us","latitude":33.94279,"longitude":-118.41004,"reserved":0,"last_update":"0001-01-01T00:00:00Z","name_a2s":"Uncletopia | Los Angeles | 3 | All Maps","protocol":17,"map":"plr_bananabay","folder":"tf","game":"Team Fortress","app_id":440,"player_count":24,"max_players":24,"Bots":0,"server_type":"Dedicated","server_os":"Linux","password":true,"vac":true,"version":"7961495","steam_id":85568392924510198,"keywords":["nocrits","nodmgspread","payload","uncletopia"],"game_id":440,"stv_port":27036,"stv_name":"Uncletopia | Los Angeles | 3 | All Maps | STV","players":[{"user_id":281,"name":"john.","steam_id":76561198982939658,"connected_time":2974000000000,"state":"active","ping":48},{"user_id":301,"name":"HeHedron","steam_id":76561199199667164,"connected_time":1724000000000,"state":"active","ping":63},{"user_id":231,"name":"Reyloko","steam_id":76561198172480913,"connected_time":7025000000000,"state":"active","ping":93},{"user_id":285,"name":"Just a Baby","steam_id":76561198018660838,"connected_time":2551000000000,"state":"active","ping":101},{"user_id":288,"name":"ShadowZiki","steam_id":76561198145930013,"connected_time":2337000000000,"state":"active","ping":47},{"user_id":323,"name":"Bacon","steam_id":76561197961223922,"connected_time":247000000000,"state":"active","ping":61},{"user_id":312,"name":"no vc no c","steam_id":76561197989503095,"connected_time":775000000000,"state":"active","ping":158},{"user_id":298,"name":"Tmiracle","steam_id":76561198052375275,"connected_time":1880000000000,"state":"active","ping":47},{"user_id":313,"name":"MayKay","steam_id":76561199016092265,"connected_time":679000000000,"state":"active","ping":52},{"user_id":302,"name":"usedhalfcart","steam_id":76561198072621852,"connected_time":1680000000000,"state":"active","ping":65},{"user_id":325,"name":"miguelrodriguez2013","steam_id":76561198269253587,"connected_time":50000000000,"state":"active","ping":57},{"user_id":261,"name":"Jimmy","steam_id":76561198857959855,"connected_time":5671000000000,"state":"active","ping":51},{"user_id":314,"name":"DeathSushi","steam_id":76561199156131540,"connected_time":663000000000,"state":"active","ping":82},{"user_id":315,"name":"Creamy","steam_id":76561197994828098,"connected_time":651000000000,"state":"active","ping":76},{"user_id":279,"name":"Ice cream sandwich","steam_id":76561198172748357,"connected_time":3635000000000,"state":"active","ping":59},{"user_id":295,"name":"O bez","steam_id":76561198841579939,"connected_time":2027000000000,"state":"active","ping":48},{"user_id":316,"name":"Mr. Noodle","steam_id":76561198025280658,"connected_time":641000000000,"state":"active","ping":50},{"user_id":317,"name":"ChoccyMiltank","steam_id":76561198981474284,"connected_time":640000000000,"state":"active","ping":41},{"user_id":322,"name":"chimplicity","steam_id":76561198012097062,"connected_time":446000000000,"state":"active","ping":56},{"user_id":310,"name":"Drake from State Farm","steam_id":76561199069029812,"connected_time":931000000000,"state":"active","ping":78},{"user_id":275,"name":"Levrian","steam_id":76561198066747236,"connected_time":3884000000000,"state":"active","ping":114},{"user_id":307,"name":"Reem0h","steam_id":76561198169848690,"connected_time":1229000000000,"state":"active","ping":138},{"user_id":326,"name":"darren","steam_id":76561199050155136,"connected_time":39000000000,"state":"active","ping":51},{"user_id":297,"name":"day6","steam_id":76561198168492250,"connected_time":2012000000000,"state":"active","ping":49}]},{"server_id":25,"name":"Uncletopia | Los Angeles | 4 | Stopwatch","name_short":"lax-4","host":"lax-1.us.uncletopia.com","port":27045,"enabled":true,"region":"us-west","cc":"us","latitude":33.94279,"longitude":-118.41004,"reserved":0,"last_update":"0001-01-01T00:00:00Z","name_a2s":"Uncletopia | Los Angeles | 4 | Stopwatch","protocol":17,"map":"koth_highpass","folder":"tf","game":"Team Fortress","app_id":440,"player_count":2,"max_players":24,"Bots":0,"server_type":"Dedicated","server_os":"Linux","password":true,"vac":true,"version":"7961495","steam_id":85568392924510199,"keywords":["cp","nocrits","nodmgspread","uncletopia"],"game_id":440,"stv_port":27046,"stv_name":"Uncletopia | Los Angeles | 4 | Stopwatch | STV","players":[{"user_id":19,"name":"harambe 101","steam_id":76561198366850003,"connected_time":3458000000000,"state":"active","ping":145},{"user_id":20,"name":"MirrorsAreScary","steam_id":76561198860505587,"connected_time":3180000000000,"state":"active","ping":93}]},{"server_id":11,"name":"Uncletopia | London | 1 | All Maps","name_short":"lon-1","host":"lon-1.uk.uncletopia.com","port":27015,"enabled":true,"region":"eu","cc":"gb","latitude":51.509865,"longitude":-0.118092,"reserved":0,"last_update":"0001-01-01T00:00:00Z","name_a2s":"Uncletopia | London | 1 | All Maps","protocol":17,"map":"pl_borneo","folder":"tf","game":"Team Fortress","app_id":440,"player_count":1,"max_players":24,"Bots":0,"server_type":"Dedicated","server_os":"Linux","password":true,"vac":true,"version":"7961495","steam_id":85568392924367362,"keywords":["nocrits","nodmgspread","payload","uncletopia"],"game_id":440,"stv_port":27016,"stv_name":"Uncletopia | London | 1 | All Maps | STV","players":[{"user_id":1312,"name":"Rui","steam_id":76561198263735498,"connected_time":71000000000,"state":"active","ping":78}]},{"server_id":114,"name":"Uncletopia | London | 2 | All Maps","name_short":"lon-2","host":"lon-1.uk.uncletopia.com","port":27025,"enabled":true,"region":"eu","cc":"gb","latitude":51.509865,"longitude":-0.118092,"reserved":0,"last_update":"0001-01-01T00:00:00Z","name_a2s":"Uncletopia | London | 2 | All Maps","protocol":17,"map":"koth_harvest_final","folder":"tf","game":"Team Fortress","app_id":440,"player_count":0,"max_players":24,"Bots":0,"server_type":"Dedicated","server_os":"Linux","password":true,"vac":true,"version":"7961495","steam_id":85568392924470941,"keywords":["cp","nocrits","nodmgspread","uncletopia"],"game_id":440,"stv_port":27026,"stv_name":"Uncletopia | London | 2 | All Maps | STV","players":null},{"server_id":320,"name":"Uncletopia | London | 3 | All Maps","name_short":"lon-3","host":"lon-1.uk.uncletopia.com","port":27035,"enabled":true,"region":"eu","cc":"gb","latitude":51.509865,"longitude":-0.118092,"reserved":0,"last_update":"0001-01-01T00:00:00Z","name_a2s":"Uncletopia | London | 3 | All Maps","protocol":17,"map":"koth_lakeside_final","folder":"tf","game":"Team Fortress","app_id":440,"player_count":0,"max_players":24,"Bots":0,"server_type":"Dedicated","server_os":"Linux","password":true,"vac":true,"version":"7961495","steam_id":85568392924510192,"keywords":["cp","nocrits","nodmgspread","uncletopia"],"game_id":440,"stv_port":27036,"stv_name":"Uncletopia | London | 3 | All Maps | STV","players":null},{"server_id":321,"name":"Uncletopia | London | 4 | All Maps","name_short":"lon-4","host":"lon-1.uk.uncletopia.com","port":27045,"enabled":true,"region":"eu","cc":"gb","latitude":51.509865,"longitude":-0.118092,"reserved":0,"last_update":"0001-01-01T00:00:00Z","name_a2s":"Uncletopia | London | 4 | All Maps","protocol":17,"map":"koth_king","folder":"tf","game":"Team Fortress","app_id":440,"player_count":0,"max_players":24,"Bots":0,"server_type":"Dedicated","server_os":"Linux","password":true,"vac":true,"version":"7961495","steam_id":85568392924510193,"keywords":["cp","nocrits","nodmgspread","uncletopia"],"game_id":440,"stv_port":27046,"stv_name":"Uncletopia | London | 4 | All Maps | STV","players":null},{"server_id":21,"name":"Uncletopia | London | 5 | All Maps","name_short":"lon-5","host":"lon-1.uk.uncletopia.com","port":27055,"enabled":true,"region":"eu","cc":"gb","latitude":51.509865,"longitude":-0.118092,"reserved":0,"last_update":"0001-01-01T00:00:00Z","name_a2s":"Uncletopia | London | 5 | All Maps","protocol":17,"map":"pl_barnblitz","folder":"tf","game":"Team Fortress","app_id":440,"player_count":0,"max_players":24,"Bots":0,"server_type":"Dedicated","server_os":"Linux","password":true,"vac":true,"version":"7961495","steam_id":85568392924742829,"keywords":["nocrits","nodmgspread","payload","uncletopia"],"game_id":440,"stv_port":27056,"stv_name":"Uncletopia | London | 5 | All Maps | STV","players":null},{"server_id":22,"name":"Uncletopia | London | 6 | All Maps","name_short":"lon-6","host":"lon-1.uk.uncletopia.com","port":27065,"enabled":true,"region":"eu","cc":"gb","latitude":51.509865,"longitude":-0.118092,"reserved":0,"last_update":"0001-01-01T00:00:00Z","name_a2s":"Uncletopia | London | 6 | All Maps","protocol":17,"map":"koth_highpass","folder":"tf","game":"Team Fortress","app_id":440,"player_count":0,"max_players":24,"Bots":0,"server_type":"Dedicated","server_os":"Linux","password":true,"vac":true,"version":"7961495","steam_id":85568392924742830,"keywords":["cp","nocrits","nodmgspread","uncletopia"],"game_id":440,"stv_port":27066,"stv_name":"Uncletopia | London | 6 | All Maps | STV","players":null},{"server_id":40,"name":"Uncletopia | London | 7 | Stopwatch","name_short":"lon-7","host":"lon-1.uk.uncletopia.com","port":27075,"enabled":true,"region":"eu","cc":"gb","latitude":51.509865,"longitude":-0.118092,"reserved":0,"last_update":"0001-01-01T00:00:00Z","name_a2s":"Uncletopia | London | 7 | Stopwatch","protocol":17,"map":"workshop/koth_clearcut_b15.ugc2107050255","folder":"tf","game":"Team Fortress","app_id":440,"player_count":0,"max_players":24,"Bots":0,"server_type":"Dedicated","server_os":"Linux","password":true,"vac":true,"version":"7961495","steam_id":85568392924964314,"keywords":["cp","nocrits","nodmgspread","uncletopia"],"game_id":440,"stv_port":27076,"stv_name":"Uncletopia | London | 7 | Stopwatch | STV","players":null},{"server_id":41,"name":"Uncletopia | London | 8 | Community","name_short":"lon-8","host":"lon-1.uk.uncletopia.com","port":27085,"enabled":true,"region":"eu","cc":"gb","latitude":51.509865,"longitude":-0.118092,"reserved":0,"last_update":"0001-01-01T00:00:00Z","name_a2s":"Uncletopia | London | 8 | Community","protocol":17,"map":"workshop/pl_boundary_final1.ugc456799153","folder":"tf","game":"Team Fortress","app_id":440,"player_count":0,"max_players":24,"Bots":0,"server_type":"Dedicated","server_os":"Linux","password":true,"vac":true,"version":"7961495","steam_id":85568392924964315,"keywords":["nocrits","nodmgspread","payload","uncletopia"],"game_id":440,"stv_port":27086,"stv_name":"Uncletopia | London | 8 | Community | STV","players":null},{"server_id":300,"name":"Uncletopia | Montréal | 1 | One Thousand Uncles","name_short":"mtl-1","host":"mtl-1.ca.uncletopia.com","port":27015,"enabled":true,"region":"us-east","cc":"ca","latitude":45.50889,"longitude":-73.56167,"reserved":0,"last_update":"0001-01-01T00:00:00Z","name_a2s":"Uncletopia | Montréal | 1 | One Thousand Uncles","protocol":17,"map":"pl_badwater","folder":"tf","game":"Team Fortress","app_id":440,"player_count":0,"max_players":32,"Bots":0,"server_type":"Dedicated","server_os":"Linux","password":true,"vac":true,"version":"7961495","steam_id":85568392924500087,"keywords":["alltalk","danepve","increased_maxplayers","norespawntime","payload","uncletopia"],"game_id":440,"stv_port":0,"stv_name":"","players":null},{"server_id":301,"name":"Uncletopia | Montréal | 2 | One Thousand Uncles","name_short":"mtl-2","host":"mtl-1.ca.uncletopia.com","port":27025,"enabled":true,"region":"us-east","cc":"ca","latitude":45.50889,"longitude":-73.56167,"reserved":0,"last_update":"0001-01-01T00:00:00Z","name_a2s":"Uncletopia | Montréal | 2 | One Thousand Uncles","protocol":17,"map":"pl_chilly","folder":"tf","game":"Team Fortress","app_id":440,"player_count":0,"max_players":32,"Bots":0,"server_type":"Dedicated","server_os":"Linux","password":true,"vac":true,"version":"7961495","steam_id":85568392924500088,"keywords":["alltalk","danepve","increased_maxplayers","norespawntime","payload","uncletopia"],"game_id":440,"stv_port":0,"stv_name":"","players":null},{"server_id":302,"name":"Uncletopia | Montréal | 3 | One Thousand Uncles","name_short":"mtl-3","host":"mtl-1.ca.uncletopia.com","port":27035,"enabled":true,"region":"us-east","cc":"ca","latitude":45.50889,"longitude":-73.56167,"reserved":0,"last_update":"0001-01-01T00:00:00Z","name_a2s":"Uncletopia | Montréal | 3 | One Thousand Uncles","protocol":17,"map":"cp_mossrock","folder":"tf","game":"Team Fortress","app_id":440,"player_count":0,"max_players":32,"Bots":0,"server_type":"Dedicated","server_os":"Linux","password":true,"vac":true,"version":"7961495","steam_id":85568392924500089,"keywords":["alltalk","cp","danepve","increased_maxplayers","norespawntime","uncletopia"],"game_id":440,"stv_port":0,"stv_name":"","players":null},{"server_id":13,"name":"Uncletopia | New York City | 1 | All Maps","name_short":"nyc-1","host":"nyc-1.us.uncletopia.com","port":27015,"enabled":true,"region":"us-east","cc":"us","latitude":40.73061,"longitude":-73.93524,"reserved":0,"last_update":"0001-01-01T00:00:00Z","name_a2s":"Uncletopia | New York City | 1 | All Maps","protocol":17,"map":"cp_altitude","folder":"tf","game":"Team Fortress","app_id":440,"player_count":21,"max_players":24,"Bots":0,"server_type":"Dedicated","server_os":"Linux","password":true,"vac":true,"version":"7961495","steam_id":85568392924469993,"keywords":["cp","nocrits","nodmgspread","uncletopia"],"game_id":440,"stv_port":27016,"stv_name":"Uncletopia | New York City | 1 | All Maps | STV","players":[{"user_id":230,"name":"SalsaDaddy","steam_id":76561198358869108,"connected_time":742000000000,"state":"active","ping":59},{"user_id":225,"name":"True Love Makin' \u003c3","steam_id":76561198131796104,"connected_time":1248000000000,"state":"active","ping":70},{"user_id":231,"name":"RichSix","steam_id":76561198010325218,"connected_time":597000000000,"state":"active","ping":30},{"user_id":214,"name":"Tokyo_Timeshift_","steam_id":76561198048677523,"connected_time":2206000000000,"state":"active","ping":61},{"user_id":128,"name":"Coop","steam_id":76561198042839356,"connected_time":10581000000000,"state":"active","ping":53},{"user_id":205,"name":"GuyGoom","steam_id":76561198254522178,"connected_time":2859000000000,"state":"active","ping":84},{"user_id":206,"name":"the.land.of.avalon","steam_id":76561198245431668,"connected_time":2848000000000,"state":"active","ping":84},{"user_id":233,"name":"Menachem","steam_id":76561198041226420,"connected_time":309000000000,"state":"active","ping":66},{"user_id":239,"name":"Banana connoisseur","steam_id":76561199156630225,"connected_time":77000000000,"state":"active","ping":60},{"user_id":232,"name":"stargaze","steam_id":76561198103614972,"connected_time":453000000000,"state":"active","ping":105},{"user_id":235,"name":"kikikikoboy","steam_id":76561198073380271,"connected_time":270000000000,"state":"active","ping":57},{"user_id":228,"name":"Password is Taco","steam_id":76561198026092945,"connected_time":1017000000000,"state":"active","ping":83},{"user_id":238,"name":"Ulrich Stern","steam_id":76561198101739682,"connected_time":128000000000,"state":"active","ping":82},{"user_id":237,"name":"Grimprr","steam_id":76561198275816797,"connected_time":231000000000,"state":"active","ping":106},{"user_id":92,"name":"googa","steam_id":76561198133130452,"connected_time":12922000000000,"state":"active","ping":45},{"user_id":240,"name":"Casey Jones","steam_id":76561198132321084,"connected_time":23000000000,"state":"spawning","ping":31},{"user_id":241,"name":"james_bondage","steam_id":76561199476062624,"connected_time":4000000000,"state":"spawning","ping":59},{"user_id":216,"name":"Gram Tokers Count Doinkula","steam_id":76561198112811565,"connected_time":2154000000000,"state":"active","ping":52},{"user_id":219,"name":"Blade Racer","steam_id":76561198155896703,"connected_time":2056000000000,"state":"active","ping":58},{"user_id":186,"name":"Pootis ENGAGE","steam_id":76561198192752793,"connected_time":4609000000000,"state":"active","ping":53},{"user_id":166,"name":"Two-Teste Tommy","steam_id":76561198064308936,"connected_time":5333000000000,"state":"active","ping":57}]},{"server_id":14,"name":"Uncletopia | New York City | 2 | All Maps","name_short":"nyc-2","host":"nyc-1.us.uncletopia.com","port":27025,"enabled":true,"region":"us-east","cc":"us","latitude":40.73061,"longitude":-73.93524,"reserved":0,"last_update":"0001-01-01T00:00:00Z","name_a2s":"Uncletopia | New York City | 2 | All Maps","protocol":17,"map":"pl_pier","folder":"tf","game":"Team Fortress","app_id":440,"player_count":22,"max_players":24,"Bots":0,"server_type":"Dedicated","server_os":"Linux","password":true,"vac":true,"version":"7961495","steam_id":85568392924469994,"keywords":["nocrits","nodmgspread","payload","uncletopia"],"game_id":440,"stv_port":27026,"stv_name":"Uncletopia | New York City | 2 | All Maps | STV","players":[{"user_id":361,"name":"Big Yoshi","steam_id":76561199160576376,"connected_time":1000000000000,"state":"active","ping":125},{"user_id":320,"name":"PurPle","steam_id":76561198050393396,"connected_time":2828000000000,"state":"active","ping":56},{"user_id":365,"name":"cookiegenius2398","steam_id":76561198970759258,"connected_time":813000000000,"state":"active","ping":106},{"user_id":319,"name":"Fish Fisherman","steam_id":76561198018656022,"connected_time":2839000000000,"state":"active","ping":57},{"user_id":315,"name":"a bowl of soup","steam_id":76561198244933286,"connected_time":3357000000000,"state":"active","ping":60},{"user_id":356,"name":"the","steam_id":76561198016826181,"connected_time":1064000000000,"state":"active","ping":60},{"user_id":352,"name":"Borat","steam_id":76561198122226417,"connected_time":1099000000000,"state":"active","ping":109},{"user_id":371,"name":"corntent","steam_id":76561198824847948,"connected_time":515000000000,"state":"active","ping":43},{"user_id":354,"name":"beannmeisterr","steam_id":76561198433878719,"connected_time":1080000000000,"state":"active","ping":55},{"user_id":372,"name":"dreammule","steam_id":76561198943694656,"connected_time":477000000000,"state":"active","ping":67},{"user_id":341,"name":"DO NOT call me BART SIMPSON!!","steam_id":76561198069113375,"connected_time":1585000000000,"state":"active","ping":45},{"user_id":373,"name":"-darkstalker-","steam_id":76561198367039999,"connected_time":403000000000,"state":"active","ping":83},{"user_id":276,"name":"Slime Rancher 2 Enjoyer","steam_id":76561199171272762,"connected_time":5752000000000,"state":"active","ping":65},{"user_id":342,"name":"Bacchus","steam_id":76561198113244990,"connected_time":1572000000000,"state":"active","ping":72},{"user_id":374,"name":"Shrebbie","steam_id":76561198875230824,"connected_time":249000000000,"state":"active","ping":46},{"user_id":375,"name":"WoaterboY","steam_id":76561198209415300,"connected_time":240000000000,"state":"active","ping":80},{"user_id":377,"name":"fear","steam_id":76561198063170079,"connected_time":212000000000,"state":"active","ping":57},{"user_id":325,"name":"Pomegranate88","steam_id":76561198056385456,"connected_time":2407000000000,"state":"active","ping":61},{"user_id":344,"name":"Edsuedi","steam_id":76561198074722832,"connected_time":1546000000000,"state":"active","ping":121},{"user_id":378,"name":"Deadinfected30","steam_id":76561198107358646,"connected_time":206000000000,"state":"active","ping":75},{"user_id":334,"name":"Meh","steam_id":76561198078187920,"connected_time":1866000000000,"state":"active","ping":78},{"user_id":379,"name":"Mythical Lag","steam_id":76561198347031281,"connected_time":112000000000,"state":"active","ping":85}]},{"server_id":15,"name":"Uncletopia | New York City | 3 | Stopwatch","name_short":"nyc-3","host":"nyc-1.us.uncletopia.com","port":27035,"enabled":true,"region":"us-east","cc":"us","latitude":40.73061,"longitude":-73.93524,"reserved":0,"last_update":"0001-01-01T00:00:00Z","name_a2s":"Uncletopia | New York City | 3 | Stopwatch","protocol":17,"map":"workshop/cp_reckoner_rc6.ugc674719999","folder":"tf","game":"Team Fortress","app_id":440,"player_count":0,"max_players":24,"Bots":0,"server_type":"Dedicated","server_os":"Linux","password":true,"vac":true,"version":"7961495","steam_id":85568392924742820,"keywords":["cp","nocrits","nodmgspread","uncletopia"],"game_id":440,"stv_port":27036,"stv_name":"Uncletopia | New York City | 3 | Stopwatch | STV","players":null},{"server_id":16,"name":"Uncletopia | New York City | 4 | Community","name_short":"nyc-4","host":"nyc-1.us.uncletopia.com","port":27045,"enabled":true,"region":"us-east","cc":"us","latitude":40.73061,"longitude":-73.93524,"reserved":0,"last_update":"0001-01-01T00:00:00Z","name_a2s":"Uncletopia | New York City | 4 | Community","protocol":17,"map":"workshop/cp_propaganda_b18.ugc1603743849","folder":"tf","game":"Team Fortress","app_id":440,"player_count":0,"max_players":24,"Bots":0,"server_type":"Dedicated","server_os":"Linux","password":true,"vac":true,"version":"7961495","steam_id":85568392924742821,"keywords":["cp","nocrits","nodmgspread","uncletopia"],"game_id":440,"stv_port":27046,"stv_name":"Uncletopia | New York City | 4 | Community | STV","players":null},{"server_id":142,"name":"Uncletopia | São Paulo | 1 | All Maps","name_short":"sao-1","host":"sao-1.br.uncletopia.com","port":27015,"enabled":true,"region":"sa","cc":"br","latitude":-23.533773,"longitude":-46.62529,"reserved":0,"last_update":"0001-01-01T00:00:00Z","name_a2s":"Uncletopia | São Paulo | 1 | All Maps","protocol":17,"map":"koth_cascade","folder":"tf","game":"Team Fortress","app_id":440,"player_count":0,"max_players":24,"Bots":0,"server_type":"Dedicated","server_os":"Linux","password":true,"vac":true,"version":"7961495","steam_id":85568392924469996,"keywords":["cp","nocrits","nodmgspread","uncletopia"],"game_id":440,"stv_port":27016,"stv_name":"Uncletopia | São Paulo | 1 | All Maps | STV","players":null},{"server_id":143,"name":"Uncletopia | São Paulo | 2 | Community","name_short":"sao-2","host":"sao-2.br.uncletopia.com","port":27015,"enabled":true,"region":"sa","cc":"br","latitude":-23.533773,"longitude":-46.62529,"reserved":0,"last_update":"0001-01-01T00:00:00Z","name_a2s":"Uncletopia | São Paulo | 2 | Community","protocol":17,"map":"workshop/koth_product_final.ugc454272353","folder":"tf","game":"Team Fortress","app_id":440,"player_count":0,"max_players":24,"Bots":0,"server_type":"Dedicated","server_os":"Linux","password":true,"vac":true,"version":"7961495","steam_id":85568392924485349,"keywords":["cp","nocrits","nodmgspread","uncletopia"],"game_id":440,"stv_port":27016,"stv_name":"Uncletopia | São Paulo | 2 | Community | STV","players":null},{"server_id":7,"name":"Uncletopia | Seattle | 1 | All Maps","name_short":"sea-1","host":"sea-1.us.uncletopia.com","port":27015,"enabled":true,"region":"us-west","cc":"us","latitude":47.608013,"longitude":-122.33517,"reserved":0,"last_update":"0001-01-01T00:00:00Z","name_a2s":"Uncletopia | Seattle | 1 | All Maps","protocol":17,"map":"cp_gravelpit","folder":"tf","game":"Team Fortress","app_id":440,"player_count":24,"max_players":24,"Bots":0,"server_type":"Dedicated","server_os":"Linux","password":true,"vac":true,"version":"7961495","steam_id":85568392924469997,"keywords":["cp","nocrits","nodmgspread","uncletopia"],"game_id":440,"stv_port":27016,"stv_name":"Uncletopia | Seattle | 1 | All Maps | STV","players":[{"user_id":713,"name":"0","steam_id":76561198450073779,"connected_time":2098000000000,"state":"active","ping":45},{"user_id":690,"name":"The King of Piss World","steam_id":76561198082806956,"connected_time":4947000000000,"state":"active","ping":118},{"user_id":694,"name":"OGBobbyJohns","steam_id":76561197964339077,"connected_time":4691000000000,"state":"active","ping":49},{"user_id":644,"name":"SanitysEdge","steam_id":76561198130732813,"connected_time":8295000000000,"state":"active","ping":74},{"user_id":735,"name":"Luca","steam_id":76561198125087140,"connected_time":221000000000,"state":"active","ping":46},{"user_id":714,"name":"2 Point Tom","steam_id":76561198087617008,"connected_time":2063000000000,"state":"active","ping":46},{"user_id":721,"name":"severe fjord withdrawals","steam_id":76561198131166135,"connected_time":816000000000,"state":"active","ping":40},{"user_id":630,"name":"MrYadaization","steam_id":76561198050770818,"connected_time":8816000000000,"state":"active","ping":54},{"user_id":693,"name":"Snoogs","steam_id":76561198444880931,"connected_time":4796000000000,"state":"active","ping":109},{"user_id":727,"name":"Altronbee","steam_id":76561198238030676,"connected_time":748000000000,"state":"active","ping":40},{"user_id":732,"name":"TROY","steam_id":76561197983852176,"connected_time":562000000000,"state":"active","ping":75},{"user_id":700,"name":"Loading...","steam_id":76561198075555396,"connected_time":3610000000000,"state":"active","ping":45},{"user_id":719,"name":"rat gets the cheese","steam_id":76561198031234032,"connected_time":1245000000000,"state":"active","ping":105},{"user_id":680,"name":"Mignyanne :3","steam_id":76561198048754056,"connected_time":5803000000000,"state":"active","ping":69},{"user_id":734,"name":"manchego gaming","steam_id":76561198069895678,"connected_time":302000000000,"state":"active","ping":60},{"user_id":736,"name":"NEBULA","steam_id":76561198086878595,"connected_time":105000000000,"state":"active","ping":73},{"user_id":707,"name":"gordonz88","steam_id":76561198020241395,"connected_time":3153000000000,"state":"active","ping":45},{"user_id":738,"name":"♥ alixei! ♥","steam_id":76561198014557455,"connected_time":42000000000,"state":"active","ping":100},{"user_id":685,"name":"Nom Skirrett","steam_id":76561198014600788,"connected_time":4983000000000,"state":"active","ping":61},{"user_id":720,"name":"Skabbety","steam_id":76561198168044257,"connected_time":1172000000000,"state":"active","ping":42},{"user_id":706,"name":"HotHead","steam_id":76561198138468982,"connected_time":3318000000000,"state":"active","ping":45},{"user_id":724,"name":"Greenwood RN","steam_id":76561198088641060,"connected_time":803000000000,"state":"active","ping":40},{"user_id":725,"name":"Dr. Karl, the AUS Science Guy","steam_id":76561198031278747,"connected_time":797000000000,"state":"active","ping":55},{"user_id":729,"name":"Sivinus","steam_id":76561198025589541,"connected_time":729000000000,"state":"active","ping":77}]},{"server_id":119,"name":"Uncletopia | Seattle | 2 | All Maps","name_short":"sea-2","host":"sea-1.us.uncletopia.com","port":27025,"enabled":true,"region":"us-west","cc":"us","latitude":47.608013,"longitude":-122.33517,"reserved":0,"last_update":"0001-01-01T00:00:00Z","name_a2s":"Uncletopia | Seattle | 2 | All Maps","protocol":17,"map":"pl_barnblitz","folder":"tf","game":"Team Fortress","app_id":440,"player_count":24,"max_players":24,"Bots":0,"server_type":"Dedicated","server_os":"Linux","password":true,"vac":true,"version":"7961495","steam_id":85568392924469998,"keywords":["nocrits","nodmgspread","payload","uncletopia"],"game_id":440,"stv_port":27026,"stv_name":"Uncletopia | Seattle | 2 | All Maps | STV","players":[{"user_id":113,"name":"HappyLizard","steam_id":76561198014721507,"connected_time":2319000000000,"state":"active","ping":77},{"user_id":132,"name":"dereck","steam_id":76561198283886556,"connected_time":358000000000,"state":"active","ping":166},{"user_id":121,"name":"Lily Thorn","steam_id":76561198305488625,"connected_time":1019000000000,"state":"active","ping":47},{"user_id":85,"name":"-={o.W.n.}=- Dark Murkrow 3","steam_id":76561198174432643,"connected_time":4566000000000,"state":"active","ping":76},{"user_id":122,"name":"tunaa","steam_id":76561198362763159,"connected_time":1005000000000,"state":"active","ping":75},{"user_id":105,"name":"blueboy23","steam_id":76561199121889873,"connected_time":2978000000000,"state":"active","ping":44},{"user_id":114,"name":"R5-D4","steam_id":76561198025196439,"connected_time":2185000000000,"state":"active","ping":50},{"user_id":130,"name":"Frank","steam_id":76561198126681511,"connected_time":472000000000,"state":"active","ping":133},{"user_id":131,"name":"Bolbi","steam_id":76561198051811597,"connected_time":462000000000,"state":"active","ping":75},{"user_id":126,"name":"Capitalism","steam_id":76561198068677316,"connected_time":565000000000,"state":"active","ping":42},{"user_id":66,"name":"Katie XXII","steam_id":76561198135534297,"connected_time":5367000000000,"state":"active","ping":48},{"user_id":127,"name":"Kangarule","steam_id":76561198147171260,"connected_time":554000000000,"state":"active","ping":47},{"user_id":112,"name":"Deku_2667","steam_id":76561199232121911,"connected_time":2550000000000,"state":"active","ping":48},{"user_id":70,"name":"Dosario","steam_id":76561198298095535,"connected_time":5323000000000,"state":"active","ping":47},{"user_id":74,"name":"Preston","steam_id":76561198255721392,"connected_time":4980000000000,"state":"active","ping":119},{"user_id":129,"name":"no.2 medic boyfriend","steam_id":76561198873478305,"connected_time":546000000000,"state":"active","ping":48},{"user_id":103,"name":"F I S H","steam_id":76561198282522963,"connected_time":2998000000000,"state":"active","ping":91},{"user_id":79,"name":"meursault","steam_id":76561198151071386,"connected_time":4758000000000,"state":"active","ping":39},{"user_id":87,"name":"Kupluyria","steam_id":76561199123981447,"connected_time":4444000000000,"state":"active","ping":53},{"user_id":119,"name":"AMONGUS","steam_id":76561199176017593,"connected_time":1804000000000,"state":"active","ping":67},{"user_id":116,"name":"\u003c blank \u003e","steam_id":76561198097188001,"connected_time":2095000000000,"state":"active","ping":45},{"user_id":128,"name":"BAll3d:HOCKEYGAMEMODE","steam_id":76561198055089667,"connected_time":554000000000,"state":"active","ping":45},{"user_id":133,"name":"sweet babboo","steam_id":76561198016889445,"connected_time":302000000000,"state":"active","ping":111},{"user_id":134,"name":"FiddyFoMike","steam_id":76561198057072581,"connected_time":172000000000,"state":"active","ping":66}]},{"server_id":406,"name":"Uncletopia | Seattle | 3 | Stopwatch","name_short":"sea-3","host":"sea-1.us.uncletopia.com","port":27035,"enabled":true,"region":"us-west","cc":"us","latitude":47.608013,"longitude":-122.33517,"reserved":0,"last_update":"0001-01-01T00:00:00Z","name_a2s":"Uncletopia | Seattle | 3 | Stopwatch","protocol":17,"map":"workshop/koth_product_final.ugc454272353","folder":"tf","game":"Team Fortress","app_id":440,"player_count":0,"max_players":24,"Bots":0,"server_type":"Dedicated","server_os":"Linux","password":true,"vac":true,"version":"7961495","steam_id":85568392924515217,"keywords":["cp","nocrits","nodmgspread","uncletopia"],"game_id":440,"stv_port":27036,"stv_name":"Uncletopia | Seattle | 3 | Stopwatch | STV","players":null},{"server_id":17,"name":"Uncletopia | San Francisco | 1 | All Maps","name_short":"sfo-1","host":"sfo-1.us.uncletopia.com","port":27015,"enabled":true,"region":"us-west","cc":"us","latitude":37.77397,"longitude":-122.4313,"reserved":0,"last_update":"0001-01-01T00:00:00Z","name_a2s":"Uncletopia | San Francisco | 1 | All Maps","protocol":17,"map":"pl_barnblitz","folder":"tf","game":"Team Fortress","app_id":440,"player_count":23,"max_players":24,"Bots":0,"server_type":"Dedicated","server_os":"Linux","password":true,"vac":true,"version":"7961495","steam_id":85568392924469999,"keywords":["nocrits","nodmgspread","payload","uncletopia"],"game_id":440,"stv_port":27016,"stv_name":"Uncletopia | San Francisco | 1 | All Maps | STV","players":[{"user_id":238,"name":"[ØWQJØ]chubacaalatake","steam_id":76561198136201697,"connected_time":1664000000000,"state":"active","ping":101},{"user_id":257,"name":"shrocket enthusiast","steam_id":76561198110661425,"connected_time":246000000000,"state":"active","ping":69},{"user_id":252,"name":"ඞThe Bountiful Barista™®\ufffd\ufffd","steam_id":76561198971431257,"connected_time":873000000000,"state":"active","ping":79},{"user_id":218,"name":"Yoshidube","steam_id":76561198352675680,"connected_time":3108000000000,"state":"active","ping":96},{"user_id":233,"name":"Untermensch","steam_id":76561198149634242,"connected_time":1943000000000,"state":"active","ping":74},{"user_id":248,"name":"SolarusD","steam_id":76561198029279861,"connected_time":1001000000000,"state":"active","ping":53},{"user_id":254,"name":"mentos14","steam_id":76561198097993629,"connected_time":398000000000,"state":"active","ping":70},{"user_id":245,"name":"OHMYGEEEEEEZ22","steam_id":76561198375884178,"connected_time":1424000000000,"state":"active","ping":90},{"user_id":243,"name":"Igrium","steam_id":76561198119549811,"connected_time":1528000000000,"state":"active","ping":51},{"user_id":158,"name":"{DNJ} exoslayer -Z-","steam_id":76561198022370929,"connected_time":8171000000000,"state":"active","ping":51},{"user_id":134,"name":"Lambchop","steam_id":76561198043900363,"connected_time":10030000000000,"state":"active","ping":59},{"user_id":204,"name":"Alcohol Hominid","steam_id":76561198320313950,"connected_time":5839000000000,"state":"active","ping":83},{"user_id":230,"name":"DeadLemm","steam_id":76561198107380040,"connected_time":2570000000000,"state":"active","ping":90},{"user_id":239,"name":"ronald","steam_id":76561197960691622,"connected_time":1657000000000,"state":"active","ping":67},{"user_id":208,"name":"ChimpusGaming","steam_id":76561198060954715,"connected_time":5514000000000,"state":"active","ping":99},{"user_id":253,"name":"Taco+Taco=Burrito","steam_id":76561198063128663,"connected_time":690000000000,"state":"active","ping":53},{"user_id":259,"name":"Bidelo","steam_id":76561198882576471,"connected_time":35000000000,"state":"active","ping":215},{"user_id":244,"name":"reverie","steam_id":76561198168158637,"connected_time":1474000000000,"state":"active","ping":64},{"user_id":235,"name":"TeriyakiDynamite","steam_id":76561198050049346,"connected_time":1930000000000,"state":"active","ping":62},{"user_id":119,"name":"Surfing Garchomp","steam_id":76561199107236884,"connected_time":10786000000000,"state":"active","ping":73},{"user_id":201,"name":"Cat on the Moon","steam_id":76561198272661627,"connected_time":5905000000000,"state":"active","ping":62},{"user_id":258,"name":"Nova Academy of Salmon Action","steam_id":76561198021842526,"connected_time":245000000000,"state":"active","ping":55},{"user_id":247,"name":"Monty","steam_id":76561197993567253,"connected_time":1048000000000,"state":"active","ping":73}]},{"server_id":18,"name":"Uncletopia | San Francisco | 2 | All Maps","name_short":"sfo-2","host":"sfo-1.us.uncletopia.com","port":27025,"enabled":true,"region":"us-west","cc":"us","latitude":37.77397,"longitude":-122.4313,"reserved":0,"last_update":"0001-01-01T00:00:00Z","name_a2s":"Uncletopia | San Francisco | 2 | All Maps","protocol":17,"map":"koth_cascade","folder":"tf","game":"Team Fortress","app_id":440,"player_count":18,"max_players":24,"Bots":0,"server_type":"Dedicated","server_os":"Linux","password":true,"vac":true,"version":"7961495","steam_id":85568392924470000,"keywords":["cp","nocrits","nodmgspread","uncletopia"],"game_id":440,"stv_port":27026,"stv_name":"Uncletopia | San Francisco | 2 | All Maps | STV","players":[{"user_id":18,"name":"duddlee","steam_id":76561198030052564,"connected_time":1237000000000,"state":"active","ping":71},{"user_id":19,"name":"weebee","steam_id":76561198313610950,"connected_time":1203000000000,"state":"active","ping":74},{"user_id":20,"name":"roody","steam_id":76561198066260405,"connected_time":1171000000000,"state":"active","ping":67},{"user_id":21,"name":"JacobOneHundredPercentWholeWhea","steam_id":76561198045992418,"connected_time":1155000000000,"state":"active","ping":76},{"user_id":22,"name":"GalaxyDoug32","steam_id":76561197997126305,"connected_time":1146000000000,"state":"active","ping":77},{"user_id":23,"name":"elder lich joe biden","steam_id":76561198257134732,"connected_time":1132000000000,"state":"active","ping":74},{"user_id":24,"name":"Ian","steam_id":76561198159334435,"connected_time":702000000000,"state":"active","ping":178},{"user_id":25,"name":"Ass Clown","steam_id":76561198108838905,"connected_time":548000000000,"state":"active","ping":112},{"user_id":26,"name":"superspider663","steam_id":76561198126349561,"connected_time":469000000000,"state":"active","ping":117},{"user_id":27,"name":"Big Daddy Thanos","steam_id":76561198214062896,"connected_time":461000000000,"state":"active","ping":108},{"user_id":28,"name":"bur","steam_id":76561198116918866,"connected_time":461000000000,"state":"active","ping":102},{"user_id":29,"name":"DoddyBrothers16","steam_id":76561198132775819,"connected_time":458000000000,"state":"active","ping":112},{"user_id":30,"name":"Synthena","steam_id":76561198199137138,"connected_time":392000000000,"state":"active","ping":123},{"user_id":31,"name":"Mercantile Pig","steam_id":76561198416391778,"connected_time":390000000000,"state":"active","ping":46},{"user_id":32,"name":"All Tomorrow's Parties","steam_id":76561197995936212,"connected_time":284000000000,"state":"active","ping":89},{"user_id":33,"name":"ImNotZelda","steam_id":76561198866570682,"connected_time":244000000000,"state":"active","ping":61},{"user_id":34,"name":"Lorelei","steam_id":76561198095778842,"connected_time":223000000000,"state":"active","ping":74},{"user_id":35,"name":"ronald_stackerusa55","steam_id":76561198150406851,"connected_time":162000000000,"state":"active","ping":45}]},{"server_id":19,"name":"Uncletopia | San Francisco | 3 | Stopwatch","name_short":"sfo-3","host":"sfo-1.us.uncletopia.com","port":27035,"enabled":true,"region":"us-west","cc":"us","latitude":37.77397,"longitude":-122.4313,"reserved":0,"last_update":"0001-01-01T00:00:00Z","name_a2s":"Uncletopia | San Francisco | 3 | Stopwatch","protocol":17,"map":"pl_swiftwater_final1","folder":"tf","game":"Team Fortress","app_id":440,"player_count":0,"max_players":24,"Bots":0,"server_type":"Dedicated","server_os":"Linux","password":true,"vac":true,"version":"7961495","steam_id":85568392924742824,"keywords":["nocrits","nodmgspread","payload","uncletopia"],"game_id":440,"stv_port":27036,"stv_name":"Uncletopia | San Francisco | 3 | Stopwatch | STV","players":null},{"server_id":20,"name":"Uncletopia | San Francisco | 4 | Community","name_short":"sfo-4","host":"sfo-1.us.uncletopia.com","port":27045,"enabled":true,"region":"us-west","cc":"us","latitude":37.77397,"longitude":-122.4313,"reserved":0,"last_update":"0001-01-01T00:00:00Z","name_a2s":"Uncletopia | San Francisco | 4 | Community","protocol":17,"map":"workshop/pl_shoreleave_rc2.ugc1238849347","folder":"tf","game":"Team Fortress","app_id":440,"player_count":0,"max_players":24,"Bots":0,"server_type":"Dedicated","server_os":"Linux","password":true,"vac":true,"version":"7961495","steam_id":85568392924742826,"keywords":["nocrits","nodmgspread","payload","uncletopia"],"game_id":440,"stv_port":27046,"stv_name":"Uncletopia | San Francisco | 4 | Community | STV","players":null},{"server_id":141,"name":"Uncletopia | Sydney | 1 | All Maps","name_short":"syd-1","host":"syd-1.au.uncletopia.com","port":27015,"enabled":true,"region":"au","cc":"au","latitude":-33.865143,"longitude":151.2099,"reserved":0,"last_update":"0001-01-01T00:00:00Z","name_a2s":"Uncletopia | Sydney | 1 | All Maps","protocol":17,"map":"koth_nucleus","folder":"tf","game":"Team Fortress","app_id":440,"player_count":0,"max_players":24,"Bots":0,"server_type":"Dedicated","server_os":"Linux","password":true,"vac":true,"version":"7961495","steam_id":85568392924470001,"keywords":["cp","nocrits","nodmgspread","uncletopia"],"game_id":440,"stv_port":27016,"stv_name":"Uncletopia | Sydney | 1 | All Maps | STV","players":null},{"server_id":123,"name":"Uncletopia | Sydney | 2 | All Maps","name_short":"syd-2","host":"syd-1.au.uncletopia.com","port":27025,"enabled":true,"region":"au","cc":"au","latitude":-33.865143,"longitude":151.2099,"reserved":0,"last_update":"0001-01-01T00:00:00Z","name_a2s":"Uncletopia | Sydney | 2 | All Maps","protocol":17,"map":"cp_fastlane","folder":"tf","game":"Team Fortress","app_id":440,"player_count":0,"max_players":24,"Bots":0,"server_type":"Dedicated","server_os":"Linux","password":true,"vac":true,"version":"7961495","steam_id":85568392924470002,"keywords":["cp","nocrits","nodmgspread","uncletopia"],"game_id":440,"stv_port":27026,"stv_name":"Uncletopia | Sydney | 2 | All Maps | STV","players":null},{"server_id":395,"name":"Uncletopia | Sydney | 3 | All Maps","name_short":"syd-3","host":"syd-1.au.uncletopia.com","port":27035,"enabled":true,"region":"au","cc":"au","latitude":-33.865143,"longitude":151.2099,"reserved":0,"last_update":"0001-01-01T00:00:00Z","name_a2s":"Uncletopia | Sydney | 3 | All Maps","protocol":17,"map":"cp_metalworks","folder":"tf","game":"Team Fortress","app_id":440,"player_count":0,"max_players":24,"Bots":0,"server_type":"Dedicated","server_os":"Linux","password":true,"vac":true,"version":"7961495","steam_id":85568392925194467,"keywords":["cp","nocrits","nodmgspread","uncletopia"],"game_id":440,"stv_port":27036,"stv_name":"Uncletopia | Sydney | 3 | All Maps | STV","players":null},{"server_id":396,"name":"Uncletopia | Sydney | 4 | All Maps","name_short":"syd-4","host":"syd-1.au.uncletopia.com","port":27045,"enabled":true,"region":"au","cc":"au","latitude":-33.865143,"longitude":151.2099,"reserved":0,"last_update":"0001-01-01T00:00:00Z","name_a2s":"Uncletopia | Sydney | 4 | All Maps","protocol":17,"map":"koth_cascade","folder":"tf","game":"Team Fortress","app_id":440,"player_count":0,"max_players":24,"Bots":0,"server_type":"Dedicated","server_os":"Linux","password":true,"vac":true,"version":"7961495","steam_id":85568392925397958,"keywords":["cp","nocrits","nodmgspread","uncletopia"],"game_id":440,"stv_port":27046,"stv_name":"Uncletopia | Sydney | 4 | All Maps | STV","players":null},{"server_id":58,"name":"Uncletopia | Sydney | 5 | Stopwatch","name_short":"syd-5","host":"syd-1.au.uncletopia.com","port":27055,"enabled":true,"region":"au","cc":"au","latitude":-33.865143,"longitude":151.2099,"reserved":0,"last_update":"0001-01-01T00:00:00Z","name_a2s":"Uncletopia | Sydney | 5 | Stopwatch","protocol":17,"map":"workshop/koth_product_final.ugc454272353","folder":"tf","game":"Team Fortress","app_id":440,"player_count":0,"max_players":24,"Bots":0,"server_type":"Dedicated","server_os":"Linux","password":true,"vac":true,"version":"7961495","steam_id":85568392925397959,"keywords":["cp","nocrits","nodmgspread","uncletopia"],"game_id":440,"stv_port":27056,"stv_name":"Uncletopia | Sydney | 5 | Stopwatch | STV","players":null},{"server_id":59,"name":"Uncletopia | Sydney | 6 | Community","name_short":"syd-6","host":"syd-1.au.uncletopia.com","port":27065,"enabled":true,"region":"au","cc":"au","latitude":-33.865143,"longitude":151.2099,"reserved":0,"last_update":"0001-01-01T00:00:00Z","name_a2s":"Uncletopia | Sydney | 6 | Community","protocol":17,"map":"workshop/koth_trenchfoot_ab1.ugc731436616","folder":"tf","game":"Team Fortress","app_id":440,"player_count":0,"max_players":24,"Bots":0,"server_type":"Dedicated","server_os":"Linux","password":true,"vac":true,"version":"7961495","steam_id":85568392925397960,"keywords":["cp","nocrits","nodmgspread","uncletopia"],"game_id":440,"stv_port":27066,"stv_name":"Uncletopia | Sydney | 6 | Community | STV","players":null},{"server_id":49,"name":"Uncletopia | Warsaw | 1 | One Thousand Uncles","name_short":"waw-1","host":"waw-1.pl.uncletopia.com","port":27015,"enabled":true,"region":"eu","cc":"pl","latitude":52.2297,"longitude":21.017532,"reserved":0,"last_update":"0001-01-01T00:00:00Z","name_a2s":"Uncletopia | Warsaw | 1 | One Thousand Uncles","protocol":17,"map":"cp_mercenarypark","folder":"tf","game":"Team Fortress","app_id":440,"player_count":0,"max_players":32,"Bots":0,"server_type":"Dedicated","server_os":"Linux","password":true,"vac":true,"version":"7961495","steam_id":85568392925397850,"keywords":["alltalk","cp","danepve","increased_maxplayers","norespawntime","uncletopia"],"game_id":440,"stv_port":0,"stv_name":"","players":null},{"server_id":50,"name":"Uncletopia | Warsaw | 2 | One Thousand Uncles","name_short":"waw-2","host":"waw-1.pl.uncletopia.com","port":27025,"enabled":true,"region":"eu","cc":"pl","latitude":52.2297,"longitude":21.017532,"reserved":0,"last_update":"0001-01-01T00:00:00Z","name_a2s":"Uncletopia | Warsaw | 2 | One Thousand Uncles","protocol":17,"map":"cp_egypt_final","folder":"tf","game":"Team Fortress","app_id":440,"player_count":0,"max_players":32,"Bots":0,"server_type":"Dedicated","server_os":"Linux","password":true,"vac":true,"version":"7961495","steam_id":85568392925397851,"keywords":["alltalk","cp","danepve","increased_maxplayers","norespawntime","uncletopia"],"game_id":440,"stv_port":0,"stv_name":"","players":null},{"server_id":51,"name":"Uncletopia | Warsaw | 3 | All Maps","name_short":"waw-3","host":"waw-1.pl.uncletopia.com","port":27035,"enabled":true,"region":"eu","cc":"pl","latitude":52.2297,"longitude":21.017532,"reserved":0,"last_update":"0001-01-01T00:00:00Z","name_a2s":"Uncletopia | Warsaw | 3 | All Maps","protocol":17,"map":"pl_snowycoast","folder":"tf","game":"Team Fortress","app_id":440,"player_count":0,"max_players":24,"Bots":0,"server_type":"Dedicated","server_os":"Linux","password":true,"vac":true,"version":"7961495","steam_id":85568392925397852,"keywords":["nocrits","nodmgspread","payload","uncletopia"],"game_id":440,"stv_port":27036,"stv_name":"Uncletopia | Warsaw | 3 | All Maps | STV","players":null},{"server_id":52,"name":"Uncletopia | Warsaw | 4 | All Maps","name_short":"waw-4","host":"waw-1.pl.uncletopia.com","port":27045,"enabled":true,"region":"eu","cc":"pl","latitude":52.2297,"longitude":21.017532,"reserved":0,"last_update":"0001-01-01T00:00:00Z","name_a2s":"Uncletopia | Warsaw | 4 | All Maps","protocol":17,"map":"cp_fastlane","folder":"tf","game":"Team Fortress","app_id":440,"player_count":0,"max_players":24,"Bots":0,"server_type":"Dedicated","server_os":"Linux","password":true,"vac":true,"version":"7961495","steam_id":85568392925397853,"keywords":["cp","nocrits","nodmgspread","uncletopia"],"game_id":440,"stv_port":27046,"stv_name":"Uncletopia | Warsaw | 4 | All Maps | STV","players":null},{"server_id":53,"name":"Uncletopia | Warsaw | 5 | Stopwatch","name_short":"waw-5","host":"waw-1.pl.uncletopia.com","port":27055,"enabled":true,"region":"eu","cc":"pl","latitude":52.2297,"longitude":21.017532,"reserved":0,"last_update":"0001-01-01T00:00:00Z","name_a2s":"Uncletopia | Warsaw | 5 | Stopwatch","protocol":17,"map":"cp_gullywash_final1","folder":"tf","game":"Team Fortress","app_id":440,"player_count":0,"max_players":24,"Bots":0,"server_type":"Dedicated","server_os":"Linux","password":true,"vac":true,"version":"7961495","steam_id":85568392925397854,"keywords":["cp","nocrits","nodmgspread","uncletopia"],"game_id":440,"stv_port":27056,"stv_name":"Uncletopia | Warsaw | 5 | Stopwatch | STV","players":null},{"server_id":54,"name":"Uncletopia | Warsaw | 6 | Community","name_short":"waw-6","host":"waw-1.pl.uncletopia.com","port":27065,"enabled":true,"region":"eu","cc":"pl","latitude":52.2297,"longitude":21.017532,"reserved":0,"last_update":"0001-01-01T00:00:00Z","name_a2s":"Uncletopia | Warsaw | 6 | Community","protocol":17,"map":"workshop/cp_fulgur_rc2a.ugc2068252300","folder":"tf","game":"Team Fortress","app_id":440,"player_count":0,"max_players":24,"Bots":0,"server_type":"Dedicated","server_os":"Linux","password":true,"vac":true,"version":"7961495","steam_id":85568392925397856,"keywords":["cp","nocrits","nodmgspread","uncletopia"],"game_id":440,"stv_port":27066,"stv_name":"Uncletopia | Warsaw | 6 | Community | STV","players":null}]}