{"status":true,"message":"","result":[{"server_id":9,"name":"Uncletopia | Atlanta | 1 | All Maps","name_short":"atl-1","host":"atl-1.us.uncletopia.com","port":27015,"enabled":true,"region":"us-east","cc":"us","latitude":33.753746,"longitude":-84.38633,"reserved":0,"last_update":"0001-01-01T00:00:00Z","name_a2s":"Uncletopia | Atlanta | 1 | All Maps","protocol":17,"map":"pl_barnblitz","folder":"tf","game":"Team Fortress","app_id":440,"player_count":24,"max_players":24,"Bots":0,"server_type":"Dedicated","server_os":"Linux","password":true,"vac":true,"version":"7961495","steam_id":85568392924469982,"keywords":["nocrits","nodmgspread","payload","uncletopia"],"game_id":440,"stv_port":27016,"stv_name":"Uncletopia | Atlanta | 1 | All Maps | STV","players":[{"user_id":512,"name":"ATL1 | cola","steam_id":76561198374390458,"connected_time":1294000000000,"state":"active","ping":61},{"user_id":486,"name":"gesture jester","steam_id":76561198850632709,"connected_time":2722000000000,"state":"active","ping":69},{"user_id":510,"name":"ash","steam_id":76561198127890645,"connected_time":1434000000000,"state":"active","ping":61},{"user_id":514,"name":"pump","steam_id":76561198071705442,"connected_time":1226000000000,"state":"active","ping":59},{"user_id":471,"name":"shaderoses","steam_id":76561198070800500,"connected_time":3576000000000,"state":"active","ping":81},{"user_id":503,"name":"Sheembs","steam_id":76561199010524390,"connected_time":1689000000000,"state":"active","ping":64},{"user_id":485,"name":"chen","steam_id":76561198064872330,"connected_time":2752000000000,"state":"active","ping":76},{"user_id":527,"name":"HarryjusttHarry","steam_id":76561198982810452,"connected_time":861000000000,"state":"active","ping":90},{"user_id":489,"name":"lu","steam_id":76561198080731872,"connected_time":2699000000000,"state":"active","ping":74},{"user_id":499,"name":"Le4n!!!","steam_id":76561198045522596,"connected_time":1903000000000,"state":"active","ping":71},{"user_id":524,"name":"Hugs","steam_id":76561198062726277,"connected_time":876000000000,"state":"active","ping":71},{"user_id":532,"name":"KyCheesefries","steam_id":76561198025593214,"connected_time":590000000000,"state":"active","ping":60},{"user_id":523,"name":"luxin","steam_id":76561198399383047,"connected_time":879000000000,"state":"active","ping":54},{"user_id":509,"name":"lynt","steam_id":76561198988333976,"connected_time":1465000000000,"state":"active","ping":46},{"user_id":483,"name":"TheDwarfKing","steam_id":76561198128269919,"connected_time":2906000000000,"state":"active","ping":65},{"user_id":475,"name":"trianamarco780","steam_id":76561199084319677,"connected_time":3448000000000,"state":"active","ping":107},{"user_id":458,"name":"t.tv/ibbKitty  ∑:3","steam_id":76561198110858518,"connected_time":4262000000000,"state":"active","ping":80},{"user_id":461,"name":"Nickorea","steam_id":76561198025784788,"connected_time":4030000000000,"state":"active","ping":62},{"user_id":525,"name":"xdab","steam_id":76561198086904171,"connected_time":876000000000,"state":"active","ping":45},{"user_id":488,"name":"Switch","steam_id":76561197982035284,"connected_time":2712000000000,"state":"active","ping":74},{"user_id":533,"name":"Jin Gulilo","steam_id":76561198065151242,"connected_time":437000000000,"state":"active","ping":85},{"user_id":528,"name":"sheeesh","steam_id":76561198038080028,"connected_time":861000000000,"state":"active","ping":88},{"user_id":535,"name":"punchy","steam_id":76561198200000641,"connected_time":256000000000,"state":"active","ping":60},{"user_id":531,"name":"big steve","steam_id":76561199037050183,"connected_time":600000000000,"state":"active","ping":85}]},{"server_id":104,"name":"Uncletopia | Atlanta | 2 | All Maps","name_short":"atl-2","host":"atl-1.us.uncletopia.com","port":27025,"enabled":true,"region":"us-east","cc":"us","latitude":33.753746,"longitude":-84.38633,"reserved":0,"last_update":"0001-01-01T00:00:00Z","name_a2s":"Uncletopia | Atlanta | 2 | All Maps","protocol":17,"map":"pl_barnblitz","folder":"tf","game":"Team Fortress","app_id":440,"player_count":24,"max_players":24,"Bots":0,"server_type":"Dedicated","server_os":"Linux","password":true,"vac":true,"version":"7961495","steam_id":85568392924469983,"keywords":["nocrits","nodmgspread","payload","uncletopia"],"game_id":440,"stv_port":27026,"stv_name":"Uncletopia | Atlanta | 2 | All Maps | STV","players":[{"user_id":590,"name":"SD","steam_id":76561198217410988,"connected_time":4822000000000,"state":"active","ping":96},{"user_id":634,"name":"Dabbledornk","steam_id":76561198065241300,"connected_time":1053000000000,"state":"active","ping":59},{"user_id":615,"name":"ATL69 | weewa","steam_id":76561198064876090,"connected_time":3223000000000,"state":"active","ping":63},{"user_id":638,"name":"Erchius","steam_id":76561198256892300,"connected_time":300000000000,"state":"active","ping":59},{"user_id":562,"name":"Young-OG","steam_id":76561198058800479,"connected_time":5643000000000,"state":"active","ping":56},{"user_id":618,"name":"Azazellotl","steam_id":76561198824814392,"connected_time":2788000000000,"state":"active","ping":73},{"user_id":639,"name":"Almonicus","steam_id":76561198044401351,"connected_time":288000000000,"state":"active","ping":87},{"user_id":633,"name":"Aku+","steam_id":76561198813782795,"connected_time":1166000000000,"state":"active","ping":165},{"user_id":644,"name":"Sultry Citrus","steam_id":76561198043985536,"connected_time":202000000000,"state":"active","ping":87},{"user_id":616,"name":"Lex","steam_id":76561198069948353,"connected_time":3130000000000,"state":"active","ping":93},{"user_id":640,"name":"Brad Bones","steam_id":76561198068129320,"connected_time":276000000000,"state":"active","ping":82},{"user_id":635,"name":"Shipmunk","steam_id":76561198063062670,"connected_time":973000000000,"state":"active","ping":53},{"user_id":626,"name":"Cee","steam_id":76561199114277048,"connected_time":1957000000000,"state":"active","ping":72},{"user_id":641,"name":"Rhutebeer","steam_id":76561198018302761,"connected_time":263000000000,"state":"active","ping":83},{"user_id":632,"name":"Killbasa","steam_id":76561198064868400,"connected_time":1328000000000,"state":"active","ping":90},{"user_id":636,"name":"Wooden E","steam_id":76561198020308956,"connected_time":679000000000,"state":"active","ping":47},{"user_id":612,"name":"Dragus","steam_id":76561198032967285,"connected_time":3346000000000,"state":"active","ping":76},{"user_id":637,"name":"Sove67","steam_id":76561198069919807,"connected_time":427000000000,"state":"active","ping":109},{"user_id":642,"name":"fishy","steam_id":76561198018622305,"connected_time":258000000000,"state":"active","ping":81},{"user_id":645,"name":"Oxygen User","steam_id":76561199111975528,"connected_time":54000000000,"state":"active","ping":79},{"user_id":584,"name":"Captain Bug","steam_id":76561198137763878,"connected_time":4928000000000,"state":"active","ping":74},{"user_id":591,"name":"Skulgan","steam_id":76561198150261397,"connected_time":4803000000000,"state":"active","ping":62},{"user_id":585,"name":"Gungus Dingaling","steam_id":76561198018270898,"connected_time":4925000000000,"state":"active","ping":72},{"user_id":598,"name":"Megatronn","steam_id":76561198796716496,"connected_time":3960000000000,"state":"active","ping":56}]},{"server_id":400,"name":"Uncletopia | Atlanta | 3 | Stopwatch","name_short":"atl-3","host":"atl-1.us.uncletopia.com","port":27035,"enabled":true,"region":"us-east","cc":"us","latitude":33.753746,"longitude":-84.38633,"reserved":0,"last_update":"0001-01-01T00:00:00Z","name_a2s":"Uncletopia | Atlanta | 3 | Stopwatch","protocol":17,"map":"cp_granary","folder":"tf","game":"Team Fortress","app_id":440,"player_count":24,"max_players":24,"Bots":0,"server_type":"Dedicated","server_os":"Linux","password":true,"vac":true,"version":"7961495","steam_id":85568392924515187,"keywords":["cp","nocrits","nodmgspread","uncletopia"],"game_id":440,"stv_port":27036,"stv_name":"Uncletopia | Atlanta | 3 | Stopwatch | STV","players":[{"user_id":196,"name":"SlurpyTheDog","steam_id":76561198799733154,"connected_time":1022000000000,"state":"active","ping":61},{"user_id":214,"name":"quandavious dinglebottom","steam_id":76561199078842978,"connected_time":150000000000,"state":"active","ping":83},{"user_id":166,"name":"duke onkled","steam_id":76561198089691679,"connected_time":3197000000000,"state":"active","ping":64},{"user_id":185,"name":"zach!!","steam_id":76561198369454010,"connected_time":2120000000000,"state":"active","ping":79},{"user_id":205,"name":"obama","steam_id":76561198313940358,"connected_time":309000000000,"state":"active","ping":70},{"user_id":162,"name":"Mountain Man","steam_id":76561198841559088,"connected_time":3243000000000,"state":"active","ping":66},{"user_id":208,"name":"izzo","steam_id":76561198206306996,"connected_time":282000000000,"state":"active","ping":61},{"user_id":220,"name":"Evlestmaple552","steam_id":76561198799352709,"connected_time":52000000000,"state":"spawning","ping":113},{"user_id":211,"name":"MiPlatypus","steam_id":76561198210393620,"connected_time":215000000000,"state":"active","ping":74},{"user_id":190,"name":"ZenkoZSprite","steam_id":76561198190132250,"connected_time":1087000000000,"state":"active","ping":99},{"user_id":201,"name":"NUKE RADIO","steam_id":76561198979277948,"connected_time":853000000000,"state":"active","ping":89},{"user_id":200,"name":"DrChillin","steam_id":76561198043824865,"connected_time":901000000000,"state":"active","ping":88},{"user_id":212,"name":"Dispenser (RedMustrd)","steam_id":76561199246218857,"connected_time":198000000000,"state":"active","ping":100},{"user_id":216,"name":"King Cotton","steam_id":76561198292444376,"connected_time":130000000000,"state":"active","ping":84},{"user_id":215,"name":"Cornelius","steam_id":76561198123447388,"connected_time":138000000000,"state":"active","ping":76},{"user_id":172,"name":"Mer","steam_id":76561198192171041,"connected_time":3146000000000,"state":"active","ping":132},{"user_id":187,"name":"he suckin on my rick til i mort","steam_id":76561198310711692,"connected_time":1556000000000,"state":"active","ping":167},{"user_id":150,"name":"gretchling","steam_id":76561198046111695,"connected_time":4129000000000,"state":"active","ping":61},{"user_id":217,"name":"Popgous [♣]","steam_id":76561198011099121,"connected_time":106000000000,"state":"active","ping":75},{"user_id":218,"name":"Waff00","steam_id":76561198848377100,"connected_time":100000000000,"state":"active","ping":84},{"user_id":180,"name":"chrischrischris3018@yahoo.com","steam_id":76561198137316053,"connected_time":2526000000000,"state":"active","ping":58},{"user_id":186,"name":"C₄H₈Cl₂SGamez","steam_id":76561198250471340,"connected_time":1744000000000,"state":"active","ping":78},{"user_id":219,"name":"Average JoJo Fan","steam_id":76561198863432523,"connected_time":74000000000,"state":"active","ping":194},{"user_id":194,"name":"aisu","steam_id":76561198043768507,"connected_time":1061000000000,"state":"active","ping":78}]},{"server_id":401,"name":"Uncletopia | Atlanta | 4 | Community","name_short":"atl-4","host":"atl-1.us.uncletopia.com","port":27045,"enabled":true,"region":"us-east","cc":"us","latitude":33.753746,"longitude":-84.38633,"reserved":0,"last_update":"0001-01-01T00:00:00Z","name_a2s":"Uncletopia | Atlanta | 4 | Community","protocol":17,"map":"workshop/koth_slaughter_rc1.ugc1712845210","folder":"tf","game":"Team Fortress","app_id":440,"player_count":0,"max_players":24,"Bots":0,"server_type":"Dedicated","server_os":"Linux","password":true,"vac":true,"version":"7961495","steam_id":85568392924515188,"keywords":["cp","nocrits","nodmgspread","uncletopia"],"game_id":440,"stv_port":27046,"stv_name":"Uncletopia | Atlanta | 4 | Community | STV","players":null},{"server_id":2,"name":"Uncletopia | Chicago | 1 | All Maps","name_short":"chi-1","host":"chi-1.us.uncletopia.com","port":27015,"enabled":true,"region":"us-central","cc":"us","latitude":41.881832,"longitude":-87.62318,"reserved":0,"last_update":"0001-01-01T00:00:00Z","name_a2s":"Uncletopia | Chicago | 1 | All Maps","protocol":17,"map":"pl_snowycoast","folder":"tf","game":"Team Fortress","app_id":440,"player_count":24,"max_players":24,"Bots":0,"server_type":"Dedicated","server_os":"Linux","password":true,"vac":true,"version":"7961495","steam_id":85568392924469984,"keywords":["nocrits","nodmgspread","payload","uncletopia"],"game_id":440,"stv_port":27016,"stv_name":"Uncletopia | Chicago | 1 | All Maps | STV","players":[{"user_id":649,"name":"NateDoesThings","steam_id":76561199028820561,"connected_time":172000000000,"state":"active","ping":58},{"user_id":615,"name":"CherriKat","steam_id":76561198821297512,"connected_time":1253000000000,"state":"active","ping":107},{"user_id":616,"name":"richard clock","steam_id":76561198048455671,"connected_time":1239000000000,"state":"active","ping":60},{"user_id":652,"name":"Erectnophobia","steam_id":76561198053743602,"connected_time":54000000000,"state":"active","ping":46},{"user_id":650,"name":"Katy","steam_id":76561198079395814,"connected_time":149000000000,"state":"active","ping":73},{"user_id":645,"name":"JayArr","steam_id":76561198124371253,"connected_time":190000000000,"state":"active","ping":46},{"user_id":646,"name":"Lv3 Kobold Shadow Sorcerer","steam_id":76561198042068995,"connected_time":188000000000,"state":"active","ping":105},{"user_id":621,"name":"Owl Pacino","steam_id":76561197979970666,"connected_time":1174000000000,"state":"active","ping":54},{"user_id":638,"name":"beta central","steam_id":76561198301876831,"connected_time":933000000000,"state":"active","ping":60},{"user_id":623,"name":"Pineapple Wax","steam_id":76561198064358218,"connected_time":1154000000000,"state":"active","ping":56},{"user_id":583,"name":"worker","steam_id":76561198039608940,"connected_time":5048000000000,"state":"active","ping":110},{"user_id":569,"name":"season xiii prediction spreadsh","steam_id":76561198079416036,"connected_time":6390000000000,"state":"active","ping":44},{"user_id":603,"name":"doorknob","steam_id":76561198447600537,"connected_time":3194000000000,"state":"active","ping":72},{"user_id":637,"name":"lolfreyja","steam_id":76561198249206656,"connected_time":962000000000,"state":"active","ping":68},{"user_id":602,"name":"SpockASD","steam_id":76561198830243167,"connected_time":3250000000000,"state":"active","ping":71},{"user_id":619,"name":"Karl_Marx_Onlyfans","steam_id":76561198212389613,"connected_time":1209000000000,"state":"active","ping":81},{"user_id":644,"name":"better than dusterdan","steam_id":76561198201259645,"connected_time":593000000000,"state":"active","ping":69},{"user_id":595,"name":"Goob","steam_id":76561199224179152,"connected_time":3593000000000,"state":"active","ping":63},{"user_id":614,"name":"Thot Patrol","steam_id":76561198026003193,"connected_time":1260000000000,"state":"active","ping":57},{"user_id":604,"name":"THE FOOL","steam_id":76561198243965308,"connected_time":2711000000000,"state":"active","ping":96},{"user_id":607,"name":"Nephi","steam_id":76561198031525122,"connected_time":2540000000000,"state":"active","ping":80},{"user_id":617,"name":"Bronotos","steam_id":76561198035935672,"connected_time":1236000000000,"state":"active","ping":45},{"user_id":640,"name":"twizted","steam_id":76561197960407274,"connected_time":862000000000,"state":"active","ping":70},{"user_id":647,"name":"Full Throttle Alzheimer's","steam_id":76561198070591328,"connected_time":187000000000,"state":"active","ping":50}]},{"server_id":106,"name":"Uncletopia | Chicago | 2 | All Maps","name_short":"chi-2","host":"chi-1.us.uncletopia.com","port":27025,"enabled":true,"region":"us-central","cc":"us","latitude":41.881832,"longitude":-87.62318,"reserved":0,"last_update":"0001-01-01T00:00:00Z","name_a2s":"Uncletopia | Chicago | 2 | All Maps","protocol":17,"map":"pl_upward","folder":"tf","game":"Team Fortress","app_id":440,"player_count":24,"max_players":24,"Bots":0,"server_type":"Dedicated","server_os":"Linux","password":true,"vac":true,"version":"7961495","steam_id":85568392924469985,"keywords":["nocrits","nodmgspread","payload","uncletopia"],"game_id":440,"stv_port":27026,"stv_name":"Uncletopia | Chicago | 2 | All Maps | STV","players":[{"user_id":480,"name":"Beef Wellington","steam_id":76561198049837377,"connected_time":2325000000000,"state":"active","ping":46},{"user_id":495,"name":"Comrade","steam_id":76561199056721863,"connected_time":1497000000000,"state":"active","ping":85},{"user_id":470,"name":"A Puppy","steam_id":76561198828184456,"connected_time":3261000000000,"state":"active","ping":59},{"user_id":451,"name":"Rode hard, put away wet","steam_id":76561198062764039,"connected_time":3872000000000,"state":"active","ping":157},{"user_id":462,"name":"Kirby.exe","steam_id":76561198242714582,"connected_time":3489000000000,"state":"active","ping":62},{"user_id":456,"name":"Gengar","steam_id":76561198061247147,"connected_time":3734000000000,"state":"active","ping":68},{"user_id":484,"name":"Steven Ambatukam","steam_id":76561198143826450,"connected_time":1646000000000,"state":"active","ping":66},{"user_id":510,"name":"nomai","steam_id":76561198076201225,"connected_time":63000000000,"state":"active","ping":101},{"user_id":485,"name":"Jin Mu-Won","steam_id":76561198414122318,"connected_time":1643000000000,"state":"active","ping":70},{"user_id":496,"name":"Novu","steam_id":76561198886997024,"connected_time":1479000000000,"state":"active","ping":84},{"user_id":508,"name":"deimos","steam_id":76561198148357768,"connected_time":343000000000,"state":"active","ping":75},{"user_id":499,"name":"yourlocalforecast","steam_id":76561198042243083,"connected_time":1358000000000,"state":"active","ping":65},{"user_id":502,"name":"Horrowes","steam_id":76561198318446417,"connected_time":1268000000000,"state":"active","ping":84},{"user_id":503,"name":"Emmagination","steam_id":76561198107217884,"connected_time":1254000000000,"state":"active","ping":110},{"user_id":477,"name":"1989 Mazda RX-7 FC3S","steam_id":76561198436383373,"connected_time":2540000000000,"state":"active","ping":109},{"user_id":460,"name":"Moth Beam","steam_id":76561198005069202,"connected_time":3666000000000,"state":"active","ping":67},{"user_id":509,"name":"hearthian","steam_id":76561198113235260,"connected_time":164000000000,"state":"active","ping":98},{"user_id":504,"name":"HurRhombus","steam_id":76561198080839440,"connected_time":935000000000,"state":"active","ping":73},{"user_id":506,"name":"Pop","steam_id":76561199012562851,"connected_time":803000000000,"state":"active","ping":85},{"user_id":391,"name":"KASHI","steam_id":76561198045285049,"connected_time":8663000000000,"state":"active","ping":82},{"user_id":500,"name":"Lonely Hat","steam_id":76561199098253679,"connected_time":1356000000000,"state":"active","ping":80},{"user_id":402,"name":"DiamondEpsilon","steam_id":76561198203883311,"connected_time":7416000000000,"state":"active","ping":79},{"user_id":446,"name":"TheoLynwood","steam_id":76561198079596878,"connected_time":3946000000000,"state":"active","ping":69},{"user_id":507,"name":"Vanilla :3","steam_id":76561199106847859,"connected_time":802000000000,"state":"active","ping":63}]},{"server_id":402,"name":"Uncletopia | Chicago | 3 | All Maps","name_short":"chi-3","host":"chi-1.us.uncletopia.com","port":27035,"enabled":true,"region":"us-central","cc":"us","latitude":41.881832,"longitude":-87.62318,"reserved":0,"last_update":"0001-01-01T00:00:00Z","name_a2s":"Uncletopia | Chicago | 3 | All Maps","protocol":17,"map":"pl_borneo","folder":"tf","game":"Team Fortress","app_id":440,"player_count":24,"max_players":24,"Bots":0,"server_type":"Dedicated","server_os":"Linux","password":true,"vac":true,"version":"7961495","steam_id":85568392924515191,"keywords":["nocrits","nodmgspread","payload","uncletopia"],"game_id":440,"stv_port":27036,"stv_name":"Uncletopia | Chicago | 3 | All Maps | STV","players":[{"user_id":86,"name":"Furious George","steam_id":76561198405111646,"connected_time":5453000000000,"state":"active","ping":100},{"user_id":138,"name":"Maurdakar","steam_id":76561197983420976,"connected_time":1179000000000,"state":"active","ping":68},{"user_id":118,"name":"HemoTox","steam_id":76561197999713466,"connected_time":2566000000000,"state":"active","ping":70},{"user_id":119,"name":"ABY$$","steam_id":76561198026837000,"connected_time":2437000000000,"state":"active","ping":74},{"user_id":120,"name":"Nya","steam_id":76561198199217834,"connected_time":2433000000000,"state":"active","ping":112},{"user_id":145,"name":"Soy King","steam_id":76561198263025614,"connected_time":1020000000000,"state":"active","ping":115},{"user_id":88,"name":"*‧˚kitsu ʚ♥ɞ","steam_id":76561198091741658,"connected_time":5398000000000,"state":"active","ping":61},{"user_id":98,"name":"Luuka","steam_id":76561198875148448,"connected_time":4295000000000,"state":"active","ping":104},{"user_id":139,"name":"Resistance","steam_id":76561198146782074,"connected_time":1176000000000,"state":"active","ping":58},{"user_id":137,"name":"Sithayo","steam_id":76561198027950572,"connected_time":1589000000000,"state":"active","ping":116},{"user_id":148,"name":"Mr. Green","steam_id":76561198037778253,"connected_time":343000000000,"state":"active","ping":55},{"user_id":146,"name":"gen","steam_id":76561199118569153,"connected_time":1009000000000,"state":"active","ping":60},{"user_id":136,"name":"notdoxed","steam_id":76561197992591404,"connected_time":1963000000000,"state":"active","ping":47},{"user_id":128,"name":"MrMineHeads","steam_id":76561198129344936,"connected_time":2321000000000,"state":"active","ping":60},{"user_id":134,"name":"benjamator67","steam_id":76561198209002860,"connected_time":2138000000000,"state":"active","ping":54},{"user_id":141,"name":"Stock Dog","steam_id":76561198070469034,"connected_time":1156000000000,"state":"active","ping":86},{"user_id":151,"name":"PunkZombie24","steam_id":76561198035786963,"connected_time":2000000000,"state":"spawning","ping":87},{"user_id":106,"name":"Tero","steam_id":76561198073147972,"connected_time":3681000000000,"state":"active","ping":156},{"user_id":149,"name":"a table","steam_id":76561198158461279,"connected_time":110000000000,"state":"active","ping":70},{"user_id":127,"name":"Classic","steam_id":76561198215293509,"connected_time":2355000000000,"state":"active","ping":68},{"user_id":65,"name":"Whyamidoingthisaaaa","steam_id":76561199168837342,"connected_time":6914000000000,"state":"active","ping":69},{"user_id":150,"name":"zonemaster95","steam_id":76561198072572032,"connected_time":7000000000,"state":"spawning","ping":115},{"user_id":109,"name":"crispylego_","steam_id":76561199453679719,"connected_time":3490000000000,"state":"active","ping":105},{"user_id":140,"name":"Vodka Slut","steam_id":76561198079594847,"connected_time":1175000000000,"state":"active","ping":53}]},{"server_id":403,"name":"Uncletopia | Chicago | 4 | All Maps","name_short":"chi-4","host":"chi-1.us.uncletopia.com","port":27045,"enabled":true,"region":"us-central","cc":"us","latitude":41.881832,"longitude":-87.62318,"reserved":0,"last_update":"0001-01-01T00:00:00Z","name_a2s":"Uncletopia | Chicago | 4 | All Maps","protocol":17,"map":"pl_swiftwater_final1","folder":"tf","game":"Team Fortress","app_id":440,"player_count":24,"max_players":24,"Bots":0,"server_type":"Dedicated","server_os":"Linux","password":true,"vac":true,"version":"7961495","steam_id":85568392924515193,"keywords":["nocrits","nodmgspread","payload","uncletopia"],"game_id":440,"stv_port":27046,"stv_name":"Uncletopia | Chicago | 4 | All Maps | STV","players":[{"user_id":106,"name":"deadbxlt","steam_id":76561198061632593,"connected_time":5322000000000,"state":"active","ping":85},{"user_id":152,"name":"Window Licker #pride","steam_id":76561198386717007,"connected_time":2425000000000,"state":"active","ping":48},{"user_id":171,"name":"Moonman327","steam_id":76561197992616059,"connected_time":1808000000000,"state":"active","ping":73},{"user_id":177,"name":"Frunkle","steam_id":76561198051362617,"connected_time":929000000000,"state":"active","ping":75},{"user_id":172,"name":"one dollar house","steam_id":76561197961263312,"connected_time":1755000000000,"state":"active","ping":54},{"user_id":136,"name":"ultrasmoothbrain","steam_id":76561198109084485,"connected_time":4246000000000,"state":"active","ping":60},{"user_id":127,"name":"agless","steam_id":76561198045248344,"connected_time":4597000000000,"state":"active","ping":54},{"user_id":111,"name":"Telephus","steam_id":76561198017530698,"connected_time":5110000000000,"state":"active","ping":70},{"user_id":148,"name":"Nespreco","steam_id":76561198252035336,"connected_time":3199000000000,"state":"active","ping":59},{"user_id":157,"name":"jimmyfnaf172198yay","steam_id":76561198311446636,"connected_time":2275000000000,"state":"active","ping":63},{"user_id":158,"name":"King of Spies","steam_id":76561198090549460,"connected_time":2269000000000,"state":"active","ping":67},{"user_id":151,"name":"lazily","steam_id":76561198051127715,"connected_time":2899000000000,"state":"active","ping":67},{"user_id":183,"name":"La Tabda","steam_id":76561198120364620,"connected_time":482000000000,"state":"active","ping":97},{"user_id":160,"name":"Shagbark","steam_id":76561198173447342,"connected_time":2228000000000,"state":"active","ping":82},{"user_id":184,"name":"1st place love live fan","steam_id":76561198037951506,"connected_time":67000000000,"state":"active","ping":71},{"user_id":180,"name":"Jaydyn","steam_id":76561198140326797,"connected_time":709000000000,"state":"active","ping":86},{"user_id":179,"name":"vv","steam_id":76561198134813102,"connected_time":775000000000,"state":"active","ping":59},{"user_id":88,"name":"Brawns","steam_id":76561198045190199,"connected_time":6821000000000,"state":"active","ping":75},{"user_id":170,"name":"303","steam_id":76561199052840531,"connected_time":1896000000000,"state":"active","ping":59},{"user_id":75,"name":"Krispy","steam_id":76561197994783393,"connected_time":7934000000000,"state":"active","ping":78},{"user_id":176,"name":"igotmail","steam_id":76561198070631899,"connected_time":1111000000000,"state":"active","ping":63},{"user_id":144,"name":"Werm","steam_id":76561198149601897,"connected_time":3451000000000,"state":"active","ping":72},{"user_id":178,"name":"MMAD","steam_id":76561198026446420,"connected_time":798000000000,"state":"active","ping":81},{"user_id":173,"name":"Donkski","steam_id":76561198406895347,"connected_time":1751000000000,"state":"active","ping":75}]},{"server_id":36,"name":"Uncletopia | Chicago | 5 | All Maps","name_short":"chi-5","host":"chi-2.us.uncletopia.com","port":27015,"enabled":true,"region":"us-central","cc":"us","latitude":41.881832,"longitude":-87.62318,"reserved":0,"last_update":"0001-01-01T00:00:00Z","name_a2s":"Uncletopia | Chicago | 5 | All Maps","protocol":17,"map":"pl_barnblitz","folder":"tf","game":"Team Fortress","app_id":440,"player_count":24,"max_players":24,"Bots":0,"server_type":"Dedicated","server_os":"Linux","password":true,"vac":true,"version":"7961495","steam_id":85568392924866362,"keywords":["nocrits","nodmgspread","payload","uncletopia"],"game_id":440,"stv_port":27016,"stv_name":"Uncletopia | Chicago | 5 | All Maps | STV","players":[{"user_id":121,"name":"Lifial","steam_id":76561198271885819,"connected_time":665000000000,"state":"active","ping":74},{"user_id":110,"name":"Observer","steam_id":76561198326814067,"connected_time":1483000000000,"state":"active","ping":70},{"user_id":106,"name":"GuyGoom","steam_id":76561198254522178,"connected_time":1596000000000,"state":"active","ping":60},{"user_id":105,"name":"Kumatora","steam_id":76561198137748378,"connected_time":1908000000000,"state":"active","ping":56},{"user_id":90,"name":"YEEEEEEE HAWW","steam_id":76561198296104441,"connected_time":2982000000000,"state":"active","ping":99},{"user_id":123,"name":"Grob","steam_id":76561198039261820,"connected_time":436000000000,"state":"active","ping":97},{"user_id":115,"name":"poopybutt420","steam_id":76561199000805315,"connected_time":969000000000,"state":"active","ping":96},{"user_id":111,"name":"linus theift tip","steam_id":76561199009102678,"connected_time":1229000000000,"state":"active","ping":76},{"user_id":72,"name":"DrCoeloCephalo","steam_id":76561198102666293,"connected_time":3866000000000,"state":"active","ping":66},{"user_id":84,"name":"♫ BERSERKYD ♫","steam_id":76561197992765807,"connected_time":3053000000000,"state":"active","ping":75},{"user_id":117,"name":"doughboy","steam_id":76561198219012928,"connected_time":960000000000,"state":"active","ping":110},{"user_id":116,"name":"Phos","steam_id":76561198122339506,"connected_time":966000000000,"state":"active","ping":76},{"user_id":93,"name":"mkl","steam_id":76561197986401685,"connected_time":2709000000000,"state":"active","ping":79},{"user_id":118,"name":"vulcan nightclub pon farr night","steam_id":76561197974283797,"connected_time":956000000000,"state":"active","ping":46},{"user_id":113,"name":"jmrnz","steam_id":76561198265230558,"connected_time":1110000000000,"state":"active","ping":107},{"user_id":68,"name":"gooselover42069","steam_id":76561198059562839,"connected_time":3948000000000,"state":"active","ping":57},{"user_id":124,"name":"Epha","steam_id":76561198079379951,"connected_time":13000000000,"state":"spawning","ping":96},{"user_id":97,"name":"punk cock","steam_id":76561198418182764,"connected_time":2117000000000,"state":"active","ping":70},{"user_id":114,"name":"Rowmaster","steam_id":76561198271659574,"connected_time":981000000000,"state":"active","ping":139},{"user_id":102,"name":"pls man","steam_id":76561198195052854,"connected_time":1996000000000,"state":"active","ping":129},{"user_id":120,"name":"Sweatshirt","steam_id":76561198087631219,"connected_time":711000000000,"state":"active","ping":120},{"user_id":119,"name":"Wavern From Bakugan","steam_id":76561198191536489,"connected_time":928000000000,"state":"active","ping":121},{"user_id":55,"name":"BIG DUKE","steam_id":76561198041005562,"connected_time":4602000000000,"state":"active","ping":44},{"user_id":122,"name":"the.land.of.avalon","steam_id":76561198245431668,"connected_time":638000000000,"state":"active","ping":61}]},{"server_id":37,"name":"Uncletopia | Chicago | 6 | All Maps","name_short":"chi-6","host":"chi-2.us.uncletopia.com","port":27025,"enabled":true,"region":"us-central","cc":"us","latitude":41.881832,"longitude":-87.62318,"reserved":0,"last_update":"0001-01-01T00:00:00Z","name_a2s":"Uncletopia | Chicago | 6 | All Maps","protocol":17,"map":"koth_viaduct","folder":"tf","game":"Team Fortress","app_id":440,"player_count":5,"max_players":24,"Bots":0,"server_type":"Dedicated","server_os":"Linux","password":true,"vac":true,"version":"7961495","steam_id":85568392924866363,"keywords":["cp","nocrits","nodmgspread","uncletopia"],"game_id":440,"stv_port":27026,"stv_name":"Uncletopia | Chicago | 6 | All Maps | STV","players":[{"user_id":34,"name":"H0ovy","steam_id":76561198996230924,"connected_time":6000000000,"state":"active","ping":57},{"user_id":33,"name":"chok","steam_id":76561198242016100,"connected_time":160000000000,"state":"active","ping":61},{"user_id":20,"name":"w + m2","steam_id":76561199438893811,"connected_time":1387000000000,"state":"active","ping":82},{"user_id":28,"name":"Supr","steam_id":76561198093790672,"connected_time":418000000000,"state":"active","ping":61},{"user_id":29,"name":"ProfessorCagan","steam_id":76561198141372356,"connected_time":409000000000,"state":"active","ping":94}]},{"server_id":38,"name":"Uncletopia | Chicago | 7 | Stopwatch","name_short":"chi-7","host":"chi-2.us.uncletopia.com","port":27035,"enabled":true,"region":"us-central","cc":"us","latitude":41.881832,"longitude":-87.62318,"reserved":0,"last_update":"0001-01-01T00:00:00Z","name_a2s":"Uncletopia | Chicago | 7 | Stopwatch","protocol":17,"map":"pl_borneo","folder":"tf","game":"Team Fortress","app_id":440,"player_count":24,"max_players":24,"Bots":0,"server_type":"Dedicated","server_os":"Linux","password":true,"vac":true,"version":"7961495","steam_id":85568392924866364,"keywords":["nocrits","nodmgspread","payload","uncletopia"],"game_id":440,"stv_port":27036,"stv_name":"Uncletopia | Chicago | 7 | Stopwatch | STV","players":[{"user_id":304,"name":"JimmyDribblerJibblerGribbler","steam_id":76561198274536607,"connected_time":1719000000000,"state":"active","ping":116},{"user_id":321,"name":"REEEEEEEEEEEEEEEEEEEE","steam_id":76561199411565786,"connected_time":865000000000,"state":"active","ping":116},{"user_id":311,"name":"KeithStone","steam_id":76561197986083582,"connected_time":1485000000000,"state":"active","ping":84},{"user_id":323,"name":"Chrisjongun","steam_id":76561198331685904,"connected_time":829000000000,"state":"active","ping":67},{"user_id":224,"name":"J O S H³²","steam_id":76561198122603779,"connected_time":6753000000000,"state":"active","ping":98},{"user_id":318,"name":"¢нι¢кєη","steam_id":76561198435193282,"connected_time":1207000000000,"state":"active","ping":50},{"user_id":317,"name":"VidzCMC","steam_id":76561198848142973,"connected_time":1263000000000,"state":"active","ping":53},{"user_id":324,"name":"Storebrand Vegeta","steam_id":76561197999105221,"connected_time":827000000000,"state":"active","ping":94},{"user_id":279,"name":"Poopisviel Von Einzbern","steam_id":76561198259260433,"connected_time":3795000000000,"state":"active","ping":85},{"user_id":202,"name":"DysfunctionJunction","steam_id":76561198051815183,"connected_time":8414000000000,"state":"active","ping":55},{"user_id":319,"name":"robot with human hair","steam_id":76561198018691308,"connected_time":1191000000000,"state":"active","ping":78},{"user_id":314,"name":"Rudy","steam_id":76561198013456828,"connected_time":1369000000000,"state":"active","ping":62},{"user_id":184,"name":"Lucy Lou!","steam_id":76561198078209088,"connected_time":9153000000000,"state":"active","ping":47},{"user_id":320,"name":"Lunarthrope","steam_id":76561198292132147,"connected_time":1037000000000,"state":"active","ping":104},{"user_id":327,"name":"nhbiker","steam_id":76561198081277675,"connected_time":730000000000,"state":"active","ping":59},{"user_id":293,"name":"Satan's Salad","steam_id":76561198043965827,"connected_time":2554000000000,"state":"active","ping":64},{"user_id":291,"name":"Cheeseburger","steam_id":76561198044131927,"connected_time":2648000000000,"state":"active","ping":60},{"user_id":309,"name":"NIKOLAbree123","steam_id":76561198247037348,"connected_time":1580000000000,"state":"active","ping":188},{"user_id":334,"name":"SlimeFinger","steam_id":76561198317456244,"connected_time":21000000000,"state":"active","ping":92},{"user_id":280,"name":"gIBBY","steam_id":76561198080099598,"connected_time":3794000000000,"state":"active","ping":60},{"user_id":331,"name":"Amari","steam_id":76561198272446730,"connected_time":190000000000,"state":"active","ping":58},{"user_id":333,"name":"smetc","steam_id":76561198240696986,"connected_time":155000000000,"state":"active","ping":68},{"user_id":196,"name":"on that zaza?","steam_id":76561198038713198,"connected_time":9007000000000,"state":"active","ping":72},{"user_id":272,"name":"Tupac Shakur","steam_id":76561198247651486,"connected_time":4194000000000,"state":"active","ping":56}]},{"server_id":39,"name":"Uncletopia | Chicago | 8 | Community","name_short":"chi-8","host":"chi-2.us.uncletopia.com","port":27045,"enabled":true,"region":"us-central","cc":"us","latitude":41.881832,"longitude":-87.62318,"reserved":0,"last_update":"0001-01-01T00:00:00Z","name_a2s":"Uncletopia | Chicago | 8 | Community","protocol":17,"map":"workshop/koth_synthetic_rc6a.ugc1549817316","folder":"tf","game":"Team Fortress","app_id":440,"player_count":0,"max_players":24,"Bots":0,"server_type":"Dedicated","server_os":"Linux","password":true,"vac":true,"version":"7961495","steam_id":85568392924866365,"keywords":["cp","nocrits","nodmgspread","uncletopia"],"game_id":440,"stv_port":27046,"stv_name":"Uncletopia | Chicago | 8 | Community | STV","players":null},{"server_id":8,"name":"Uncletopia | Dallas | 1 | All Maps","name_short":"dal-1","host":"dal-1.us.uncletopia.com","port":27015,"enabled":true,"region":"us-central","cc":"us","latitude":32.779167,"longitude":-96.80889,"reserved":0,"last_update":"0001-01-01T00:00:00Z","name_a2s":"Uncletopia | Dallas | 1 | All Maps","protocol":17,"map":"cp_snakewater_final1","folder":"tf","game":"Team Fortress","app_id":440,"player_count":22,"max_players":24,"Bots":0,"server_type":"Dedicated","server_os":"Linux","password":true,"vac":true,"version":"7961495","steam_id":85568392924469986,"keywords":["cp","nocrits","nodmgspread","uncletopia"],"game_id":440,"stv_port":27016,"stv_name":"Uncletopia | Dallas | 1 | All Maps | STV","players":[{"user_id":86,"name":"sleepyhead","steam_id":76561199489506838,"connected_time":168000000000,"state":"active","ping":83},{"user_id":50,"name":"BADWOLF42","steam_id":76561198055447523,"connected_time":1916000000000,"state":"active","ping":49},{"user_id":55,"name":"Boot Mcstink","steam_id":76561199226873917,"connected_time":1298000000000,"state":"active","ping":86},{"user_id":60,"name":"{YT} Sayori Fortress 2","steam_id":76561198988657191,"connected_time":675000000000,"state":"active","ping":86},{"user_id":59,"name":"Birby","steam_id":76561198884009768,"connected_time":709000000000,"state":"active","ping":94},{"user_id":84,"name":"MrVast","steam_id":76561198094059897,"connected_time":199000000000,"state":"active","ping":58},{"user_id":87,"name":"MayaBon","steam_id":76561198797968261,"connected_time":132000000000,"state":"active","ping":107},{"user_id":88,"name":"Sweet Tooth","steam_id":76561198830158092,"connected_time":107000000000,"state":"active","ping":79},{"user_id":64,"name":"Geep","steam_id":76561198171880691,"connected_time":522000000000,"state":"active","ping":67},{"user_id":70,"name":"cynical","steam_id":76561198101457263,"connected_time":461000000000,"state":"active","ping":69},{"user_id":66,"name":"chunkert","steam_id":76561198292044850,"connected_time":507000000000,"state":"active","ping":60},{"user_id":78,"name":"Timmy The Tyrant","steam_id":76561199156409732,"connected_time":299000000000,"state":"active","ping":45},{"user_id":89,"name":"tghalepeno","steam_id":76561198858018027,"connected_time":37000000000,"state":"active","ping":75},{"user_id":74,"name":"Shmebulock","steam_id":76561198046941925,"connected_time":362000000000,"state":"active","ping":76},{"user_id":90,"name":"Cresant Ape","steam_id":76561198127425559,"connected_time":26000000000,"state":"active","ping":46},{"user_id":76,"name":"lilicopter1","steam_id":76561199109281757,"connected_time":332000000000,"state":"active","ping":101},{"user_id":77,"name":"Spike Bones","steam_id":76561198234926120,"connected_time":306000000000,"state":"active","ping":102},{"user_id":79,"name":"DlTTO","steam_id":76561199427026752,"connected_time":292000000000,"state":"active","ping":102},{"user_id":80,"name":"Melaza Madera","steam_id":76561199031977210,"connected_time":286000000000,"state":"active","ping":60},{"user_id":81,"name":"boo_thefeared","steam_id":76561198127967685,"connected_time":269000000000,"state":"active","ping":147},{"user_id":82,"name":"qwatta","steam_id":76561198064982327,"connected_time":247000000000,"state":"active","ping":41},{"user_id":83,"name":"slasher4713","steam_id":76561199033532858,"connected_time":246000000000,"state":"active","ping":88}]},{"server_id":108,"name":"Uncletopia | Dallas | 2 | All Maps","name_short":"dal-2","host":"dal-1.us.uncletopia.com","port":27025,"enabled":true,"region":"us-central","cc":"us","latitude":32.779167,"longitude":-96.80889,"reserved":0,"last_update":"0001-01-01T00:00:00Z","name_a2s":"Uncletopia | Dallas | 2 | All Maps","protocol":17,"map":"cp_well","folder":"tf","game":"Team Fortress","app_id":440,"player_count":25,"max_players":24,"Bots":0,"server_type":"Dedicated","server_os":"Linux","password":true,"vac":true,"version":"7961495","steam_id":85568392924469988,"keywords":["cp","nocrits","nodmgspread","uncletopia"],"game_id":440,"stv_port":27026,"stv_name":"Uncletopia | Dallas | 2 | All Maps | STV","players":[{"user_id":127,"name":"wajanta","steam_id":76561199040280852,"connected_time":4730000000000,"state":"active","ping":59},{"user_id":201,"name":"leesh","steam_id":76561198079603938,"connected_time":140000000000,"state":"active","ping":59},{"user_id":199,"name":"artichoke","steam_id":76561198980994364,"connected_time":172000000000,"state":"active","ping":87},{"user_id":158,"name":"Ahkmid the Emoji Turban Guy","steam_id":76561198142599650,"connected_time":3274000000000,"state":"active","ping":77},{"user_id":200,"name":"Junfez","steam_id":76561198340001889,"connected_time":158000000000,"state":"active","ping":88},{"user_id":164,"name":"mrthugpug1732","steam_id":76561198881200768,"connected_time":2410000000000,"state":"active","ping":91},{"user_id":171,"name":"Youngblood5780","steam_id":76561198113934410,"connected_time":2313000000000,"state":"active","ping":84},{"user_id":202,"name":"Ryzema","steam_id":76561198165594229,"connected_time":140000000000,"state":"active","ping":87},{"user_id":203,"name":"ballistic booty bandit","steam_id":76561199016837140,"connected_time":140000000000,"state":"active","ping":99},{"user_id":192,"name":"Satchamo","steam_id":76561198012968239,"connected_time":1219000000000,"state":"active","ping":88},{"user_id":182,"name":"Tuvok Shakur","steam_id":76561198018875334,"connected_time":1695000000000,"state":"active","ping":61},{"user_id":196,"name":"TheJosiahTurner","steam_id":76561198235740776,"connected_time":892000000000,"state":"active","ping":45},{"user_id":206,"name":"Punished Shitster","steam_id":76561198150452857,"connected_time":68000000000,"state":"active","ping":52},{"user_id":193,"name":"Snoman","steam_id":76561197969248675,"connected_time":1175000000000,"state":"active","ping":78},{"user_id":210,"name":"Johnny Lawrence #JohnnyMaxxing","steam_id":76561199367141671,"connected_time":41000000000,"state":"active","ping":88},{"user_id":208,"name":"donaldronningii","steam_id":76561198324570722,"connected_time":51000000000,"state":"spawning","ping":119},{"user_id":153,"name":"techdeck","steam_id":76561199022751661,"connected_time":3486000000000,"state":"active","ping":60},{"user_id":160,"name":"SkadooshPlayz","steam_id":76561198310986662,"connected_time":2876000000000,"state":"active","ping":102},{"user_id":124,"name":"Rob","steam_id":76561199187786660,"connected_time":5487000000000,"state":"active","ping":57},{"user_id":186,"name":"maximusbabaximus","steam_id":76561198419378913,"connected_time":1577000000000,"state":"active","ping":106},{"user_id":157,"name":"Nyah","steam_id":76561199192601345,"connected_time":3301000000000,"state":"active","ping":91},{"user_id":209,"name":"Zero","steam_id":76561198033384990,"connected_time":50000000000,"state":"active","ping":84},{"user_id":211,"name":"Dogvan","steam_id":76561198176708643,"connected_time":39000000000,"state":"active","ping":59},{"user_id":174,"name":"fish (2:3)","steam_id":76561198134331073,"connected_time":2284000000000,"state":"active","ping":129},{"user_id":213,"name":"dilfbot","steam_id":76561198099988165,"connected_time":1000000000,"state":"connecting","ping":0}]},{"server_id":404,"name":"Uncletopia | Dallas | 3 | All Maps","name_short":"dal-3","host":"dal-1.us.uncletopia.com","port":27035,"enabled":true,"region":"us-central","cc":"us","latitude":32.779167,"longitude":-96.80889,"reserved":0,"last_update":"0001-01-01T00:00:00Z","name_a2s":"Uncletopia | Dallas | 3 | All Maps","protocol":17,"map":"cp_mountainlab","folder":"tf","game":"Team Fortress","app_id":440,"player_count":0,"max_players":24,"Bots":0,"server_type":"Dedicated","server_os":"Linux","password":true,"vac":true,"version":"7961495","steam_id":85568392924515219,"keywords":["cp","nocrits","nodmgspread","uncletopia"],"game_id":440,"stv_port":27036,"stv_name":"Uncletopia | Dallas | 3 | All Maps | STV","players":null},{"server_id":405,"name":"Uncletopia | Dallas | 4 | Community","name_short":"dal-4","host":"dal-1.us.uncletopia.com","port":27045,"enabled":true,"region":"us-central","cc":"us","latitude":32.779167,"longitude":-96.80889,"reserved":0,"last_update":"0001-01-01T00:00:00Z","name_a2s":"Uncletopia | Dallas | 4 | Community","protocol":17,"map":"pl_pier","folder":"tf","game":"Team Fortress","app_id":440,"player_count":0,"max_players":24,"Bots":0,"server_type":"Dedicated","server_os":"Linux","password":true,"vac":true,"version":"7961495","steam_id":85568392924515220,"keywords":["nocrits","nodmgspread","payload","uncletopia"],"game_id":440,"stv_port":27046,"stv_name":"Uncletopia | Dallas | 4 | Community | STV","players":null},{"server_id":5,"name":"Uncletopia | Frankfurt | 1 | All Maps","name_short":"frk-1","host":"frk-1.de.uncletopia.com","port":27015,"enabled":true,"region":"eu","cc":"de","latitude":50.110924,"longitude":8.682127,"reserved":0,"last_update":"0001-01-01T00:00:00Z","name_a2s":"Uncletopia | Frankfurt | 1 | All Maps","protocol":17,"map":"koth_lakeside_final","folder":"tf","game":"Team Fortress","app_id":440,"player_count":0,"max_players":24,"Bots":0,"server_type":"Dedicated","server_os":"Linux","password":true,"vac":true,"version":"7961495","steam_id":85568392924469989,"keywords":["cp","nocrits","nodmgspread","uncletopia"],"game_id":440,"stv_port":27016,"stv_name":"Uncletopia | Frankfurt | 1 | All Maps | STV","players":null},{"server_id":110,"name":"Uncletopia | Frankfurt | 2 | All Maps","name_short":"frk-2","host":"frk-1.de.uncletopia.com","port":27025,"enabled":true,"region":"eu","cc":"de","latitude":50.110924,"longitude":8.682127,"reserved":0,"last_update":"0001-01-01T00:00:00Z","name_a2s":"Uncletopia | Frankfurt | 2 | All Maps","protocol":17,"map":"cp_snakewater_final1","folder":"tf","game":"Team Fortress","app_id":440,"player_count":0,"max_players":24,"Bots":0,"server_type":"Dedicated","server_os":"Linux","password":true,"vac":true,"version":"7961495","steam_id":85568392924469990,"keywords":["cp","nocrits","nodmgspread","uncletopia"],"game_id":440,"stv_port":27026,"stv_name":"Uncletopia | Frankfurt | 2 | All Maps | STV","players":null},{"server_id":308,"name":"Uncletopia | Frankfurt | 3 | All Maps","name_short":"frk-3","host":"frk-1.de.uncletopia.com","port":27035,"enabled":true,"region":"eu","cc":"de","latitude":50.110924,"longitude":8.682127,"reserved":0,"last_update":"0001-01-01T00:00:00Z","name_a2s":"Uncletopia | Frankfurt | 3 | All Maps","protocol":17,"map":"pl_barnblitz","folder":"tf","game":"Team Fortress","app_id":440,"player_count":0,"max_players":24,"Bots":0,"server_type":"Dedicated","server_os":"Linux","password":true,"vac":true,"version":"7961495","steam_id":85568392924504274,"keywords":["nocrits","nodmgspread","payload","uncletopia"],"game_id":440,"stv_port":27036,"stv_name":"Uncletopia | Frankfurt | 3 | All Maps | STV","players":null},{"server_id":309,"name":"Uncletopia | Frankfurt | 4 | All Maps","name_short":"frk-4","host":"frk-1.de.uncletopia.com","port":27045,"enabled":true,"region":"eu","cc":"de","latitude":50.110924,"longitude":8.682127,"reserved":0,"last_update":"0001-01-01T00:00:00Z","name_a2s":"Uncletopia | Frankfurt | 4 | All Maps","protocol":17,"map":"pl_upward","folder":"tf","game":"Team Fortress","app_id":440,"player_count":24,"max_players":24,"Bots":0,"server_type":"Dedicated","server_os":"Linux","password":true,"vac":true,"version":"7961495","steam_id":85568392924504275,"keywords":["nocrits","nodmgspread","payload","uncletopia"],"game_id":440,"stv_port":27046,"stv_name":"Uncletopia | Frankfurt | 4 | All Maps | STV","players":[{"user_id":657,"name":"wG silentes","steam_id":76561197999595616,"connected_time":4028000000000,"state":"active","ping":57},{"user_id":697,"name":"z3","steam_id":76561198165028946,"connected_time":235000000000,"state":"active","ping":61},{"user_id":652,"name":"biohazard.pt","steam_id":76561198088367808,"connected_time":4271000000000,"state":"active","ping":72},{"user_id":689,"name":"3 kg trotyl","steam_id":76561198051852765,"connected_time":1417000000000,"state":"active","ping":60},{"user_id":672,"name":"SlikeDollar","steam_id":76561199092295526,"connected_time":3404000000000,"state":"active","ping":64},{"user_id":691,"name":"Juan Solo","steam_id":76561198018688536,"connected_time":751000000000,"state":"active","ping":143},{"user_id":690,"name":"MIKA","steam_id":76561198312451814,"connected_time":855000000000,"state":"active","ping":50},{"user_id":698,"name":"Damn Dude","steam_id":76561198076373426,"connected_time":234000000000,"state":"active","ping":89},{"user_id":699,"name":"Sev","steam_id":76561198159523407,"connected_time":217000000000,"state":"active","ping":57},{"user_id":622,"name":"Captain Kacke","steam_id":76561198132133702,"connected_time":6602000000000,"state":"active","ping":33},{"user_id":696,"name":"Infantile Pillock","steam_id":76561198283851362,"connected_time":488000000000,"state":"active","ping":56},{"user_id":670,"name":"Jon","steam_id":76561199380849468,"connected_time":3563000000000,"state":"active","ping":67},{"user_id":684,"name":"Doctor Marijuana","steam_id":76561198288289879,"connected_time":2360000000000,"state":"active","ping":61},{"user_id":620,"name":"Seteesh","steam_id":76561199479420894,"connected_time":6766000000000,"state":"active","ping":170},{"user_id":700,"name":"KarlRanzeier","steam_id":76561198066281337,"connected_time":179000000000,"state":"active","ping":50},{"user_id":701,"name":"GooseberryGarry27","steam_id":76561198089478290,"connected_time":96000000000,"state":"active","ping":57},{"user_id":702,"name":"pond","steam_id":76561198214849363,"connected_time":74000000000,"state":"active","ping":93},{"user_id":687,"name":"Vinn0","steam_id":76561198987241284,"connected_time":2166000000000,"state":"active","ping":48},{"user_id":703,"name":"昭和天皇","steam_id":76561198082071538,"connected_time":51000000000,"state":"active","ping":46},{"user_id":704,"name":"☁ Lou1smeister ☁","steam_id":76561198004032968,"connected_time":32000000000,"state":"active","ping":75},{"user_id":678,"name":"Piellino","steam_id":76561198156873276,"connected_time":3025000000000,"state":"active","ping":90},{"user_id":602,"name":"Proto-arc","steam_id":76561198012776747,"connected_time":7957000000000,"state":"active","ping":54},{"user_id":647,"name":"Jeff","steam_id":76561198074722832,"connected_time":5401000000000,"state":"active","ping":51},{"user_id":679,"name":"Garfield","steam_id":76561199251237007,"connected_time":2979000000000,"state":"active","ping":165}]},{"server_id":310,"name":"Uncletopia | Frankfurt | 5 | All Maps","name_short":"frk-5","host":"frk-1.de.uncletopia.com","port":27055,"enabled":true,"region":"eu","cc":"de","latitude":50.110924,"longitude":8.682127,"reserved":0,"last_update":"0001-01-01T00:00:00Z","name_a2s":"Uncletopia | Frankfurt | 5 | All Maps","protocol":17,"map":"pl_frontier_final","folder":"tf","game":"Team Fortress","app_id":440,"player_count":0,"max_players":24,"Bots":0,"server_type":"Dedicated","server_os":"Linux","password":true,"vac":true,"version":"7961495","steam_id":85568392924504277,"keywords":["nocrits","nodmgspread","payload","uncletopia"],"game_id":440,"stv_port":27056,"stv_name":"Uncletopia | Frankfurt | 5 | All Maps | STV","players":null},{"server_id":311,"name":"Uncletopia | Frankfurt | 6 | All Maps","name_short":"frk-6","host":"frk-1.de.uncletopia.com","port":27065,"enabled":true,"region":"eu","cc":"de","latitude":50.110924,"longitude":8.682127,"reserved":0,"last_update":"0001-01-01T00:00:00Z","name_a2s":"Uncletopia | Frankfurt | 6 | All Maps","protocol":17,"map":"pl_pier","folder":"tf","game":"Team Fortress","app_id":440,"player_count":0,"max_players":24,"Bots":0,"server_type":"Dedicated","server_os":"Linux","password":true,"vac":true,"version":"7961495","steam_id":85568392924504278,"keywords":["nocrits","nodmgspread","payload","uncletopia"],"game_id":440,"stv_port":27066,"stv_name":"Uncletopia | Frankfurt | 6 | All Maps | STV","players":null},{"server_id":23,"name":"Uncletopia | Frankfurt | 7 | Stopwatch","name_short":"frk-7","host":"frk-1.de.uncletopia.com","port":27075,"enabled":true,"region":"eu","cc":"de","latitude":50.110924,"longitude":8.682127,"reserved":0,"last_update":"0001-01-01T00:00:00Z","name_a2s":"Uncletopia | Frankfurt | 7 | Stopwatch","protocol":17,"map":"workshop/pl_vigil_rc10.ugc1266210012","folder":"tf","game":"Team Fortress","app_id":440,"player_count":0,"max_players":24,"Bots":0,"server_type":"Dedicated","server_os":"Linux","password":true,"vac":true,"version":"7961495","steam_id":85568392924742827,"keywords":["nocrits","nodmgspread","payload","uncletopia"],"game_id":440,"stv_port":27076,"stv_name":"Uncletopia | Frankfurt | 7 | Stopwatch | STV","players":null},{"server_id":24,"name":"Uncletopia | Frankfurt | 8 | Community","name_short":"frk-8","host":"frk-1.de.uncletopia.com","port":27085,"enabled":true,"region":"eu","cc":"de","latitude":50.110924,"longitude":8.682127,"reserved":0,"last_update":"0001-01-01T00:00:00Z","name_a2s":"Uncletopia | Frankfurt | 8 | Community","protocol":17,"map":"workshop/pl_emerge_rc2.ugc888027758","folder":"tf","game":"Team Fortress","app_id":440,"player_count":0,"max_players":24,"Bots":0,"server_type":"Dedicated","server_os":"Linux","password":true,"vac":true,"version":"7961495","steam_id":85568392924742828,"keywords":["nocrits","nodmgspread","payload","uncletopia"],"game_id":440,"stv_port":27086,"stv_name":"Uncletopia | Frankfurt | 8 | Community | STV","players":null},{"server_id":202,"name":"Uncletopia | Hong Kong | 1 | All Maps","name_short":"hgk-1","host":"hgk-1.hk.uncletopia.com","port":27015,"enabled":true,"region":"asia","cc":"hk","latitude":22.302711,"longitude":114.177216,"reserved":0,"last_update":"0001-01-01T00:00:00Z","name_a2s":"Uncletopia | Hong Kong | 1 | All Maps","protocol":17,"map":"pl_borneo","folder":"tf","game":"Team Fortress","app_id":440,"player_count":0,"max_players":24,"Bots":0,"server_type":"Dedicated","server_os":"Linux","password":true,"vac":true,"version":"7961495","steam_id":85568392924494504,"keywords":["nocrits","nodmgspread","payload","uncletopia"],"game_id":440,"stv_port":27016,"stv_name":"Uncletopia | Hong Kong | 1 | All Maps | STV","players":null},{"server_id":1,"name":"Uncletopia | Los Angeles | 1 | All Maps","name_short":"lax-1","host":"lax-1.us.uncletopia.com","port":27015,"enabled":true,"region":"us-west","cc":"us","latitude":33.94279,"longitude":-118.41004,"reserved":0,"last_update":"0001-01-01T00:00:00Z","name_a2s":"Uncletopia | Los Angeles | 1 | All Maps","protocol":17,"map":"pl_upward","folder":"tf","game":"Team Fortress","app_id":440,"player_count":24,"max_players":24,"Bots":0,"server_type":"Dedicated","server_os":"Linux","password":true,"vac":true,"version":"7961495","steam_id":85568392924469991,"keywords":["nocrits","nodmgspread","payload","uncletopia"],"game_id":440,"stv_port":27016,"stv_name":"Uncletopia | Los Angeles | 1 | All Maps | STV","players":[{"user_id":395,"name":"Stoopnagle","steam_id":76561198011942560,"connected_time":926000000000,"state":"active","ping":72},{"user_id":393,"name":"puffer","steam_id":76561199049164456,"connected_time":989000000000,"state":"active","ping":68},{"user_id":368,"name":"Zetta","steam_id":76561198045710113,"connected_time":3418000000000,"state":"active","ping":67},{"user_id":396,"name":"주리엘","steam_id":76561198149673080,"connected_time":782000000000,"state":"active","ping":52},{"user_id":412,"name":"Drive-By-Fish-Guy","steam_id":76561198105513652,"connected_time":46000000000,"state":"active","ping":58},{"user_id":303,"name":"LazyDoll","steam_id":76561198053186338,"connected_time":8363000000000,"state":"active","ping":50},{"user_id":375,"name":"roach :3","steam_id":76561198354811369,"connected_time":3065000000000,"state":"active","ping":48},{"user_id":400,"name":"Shabooyaroll-call","steam_id":76561198112306237,"connected_time":447000000000,"state":"active","ping":63},{"user_id":369,"name":"waggyaggy (it/she)","steam_id":76561197998241407,"connected_time":3385000000000,"state":"active","ping":48},{"user_id":388,"name":"esQ","steam_id":76561198242699432,"connected_time":1738000000000,"state":"active","ping":45},{"user_id":401,"name":"TüCold","steam_id":76561198111278197,"connected_time":399000000000,"state":"active","ping":59},{"user_id":402,"name":"gromt","steam_id":76561198314446564,"connected_time":387000000000,"state":"active","ping":53},{"user_id":308,"name":"K-2","steam_id":76561198322606535,"connected_time":7758000000000,"state":"active","ping":74},{"user_id":310,"name":"lol","steam_id":76561198026491738,"connected_time":7560000000000,"state":"active","ping":90},{"user_id":224,"name":"FOX News goblin","steam_id":76561198167648580,"connected_time":14185000000000,"state":"active","ping":40},{"user_id":381,"name":"thekraken630","steam_id":76561199088410868,"connected_time":2336000000000,"state":"active","ping":59},{"user_id":404,"name":"᲼᲼᲼","steam_id":76561198845246815,"connected_time":336000000000,"state":"active","ping":55},{"user_id":384,"name":"Seriously Bruh","steam_id":76561198070408485,"connected_time":2112000000000,"state":"active","ping":75},{"user_id":410,"name":"YEETCEN","steam_id":76561198132335963,"connected_time":77000000000,"state":"active","ping":43},{"user_id":411,"name":"Rommel2007","steam_id":76561198041744631,"connected_time":59000000000,"state":"active","ping":63},{"user_id":406,"name":"God's Drunkest Driver","steam_id":76561198069378337,"connected_time":313000000000,"state":"active","ping":73},{"user_id":409,"name":"chesterwnimitz","steam_id":76561198062664377,"connected_time":261000000000,"state":"active","ping":91},{"user_id":408,"name":"Mr. Videogame","steam_id":76561198007087691,"connected_time":272000000000,"state":"active","ping":105},{"user_id":313,"name":"who","steam_id":76561198066091050,"connected_time":7354000000000,"state":"active","ping":94}]},{"server_id":112,"name":"Uncletopia | Los Angeles | 2 | All Maps","name_short":"lax-2","host":"lax-1.us.uncletopia.com","port":27025,"enabled":true,"region":"us-west","cc":"us","latitude":33.94279,"longitude":-118.41004,"reserved":0,"last_update":"0001-01-01T00:00:00Z","name_a2s":"Uncletopia | Los Angeles | 2 | All Maps","protocol":17,"map":"cp_well","folder":"tf","game":"Team Fortress","app_id":440,"player_count":24,"max_players":24,"Bots":0,"server_type":"Dedicated","server_os":"Linux","password":true,"vac":true,"version":"7961495","steam_id":85568392924469992,"keywords":["cp","nocrits","nodmgspread","uncletopia"],"game_id":440,"stv_port":27026,"stv_name":"Uncletopia | Los Angeles | 2 | All Maps | STV","players":[{"user_id":21,"name":"U ω U","steam_id":76561198118802562,"connected_time":1645000000000,"state":"active","ping":60},{"user_id":12,"name":"cielael","steam_id":76561198043971956,"connected_time":2717000000000,"state":"active","ping":49},{"user_id":56,"name":"chicken on quack","steam_id":76561199235538552,"connected_time":136000000000,"state":"active","ping":67},{"user_id":33,"name":"TheGamer","steam_id":76561198108045407,"connected_time":1080000000000,"state":"active","ping":81},{"user_id":22,"name":"Klopo","steam_id":76561198871108633,"connected_time":1570000000000,"state":"active","ping":44},{"user_id":44,"name":"RaTtYc","steam_id":76561198954419354,"connected_time":462000000000,"state":"active","ping":78},{"user_id":18,"name":"Whoops!","steam_id":76561198151315898,"connected_time":1918000000000,"state":"active","ping":85},{"user_id":34,"name":"Nibotshooter","steam_id":76561199284825579,"connected_time":871000000000,"state":"active","ping":64},{"user_id":60,"name":"Noire","steam_id":76561198149370109,"connected_time":72000000000,"state":"active","ping":75},{"user_id":40,"name":"Etzan","steam_id":76561198026897084,"connected_time":580000000000,"state":"active","ping":60},{"user_id":37,"name":"Gnaash","steam_id":76561198940657194,"connected_time":631000000000,"state":"active","ping":88},{"user_id":43,"name":"The Chosen One","steam_id":76561199046984627,"connected_time":526000000000,"state":"active","ping":113},{"user_id":57,"name":"Spooky Santabox","steam_id":76561198329679481,"connected_time":131000000000,"state":"active","ping":90},{"user_id":55,"name":"RumpelstiltskinShrekForeverAfte","steam_id":76561199196626333,"connected_time":174000000000,"state":"active","ping":55},{"user_id":42,"name":"Skeptical","steam_id":76561198038261789,"connected_time":568000000000,"state":"active","ping":75},{"user_id":46,"name":"Risky","steam_id":76561198231029328,"connected_time":439000000000,"state":"active","ping":66},{"user_id":47,"name":"copper","steam_id":76561198146250533,"connected_time":396000000000,"state":"active","ping":64},{"user_id":49,"name":"Delsym Sipper","steam_id":76561198206177593,"connected_time":286000000000,"state":"active","ping":43},{"user_id":50,"name":"Therapy Goth","steam_id":76561198048448497,"connected_time":249000000000,"state":"active","ping":122},{"user_id":52,"name":"Cheddar","steam_id":76561199123994392,"connected_time":241000000000,"state":"active","ping":76},{"user_id":53,"name":"nivekuil","steam_id":76561198043892129,"connected_time":237000000000,"state":"active","ping":71},{"user_id":54,"name":"Keychain","steam_id":76561197994183048,"connected_time":231000000000,"state":"active","ping":112},{"user_id":58,"name":"(Ô)Ô)Wandering Singer(Ô(Ô)","steam_id":76561198126477141,"connected_time":126000000000,"state":"active","ping":129},{"user_id":59,"name":"SCP — 049","steam_id":76561198143283556,"connected_time":123000000000,"state":"active","ping":100}]},{"server_id":324,"name":"Uncletopia | Los Angeles | 3 | All Maps","name_short":"lax-3","host":"lax-1.us.uncletopia.com","port":27035,"enabled":true,"region":"us-west","cc":"us","latitude":33.94279,"longitude":-118.41004,"reserved":0,"last_update":"0001-01-01T00:00:00Z","name_a2s":"Uncletopia | Los Angeles | 3 | All Maps","protocol":17,"map":"koth_lakeside_final","folder":"tf","game":"Team Fortress","app_id":440,"player_count":0,"max_players":24,"Bots":0,"server_type":"Dedicated","server_os":"Linux","password":true,"vac":true,"version":"7961495","steam_id":85568392924510198,"keywords":["cp","nocrits","nodmgspread","uncletopia"],"game_id":440,"stv_port":27036,"stv_name":"Uncletopia | Los Angeles | 3 | All Maps | STV","players":null},{"server_id":25,"name":"Uncletopia | Los Angeles | 4 | Stopwatch","name_short":"lax-4","host":"lax-1.us.uncletopia.com","port":27045,"enabled":true,"region":"us-west","cc":"us","latitude":33.94279,"longitude":-118.41004,"reserved":0,"last_update":"0001-01-01T00:00:00Z","name_a2s":"Uncletopia | Los Angeles | 4 | Stopwatch","protocol":17,"map":"pl_barnblitz","folder":"tf","game":"Team Fortress","app_id":440,"player_count":0,"max_players":24,"Bots":0,"server_type":"Dedicated","server_os":"Linux","password":true,"vac":true,"version":"7961495","steam_id":85568392924510199,"keywords":["nocrits","nodmgspread","payload","uncletopia"],"game_id":440,"stv_port":27046,"stv_name":"Uncletopia | Los Angeles | 4 | Stopwatch | STV","players":null},{"server_id":11,"name":"Uncletopia | London | 1 | All Maps","name_short":"lon-1","host":"lon-1.uk.uncletopia.com","port":27015,"enabled":true,"region":"eu","cc":"gb","latitude":51.509865,"longitude":-0.118092,"reserved":0,"last_update":"0001-01-01T00:00:00Z","name_a2s":"Uncletopia | London | 1 | All Maps","protocol":17,"map":"pl_borneo","folder":"tf","game":"Team Fortress","app_id":440,"player_count":1,"max_players":24,"Bots":0,"server_type":"Dedicated","server_os":"Linux","password":true,"vac":true,"version":"7961495","steam_id":85568392924367362,"keywords":["nocrits","nodmgspread","payload","uncletopia"],"game_id":440,"stv_port":27016,"stv_name":"Uncletopia | London | 1 | All Maps | STV","players":[{"user_id":780,"name":"Redkiller","steam_id":76561199453655288,"connected_time":33000000000,"state":"active","ping":135}]},{"server_id":114,"name":"Uncletopia | London | 2 | All Maps","name_short":"lon-2","host":"lon-1.uk.uncletopia.com","port":27025,"enabled":true,"region":"eu","cc":"gb","latitude":51.509865,"longitude":-0.118092,"reserved":0,"last_update":"0001-01-01T00:00:00Z","name_a2s":"Uncletopia | London | 2 | All Maps","protocol":17,"map":"cp_altitude","folder":"tf","game":"Team Fortress","app_id":440,"player_count":0,"max_players":24,"Bots":0,"server_type":"Dedicated","server_os":"Linux","password":true,"vac":true,"version":"7961495","steam_id":85568392924470941,"keywords":["cp","nocrits","nodmgspread","uncletopia"],"game_id":440,"stv_port":27026,"stv_name":"Uncletopia | London | 2 | All Maps | STV","players":null},{"server_id":320,"name":"Uncletopia | London | 3 | All Maps","name_short":"lon-3","host":"lon-1.uk.uncletopia.com","port":27035,"enabled":true,"region":"eu","cc":"gb","latitude":51.509865,"longitude":-0.118092,"reserved":0,"last_update":"0001-01-01T00:00:00Z","name_a2s":"Uncletopia | London | 3 | All Maps","protocol":17,"map":"cp_steel","folder":"tf","game":"Team Fortress","app_id":440,"player_count":19,"max_players":24,"Bots":0,"server_type":"Dedicated","server_os":"Linux","password":true,"vac":true,"version":"7961495","steam_id":85568392924510192,"keywords":["cp","nocrits","nodmgspread","uncletopia"],"game_id":440,"stv_port":27036,"stv_name":"Uncletopia | London | 3 | All Maps | STV","players":[{"user_id":519,"name":"Joe Biden (real)","steam_id":76561198846784757,"connected_time":1897000000000,"state":"active","ping":56},{"user_id":531,"name":"pnnce","steam_id":76561198064605955,"connected_time":859000000000,"state":"active","ping":73},{"user_id":517,"name":"Mr.Patla","steam_id":76561198305100456,"connected_time":2369000000000,"state":"active","ping":144},{"user_id":528,"name":"tomcat","steam_id":76561198084938900,"connected_time":963000000000,"state":"active","ping":42},{"user_id":450,"name":"Worm","steam_id":76561198296497176,"connected_time":6424000000000,"state":"active","ping":45},{"user_id":510,"name":"cansado","steam_id":76561198003898089,"connected_time":2531000000000,"state":"active","ping":73},{"user_id":538,"name":"cora","steam_id":76561199474154775,"connected_time":697000000000,"state":"active","ping":58},{"user_id":516,"name":"DJThunderHeart","steam_id":76561198274197575,"connected_time":2468000000000,"state":"active","ping":119},{"user_id":525,"name":"Cool Ranch© Flavoured Pretzel","steam_id":76561198097130024,"connected_time":999000000000,"state":"active","ping":44},{"user_id":480,"name":"gaming princess","steam_id":76561198254006439,"connected_time":3112000000000,"state":"active","ping":45},{"user_id":460,"name":"sticks","steam_id":76561198127099299,"connected_time":5631000000000,"state":"spawning","ping":49},{"user_id":471,"name":"Nassu","steam_id":76561198147367577,"connected_time":4208000000000,"state":"active","ping":162},{"user_id":521,"name":"Mentlegen","steam_id":76561198064764010,"connected_time":1667000000000,"state":"active","ping":115},{"user_id":529,"name":"Theodore Argesh","steam_id":76561198122028307,"connected_time":939000000000,"state":"active","ping":55},{"user_id":542,"name":"tapeworms!","steam_id":76561198069649097,"connected_time":85000000000,"state":"spawning","ping":47},{"user_id":533,"name":"Onecoinsachi","steam_id":76561199085984801,"connected_time":837000000000,"state":"active","ping":45},{"user_id":523,"name":"Evix","steam_id":76561198418450671,"connected_time":1447000000000,"state":"active","ping":57},{"user_id":541,"name":"The King","steam_id":76561198117344758,"connected_time":625000000000,"state":"active","ping":145},{"user_id":493,"name":"DR_KILLY","steam_id":76561198048458363,"connected_time":2848000000000,"state":"active","ping":45}]},{"server_id":321,"name":"Uncletopia | London | 4 | All Maps","name_short":"lon-4","host":"lon-1.uk.uncletopia.com","port":27045,"enabled":true,"region":"eu","cc":"gb","latitude":51.509865,"longitude":-0.118092,"reserved":0,"last_update":"0001-01-01T00:00:00Z","name_a2s":"Uncletopia | London | 4 | All Maps","protocol":17,"map":"koth_lakeside_final","folder":"tf","game":"Team Fortress","app_id":440,"player_count":0,"max_players":24,"Bots":0,"server_type":"Dedicated","server_os":"Linux","password":true,"vac":true,"version":"7961495","steam_id":85568392924510193,"keywords":["cp","nocrits","nodmgspread","uncletopia"],"game_id":440,"stv_port":27046,"stv_name":"Uncletopia | London | 4 | All Maps | STV","players":null},{"server_id":21,"name":"Uncletopia | London | 5 | All Maps","name_short":"lon-5","host":"lon-1.uk.uncletopia.com","port":27055,"enabled":true,"region":"eu","cc":"gb","latitude":51.509865,"longitude":-0.118092,"reserved":0,"last_update":"0001-01-01T00:00:00Z","name_a2s":"Uncletopia | London | 5 | All Maps","protocol":17,"map":"pl_swiftwater_final1","folder":"tf","game":"Team Fortress","app_id":440,"player_count":23,"max_players":24,"Bots":0,"server_type":"Dedicated","server_os":"Linux","password":true,"vac":true,"version":"7961495","steam_id":85568392924742829,"keywords":["nocrits","nodmgspread","payload","uncletopia"],"game_id":440,"stv_port":27056,"stv_name":"Uncletopia | London | 5 | All Maps | STV","players":[{"user_id":628,"name":"heavy sings (real)","steam_id":76561199023804405,"connected_time":763000000000,"state":"active","ping":65},{"user_id":626,"name":"Cooki","steam_id":76561198051705314,"connected_time":1306000000000,"state":"active","ping":146},{"user_id":640,"name":"Vince","steam_id":76561199103000131,"connected_time":340000000000,"state":"active","ping":31},{"user_id":641,"name":"Macro","steam_id":76561199442846226,"connected_time":275000000000,"state":"active","ping":153},{"user_id":559,"name":"Sebiromanes (Spookmáster)","steam_id":76561198112800408,"connected_time":5738000000000,"state":"active","ping":117},{"user_id":620,"name":"CTFT5555 alice","steam_id":76561198180361759,"connected_time":2153000000000,"state":"active","ping":41},{"user_id":631,"name":"El Duderino","steam_id":76561198084404539,"connected_time":624000000000,"state":"active","ping":142},{"user_id":632,"name":"Marzz","steam_id":76561198059034982,"connected_time":605000000000,"state":"active","ping":120},{"user_id":633,"name":"etc","steam_id":76561197998394797,"connected_time":601000000000,"state":"active","ping":45},{"user_id":407,"name":"joecalmatt","steam_id":76561198172552015,"connected_time":17569000000000,"state":"active","ping":45},{"user_id":599,"name":"Quartermistress","steam_id":76561198140199123,"connected_time":3669000000000,"state":"active","ping":37},{"user_id":514,"name":"Shlongulator","steam_id":76561198149779201,"connected_time":9907000000000,"state":"active","ping":50},{"user_id":642,"name":"Black Tom","steam_id":76561198335730273,"connected_time":262000000000,"state":"active","ping":64},{"user_id":636,"name":"Gordo Milanesa","steam_id":76561197995001070,"connected_time":532000000000,"state":"active","ping":77},{"user_id":627,"name":"biohazard","steam_id":76561198162873354,"connected_time":1071000000000,"state":"active","ping":112},{"user_id":618,"name":"Whanos","steam_id":76561198134393772,"connected_time":2203000000000,"state":"active","ping":45},{"user_id":638,"name":"The Protein","steam_id":76561198454964357,"connected_time":428000000000,"state":"active","ping":56},{"user_id":603,"name":"「adae」","steam_id":76561198256339510,"connected_time":3514000000000,"state":"active","ping":85},{"user_id":645,"name":"Steen","steam_id":76561198122992510,"connected_time":160000000000,"state":"active","ping":54},{"user_id":614,"name":"cherry","steam_id":76561199006915718,"connected_time":2666000000000,"state":"active","ping":73},{"user_id":646,"name":"FREDDYBURGERKING","steam_id":76561198346638308,"connected_time":132000000000,"state":"active","ping":57},{"user_id":623,"name":"flick","steam_id":76561198083505031,"connected_time":1630000000000,"state":"active","ping":44},{"user_id":616,"name":"chachiply","steam_id":76561198316355509,"connected_time":2567000000000,"state":"active","ping":72}]},{"server_id":22,"name":"Uncletopia | London | 6 | All Maps","name_short":"lon-6","host":"lon-1.uk.uncletopia.com","port":27065,"enabled":true,"region":"eu","cc":"gb","latitude":51.509865,"longitude":-0.118092,"reserved":0,"last_update":"0001-01-01T00:00:00Z","name_a2s":"Uncletopia | London | 6 | All Maps","protocol":17,"map":"koth_highpass","folder":"tf","game":"Team Fortress","app_id":440,"player_count":0,"max_players":24,"Bots":0,"server_type":"Dedicated","server_os":"Linux","password":true,"vac":true,"version":"7961495","steam_id":85568392924742830,"keywords":["cp","nocrits","nodmgspread","uncletopia"],"game_id":440,"stv_port":27066,"stv_name":"Uncletopia | London | 6 | All Maps | STV","players":null},{"server_id":40,"name":"Uncletopia | London | 7 | Stopwatch","name_short":"lon-7","host":"lon-1.uk.uncletopia.com","port":27075,"enabled":true,"region":"eu","cc":"gb","latitude":51.509865,"longitude":-0.118092,"reserved":0,"last_update":"0001-01-01T00:00:00Z","name_a2s":"Uncletopia | London | 7 | Stopwatch","protocol":17,"map":"koth_highpass","folder":"tf","game":"Team Fortress","app_id":440,"player_count":0,"max_players":24,"Bots":0,"server_type":"Dedicated","server_os":"Linux","password":true,"vac":true,"version":"7961495","steam_id":85568392924964314,"keywords":["cp","nocrits","nodmgspread","uncletopia"],"game_id":440,"stv_port":27076,"stv_name":"Uncletopia | London | 7 | Stopwatch | STV","players":null},{"server_id":41,"name":"Uncletopia | London | 8 | Community","name_short":"lon-8","host":"lon-1.uk.uncletopia.com","port":27085,"enabled":true,"region":"eu","cc":"gb","latitude":51.509865,"longitude":-0.118092,"reserved":0,"last_update":"0001-01-01T00:00:00Z","name_a2s":"Uncletopia | London | 8 | Community","protocol":17,"map":"cp_snakewater_final1","folder":"tf","game":"Team Fortress","app_id":440,"player_count":0,"max_players":24,"Bots":0,"server_type":"Dedicated","server_os":"Linux","password":true,"vac":true,"version":"7961495","steam_id":85568392924964315,"keywords":["cp","nocrits","nodmgspread","uncletopia"],"game_id":440,"stv_port":27086,"stv_name":"Uncletopia | London | 8 | Community | STV","players":null},{"server_id":300,"name":"Uncletopia | Montréal | 1 | One Thousand Uncles","name_short":"mtl-1","host":"mtl-1.ca.uncletopia.com","port":27015,"enabled":true,"region":"us-east","cc":"ca","latitude":45.50889,"longitude":-73.56167,"reserved":0,"last_update":"0001-01-01T00:00:00Z","name_a2s":"","protocol":0,"map":"","folder":"","game":"","app_id":0,"player_count":12,"max_players":0,"Bots":0,"server_type":"","server_os":"","password":false,"vac":false,"version":"","steam_id":0,"keywords":null,"game_id":0,"stv_port":0,"stv_name":"","players":[{"user_id":238,"name":"moe","steam_id":76561198929586245,"connected_time":1559000000000,"state":"active","ping":131},{"user_id":151,"name":"RacoonGamer","steam_id":76561198100907657,"connected_time":5330000000000,"state":"active","ping":47},{"user_id":267,"name":"sleepless","steam_id":76561199118761255,"connected_time":78000000000,"state":"active","ping":56},{"user_id":217,"name":"Spagon","steam_id":76561198162374030,"connected_time":2139000000000,"state":"active","ping":90},{"user_id":218,"name":"smugleafthesmug","steam_id":76561198844190634,"connected_time":2079000000000,"state":"active","ping":70},{"user_id":262,"name":"Nari","steam_id":76561199220038535,"connected_time":919000000000,"state":"active","ping":72},{"user_id":105,"name":"1-800-GHOST-DANCE","steam_id":76561198835430429,"connected_time":7630000000000,"state":"active","ping":74},{"user_id":241,"name":"Ignatius J. Reilly","steam_id":76561198066958868,"connected_time":1471000000000,"state":"active","ping":55},{"user_id":240,"name":"bigshortstop","steam_id":76561198040717734,"connected_time":1485000000000,"state":"active","ping":97},{"user_id":245,"name":"Keemstar","steam_id":76561198971026921,"connected_time":1104000000000,"state":"active","ping":85},{"user_id":243,"name":"{♠}_MR. JESTER _{♠}","steam_id":76561198152371294,"connected_time":1444000000000,"state":"active","ping":141},{"user_id":168,"name":"trobin120","steam_id":76561199122420273,"connected_time":5213000000000,"state":"active","ping":59}]},{"server_id":301,"name":"Uncletopia | Montréal | 2 | One Thousand Uncles","name_short":"mtl-2","host":"mtl-1.ca.uncletopia.com","port":27025,"enabled":true,"region":"us-east","cc":"ca","latitude":45.50889,"longitude":-73.56167,"reserved":0,"last_update":"0001-01-01T00:00:00Z","name_a2s":"","protocol":0,"map":"","folder":"","game":"","app_id":0,"player_count":0,"max_players":0,"Bots":0,"server_type":"","server_os":"","password":false,"vac":false,"version":"","steam_id":0,"keywords":null,"game_id":0,"stv_port":0,"stv_name":"","players":null},{"server_id":302,"name":"Uncletopia | Montréal | 3 | One Thousand Uncles","name_short":"mtl-3","host":"mtl-1.ca.uncletopia.com","port":27035,"enabled":true,"region":"us-east","cc":"ca","latitude":45.50889,"longitude":-73.56167,"reserved":0,"last_update":"0001-01-01T00:00:00Z","name_a2s":"","protocol":0,"map":"","folder":"","game":"","app_id":0,"player_count":0,"max_players":0,"Bots":0,"server_type":"","server_os":"","password":false,"vac":false,"version":"","steam_id":0,"keywords":null,"game_id":0,"stv_port":0,"stv_name":"","players":null},{"server_id":13,"name":"Uncletopia | New York City | 1 | All Maps","name_short":"nyc-1","host":"nyc-1.us.uncletopia.com","port":27015,"enabled":true,"region":"us-east","cc":"us","latitude":40.73061,"longitude":-73.93524,"reserved":0,"last_update":"0001-01-01T00:00:00Z","name_a2s":"Uncletopia | New York City | 1 | All Maps","protocol":17,"map":"pl_borneo","folder":"tf","game":"Team Fortress","app_id":440,"player_count":24,"max_players":24,"Bots":0,"server_type":"Dedicated","server_os":"Linux","password":true,"vac":true,"version":"7961495","steam_id":85568392924469993,"keywords":["nocrits","nodmgspread","payload","uncletopia"],"game_id":440,"stv_port":27016,"stv_name":"Uncletopia | New York City | 1 | All Maps | STV","players":[{"user_id":340,"name":"iiamiizzyy","steam_id":76561198355030751,"connected_time":1306000000000,"state":"active","ping":72},{"user_id":336,"name":"drakedeadwife","steam_id":76561198149134998,"connected_time":1605000000000,"state":"active","ping":60},{"user_id":318,"name":"Havok","steam_id":76561198063455003,"connected_time":2997000000000,"state":"active","ping":51},{"user_id":348,"name":"Tarot Warden","steam_id":76561198284383023,"connected_time":259000000000,"state":"active","ping":74},{"user_id":292,"name":"emotional suppport e-cigarette","steam_id":76561198172120615,"connected_time":4943000000000,"state":"active","ping":42},{"user_id":317,"name":"Larry","steam_id":76561198069458873,"connected_time":3119000000000,"state":"active","ping":46},{"user_id":353,"name":"Klepto","steam_id":76561199501643797,"connected_time":205000000000,"state":"active","ping":83},{"user_id":350,"name":"CHAI","steam_id":76561198119556082,"connected_time":225000000000,"state":"active","ping":78},{"user_id":302,"name":"gerf.","steam_id":76561198811706201,"connected_time":4380000000000,"state":"active","ping":43},{"user_id":344,"name":"Lord_Calcium","steam_id":76561198302455088,"connected_time":946000000000,"state":"active","ping":73},{"user_id":351,"name":"Aristotle Voulton","steam_id":76561198100174923,"connected_time":225000000000,"state":"active","ping":78},{"user_id":329,"name":"BeerPowder","steam_id":76561198058129400,"connected_time":2382000000000,"state":"active","ping":53},{"user_id":342,"name":"Spirit","steam_id":76561199069322627,"connected_time":1127000000000,"state":"active","ping":63},{"user_id":327,"name":"Fudgely","steam_id":76561198039425862,"connected_time":2454000000000,"state":"active","ping":64},{"user_id":334,"name":"the pest","steam_id":76561198826298849,"connected_time":2020000000000,"state":"active","ping":92},{"user_id":349,"name":"Universe Man","steam_id":76561197997710655,"connected_time":245000000000,"state":"active","ping":92},{"user_id":287,"name":"Mads Mikkelsen","steam_id":76561198083482001,"connected_time":5349000000000,"state":"active","ping":127},{"user_id":320,"name":"ndvr","steam_id":76561199379200102,"connected_time":2817000000000,"state":"active","ping":53},{"user_id":356,"name":"Bronze Age Furvert","steam_id":76561198859118263,"connected_time":146000000000,"state":"active","ping":75},{"user_id":346,"name":"dave :3","steam_id":76561198135961731,"connected_time":744000000000,"state":"active","ping":82},{"user_id":352,"name":"Kivertsy","steam_id":76561199162661290,"connected_time":224000000000,"state":"active","ping":73},{"user_id":355,"name":"Hamhog","steam_id":76561198353967566,"connected_time":189000000000,"state":"active","ping":67},{"user_id":301,"name":"Verily","steam_id":76561198200558318,"connected_time":4393000000000,"state":"active","ping":47},{"user_id":331,"name":"Bulk","steam_id":76561199009814535,"connected_time":2309000000000,"state":"active","ping":45}]},{"server_id":14,"name":"Uncletopia | New York City | 2 | All Maps","name_short":"nyc-2","host":"nyc-1.us.uncletopia.com","port":27025,"enabled":true,"region":"us-east","cc":"us","latitude":40.73061,"longitude":-73.93524,"reserved":0,"last_update":"0001-01-01T00:00:00Z","name_a2s":"Uncletopia | New York City | 2 | All Maps","protocol":17,"map":"pl_barnblitz","folder":"tf","game":"Team Fortress","app_id":440,"player_count":24,"max_players":24,"Bots":0,"server_type":"Dedicated","server_os":"Linux","password":true,"vac":true,"version":"7961495","steam_id":85568392924469994,"keywords":["nocrits","nodmgspread","payload","uncletopia"],"game_id":440,"stv_port":27026,"stv_name":"Uncletopia | New York City | 2 | All Maps | STV","players":[{"user_id":244,"name":"GreenApples","steam_id":76561198120559543,"connected_time":804000000000,"state":"active","ping":120},{"user_id":252,"name":"Ballistic","steam_id":76561197992355477,"connected_time":159000000000,"state":"active","ping":68},{"user_id":242,"name":"AllPantsNoSkill","steam_id":76561198049655464,"connected_time":834000000000,"state":"active","ping":84},{"user_id":245,"name":"filthy white trash","steam_id":76561198154176367,"connected_time":781000000000,"state":"active","ping":80},{"user_id":226,"name":"Strangelove","steam_id":76561198353773611,"connected_time":1811000000000,"state":"active","ping":100},{"user_id":246,"name":"TTVPlumSmug","steam_id":76561198103960265,"connected_time":773000000000,"state":"active","ping":59},{"user_id":233,"name":"Juri Han","steam_id":76561198041678517,"connected_time":1610000000000,"state":"active","ping":124},{"user_id":234,"name":"Jetty","steam_id":76561198004885583,"connected_time":1609000000000,"state":"active","ping":95},{"user_id":240,"name":"insectoid","steam_id":76561198122677314,"connected_time":1108000000000,"state":"active","ping":66},{"user_id":235,"name":"I'mWalkerHere","steam_id":76561199310055450,"connected_time":1590000000000,"state":"active","ping":79},{"user_id":221,"name":"Sprit ♥","steam_id":76561198268780781,"connected_time":1879000000000,"state":"active","ping":60},{"user_id":243,"name":"Shad","steam_id":76561198353646485,"connected_time":818000000000,"state":"active","ping":133},{"user_id":237,"name":"ToyBox","steam_id":76561199074735423,"connected_time":1580000000000,"state":"active","ping":69},{"user_id":212,"name":"innocent palestinian child","steam_id":76561199134895220,"connected_time":2128000000000,"state":"active","ping":63},{"user_id":106,"name":"Bombsgamer","steam_id":76561198350009050,"connected_time":9256000000000,"state":"active","ping":111},{"user_id":214,"name":"FrostStorm","steam_id":76561198142685151,"connected_time":2040000000000,"state":"active","ping":72},{"user_id":247,"name":"λ T O M I C S P E E D FT","steam_id":76561198378581038,"connected_time":755000000000,"state":"active","ping":86},{"user_id":250,"name":"CRAZY engineer","steam_id":76561198887937902,"connected_time":369000000000,"state":"active","ping":44},{"user_id":238,"name":"Baller64","steam_id":76561199468366156,"connected_time":1578000000000,"state":"active","ping":70},{"user_id":122,"name":"[NAME-REDACTED]","steam_id":76561198035682975,"connected_time":8856000000000,"state":"active","ping":60},{"user_id":248,"name":"2.5 Oz of Paprika","steam_id":76561198174647666,"connected_time":749000000000,"state":"active","ping":93},{"user_id":176,"name":"You Don't Nomi.","steam_id":76561197969137836,"connected_time":5149000000000,"state":"active","ping":49},{"user_id":249,"name":"the action gamemaster","steam_id":76561198007494744,"connected_time":593000000000,"state":"active","ping":121},{"user_id":239,"name":"Diet Coque","steam_id":76561198013781408,"connected_time":1572000000000,"state":"active","ping":94}]},{"server_id":15,"name":"Uncletopia | New York City | 3 | Stopwatch","name_short":"nyc-3","host":"nyc-1.us.uncletopia.com","port":27035,"enabled":true,"region":"us-east","cc":"us","latitude":40.73061,"longitude":-73.93524,"reserved":0,"last_update":"0001-01-01T00:00:00Z","name_a2s":"Uncletopia | New York City | 3 | Stopwatch","protocol":17,"map":"pl_snowycoast","folder":"tf","game":"Team Fortress","app_id":440,"player_count":0,"max_players":24,"Bots":0,"server_type":"Dedicated","server_os":"Linux","password":true,"vac":true,"version":"7961495","steam_id":85568392924742820,"keywords":["nocrits","nodmgspread","payload","uncletopia"],"game_id":440,"stv_port":27036,"stv_name":"Uncletopia | New York City | 3 | Stopwatch | STV","players":null},{"server_id":16,"name":"Uncletopia | New York City | 4 | Community","name_short":"nyc-4","host":"nyc-1.us.uncletopia.com","port":27045,"enabled":true,"region":"us-east","cc":"us","latitude":40.73061,"longitude":-73.93524,"reserved":0,"last_update":"0001-01-01T00:00:00Z","name_a2s":"Uncletopia | New York City | 4 | Community","protocol":17,"map":"workshop/cp_reckoner_rc6.ugc674719999","folder":"tf","game":"Team Fortress","app_id":440,"player_count":0,"max_players":24,"Bots":0,"server_type":"Dedicated","server_os":"Linux","password":true,"vac":true,"version":"7961495","steam_id":85568392924742821,"keywords":["cp","nocrits","nodmgspread","uncletopia"],"game_id":440,"stv_port":27046,"stv_name":"Uncletopia | New York City | 4 | Community | STV","players":null},{"server_id":142,"name":"Uncletopia | São Paulo | 1 | All Maps","name_short":"sao-1","host":"sao-1.br.uncletopia.com","port":27015,"enabled":true,"region":"sa","cc":"br","latitude":-23.533773,"longitude":-46.62529,"reserved":0,"last_update":"0001-01-01T00:00:00Z","name_a2s":"Uncletopia | São Paulo | 1 | All Maps","protocol":17,"map":"pl_barnblitz","folder":"tf","game":"Team Fortress","app_id":440,"player_count":0,"max_players":24,"Bots":0,"server_type":"Dedicated","server_os":"Linux","password":true,"vac":true,"version":"7961495","steam_id":85568392924469996,"keywords":["nocrits","nodmgspread","payload","uncletopia"],"game_id":440,"stv_port":27016,"stv_name":"Uncletopia | São Paulo | 1 | All Maps | STV","players":null},{"server_id":143,"name":"Uncletopia | São Paulo | 2 | Community","name_short":"sao-2","host":"sao-2.br.uncletopia.com","port":27015,"enabled":true,"region":"sa","cc":"br","latitude":-23.533773,"longitude":-46.62529,"reserved":0,"last_update":"0001-01-01T00:00:00Z","name_a2s":"Uncletopia | São Paulo | 2 | Community","protocol":17,"map":"workshop/pl_highwood_b13.ugc1769496557","folder":"tf","game":"Team Fortress","app_id":440,"player_count":0,"max_players":24,"Bots":0,"server_type":"Dedicated","server_os":"Linux","password":true,"vac":true,"version":"7961495","steam_id":85568392924485349,"keywords":["nocrits","nodmgspread","payload","uncletopia"],"game_id":440,"stv_port":27016,"stv_name":"Uncletopia | São Paulo | 2 | Community | STV","players":null},{"server_id":7,"name":"Uncletopia | Seattle | 1 | All Maps","name_short":"sea-1","host":"sea-1.us.uncletopia.com","port":27015,"enabled":true,"region":"us-west","cc":"us","latitude":47.608013,"longitude":-122.33517,"reserved":0,"last_update":"0001-01-01T00:00:00Z","name_a2s":"Uncletopia | Seattle | 1 | All Maps","protocol":17,"map":"pl_badwater","folder":"tf","game":"Team Fortress","app_id":440,"player_count":24,"max_players":24,"Bots":0,"server_type":"Dedicated","server_os":"Linux","password":true,"vac":true,"version":"7961495","steam_id":85568392924469997,"keywords":["nocrits","nodmgspread","payload","uncletopia"],"game_id":440,"stv_port":27016,"stv_name":"Uncletopia | Seattle | 1 | All Maps | STV","players":[{"user_id":312,"name":"Copy","steam_id":76561198025031590,"connected_time":1243000000000,"state":"active","ping":47},{"user_id":289,"name":"MerkZ","steam_id":76561198047620432,"connected_time":2916000000000,"state":"active","ping":67},{"user_id":311,"name":"AWGER (don't uber)","steam_id":76561198284683624,"connected_time":1325000000000,"state":"active","ping":89},{"user_id":299,"name":"RainboomCrash","steam_id":76561198065612273,"connected_time":2346000000000,"state":"active","ping":45},{"user_id":262,"name":"Sefren","steam_id":76561198007657340,"connected_time":3998000000000,"state":"active","ping":48},{"user_id":279,"name":"Timemx63","steam_id":76561198062377543,"connected_time":3606000000000,"state":"active","ping":39},{"user_id":267,"name":"name420","steam_id":76561198129374525,"connected_time":3903000000000,"state":"active","ping":115},{"user_id":255,"name":"fathead","steam_id":76561198150155615,"connected_time":4696000000000,"state":"active","ping":54},{"user_id":230,"name":"Whimsy!","steam_id":76561197989578836,"connected_time":5982000000000,"state":"active","ping":64},{"user_id":265,"name":"Bob's your Uncle","steam_id":76561197995230744,"connected_time":3937000000000,"state":"active","ping":119},{"user_id":308,"name":"help","steam_id":76561199056338917,"connected_time":1651000000000,"state":"active","ping":113},{"user_id":313,"name":"Engynier Gaimeang (F2P)","steam_id":76561199013888779,"connected_time":710000000000,"state":"active","ping":63},{"user_id":294,"name":"Tsunami","steam_id":76561198097188001,"connected_time":2682000000000,"state":"active","ping":46},{"user_id":314,"name":"Rude Dog","steam_id":76561197980385816,"connected_time":312000000000,"state":"active","ping":45},{"user_id":296,"name":"MrYadaization","steam_id":76561198050770818,"connected_time":2513000000000,"state":"active","ping":59},{"user_id":285,"name":"Ting","steam_id":76561198111669760,"connected_time":3281000000000,"state":"active","ping":45},{"user_id":278,"name":"green bean","steam_id":76561198113099204,"connected_time":3690000000000,"state":"active","ping":60},{"user_id":304,"name":"thunderous prophet","steam_id":76561198131166135,"connected_time":1827000000000,"state":"active","ping":43},{"user_id":273,"name":"Chillin Turt","steam_id":76561198025796849,"connected_time":3804000000000,"state":"active","ping":118},{"user_id":295,"name":"Fh","steam_id":76561198000903511,"connected_time":2621000000000,"state":"active","ping":74},{"user_id":301,"name":"mooney","steam_id":76561199110622484,"connected_time":2040000000000,"state":"active","ping":57},{"user_id":305,"name":"mansteam905","steam_id":76561199488421021,"connected_time":1676000000000,"state":"active","ping":127},{"user_id":303,"name":"Pi-er","steam_id":76561198450073779,"connected_time":1920000000000,"state":"active","ping":45},{"user_id":310,"name":"demoknight","steam_id":76561199067766868,"connected_time":1398000000000,"state":"active","ping":53}]},{"server_id":119,"name":"Uncletopia | Seattle | 2 | All Maps","name_short":"sea-2","host":"sea-1.us.uncletopia.com","port":27025,"enabled":true,"region":"us-west","cc":"us","latitude":47.608013,"longitude":-122.33517,"reserved":0,"last_update":"0001-01-01T00:00:00Z","name_a2s":"Uncletopia | Seattle | 2 | All Maps","protocol":17,"map":"cp_snakewater_final1","folder":"tf","game":"Team Fortress","app_id":440,"player_count":0,"max_players":24,"Bots":0,"server_type":"Dedicated","server_os":"Linux","password":true,"vac":true,"version":"7961495","steam_id":85568392924469998,"keywords":["cp","nocrits","nodmgspread","uncletopia"],"game_id":440,"stv_port":27026,"stv_name":"Uncletopia | Seattle | 2 | All Maps | STV","players":null},{"server_id":406,"name":"Uncletopia | Seattle | 3 | Stopwatch","name_short":"sea-3","host":"sea-1.us.uncletopia.com","port":27035,"enabled":true,"region":"us-west","cc":"us","latitude":47.608013,"longitude":-122.33517,"reserved":0,"last_update":"0001-01-01T00:00:00Z","name_a2s":"Uncletopia | Seattle | 3 | Stopwatch","protocol":17,"map":"pl_pier","folder":"tf","game":"Team Fortress","app_id":440,"player_count":0,"max_players":24,"Bots":0,"server_type":"Dedicated","server_os":"Linux","password":true,"vac":true,"version":"7961495","steam_id":85568392924515217,"keywords":["nocrits","nodmgspread","payload","uncletopia"],"game_id":440,"stv_port":27036,"stv_name":"Uncletopia | Seattle | 3 | Stopwatch | STV","players":null},{"server_id":17,"name":"Uncletopia | San Francisco | 1 | All Maps","name_short":"sfo-1","host":"sfo-1.us.uncletopia.com","port":27015,"enabled":true,"region":"us-west","cc":"us","latitude":37.77397,"longitude":-122.4313,"reserved":0,"last_update":"0001-01-01T00:00:00Z","name_a2s":"Uncletopia | San Francisco | 1 | All Maps","protocol":17,"map":"cp_snakewater_final1","folder":"tf","game":"Team Fortress","app_id":440,"player_count":2,"max_players":24,"Bots":0,"server_type":"Dedicated","server_os":"Linux","password":true,"vac":true,"version":"7961495","steam_id":85568392924469999,"keywords":["cp","nocrits","nodmgspread","uncletopia"],"game_id":440,"stv_port":27016,"stv_name":"Uncletopia | San Francisco | 1 | All Maps | STV","players":[{"user_id":22,"name":"SoupDelivery","steam_id":76561198064906818,"connected_time":146000000000,"state":"active","ping":86},{"user_id":23,"name":"The Greedy Grinner","steam_id":76561198124964175,"connected_time":26000000000,"state":"active","ping":59}]},{"server_id":18,"name":"Uncletopia | San Francisco | 2 | All Maps","name_short":"sfo-2","host":"sfo-1.us.uncletopia.com","port":27025,"enabled":true,"region":"us-west","cc":"us","latitude":37.77397,"longitude":-122.4313,"reserved":0,"last_update":"0001-01-01T00:00:00Z","name_a2s":"Uncletopia | San Francisco | 2 | All Maps","protocol":17,"map":"pl_upward","folder":"tf","game":"Team Fortress","app_id":440,"player_count":24,"max_players":24,"Bots":0,"server_type":"Dedicated","server_os":"Linux","password":true,"vac":true,"version":"7961495","steam_id":85568392924470000,"keywords":["nocrits","nodmgspread","payload","uncletopia"],"game_id":440,"stv_port":27026,"stv_name":"Uncletopia | San Francisco | 2 | All Maps | STV","players":[{"user_id":44,"name":"Dullahan","steam_id":76561198119668908,"connected_time":618000000000,"state":"active","ping":47},{"user_id":46,"name":"Brando","steam_id":76561198078306678,"connected_time":320000000000,"state":"active","ping":70},{"user_id":18,"name":"hellishBells","steam_id":76561199118782381,"connected_time":1502000000000,"state":"active","ping":117},{"user_id":8,"name":"summer ant","steam_id":76561198340389876,"connected_time":2569000000000,"state":"active","ping":70},{"user_id":23,"name":"Big Yoshi","steam_id":76561199160576376,"connected_time":1304000000000,"state":"active","ping":69},{"user_id":20,"name":"Laugh my Fucking Asimov","steam_id":76561198014446593,"connected_time":1424000000000,"state":"active","ping":81},{"user_id":45,"name":"5oc","steam_id":76561199196300397,"connected_time":617000000000,"state":"active","ping":71},{"user_id":15,"name":"Gwuf","steam_id":76561198091503282,"connected_time":1681000000000,"state":"active","ping":80},{"user_id":24,"name":"BitPieStudios","steam_id":76561198059216393,"connected_time":1292000000000,"state":"active","ping":50},{"user_id":25,"name":"imng","steam_id":76561198014988031,"connected_time":1208000000000,"state":"active","ping":108},{"user_id":26,"name":"bubbles","steam_id":76561198040940902,"connected_time":1160000000000,"state":"active","ping":44},{"user_id":27,"name":"Captain Buggy","steam_id":76561198024444448,"connected_time":1147000000000,"state":"active","ping":66},{"user_id":28,"name":"CombustibleToast","steam_id":76561198051358882,"connected_time":1145000000000,"state":"active","ping":100},{"user_id":29,"name":"match1stick","steam_id":76561199103743083,"connected_time":1085000000000,"state":"active","ping":42},{"user_id":30,"name":"Brody Yukin","steam_id":76561198084712019,"connected_time":1052000000000,"state":"active","ping":61},{"user_id":33,"name":"Pile of Spinach","steam_id":76561198043068841,"connected_time":1021000000000,"state":"active","ping":65},{"user_id":32,"name":"joe swanson gaming","steam_id":76561198179628679,"connected_time":1044000000000,"state":"active","ping":84},{"user_id":35,"name":"purple hatsune miku","steam_id":76561198108844158,"connected_time":984000000000,"state":"active","ping":69},{"user_id":38,"name":"FunnyGoomba","steam_id":76561198279865229,"connected_time":902000000000,"state":"active","ping":71},{"user_id":37,"name":"uzr","steam_id":76561198799343084,"connected_time":938000000000,"state":"active","ping":58},{"user_id":48,"name":"tumoronmynuts","steam_id":76561198372676773,"connected_time":191000000000,"state":"active","ping":88},{"user_id":40,"name":"Circuit Spark","steam_id":76561198832124473,"connected_time":877000000000,"state":"active","ping":128},{"user_id":51,"name":"Laventhey","steam_id":76561198977523626,"connected_time":0,"state":"spawning","ping":28},{"user_id":50,"name":"mexen","steam_id":76561198104415164,"connected_time":143000000000,"state":"active","ping":98}]},{"server_id":19,"name":"Uncletopia | San Francisco | 3 | Stopwatch","name_short":"sfo-3","host":"sfo-1.us.uncletopia.com","port":27035,"enabled":true,"region":"us-west","cc":"us","latitude":37.77397,"longitude":-122.4313,"reserved":0,"last_update":"0001-01-01T00:00:00Z","name_a2s":"Uncletopia | San Francisco | 3 | Stopwatch","protocol":17,"map":"pl_swiftwater_final1","folder":"tf","game":"Team Fortress","app_id":440,"player_count":0,"max_players":24,"Bots":0,"server_type":"Dedicated","server_os":"Linux","password":true,"vac":true,"version":"7961495","steam_id":85568392924742824,"keywords":["nocrits","nodmgspread","payload","uncletopia"],"game_id":440,"stv_port":27036,"stv_name":"Uncletopia | San Francisco | 3 | Stopwatch | STV","players":null},{"server_id":20,"name":"Uncletopia | San Francisco | 4 | Community","name_short":"sfo-4","host":"sfo-1.us.uncletopia.com","port":27045,"enabled":true,"region":"us-west","cc":"us","latitude":37.77397,"longitude":-122.4313,"reserved":0,"last_update":"0001-01-01T00:00:00Z","name_a2s":"Uncletopia | San Francisco | 4 | Community","protocol":17,"map":"workshop/koth_synthetic_rc6a.ugc1549817316","folder":"tf","game":"Team Fortress","app_id":440,"player_count":0,"max_players":24,"Bots":0,"server_type":"Dedicated","server_os":"Linux","password":true,"vac":true,"version":"7961495","steam_id":85568392924742826,"keywords":["cp","nocrits","nodmgspread","uncletopia"],"game_id":440,"stv_port":27046,"stv_name":"Uncletopia | San Francisco | 4 | Community | STV","players":null},{"server_id":141,"name":"Uncletopia | Sydney | 1 | All Maps","name_short":"syd-1","host":"syd-1.au.uncletopia.com","port":27015,"enabled":true,"region":"au","cc":"au","latitude":-33.865143,"longitude":151.2099,"reserved":0,"last_update":"0001-01-01T00:00:00Z","name_a2s":"Uncletopia | Sydney | 1 | All Maps","protocol":17,"map":"ctf_2fort","folder":"tf","game":"Team Fortress","app_id":440,"player_count":0,"max_players":24,"Bots":0,"server_type":"Dedicated","server_os":"Linux","password":true,"vac":true,"version":"7961495","steam_id":85568392924470001,"keywords":["ctf","nocrits","nodmgspread","uncletopia"],"game_id":440,"stv_port":27016,"stv_name":"Uncletopia | Sydney | 1 | All Maps | STV","players":null},{"server_id":123,"name":"Uncletopia | Sydney | 2 | All Maps","name_short":"syd-2","host":"syd-1.au.uncletopia.com","port":27025,"enabled":true,"region":"au","cc":"au","latitude":-33.865143,"longitude":151.2099,"reserved":0,"last_update":"0001-01-01T00:00:00Z","name_a2s":"Uncletopia | Sydney | 2 | All Maps","protocol":17,"map":"ctf_2fort","folder":"tf","game":"Team Fortress","app_id":440,"player_count":0,"max_players":24,"Bots":0,"server_type":"Dedicated","server_os":"Linux","password":true,"vac":true,"version":"7961495","steam_id":85568392924470002,"keywords":["ctf","nocrits","nodmgspread","uncletopia"],"game_id":440,"stv_port":27026,"stv_name":"Uncletopia | Sydney | 2 | All Maps | STV","players":null},{"server_id":395,"name":"Uncletopia | Sydney | 3 | All Maps","name_short":"syd-3","host":"syd-1.au.uncletopia.com","port":27035,"enabled":true,"region":"au","cc":"au","latitude":-33.865143,"longitude":151.2099,"reserved":0,"last_update":"0001-01-01T00:00:00Z","name_a2s":"Uncletopia | Sydney | 3 | All Maps","protocol":17,"map":"ctf_2fort","folder":"tf","game":"Team Fortress","app_id":440,"player_count":0,"max_players":24,"Bots":0,"server_type":"Dedicated","server_os":"Linux","password":true,"vac":true,"version":"7961495","steam_id":85568392925194467,"keywords":["ctf","nocrits","nodmgspread","uncletopia"],"game_id":440,"stv_port":27036,"stv_name":"Uncletopia | Sydney | 3 | All Maps | STV","players":null},{"server_id":396,"name":"Uncletopia | Sydney | 4 | All Maps","name_short":"syd-4","host":"syd-1.au.uncletopia.com","port":27045,"enabled":true,"region":"au","cc":"au","latitude":-33.865143,"longitude":151.2099,"reserved":0,"last_update":"0001-01-01T00:00:00Z","name_a2s":"Uncletopia | Sydney | 4 | All Maps","protocol":17,"map":"pl_frontier_final","folder":"tf","game":"Team Fortress","app_id":440,"player_count":0,"max_players":24,"Bots":0,"server_type":"Dedicated","server_os":"Linux","password":true,"vac":true,"version":"7961495","steam_id":85568392925397958,"keywords":["nocrits","nodmgspread","payload","uncletopia"],"game_id":440,"stv_port":27046,"stv_name":"Uncletopia | Sydney | 4 | All Maps | STV","players":null},{"server_id":58,"name":"Uncletopia | Sydney | 5 | Stopwatch","name_short":"syd-5","host":"syd-1.au.uncletopia.com","port":27055,"enabled":true,"region":"au","cc":"au","latitude":-33.865143,"longitude":151.2099,"reserved":0,"last_update":"0001-01-01T00:00:00Z","name_a2s":"Uncletopia | Sydney | 5 | Stopwatch","protocol":17,"map":"pl_frontier_final","folder":"tf","game":"Team Fortress","app_id":440,"player_count":0,"max_players":24,"Bots":0,"server_type":"Dedicated","server_os":"Linux","password":true,"vac":true,"version":"7961495","steam_id":85568392925397959,"keywords":["nocrits","nodmgspread","payload","uncletopia"],"game_id":440,"stv_port":27056,"stv_name":"Uncletopia | Sydney | 5 | Stopwatch | STV","players":null},{"server_id":59,"name":"Uncletopia | Sydney | 6 | Community","name_short":"syd-6","host":"syd-1.au.uncletopia.com","port":27065,"enabled":true,"region":"au","cc":"au","latitude":-33.865143,"longitude":151.2099,"reserved":0,"last_update":"0001-01-01T00:00:00Z","name_a2s":"Uncletopia | Sydney | 6 | Community","protocol":17,"map":"cp_sunshine","folder":"tf","game":"Team Fortress","app_id":440,"player_count":0,"max_players":24,"Bots":0,"server_type":"Dedicated","server_os":"Linux","password":true,"vac":true,"version":"7961495","steam_id":85568392925397960,"keywords":["cp","nocrits","nodmgspread","uncletopia"],"game_id":440,"stv_port":27066,"stv_name":"Uncletopia | Sydney | 6 | Community | STV","players":null},{"server_id":49,"name":"Uncletopia | Warsaw | 1 | One Thousand Uncles","name_short":"waw-1","host":"waw-1.pl.uncletopia.com","port":27015,"enabled":true,"region":"eu","cc":"pl","latitude":52.2297,"longitude":21.017532,"reserved":0,"last_update":"0001-01-01T00:00:00Z","name_a2s":"Uncletopia | Warsaw | 1 | One Thousand Uncles","protocol":17,"map":"pl_chilly","folder":"tf","game":"Team Fortress","app_id":440,"player_count":0,"max_players":32,"Bots":0,"server_type":"Dedicated","server_os":"Linux","password":true,"vac":true,"version":"7961495","steam_id":85568392925397850,"keywords":["alltalk","danepve","increased_maxplayers","nocrits","norespawntime","payload","uncletopia"],"game_id":440,"stv_port":0,"stv_name":"","players":null},{"server_id":50,"name":"Uncletopia | Warsaw | 2 | One Thousand Uncles","name_short":"waw-2","host":"waw-1.pl.uncletopia.com","port":27025,"enabled":true,"region":"eu","cc":"pl","latitude":52.2297,"longitude":21.017532,"reserved":0,"last_update":"0001-01-01T00:00:00Z","name_a2s":"Uncletopia | Warsaw | 2 | One Thousand Uncles","protocol":17,"map":"cp_dustbowl","folder":"tf","game":"Team Fortress","app_id":440,"player_count":0,"max_players":32,"Bots":0,"server_type":"Dedicated","server_os":"Linux","password":true,"vac":true,"version":"7961495","steam_id":85568392925397851,"keywords":["alltalk","cp","danepve","increased_maxplayers","nocrits","norespawntime","uncletopia"],"game_id":440,"stv_port":0,"stv_name":"","players":null},{"server_id":51,"name":"Uncletopia | Warsaw | 3 | All Maps","name_short":"waw-3","host":"waw-1.pl.uncletopia.com","port":27035,"enabled":true,"region":"eu","cc":"pl","latitude":52.2297,"longitude":21.017532,"reserved":0,"last_update":"0001-01-01T00:00:00Z","name_a2s":"Uncletopia | Warsaw | 3 | All Maps","protocol":17,"map":"pl_badwater","folder":"tf","game":"Team Fortress","app_id":440,"player_count":0,"max_players":24,"Bots":0,"server_type":"Dedicated","server_os":"Linux","password":true,"vac":true,"version":"7961495","steam_id":85568392925397852,"keywords":["nocrits","nodmgspread","payload","uncletopia"],"game_id":440,"stv_port":27036,"stv_name":"Uncletopia | Warsaw | 3 | All Maps | STV","players":null},{"server_id":52,"name":"Uncletopia | Warsaw | 4 | All Maps","name_short":"waw-4","host":"waw-1.pl.uncletopia.com","port":27045,"enabled":true,"region":"eu","cc":"pl","latitude":52.2297,"longitude":21.017532,"reserved":0,"last_update":"0001-01-01T00:00:00Z","name_a2s":"Uncletopia | Warsaw | 4 | All Maps","protocol":17,"map":"ctf_2fort","folder":"tf","game":"Team Fortress","app_id":440,"player_count":0,"max_players":24,"Bots":0,"server_type":"Dedicated","server_os":"Linux","password":true,"vac":true,"version":"7961495","steam_id":85568392925397853,"keywords":["ctf","nocrits","nodmgspread","uncletopia"],"game_id":440,"stv_port":27046,"stv_name":"Uncletopia | Warsaw | 4 | All Maps | STV","players":null},{"server_id":53,"name":"Uncletopia | Warsaw | 5 | Stopwatch","name_short":"waw-5","host":"waw-1.pl.uncletopia.com","port":27055,"enabled":true,"region":"eu","cc":"pl","latitude":52.2297,"longitude":21.017532,"reserved":0,"last_update":"0001-01-01T00:00:00Z","name_a2s":"Uncletopia | Warsaw | 5 | Stopwatch","protocol":17,"map":"koth_lakeside_final","folder":"tf","game":"Team Fortress","app_id":440,"player_count":0,"max_players":24,"Bots":0,"server_type":"Dedicated","server_os":"Linux","password":true,"vac":true,"version":"7961495","steam_id":85568392925397854,"keywords":["cp","nocrits","nodmgspread","uncletopia"],"game_id":440,"stv_port":27056,"stv_name":"Uncletopia | Warsaw | 5 | Stopwatch | STV","players":null},{"server_id":54,"name":"Uncletopia | Warsaw | 6 | Community","name_short":"waw-6","host":"waw-1.pl.uncletopia.com","port":27065,"enabled":true,"region":"eu","cc":"pl","latitude":52.2297,"longitude":21.017532,"reserved":0,"last_update":"0001-01-01T00:00:00Z","name_a2s":"Uncletopia | Warsaw | 6 | Community","protocol":17,"map":"workshop/cp_propaganda_b18.ugc1603743849","folder":"tf","game":"Team Fortress","app_id":440,"player_count":0,"max_players":24,"Bots":0,"server_type":"Dedicated","server_os":"Linux","password":true,"vac":true,"version":"7961495","steam_id":85568392925397856,"keywords":["cp","nocrits","nodmgspread","uncletopia"],"game_id":440,"stv_port":27066,"stv_name":"Uncletopia | Warsaw | 6 | Community | STV","players":null}]}