{"status":true,"message":"","result":[{"server_id":9,"name":"Uncletopia | Atlanta | 1 | All Maps","name_short":"atl-1","host":"atl-1.us.uncletopia.com","port":27015,"enabled":true,"region":"us-east","cc":"us","latitude":33.753746,"longitude":-84.38633,"reserved":0,"last_update":"0001-01-01T00:00:00Z","name_a2s":"Uncletopia | Atlanta | 1 | All Maps","protocol":17,"map":"pl_frontier_final","folder":"tf","game":"Team Fortress","app_id":440,"player_count":25,"max_players":24,"Bots":0,"server_type":"Dedicated","server_os":"Linux","password":true,"vac":true,"version":"7708610","steam_id":85568392924469982,"keywords":["nocrits","nodmgspread","payload","uncletopia"],"game_id":440,"stv_port":27016,"stv_name":"Uncletopia | Atlanta | 1 | All Maps | STV","players":[{"user_id":3,"name":"Bunt","steam_id":76561198124477567,"connected_time":4515000000000,"state":"active","ping":37},{"user_id":31,"name":"chicken grease","steam_id":76561198075758026,"connected_time":2309000000000,"state":"active","ping":77},{"user_id":14,"name":"Ripe_and_ready","steam_id":76561198196128781,"connected_time":3147000000000,"state":"active","ping":54},{"user_id":58,"name":"Tommy Pickles (Very Cool)","steam_id":76561198391261463,"connected_time":11000000000,"state":"active","ping":102},{"user_id":57,"name":"Flexicus","steam_id":76561198041863013,"connected_time":29000000000,"state":"spawning","ping":112},{"user_id":20,"name":"Dura","steam_id":76561198334676366,"connected_time":2778000000000,"state":"active","ping":75},{"user_id":43,"name":"√íw√ì","steam_id":76561197997304387,"connected_time":1626000000000,"state":"active","ping":77},{"user_id":18,"name":"kuma 6AM","steam_id":76561198353566097,"connected_time":2911000000000,"state":"active","ping":104},{"user_id":19,"name":"Medical Asshat","steam_id":76561198004584315,"connected_time":2868000000000,"state":"active","ping":88},{"user_id":45,"name":"Dot.","steam_id":76561198149463984,"connected_time":1584000000000,"state":"active","ping":58},{"user_id":22,"name":"_Pai","steam_id":76561198108196753,"connected_time":2599000000000,"state":"active","ping":95},{"user_id":47,"name":"Rockgraham101","steam_id":76561198171740458,"connected_time":1183000000000,"state":"active","ping":66},{"user_id":24,"name":"Demianeithor","steam_id":76561198800036537,"connected_time":2593000000000,"state":"active","ping":88},{"user_id":54,"name":"Lost (14)","steam_id":76561198093713427,"connected_time":205000000000,"state":"active","ping":90},{"user_id":27,"name":"clocktor_32","steam_id":76561199383952881,"connected_time":2507000000000,"state":"active","ping":280},{"user_id":32,"name":"mexfrag.4 life","steam_id":76561198175961598,"connected_time":2268000000000,"state":"active","ping":111},{"user_id":44,"name":"GARGANTUAN HOG","steam_id":76561198079923652,"connected_time":1608000000000,"state":"active","ping":71},{"user_id":52,"name":"ATL1 | Lancer Fan Club","steam_id":76561198355495948,"connected_time":866000000000,"state":"active","ping":84},{"user_id":34,"name":"rose #LeanSippa","steam_id":76561198048882285,"connected_time":2239000000000,"state":"active","ping":65},{"user_id":42,"name":"Petey","steam_id":76561198007339151,"connected_time":1819000000000,"state":"active","ping":90},{"user_id":36,"name":"Squid121","steam_id":76561198038832034,"connected_time":2194000000000,"state":"active","ping":106},{"user_id":53,"name":"Hannah \u003c3","steam_id":76561199412168016,"connected_time":686000000000,"state":"active","ping":111},{"user_id":39,"name":"MOMMY HOG","steam_id":76561199230929836,"connected_time":2158000000000,"state":"active","ping":88},{"user_id":41,"name":"Souper Scott","steam_id":76561198045518926,"connected_time":1901000000000,"state":"active","ping":75},{"user_id":60,"name":"Swoletard","steam_id":76561198074212758,"connected_time":1000000000,"state":"spawning","ping":74}]},{"server_id":400,"name":"Uncletopia | Atlanta | 3 | All Maps","name_short":"atl-3","host":"atl-1.us.uncletopia.com","port":27035,"enabled":true,"region":"us-east","cc":"us","latitude":33.753746,"longitude":-84.38633,"reserved":0,"last_update":"0001-01-01T00:00:00Z","name_a2s":"Uncletopia | Atlanta | 3 | All Maps","protocol":17,"map":"cp_altitude","folder":"tf","game":"Team Fortress","app_id":440,"player_count":0,"max_players":24,"Bots":0,"server_type":"Dedicated","server_os":"Linux","password":true,"vac":true,"version":"7708610","steam_id":85568392924515187,"keywords":["cp","nocrits","nodmgspread","uncletopia"],"game_id":440,"stv_port":27036,"stv_name":"Uncletopia | Atlanta | 3 | All Maps | STV","players":null},{"server_id":401,"name":"Uncletopia | Atlanta | 4 | No Payload","name_short":"atl-4","host":"atl-1.us.uncletopia.com","port":27045,"enabled":true,"region":"us-east","cc":"us","latitude":33.753746,"longitude":-84.38633,"reserved":0,"last_update":"0001-01-01T00:00:00Z","name_a2s":"Uncletopia | Atlanta | 4 | No Payload","protocol":17,"map":"koth_cascade","folder":"tf","game":"Team Fortress","app_id":440,"player_count":0,"max_players":24,"Bots":0,"server_type":"Dedicated","server_os":"Linux","password":true,"vac":true,"version":"7708610","steam_id":85568392924515188,"keywords":["cp","nocrits","nodmgspread","uncletopia"],"game_id":440,"stv_port":27046,"stv_name":"Uncletopia | Atlanta | 4 | No Payload | STV","players":null},{"server_id":2,"name":"Uncletopia | Chicago | 1 | All Maps","name_short":"chi-1","host":"chi-1.us.uncletopia.com","port":27015,"enabled":true,"region":"us-central","cc":"us","latitude":41.881832,"longitude":-87.62318,"reserved":0,"last_update":"0001-01-01T00:00:00Z","name_a2s":"Uncletopia | Chicago | 1 | All Maps","protocol":17,"map":"plr_hightower","folder":"tf","game":"Team Fortress","app_id":440,"player_count":9,"max_players":24,"Bots":0,"server_type":"Dedicated","server_os":"Linux","password":true,"vac":true,"version":"7708610","steam_id":85568392924469984,"keywords":["nocrits","nodmgspread","payload","uncletopia"],"game_id":440,"stv_port":27016,"stv_name":"Uncletopia | Chicago | 1 | All Maps | STV","players":[{"user_id":92,"name":"Drachma","steam_id":76561198007310514,"connected_time":823000000000,"state":"active","ping":66},{"user_id":99,"name":"AFishyDoctor","steam_id":76561199438198414,"connected_time":172000000000,"state":"active","ping":74},{"user_id":95,"name":"How2getgood","steam_id":76561199031303306,"connected_time":603000000000,"state":"active","ping":153},{"user_id":82,"name":"DavidB","steam_id":76561198045916255,"connected_time":1534000000000,"state":"active","ping":60},{"user_id":96,"name":"CampMaster49","steam_id":76561198353096926,"connected_time":592000000000,"state":"active","ping":179},{"user_id":98,"name":"Mozz","steam_id":76561198132892873,"connected_time":392000000000,"state":"active","ping":91},{"user_id":100,"name":"Gribbith","steam_id":76561198067836309,"connected_time":130000000000,"state":"active","ping":58},{"user_id":101,"name":"froggy","steam_id":76561199261072870,"connected_time":124000000000,"state":"active","ping":106},{"user_id":22,"name":"Tathbubs","steam_id":76561198096891921,"connected_time":4546000000000,"state":"active","ping":69}]},{"server_id":106,"name":"Uncletopia | Chicago | 2 | All Maps","name_short":"chi-2","host":"chi-1.us.uncletopia.com","port":27025,"enabled":true,"region":"us-central","cc":"us","latitude":41.881832,"longitude":-87.62318,"reserved":0,"last_update":"0001-01-01T00:00:00Z","name_a2s":"Uncletopia | Chicago | 2 | All Maps","protocol":17,"map":"pl_borneo","folder":"tf","game":"Team Fortress","app_id":440,"player_count":0,"max_players":24,"Bots":0,"server_type":"Dedicated","server_os":"Linux","password":true,"vac":true,"version":"7708610","steam_id":85568392924469985,"keywords":["nocrits","nodmgspread","payload","uncletopia"],"game_id":440,"stv_port":27026,"stv_name":"Uncletopia | Chicago | 2 | All Maps | STV","players":null},{"server_id":402,"name":"Uncletopia | Chicago | 3 | All Maps","name_short":"chi-3","host":"chi-1.us.uncletopia.com","port":27035,"enabled":true,"region":"us-central","cc":"us","latitude":41.881832,"longitude":-87.62318,"reserved":0,"last_update":"0001-01-01T00:00:00Z","name_a2s":"Uncletopia | Chicago | 3 | All Maps","protocol":17,"map":"koth_cascade","folder":"tf","game":"Team Fortress","app_id":440,"player_count":0,"max_players":24,"Bots":0,"server_type":"Dedicated","server_os":"Linux","password":true,"vac":true,"version":"7708610","steam_id":85568392924515191,"keywords":["cp","nocrits","nodmgspread","uncletopia"],"game_id":440,"stv_port":27036,"stv_name":"Uncletopia | Chicago | 3 | All Maps | STV","players":null},{"server_id":403,"name":"Uncletopia | Chicago | 4 | All Maps","name_short":"chi-4","host":"chi-1.us.uncletopia.com","port":27045,"enabled":true,"region":"us-central","cc":"us","latitude":41.881832,"longitude":-87.62318,"reserved":0,"last_update":"0001-01-01T00:00:00Z","name_a2s":"Uncletopia | Chicago | 4 | All Maps","protocol":17,"map":"cp_process_final","folder":"tf","game":"Team Fortress","app_id":440,"player_count":0,"max_players":24,"Bots":0,"server_type":"Dedicated","server_os":"Linux","password":true,"vac":true,"version":"7708610","steam_id":85568392924515193,"keywords":["cp","nocrits","nodmgspread","uncletopia"],"game_id":440,"stv_port":27046,"stv_name":"Uncletopia | Chicago | 4 | All Maps | STV","players":null},{"server_id":36,"name":"Uncletopia | Chicago | 5 | All Maps","name_short":"chi-5","host":"chi-2.us.uncletopia.com","port":27015,"enabled":true,"region":"us-central","cc":"us","latitude":41.881832,"longitude":-87.62318,"reserved":0,"last_update":"0001-01-01T00:00:00Z","name_a2s":"Uncletopia | Chicago | 5 | All Maps","protocol":17,"map":"pl_swiftwater_final1","folder":"tf","game":"Team Fortress","app_id":440,"player_count":0,"max_players":24,"Bots":0,"server_type":"Dedicated","server_os":"Linux","password":true,"vac":true,"version":"7708610","steam_id":85568392924866362,"keywords":["nocrits","nodmgspread","payload","uncletopia"],"game_id":440,"stv_port":27016,"stv_name":"Uncletopia | Chicago | 5 | All Maps | STV","players":null},{"server_id":37,"name":"Uncletopia | Chicago | 6 | All Maps","name_short":"chi-6","host":"chi-2.us.uncletopia.com","port":27025,"enabled":true,"region":"us-central","cc":"us","latitude":41.881832,"longitude":-87.62318,"reserved":0,"last_update":"0001-01-01T00:00:00Z","name_a2s":"Uncletopia | Chicago | 6 | All Maps","protocol":17,"map":"pl_swiftwater_final1","folder":"tf","game":"Team Fortress","app_id":440,"player_count":0,"max_players":24,"Bots":0,"server_type":"Dedicated","server_os":"Linux","password":true,"vac":true,"version":"7708610","steam_id":85568392924866363,"keywords":["nocrits","nodmgspread","payload","uncletopia"],"game_id":440,"stv_port":27026,"stv_name":"Uncletopia | Chicago | 6 | All Maps | STV","players":null},{"server_id":38,"name":"Uncletopia | Chicago | 7 | No Payload","name_short":"chi-7","host":"chi-2.us.uncletopia.com","port":27035,"enabled":true,"region":"us-central","cc":"us","latitude":41.881832,"longitude":-87.62318,"reserved":0,"last_update":"0001-01-01T00:00:00Z","name_a2s":"Uncletopia | Chicago | 7 | No Payload","protocol":17,"map":"koth_highpass","folder":"tf","game":"Team Fortress","app_id":440,"player_count":0,"max_players":24,"Bots":0,"server_type":"Dedicated","server_os":"Linux","password":true,"vac":true,"version":"7708610","steam_id":85568392924866364,"keywords":["cp","nocrits","nodmgspread","uncletopia"],"game_id":440,"stv_port":27036,"stv_name":"Uncletopia | Chicago | 7 | No Payload | STV","players":null},{"server_id":39,"name":"Uncletopia | Chicago | 8 | Community","name_short":"chi-8","host":"chi-2.us.uncletopia.com","port":27045,"enabled":true,"region":"us-central","cc":"us","latitude":41.881832,"longitude":-87.62318,"reserved":0,"last_update":"0001-01-01T00:00:00Z","name_a2s":"Uncletopia | Chicago | 8 | Community","protocol":17,"map":"koth_cascade","folder":"tf","game":"Team Fortress","app_id":440,"player_count":0,"max_players":24,"Bots":0,"server_type":"Dedicated","server_os":"Linux","password":true,"vac":true,"version":"7708610","steam_id":85568392924866365,"keywords":["cp","nocrits","nodmgspread","uncletopia"],"game_id":440,"stv_port":27046,"stv_name":"Uncletopia | Chicago | 8 | Community | STV","players":null},{"server_id":8,"name":"Uncletopia | Dallas | 1 | All Maps","name_short":"dal-1","host":"dal-1.us.uncletopia.com","port":27015,"enabled":true,"region":"us-central","cc":"us","latitude":32.779167,"longitude":-96.80889,"reserved":0,"last_update":"0001-01-01T00:00:00Z","name_a2s":"Uncletopia | Dallas | 1 | All Maps","protocol":17,"map":"cp_dustbowl","folder":"tf","game":"Team Fortress","app_id":440,"player_count":0,"max_players":24,"Bots":0,"server_type":"Dedicated","server_os":"Linux","password":true,"vac":true,"version":"7708610","steam_id":85568392924469986,"keywords":["cp","nocrits","nodmgspread","uncletopia"],"game_id":440,"stv_port":27016,"stv_name":"Uncletopia | Dallas | 1 | All Maps | STV","players":null},{"server_id":108,"name":"Uncletopia | Dallas | 2 | All Maps","name_short":"dal-2","host":"dal-1.us.uncletopia.com","port":27025,"enabled":true,"region":"us-central","cc":"us","latitude":32.779167,"longitude":-96.80889,"reserved":0,"last_update":"0001-01-01T00:00:00Z","name_a2s":"Uncletopia | Dallas | 2 | All Maps","protocol":17,"map":"koth_highpass","folder":"tf","game":"Team Fortress","app_id":440,"player_count":0,"max_players":24,"Bots":0,"server_type":"Dedicated","server_os":"Linux","password":true,"vac":true,"version":"7708610","steam_id":85568392924469988,"keywords":["cp","nocrits","nodmgspread","uncletopia"],"game_id":440,"stv_port":27026,"stv_name":"Uncletopia | Dallas | 2 | All Maps | STV","players":null},{"server_id":5,"name":"Uncletopia | Frankfurt | 1 | All Maps","name_short":"frk-1","host":"frk-1.de.uncletopia.com","port":27015,"enabled":true,"region":"eu","cc":"de","latitude":50.110924,"longitude":8.682127,"reserved":0,"last_update":"0001-01-01T00:00:00Z","name_a2s":"Uncletopia | Frankfurt | 1 | All Maps","protocol":17,"map":"pl_badwater","folder":"tf","game":"Team Fortress","app_id":440,"player_count":24,"max_players":24,"Bots":0,"server_type":"Dedicated","server_os":"Linux","password":true,"vac":true,"version":"7708610","steam_id":85568392924469989,"keywords":["nocrits","nodmgspread","payload","uncletopia"],"game_id":440,"stv_port":27016,"stv_name":"Uncletopia | Frankfurt | 1 | All Maps | STV","players":[{"user_id":39,"name":"Montrose","steam_id":76561198338911736,"connected_time":2508000000000,"state":"active","ping":170},{"user_id":81,"name":"Hey, I¬¥m Andy!","steam_id":76561198060337777,"connected_time":254000000000,"state":"active","ping":59},{"user_id":80,"name":"Celty nii‚Äìchan","steam_id":76561199001431715,"connected_time":455000000000,"state":"active","ping":72},{"user_id":66,"name":"gungon","steam_id":76561199232442508,"connected_time":1202000000000,"state":"active","ping":75},{"user_id":82,"name":"Malin743","steam_id":76561198057290934,"connected_time":191000000000,"state":"active","ping":87},{"user_id":54,"name":"Cosmonaut","steam_id":76561198239514504,"connected_time":1818000000000,"state":"active","ping":53},{"user_id":43,"name":"Egap","steam_id":76561199070653454,"connected_time":2332000000000,"state":"active","ping":86},{"user_id":75,"name":"bola typu ≈õwiƒôta","steam_id":76561199145943588,"connected_time":524000000000,"state":"active","ping":71},{"user_id":61,"name":"ÈªíÁöáÂ∏ù / black emperor","steam_id":76561198980729208,"connected_time":1568000000000,"state":"active","ping":58},{"user_id":76,"name":"Mr.Schnittlauch","steam_id":76561198295868113,"connected_time":505000000000,"state":"active","ping":63},{"user_id":83,"name":"PWizard","steam_id":76561198026458489,"connected_time":191000000000,"state":"active","ping":87},{"user_id":64,"name":"tete","steam_id":76561198045222850,"connected_time":1251000000000,"state":"active","ping":78},{"user_id":69,"name":"Jingleboob's Elf","steam_id":76561198067204908,"connected_time":930000000000,"state":"active","ping":60},{"user_id":19,"name":"magras","steam_id":76561198972671525,"connected_time":3407000000000,"state":"active","ping":103},{"user_id":70,"name":"Solid","steam_id":76561198357049292,"connected_time":886000000000,"state":"active","ping":79},{"user_id":51,"name":"linkinparkfan123","steam_id":76561199033782005,"connected_time":2019000000000,"state":"active","ping":90},{"user_id":50,"name":"hushhx","steam_id":76561198216200092,"connected_time":2046000000000,"state":"active","ping":63},{"user_id":72,"name":"E_WM","steam_id":76561198283432737,"connected_time":611000000000,"state":"active","ping":97},{"user_id":85,"name":"Common polish hood dweller","steam_id":76561198126524735,"connected_time":19000000000,"state":"spawning","ping":89},{"user_id":56,"name":"adam","steam_id":76561198329591261,"connected_time":1733000000000,"state":"active","ping":61},{"user_id":77,"name":"My name is Spencer, Di Spencer","steam_id":76561198152697674,"connected_time":502000000000,"state":"active","ping":60},{"user_id":31,"name":"Mayor Wank from Wanker Town","steam_id":76561197998253588,"connected_time":3005000000000,"state":"active","ping":52},{"user_id":32,"name":"where is my egg?","steam_id":76561198172542535,"connected_time":2997000000000,"state":"active","ping":66},{"user_id":78,"name":"Polish Gym Rat","steam_id":76561198126398022,"connected_time":502000000000,"state":"active","ping":76}]},{"server_id":110,"name":"Uncletopia | Frankfurt | 2 | All Maps","name_short":"frk-2","host":"frk-1.de.uncletopia.com","port":27025,"enabled":true,"region":"eu","cc":"de","latitude":50.110924,"longitude":8.682127,"reserved":0,"last_update":"0001-01-01T00:00:00Z","name_a2s":"Uncletopia | Frankfurt | 2 | All Maps","protocol":17,"map":"pl_snowycoast","folder":"tf","game":"Team Fortress","app_id":440,"player_count":13,"max_players":24,"Bots":0,"server_type":"Dedicated","server_os":"Linux","password":true,"vac":true,"version":"7708610","steam_id":85568392924469990,"keywords":["nocrits","nodmgspread","payload","uncletopia"],"game_id":440,"stv_port":27026,"stv_name":"Uncletopia | Frankfurt | 2 | All Maps | STV","players":[{"user_id":13,"name":"Vischan but worse","steam_id":76561199371650805,"connected_time":345000000000,"state":"active","ping":74},{"user_id":4,"name":"garbage mikuknight","steam_id":76561198361819054,"connected_time":461000000000,"state":"active","ping":105},{"user_id":10,"name":"Nummi","steam_id":76561198980901935,"connected_time":397000000000,"state":"active","ping":83},{"user_id":15,"name":"d4cz","steam_id":76561199067358414,"connected_time":84000000000,"state":"active","ping":120},{"user_id":7,"name":"Idon'tknowhowtorocketjump","steam_id":76561199402987346,"connected_time":434000000000,"state":"active","ping":228},{"user_id":8,"name":"Graceful Jabberwocky","steam_id":76561199013504849,"connected_time":411000000000,"state":"active","ping":54},{"user_id":9,"name":"Wildfap","steam_id":76561198075816743,"connected_time":408000000000,"state":"active","ping":68},{"user_id":11,"name":"Û†Ä°Û†Ä°Û†Ä°Û†Ä°","steam_id":76561198882254503,"connected_time":385000000000,"state":"active","ping":60},{"user_id":12,"name":"snazyyy","steam_id":76561198143529110,"connected_time":371000000000,"state":"active","ping":45},{"user_id":14,"name":"Badrock 1","steam_id":76561198368513115,"connected_time":213000000000,"state":"active","ping":118},{"user_id":16,"name":"Meladoom2","steam_id":76561198086845387,"connected_time":18000000000,"state":"spawning","ping":89},{"user_id":17,"name":"Sedoy","steam_id":76561198390666516,"connected_time":10000000000,"state":"spawning","ping":89},{"user_id":18,"name":"Cobb Salads","steam_id":76561197971140507,"connected_time":6000000000,"state":"spawning","ping":59}]},{"server_id":308,"name":"Uncletopia | Frankfurt | 3 | All Maps","name_short":"frk-3","host":"frk-1.de.uncletopia.com","port":27035,"enabled":true,"region":"eu","cc":"de","latitude":50.110924,"longitude":8.682127,"reserved":0,"last_update":"0001-01-01T00:00:00Z","name_a2s":"Uncletopia | Frankfurt | 3 | All Maps","protocol":17,"map":"koth_highpass","folder":"tf","game":"Team Fortress","app_id":440,"player_count":0,"max_players":24,"Bots":0,"server_type":"Dedicated","server_os":"Linux","password":true,"vac":true,"version":"7708610","steam_id":85568392924504274,"keywords":["cp","nocrits","nodmgspread","uncletopia"],"game_id":440,"stv_port":27036,"stv_name":"Uncletopia | Frankfurt | 3 | All Maps | STV","players":null},{"server_id":309,"name":"Uncletopia | Frankfurt | 4 | All Maps","name_short":"frk-4","host":"frk-1.de.uncletopia.com","port":27045,"enabled":true,"region":"eu","cc":"de","latitude":50.110924,"longitude":8.682127,"reserved":0,"last_update":"0001-01-01T00:00:00Z","name_a2s":"Uncletopia | Frankfurt | 4 | All Maps","protocol":17,"map":"pl_upward","folder":"tf","game":"Team Fortress","app_id":440,"player_count":0,"max_players":24,"Bots":0,"server_type":"Dedicated","server_os":"Linux","password":true,"vac":true,"version":"7708610","steam_id":85568392924504275,"keywords":["nocrits","nodmgspread","payload","uncletopia"],"game_id":440,"stv_port":27046,"stv_name":"Uncletopia | Frankfurt | 4 | All Maps | STV","players":null},{"server_id":310,"name":"Uncletopia | Frankfurt | 5 | All Maps","name_short":"frk-5","host":"frk-1.de.uncletopia.com","port":27055,"enabled":true,"region":"eu","cc":"de","latitude":50.110924,"longitude":8.682127,"reserved":0,"last_update":"0001-01-01T00:00:00Z","name_a2s":"Uncletopia | Frankfurt | 5 | All Maps","protocol":17,"map":"cp_mountainlab","folder":"tf","game":"Team Fortress","app_id":440,"player_count":0,"max_players":24,"Bots":0,"server_type":"Dedicated","server_os":"Linux","password":true,"vac":true,"version":"7708610","steam_id":85568392924504277,"keywords":["cp","nocrits","nodmgspread","uncletopia"],"game_id":440,"stv_port":27056,"stv_name":"Uncletopia | Frankfurt | 5 | All Maps | STV","players":null},{"server_id":311,"name":"Uncletopia | Frankfurt | 6 | All Maps","name_short":"frk-6","host":"frk-1.de.uncletopia.com","port":27065,"enabled":true,"region":"eu","cc":"de","latitude":50.110924,"longitude":8.682127,"reserved":0,"last_update":"0001-01-01T00:00:00Z","name_a2s":"Uncletopia | Frankfurt | 6 | All Maps","protocol":17,"map":"pl_pier","folder":"tf","game":"Team Fortress","app_id":440,"player_count":0,"max_players":24,"Bots":0,"server_type":"Dedicated","server_os":"Linux","password":true,"vac":true,"version":"7708610","steam_id":85568392924504278,"keywords":["nocrits","nodmgspread","payload","uncletopia"],"game_id":440,"stv_port":27066,"stv_name":"Uncletopia | Frankfurt | 6 | All Maps | STV","players":null},{"server_id":23,"name":"Uncletopia | Frankfurt | 7 | No Payload","name_short":"frk-7","host":"frk-1.de.uncletopia.com","port":27075,"enabled":true,"region":"eu","cc":"de","latitude":50.110924,"longitude":8.682127,"reserved":0,"last_update":"0001-01-01T00:00:00Z","name_a2s":"Uncletopia | Frankfurt | 7 | No Payload","protocol":17,"map":"koth_viaduct","folder":"tf","game":"Team Fortress","app_id":440,"player_count":0,"max_players":24,"Bots":0,"server_type":"Dedicated","server_os":"Linux","password":true,"vac":true,"version":"7708610","steam_id":85568392924742827,"keywords":["cp","nocrits","nodmgspread","uncletopia"],"game_id":440,"stv_port":27076,"stv_name":"Uncletopia | Frankfurt | 7 | No Payload | STV","players":null},{"server_id":24,"name":"Uncletopia | Frankfurt | 8 | Community","name_short":"frk-8","host":"frk-1.de.uncletopia.com","port":27085,"enabled":true,"region":"eu","cc":"de","latitude":50.110924,"longitude":8.682127,"reserved":0,"last_update":"0001-01-01T00:00:00Z","name_a2s":"Uncletopia | Frankfurt | 8 | Community","protocol":17,"map":"workshop/cp_logjam_rc12.ugc454812035","folder":"tf","game":"Team Fortress","app_id":440,"player_count":24,"max_players":24,"Bots":0,"server_type":"Dedicated","server_os":"Linux","password":true,"vac":true,"version":"7708610","steam_id":85568392924742828,"keywords":["cp","nocrits","nodmgspread","uncletopia"],"game_id":440,"stv_port":27086,"stv_name":"Uncletopia | Frankfurt | 8 | Community | STV","players":[{"user_id":3,"name":"fried","steam_id":76561198307522022,"connected_time":3032000000000,"state":"active","ping":54},{"user_id":41,"name":"Duda","steam_id":76561198306177608,"connected_time":652000000000,"state":"active","ping":70},{"user_id":5,"name":"Rabbit","steam_id":76561198254566214,"connected_time":2847000000000,"state":"active","ping":109},{"user_id":6,"name":"BitToBot","steam_id":76561198124080817,"connected_time":2779000000000,"state":"active","ping":48},{"user_id":29,"name":"jker","steam_id":76561198816714058,"connected_time":1172000000000,"state":"active","ping":122},{"user_id":27,"name":"–î–µ–Ω–∏—Å –ë–∞–∑—É–∫–∞","steam_id":76561198835849082,"connected_time":1234000000000,"state":"active","ping":104},{"user_id":12,"name":"Oceanic | tuesday maybe","steam_id":76561197979741827,"connected_time":2158000000000,"state":"active","ping":58},{"user_id":49,"name":"Fat Pigeon","steam_id":76561198817940142,"connected_time":449000000000,"state":"active","ping":55},{"user_id":45,"name":"=Xal=","steam_id":76561198052622095,"connected_time":619000000000,"state":"active","ping":64},{"user_id":16,"name":"aytacdemirel","steam_id":76561199443845369,"connected_time":1585000000000,"state":"active","ping":107},{"user_id":17,"name":"Zach #SaveTF2","steam_id":76561198336885684,"connected_time":1552000000000,"state":"active","ping":76},{"user_id":47,"name":"40 fps 120 ms","steam_id":76561199216923710,"connected_time":552000000000,"state":"active","ping":133},{"user_id":19,"name":"Delab Le Fou","steam_id":76561198846356572,"connected_time":1430000000000,"state":"active","ping":85},{"user_id":34,"name":"Qatuk","steam_id":76561198857696199,"connected_time":1072000000000,"state":"active","ping":65},{"user_id":48,"name":"Klonky","steam_id":76561199068329886,"connected_time":537000000000,"state":"active","ping":63},{"user_id":22,"name":"üí™ UL7RA üëå","steam_id":76561198051993563,"connected_time":1297000000000,"state":"active","ping":64},{"user_id":24,"name":"kirya.pototskiy.07","steam_id":76561199438516410,"connected_time":1271000000000,"state":"active","ping":130},{"user_id":50,"name":"M2rtRa","steam_id":76561198111036466,"connected_time":399000000000,"state":"active","ping":76},{"user_id":31,"name":"Milosz52","steam_id":76561199060940204,"connected_time":1115000000000,"state":"active","ping":82},{"user_id":30,"name":"–£—Ç–∏–ª–∏–∑–∞—Ç–æ—Ä","steam_id":76561198001490104,"connected_time":1144000000000,"state":"active","ping":92},{"user_id":33,"name":"JackFighter","steam_id":76561198032798785,"connected_time":1097000000000,"state":"active","ping":77},{"user_id":42,"name":"BobaWorry","steam_id":76561198080695714,"connected_time":636000000000,"state":"active","ping":124},{"user_id":44,"name":"Sniper","steam_id":76561198414175953,"connected_time":628000000000,"state":"active","ping":69},{"user_id":37,"name":"SelfCheckout","steam_id":76561199161864255,"connected_time":1055000000000,"state":"active","ping":54}]},{"server_id":202,"name":"Uncletopia | Hong Kong | 1 | All Maps","name_short":"hgk-1","host":"hgk-1.hk.uncletopia.com","port":27015,"enabled":true,"region":"asia","cc":"hk","latitude":22.302711,"longitude":114.177216,"reserved":0,"last_update":"0001-01-01T00:00:00Z","name_a2s":"Uncletopia | Hong Kong | 1 | All Maps","protocol":17,"map":"pl_pier","folder":"tf","game":"Team Fortress","app_id":440,"player_count":24,"max_players":24,"Bots":0,"server_type":"Dedicated","server_os":"Linux","password":true,"vac":true,"version":"7708610","steam_id":85568392924494504,"keywords":["nocrits","nodmgspread","payload","uncletopia"],"game_id":440,"stv_port":27016,"stv_name":"Uncletopia | Hong Kong | 1 | All Maps | STV","players":[{"user_id":58,"name":"nick","steam_id":76561198400698408,"connected_time":2884000000000,"state":"active","ping":89},{"user_id":77,"name":"Dunce","steam_id":76561198097350308,"connected_time":716000000000,"state":"active","ping":83},{"user_id":81,"name":"Telekhine","steam_id":76561198387120618,"connected_time":487000000000,"state":"active","ping":56},{"user_id":68,"name":"Momoxhien","steam_id":76561198414997429,"connected_time":1265000000000,"state":"active","ping":63},{"user_id":7,"name":"AmaiToxic","steam_id":76561199122491157,"connected_time":5942000000000,"state":"active","ping":76},{"user_id":67,"name":"Nose Yogurt","steam_id":76561198877713016,"connected_time":1346000000000,"state":"active","ping":104},{"user_id":82,"name":"unoriginalname42","steam_id":76561199200897735,"connected_time":429000000000,"state":"active","ping":61},{"user_id":10,"name":"Noyour","steam_id":76561198323259830,"connected_time":5941000000000,"state":"active","ping":111},{"user_id":80,"name":"Flox","steam_id":76561199387155373,"connected_time":523000000000,"state":"active","ping":68},{"user_id":83,"name":"ogey","steam_id":76561198074339034,"connected_time":412000000000,"state":"active","ping":76},{"user_id":84,"name":"EXELL is dumb","steam_id":76561199053777677,"connected_time":325000000000,"state":"active","ping":74},{"user_id":64,"name":"the real is real!!!!!!","steam_id":76561198442507642,"connected_time":2152000000000,"state":"active","ping":78},{"user_id":76,"name":"tiden2000","steam_id":76561198092969425,"connected_time":921000000000,"state":"active","ping":69},{"user_id":47,"name":"Valwick","steam_id":76561199023028445,"connected_time":3366000000000,"state":"active","ping":47},{"user_id":85,"name":"i suck at this game","steam_id":76561199429882426,"connected_time":304000000000,"state":"active","ping":73},{"user_id":89,"name":"Ê≤°‰∫ÜÊ≤°‰∫ÜÔºå‰∏ÄÊª¥ÈÉΩÊ≤°‰∫Ü","steam_id":76561199131552087,"connected_time":62000000000,"state":"active","ping":135},{"user_id":79,"name":"niceguy6785","steam_id":76561199442589750,"connected_time":581000000000,"state":"active","ping":78},{"user_id":54,"name":"Shporgalka Nope","steam_id":76561198415276065,"connected_time":2993000000000,"state":"active","ping":180},{"user_id":87,"name":"Rocketmaster","steam_id":76561198291383989,"connected_time":187000000000,"state":"active","ping":120},{"user_id":70,"name":"Simoframe","steam_id":76561199111778304,"connected_time":1177000000000,"state":"active","ping":71},{"user_id":88,"name":"clems17","steam_id":76561199420685482,"connected_time":182000000000,"state":"active","ping":295},{"user_id":90,"name":"The Return of Wolfie","steam_id":76561198264237939,"connected_time":27000000000,"state":"active","ping":133},{"user_id":41,"name":"Crippling Depression","steam_id":76561199198723894,"connected_time":3975000000000,"state":"active","ping":98},{"user_id":60,"name":"CosmoLighting101","steam_id":76561199217309000,"connected_time":2774000000000,"state":"active","ping":65}]},{"server_id":1,"name":"Uncletopia | Los Angeles | 1 | All Maps","name_short":"lax-1","host":"lax-1.us.uncletopia.com","port":27015,"enabled":true,"region":"us-west","cc":"us","latitude":33.94279,"longitude":-118.41004,"reserved":0,"last_update":"0001-01-01T00:00:00Z","name_a2s":"Uncletopia | Los Angeles | 1 | All Maps","protocol":17,"map":"cp_snakewater_final1","folder":"tf","game":"Team Fortress","app_id":440,"player_count":0,"max_players":24,"Bots":0,"server_type":"Dedicated","server_os":"Linux","password":true,"vac":true,"version":"7708610","steam_id":85568392924469991,"keywords":["cp","nocrits","nodmgspread","uncletopia"],"game_id":440,"stv_port":27016,"stv_name":"Uncletopia | Los Angeles | 1 | All Maps | STV","players":null},{"server_id":112,"name":"Uncletopia | Los Angeles | 2 | All Maps","name_short":"lax-2","host":"lax-1.us.uncletopia.com","port":27025,"enabled":true,"region":"us-west","cc":"us","latitude":33.94279,"longitude":-118.41004,"reserved":0,"last_update":"0001-01-01T00:00:00Z","name_a2s":"Uncletopia | Los Angeles | 2 | All Maps","protocol":17,"map":"cp_snakewater_final1","folder":"tf","game":"Team Fortress","app_id":440,"player_count":0,"max_players":24,"Bots":0,"server_type":"Dedicated","server_os":"Linux","password":true,"vac":true,"version":"7708610","steam_id":85568392924469992,"keywords":["cp","nocrits","nodmgspread","uncletopia"],"game_id":440,"stv_port":27026,"stv_name":"Uncletopia | Los Angeles | 2 | All Maps | STV","players":null},{"server_id":324,"name":"Uncletopia | Los Angeles | 3 | All Maps","name_short":"lax-3","host":"lax-1.us.uncletopia.com","port":27035,"enabled":true,"region":"us-west","cc":"us","latitude":33.94279,"longitude":-118.41004,"reserved":0,"last_update":"0001-01-01T00:00:00Z","name_a2s":"Uncletopia | Los Angeles | 3 | All Maps","protocol":17,"map":"cp_mountainlab","folder":"tf","game":"Team Fortress","app_id":440,"player_count":0,"max_players":24,"Bots":0,"server_type":"Dedicated","server_os":"Linux","password":true,"vac":true,"version":"7708610","steam_id":85568392924510198,"keywords":["cp","nocrits","nodmgspread","uncletopia"],"game_id":440,"stv_port":27036,"stv_name":"Uncletopia | Los Angeles | 3 | All Maps | STV","players":null},{"server_id":25,"name":"Uncletopia | Los Angeles | 4 | No Payload","name_short":"lax-4","host":"lax-1.us.uncletopia.com","port":27045,"enabled":true,"region":"us-west","cc":"us","latitude":33.94279,"longitude":-118.41004,"reserved":0,"last_update":"0001-01-01T00:00:00Z","name_a2s":"Uncletopia | Los Angeles | 4 | No Payload","protocol":17,"map":"koth_suijin","folder":"tf","game":"Team Fortress","app_id":440,"player_count":0,"max_players":24,"Bots":0,"server_type":"Dedicated","server_os":"Linux","password":true,"vac":true,"version":"7708610","steam_id":85568392924510199,"keywords":["cp","nocrits","nodmgspread","uncletopia"],"game_id":440,"stv_port":27046,"stv_name":"Uncletopia | Los Angeles | 4 | No Payload | STV","players":null},{"server_id":11,"name":"Uncletopia | London | 1 | All Maps","name_short":"lon-1","host":"lon-1.uk.uncletopia.com","port":27015,"enabled":true,"region":"eu","cc":"gb","latitude":51.509865,"longitude":-0.118092,"reserved":0,"last_update":"0001-01-01T00:00:00Z","name_a2s":"Uncletopia | London | 1 | All Maps","protocol":17,"map":"cp_well","folder":"tf","game":"Team Fortress","app_id":440,"player_count":24,"max_players":24,"Bots":0,"server_type":"Dedicated","server_os":"Linux","password":true,"vac":true,"version":"7708610","steam_id":85568392924367362,"keywords":["cp","nocrits","nodmgspread","uncletopia"],"game_id":440,"stv_port":27016,"stv_name":"Uncletopia | London | 1 | All Maps | STV","players":[{"user_id":49,"name":"ribs","steam_id":76561198354735240,"connected_time":2144000000000,"state":"active","ping":45},{"user_id":73,"name":"Fishum","steam_id":76561198148556559,"connected_time":519000000000,"state":"active","ping":47},{"user_id":5,"name":"Circular","steam_id":76561198001536710,"connected_time":4341000000000,"state":"active","ping":43},{"user_id":70,"name":"YC DruimZeus","steam_id":76561198975337889,"connected_time":864000000000,"state":"active","ping":51},{"user_id":52,"name":"dafydd","steam_id":76561198052200325,"connected_time":1799000000000,"state":"active","ping":87},{"user_id":8,"name":"night.s","steam_id":76561198326287823,"connected_time":4315000000000,"state":"active","ping":69},{"user_id":71,"name":"doodgie","steam_id":76561198264934115,"connected_time":862000000000,"state":"active","ping":44},{"user_id":11,"name":"Blob","steam_id":76561197971418993,"connected_time":4299000000000,"state":"active","ping":90},{"user_id":78,"name":"Intern","steam_id":76561198062744679,"connected_time":127000000000,"state":"active","ping":80},{"user_id":77,"name":"Feelin' Supersonic","steam_id":76561198005738407,"connected_time":165000000000,"state":"active","ping":88},{"user_id":80,"name":"üååLaironüíé | TF2MANNCO.NET","steam_id":76561199027733799,"connected_time":46000000000,"state":"active","ping":89},{"user_id":57,"name":"LieTuVis \u003c3","steam_id":76561198007709022,"connected_time":1209000000000,"state":"active","ping":69},{"user_id":53,"name":"Gryoss","steam_id":76561197999837111,"connected_time":1779000000000,"state":"active","ping":94},{"user_id":74,"name":"bass","steam_id":76561199074876192,"connected_time":447000000000,"state":"active","ping":83},{"user_id":81,"name":"I need a Mental Health Kobeni","steam_id":76561198032359132,"connected_time":4000000000,"state":"spawning","ping":45},{"user_id":56,"name":"When Life gives you Lemons","steam_id":76561198318290663,"connected_time":1524000000000,"state":"active","ping":57},{"user_id":41,"name":"Tomamo","steam_id":76561198258031112,"connected_time":3073000000000,"state":"active","ping":88},{"user_id":40,"name":"I Bleed Butter","steam_id":76561198130814770,"connected_time":3098000000000,"state":"active","ping":63},{"user_id":66,"name":"YC Moaker","steam_id":76561199243889890,"connected_time":916000000000,"state":"active","ping":58},{"user_id":44,"name":"The Imperial","steam_id":76561198374118102,"connected_time":2830000000000,"state":"active","ping":45},{"user_id":67,"name":"Fred","steam_id":76561198107137362,"connected_time":913000000000,"state":"active","ping":45},{"user_id":45,"name":"lulu","steam_id":76561199147764133,"connected_time":2569000000000,"state":"active","ping":69},{"user_id":76,"name":"123","steam_id":76561198113733477,"connected_time":270000000000,"state":"active","ping":46},{"user_id":68,"name":"YC Lacus","steam_id":76561199107625942,"connected_time":912000000000,"state":"active","ping":56}]},{"server_id":114,"name":"Uncletopia | London | 2 | All Maps","name_short":"lon-2","host":"lon-1.uk.uncletopia.com","port":27025,"enabled":true,"region":"eu","cc":"gb","latitude":51.509865,"longitude":-0.118092,"reserved":0,"last_update":"0001-01-01T00:00:00Z","name_a2s":"Uncletopia | London | 2 | All Maps","protocol":17,"map":"cp_snakewater_final1","folder":"tf","game":"Team Fortress","app_id":440,"player_count":0,"max_players":24,"Bots":0,"server_type":"Dedicated","server_os":"Linux","password":true,"vac":true,"version":"7708610","steam_id":85568392924470941,"keywords":["cp","nocrits","nodmgspread","uncletopia"],"game_id":440,"stv_port":27026,"stv_name":"Uncletopia | London | 2 | All Maps | STV","players":null},{"server_id":320,"name":"Uncletopia | London | 3 | All Maps","name_short":"lon-3","host":"lon-1.uk.uncletopia.com","port":27035,"enabled":true,"region":"eu","cc":"gb","latitude":51.509865,"longitude":-0.118092,"reserved":0,"last_update":"0001-01-01T00:00:00Z","name_a2s":"Uncletopia | London | 3 | All Maps","protocol":17,"map":"pl_borneo","folder":"tf","game":"Team Fortress","app_id":440,"player_count":24,"max_players":24,"Bots":0,"server_type":"Dedicated","server_os":"Linux","password":true,"vac":true,"version":"7708610","steam_id":85568392924510192,"keywords":["nocrits","nodmgspread","payload","uncletopia"],"game_id":440,"stv_port":27036,"stv_name":"Uncletopia | London | 3 | All Maps | STV","players":[{"user_id":8,"name":"homosexual gamer","steam_id":76561198079669270,"connected_time":2716000000000,"state":"active","ping":37},{"user_id":62,"name":"Takuri","steam_id":76561197961294806,"connected_time":65000000000,"state":"active","ping":61},{"user_id":36,"name":"kebab","steam_id":76561198839828270,"connected_time":1414000000000,"state":"active","ping":89},{"user_id":53,"name":"dunduu","steam_id":76561198875240717,"connected_time":512000000000,"state":"active","ping":75},{"user_id":51,"name":"Beb","steam_id":76561198106119248,"connected_time":541000000000,"state":"active","ping":55},{"user_id":14,"name":"Insegura?","steam_id":76561198211621756,"connected_time":1900000000000,"state":"active","ping":65},{"user_id":61,"name":"kaT","steam_id":76561198879664338,"connected_time":168000000000,"state":"active","ping":65},{"user_id":16,"name":"huge ball busting sneeze schemk","steam_id":76561198400406140,"connected_time":1821000000000,"state":"active","ping":45},{"user_id":32,"name":"PumpkinMan","steam_id":76561198929162354,"connected_time":1488000000000,"state":"active","ping":90},{"user_id":52,"name":"Duxxy","steam_id":76561198086796116,"connected_time":529000000000,"state":"active","ping":92},{"user_id":42,"name":"red square","steam_id":76561198295305088,"connected_time":1301000000000,"state":"active","ping":67},{"user_id":20,"name":"Car Gear","steam_id":76561199183213205,"connected_time":1767000000000,"state":"active","ping":47},{"user_id":34,"name":"lark","steam_id":76561198091724522,"connected_time":1471000000000,"state":"active","ping":56},{"user_id":43,"name":"fl1p","steam_id":76561198148565659,"connected_time":1287000000000,"state":"active","ping":69},{"user_id":23,"name":"ardaduck","steam_id":76561198092609064,"connected_time":1698000000000,"state":"active","ping":48},{"user_id":38,"name":"Umberto Bossi","steam_id":76561198136150267,"connected_time":1399000000000,"state":"active","ping":61},{"user_id":48,"name":"Wester","steam_id":76561198062486823,"connected_time":969000000000,"state":"active","ping":80},{"user_id":26,"name":"Cumbustible Punda #SaveTF2","steam_id":76561197974274677,"connected_time":1672000000000,"state":"active","ping":57},{"user_id":28,"name":"syla8215","steam_id":76561199007869949,"connected_time":1581000000000,"state":"active","ping":53},{"user_id":41,"name":"Average Tea Enjoyer","steam_id":76561199103785290,"connected_time":1348000000000,"state":"active","ping":93},{"user_id":56,"name":"–ò–Ω—Å–ø–µ–∫—Ç–æ—Ä –ê—Ç–∞—Å","steam_id":76561199175688390,"connected_time":458000000000,"state":"active","ping":84},{"user_id":35,"name":"raspberrisung","steam_id":76561198083030373,"connected_time":1464000000000,"state":"active","ping":68},{"user_id":49,"name":"ƒåika Kure","steam_id":76561199002244505,"connected_time":967000000000,"state":"active","ping":69},{"user_id":50,"name":"tuukka","steam_id":76561198890409949,"connected_time":744000000000,"state":"active","ping":131}]},{"server_id":321,"name":"Uncletopia | London | 4 | All Maps","name_short":"lon-4","host":"lon-1.uk.uncletopia.com","port":27045,"enabled":true,"region":"eu","cc":"gb","latitude":51.509865,"longitude":-0.118092,"reserved":0,"last_update":"0001-01-01T00:00:00Z","name_a2s":"Uncletopia | London | 4 | All Maps","protocol":17,"map":"cp_altitude","folder":"tf","game":"Team Fortress","app_id":440,"player_count":0,"max_players":24,"Bots":0,"server_type":"Dedicated","server_os":"Linux","password":true,"vac":true,"version":"7708610","steam_id":85568392924510193,"keywords":["cp","nocrits","nodmgspread","uncletopia"],"game_id":440,"stv_port":27046,"stv_name":"Uncletopia | London | 4 | All Maps | STV","players":null},{"server_id":21,"name":"Uncletopia | London | 5 | All Maps","name_short":"lon-5","host":"lon-1.uk.uncletopia.com","port":27055,"enabled":true,"region":"eu","cc":"gb","latitude":51.509865,"longitude":-0.118092,"reserved":0,"last_update":"0001-01-01T00:00:00Z","name_a2s":"Uncletopia | London | 5 | All Maps","protocol":17,"map":"cp_mountainlab","folder":"tf","game":"Team Fortress","app_id":440,"player_count":0,"max_players":24,"Bots":0,"server_type":"Dedicated","server_os":"Linux","password":true,"vac":true,"version":"7708610","steam_id":85568392924742829,"keywords":["cp","nocrits","nodmgspread","uncletopia"],"game_id":440,"stv_port":27056,"stv_name":"Uncletopia | London | 5 | All Maps | STV","players":null},{"server_id":22,"name":"Uncletopia | London | 6 | All Maps","name_short":"lon-6","host":"lon-1.uk.uncletopia.com","port":27065,"enabled":true,"region":"eu","cc":"gb","latitude":51.509865,"longitude":-0.118092,"reserved":0,"last_update":"0001-01-01T00:00:00Z","name_a2s":"Uncletopia | London | 6 | All Maps","protocol":17,"map":"cp_altitude","folder":"tf","game":"Team Fortress","app_id":440,"player_count":0,"max_players":24,"Bots":0,"server_type":"Dedicated","server_os":"Linux","password":true,"vac":true,"version":"7708610","steam_id":85568392924742830,"keywords":["cp","nocrits","nodmgspread","uncletopia"],"game_id":440,"stv_port":27066,"stv_name":"Uncletopia | London | 6 | All Maps | STV","players":null},{"server_id":40,"name":"Uncletopia | London | 7 | No Payload","name_short":"lon-7","host":"lon-1.uk.uncletopia.com","port":27075,"enabled":true,"region":"eu","cc":"gb","latitude":51.509865,"longitude":-0.118092,"reserved":0,"last_update":"0001-01-01T00:00:00Z","name_a2s":"Uncletopia | London | 7 | No Payload","protocol":17,"map":"koth_lakeside_final","folder":"tf","game":"Team Fortress","app_id":440,"player_count":0,"max_players":24,"Bots":0,"server_type":"Dedicated","server_os":"Linux","password":true,"vac":true,"version":"7708610","steam_id":85568392924964314,"keywords":["cp","nocrits","nodmgspread","uncletopia"],"game_id":440,"stv_port":27076,"stv_name":"Uncletopia | London | 7 | No Payload | STV","players":null},{"server_id":41,"name":"Uncletopia | London | 8 | Community","name_short":"lon-8","host":"lon-1.uk.uncletopia.com","port":27085,"enabled":true,"region":"eu","cc":"gb","latitude":51.509865,"longitude":-0.118092,"reserved":0,"last_update":"0001-01-01T00:00:00Z","name_a2s":"Uncletopia | London | 8 | Community","protocol":17,"map":"koth_highpass","folder":"tf","game":"Team Fortress","app_id":440,"player_count":0,"max_players":24,"Bots":0,"server_type":"Dedicated","server_os":"Linux","password":true,"vac":true,"version":"7708610","steam_id":85568392924964315,"keywords":["cp","nocrits","nodmgspread","uncletopia"],"game_id":440,"stv_port":27086,"stv_name":"Uncletopia | London | 8 | Community | STV","players":null},{"server_id":300,"name":"Uncletopia | Montr√©al | 1 | All Maps","name_short":"mtl-1","host":"mtl-1.ca.uncletopia.com","port":27015,"enabled":true,"region":"us-east","cc":"ca","latitude":45.50889,"longitude":-73.56167,"reserved":0,"last_update":"0001-01-01T00:00:00Z","name_a2s":"Uncletopia | Montr√©al | 1 | All Maps","protocol":17,"map":"koth_viaduct","folder":"tf","game":"Team Fortress","app_id":440,"player_count":0,"max_players":24,"Bots":0,"server_type":"Dedicated","server_os":"Linux","password":true,"vac":true,"version":"7708610","steam_id":85568392924500087,"keywords":["cp","nocrits","nodmgspread","uncletopia"],"game_id":440,"stv_port":27016,"stv_name":"Uncletopia | Montr√©al | 1 | All Maps | STV","players":null},{"server_id":301,"name":"Uncletopia | Montr√©al | 2 | All Maps","name_short":"mtl-2","host":"mtl-1.ca.uncletopia.com","port":27025,"enabled":true,"region":"us-east","cc":"ca","latitude":45.50889,"longitude":-73.56167,"reserved":0,"last_update":"0001-01-01T00:00:00Z","name_a2s":"Uncletopia | Montr√©al | 2 | All Maps","protocol":17,"map":"koth_lakeside_final","folder":"tf","game":"Team Fortress","app_id":440,"player_count":0,"max_players":24,"Bots":0,"server_type":"Dedicated","server_os":"Linux","password":true,"vac":true,"version":"7708610","steam_id":85568392924500088,"keywords":["cp","nocrits","nodmgspread","uncletopia"],"game_id":440,"stv_port":27026,"stv_name":"Uncletopia | Montr√©al | 2 | All Maps | STV","players":null},{"server_id":302,"name":"Uncletopia | Montr√©al | 3 | All Maps","name_short":"mtl-3","host":"mtl-1.ca.uncletopia.com","port":27035,"enabled":true,"region":"us-east","cc":"ca","latitude":45.50889,"longitude":-73.56167,"reserved":0,"last_update":"0001-01-01T00:00:00Z","name_a2s":"Uncletopia | Montr√©al | 3 | All Maps","protocol":17,"map":"pl_frontier_final","folder":"tf","game":"Team Fortress","app_id":440,"player_count":0,"max_players":24,"Bots":0,"server_type":"Dedicated","server_os":"Linux","password":true,"vac":true,"version":"7708610","steam_id":85568392924500089,"keywords":["nocrits","nodmgspread","payload","uncletopia"],"game_id":440,"stv_port":27036,"stv_name":"Uncletopia | Montr√©al | 3 | All Maps | STV","players":null},{"server_id":303,"name":"Uncletopia | Montr√©al | 4 | No Payload","name_short":"mtl-4","host":"mtl-1.ca.uncletopia.com","port":27045,"enabled":true,"region":"us-east","cc":"ca","latitude":45.50889,"longitude":-73.56167,"reserved":0,"last_update":"0001-01-01T00:00:00Z","name_a2s":"Uncletopia | Montr√©al | 4 | No Payload","protocol":17,"map":"koth_brazil","folder":"tf","game":"Team Fortress","app_id":440,"player_count":0,"max_players":24,"Bots":0,"server_type":"Dedicated","server_os":"Linux","password":true,"vac":true,"version":"7708610","steam_id":85568392924500090,"keywords":["cp","nocrits","nodmgspread","uncletopia"],"game_id":440,"stv_port":27046,"stv_name":"Uncletopia | Montr√©al | 4 | No Payload | STV","players":null},{"server_id":13,"name":"Uncletopia | New York City | 1 | All Maps","name_short":"nyc-1","host":"nyc-1.us.uncletopia.com","port":27015,"enabled":true,"region":"us-east","cc":"us","latitude":40.73061,"longitude":-73.93524,"reserved":0,"last_update":"0001-01-01T00:00:00Z","name_a2s":"Uncletopia | New York City | 1 | All Maps","protocol":17,"map":"cp_dustbowl","folder":"tf","game":"Team Fortress","app_id":440,"player_count":0,"max_players":24,"Bots":0,"server_type":"Dedicated","server_os":"Linux","password":true,"vac":true,"version":"7708610","steam_id":85568392924469993,"keywords":["cp","nocrits","nodmgspread","uncletopia"],"game_id":440,"stv_port":27016,"stv_name":"Uncletopia | New York City | 1 | All Maps | STV","players":null},{"server_id":14,"name":"Uncletopia | New York City | 2 | All Maps","name_short":"nyc-2","host":"nyc-1.us.uncletopia.com","port":27025,"enabled":true,"region":"us-east","cc":"us","latitude":40.73061,"longitude":-73.93524,"reserved":0,"last_update":"0001-01-01T00:00:00Z","name_a2s":"Uncletopia | New York City | 2 | All Maps","protocol":17,"map":"koth_cascade","folder":"tf","game":"Team Fortress","app_id":440,"player_count":0,"max_players":24,"Bots":0,"server_type":"Dedicated","server_os":"Linux","password":true,"vac":true,"version":"7708610","steam_id":85568392924469994,"keywords":["cp","nocrits","nodmgspread","uncletopia"],"game_id":440,"stv_port":27026,"stv_name":"Uncletopia | New York City | 2 | All Maps | STV","players":null},{"server_id":15,"name":"Uncletopia | New York City | 3 | All Maps","name_short":"nyc-3","host":"nyc-1.us.uncletopia.com","port":27035,"enabled":true,"region":"us-east","cc":"us","latitude":40.73061,"longitude":-73.93524,"reserved":0,"last_update":"0001-01-01T00:00:00Z","name_a2s":"Uncletopia | New York City | 3 | All Maps","protocol":17,"map":"koth_viaduct","folder":"tf","game":"Team Fortress","app_id":440,"player_count":0,"max_players":24,"Bots":0,"server_type":"Dedicated","server_os":"Linux","password":true,"vac":true,"version":"7708610","steam_id":85568392924742820,"keywords":["cp","nocrits","nodmgspread","uncletopia"],"game_id":440,"stv_port":27036,"stv_name":"Uncletopia | New York City | 3 | All Maps | STV","players":null},{"server_id":16,"name":"Uncletopia | New York City | 4 | Community","name_short":"nyc-4","host":"nyc-1.us.uncletopia.com","port":27045,"enabled":true,"region":"us-east","cc":"us","latitude":40.73061,"longitude":-73.93524,"reserved":0,"last_update":"0001-01-01T00:00:00Z","name_a2s":"Uncletopia | New York City | 4 | Community","protocol":17,"map":"pl_upward","folder":"tf","game":"Team Fortress","app_id":440,"player_count":0,"max_players":24,"Bots":0,"server_type":"Dedicated","server_os":"Linux","password":true,"vac":true,"version":"7708610","steam_id":85568392924742821,"keywords":["nocrits","nodmgspread","payload","uncletopia"],"game_id":440,"stv_port":27046,"stv_name":"Uncletopia | New York City | 4 | Community | STV","players":null},{"server_id":142,"name":"Uncletopia | S√£o Paulo | 1 | All Maps","name_short":"sao-1","host":"sao-1.br.uncletopia.com","port":27015,"enabled":true,"region":"sa","cc":"br","latitude":-23.533773,"longitude":-46.62529,"reserved":0,"last_update":"0001-01-01T00:00:00Z","name_a2s":"Uncletopia | S√£o Paulo | 1 | All Maps","protocol":17,"map":"cp_process_final","folder":"tf","game":"Team Fortress","app_id":440,"player_count":0,"max_players":24,"Bots":0,"server_type":"Dedicated","server_os":"Linux","password":true,"vac":true,"version":"7708610","steam_id":85568392924469996,"keywords":["cp","nocrits","nodmgspread","uncletopia"],"game_id":440,"stv_port":27016,"stv_name":"Uncletopia | S√£o Paulo | 1 | All Maps | STV","players":null},{"server_id":143,"name":"Uncletopia | S√£o Paulo | 2 | All Maps","name_short":"sao-2","host":"sao-2.br.uncletopia.com","port":27015,"enabled":true,"region":"sa","cc":"br","latitude":-23.533773,"longitude":-46.62529,"reserved":0,"last_update":"0001-01-01T00:00:00Z","name_a2s":"Uncletopia | S√£o Paulo | 2 | All Maps","protocol":17,"map":"cp_altitude","folder":"tf","game":"Team Fortress","app_id":440,"player_count":0,"max_players":24,"Bots":0,"server_type":"Dedicated","server_os":"Linux","password":true,"vac":true,"version":"7708610","steam_id":85568392924485349,"keywords":["cp","nocrits","nodmgspread","uncletopia"],"game_id":440,"stv_port":27016,"stv_name":"Uncletopia | S√£o Paulo | 2 | All Maps | STV","players":null},{"server_id":7,"name":"Uncletopia | Seattle | 1 | All Maps","name_short":"sea-1","host":"sea-1.us.uncletopia.com","port":27015,"enabled":true,"region":"us-west","cc":"us","latitude":47.608013,"longitude":-122.33517,"reserved":0,"last_update":"0001-01-01T00:00:00Z","name_a2s":"Uncletopia | Seattle | 1 | All Maps","protocol":17,"map":"koth_viaduct","folder":"tf","game":"Team Fortress","app_id":440,"player_count":24,"max_players":24,"Bots":0,"server_type":"Dedicated","server_os":"Linux","password":true,"vac":true,"version":"7708610","steam_id":85568392924469997,"keywords":["cp","nocrits","nodmgspread","uncletopia"],"game_id":440,"stv_port":27016,"stv_name":"Uncletopia | Seattle | 1 | All Maps | STV","players":[{"user_id":175,"name":"Spooky","steam_id":76561198030817605,"connected_time":1740000000000,"state":"active","ping":35},{"user_id":112,"name":"Frongus","steam_id":76561197979056451,"connected_time":6630000000000,"state":"active","ping":44},{"user_id":174,"name":"Yammie","steam_id":76561197987304489,"connected_time":1757000000000,"state":"active","ping":44},{"user_id":172,"name":"Wormy Getting Coal","steam_id":76561198054539200,"connected_time":1763000000000,"state":"active","ping":45},{"user_id":140,"name":"pcplace","steam_id":76561198097987387,"connected_time":4758000000000,"state":"active","ping":44},{"user_id":173,"name":"profile name","steam_id":76561198032625036,"connected_time":1763000000000,"state":"active","ping":56},{"user_id":188,"name":"gamer (derogatory)","steam_id":76561198334059206,"connected_time":70000000000,"state":"active","ping":74},{"user_id":183,"name":"Pie","steam_id":76561198002480476,"connected_time":336000000000,"state":"active","ping":98},{"user_id":114,"name":"self sufficient kitten","steam_id":76561197960592612,"connected_time":6609000000000,"state":"active","ping":45},{"user_id":179,"name":"m o ss","steam_id":76561198061341744,"connected_time":1665000000000,"state":"active","ping":44},{"user_id":143,"name":"Bagaboned","steam_id":76561198043761335,"connected_time":4567000000000,"state":"active","ping":50},{"user_id":134,"name":"L. Ron Thuggard","steam_id":76561198048992536,"connected_time":5260000000000,"state":"active","ping":119},{"user_id":180,"name":"octty","steam_id":76561198264728012,"connected_time":1589000000000,"state":"active","ping":41},{"user_id":133,"name":"cyborgor","steam_id":76561198040782513,"connected_time":5304000000000,"state":"active","ping":60},{"user_id":177,"name":"wizorb","steam_id":76561198002172674,"connected_time":1728000000000,"state":"active","ping":83},{"user_id":189,"name":"Yugure","steam_id":76561198146200909,"connected_time":70000000000,"state":"active","ping":71},{"user_id":190,"name":"paint thinner victim","steam_id":76561198176069217,"connected_time":29000000000,"state":"active","ping":53},{"user_id":184,"name":"RURU","steam_id":76561198039758987,"connected_time":275000000000,"state":"active","ping":46},{"user_id":187,"name":"weed lesbian","steam_id":76561197989933601,"connected_time":221000000000,"state":"active","ping":59},{"user_id":163,"name":"boo","steam_id":76561198046073848,"connected_time":2011000000000,"state":"active","ping":53},{"user_id":168,"name":"PepperNSalt","steam_id":76561198169000533,"connected_time":1814000000000,"state":"active","ping":45},{"user_id":110,"name":"PopcornNinja101","steam_id":76561198330680181,"connected_time":6648000000000,"state":"active","ping":48},{"user_id":137,"name":"MAXIMUS","steam_id":76561198025747866,"connected_time":4949000000000,"state":"active","ping":44},{"user_id":166,"name":"Hex TheGrassMan #SaveTf2","steam_id":76561198016931455,"connected_time":1986000000000,"state":"active","ping":79}]},{"server_id":119,"name":"Uncletopia | Seattle | 2 | All Maps","name_short":"sea-2","host":"sea-1.us.uncletopia.com","port":27025,"enabled":true,"region":"us-west","cc":"us","latitude":47.608013,"longitude":-122.33517,"reserved":0,"last_update":"0001-01-01T00:00:00Z","name_a2s":"Uncletopia | Seattle | 2 | All Maps","protocol":17,"map":"cp_process_final","folder":"tf","game":"Team Fortress","app_id":440,"player_count":0,"max_players":24,"Bots":0,"server_type":"Dedicated","server_os":"Linux","password":true,"vac":true,"version":"7708610","steam_id":85568392924469998,"keywords":["cp","nocrits","nodmgspread","uncletopia"],"game_id":440,"stv_port":27026,"stv_name":"Uncletopia | Seattle | 2 | All Maps | STV","players":null},{"server_id":17,"name":"Uncletopia | San Francisco | 1 | All Maps","name_short":"sfo-1","host":"sfo-1.us.uncletopia.com","port":27015,"enabled":true,"region":"us-west","cc":"us","latitude":37.77397,"longitude":-122.4313,"reserved":0,"last_update":"0001-01-01T00:00:00Z","name_a2s":"Uncletopia | San Francisco | 1 | All Maps","protocol":17,"map":"koth_lakeside_final","folder":"tf","game":"Team Fortress","app_id":440,"player_count":0,"max_players":24,"Bots":0,"server_type":"Dedicated","server_os":"Linux","password":true,"vac":true,"version":"7708610","steam_id":85568392924469999,"keywords":["cp","nocrits","nodmgspread","uncletopia"],"game_id":440,"stv_port":27016,"stv_name":"Uncletopia | San Francisco | 1 | All Maps | STV","players":null},{"server_id":18,"name":"Uncletopia | San Francisco | 2 | All Maps","name_short":"sfo-2","host":"sfo-1.us.uncletopia.com","port":27025,"enabled":true,"region":"us-west","cc":"us","latitude":37.77397,"longitude":-122.4313,"reserved":0,"last_update":"0001-01-01T00:00:00Z","name_a2s":"Uncletopia | San Francisco | 2 | All Maps","protocol":17,"map":"cp_process_final","folder":"tf","game":"Team Fortress","app_id":440,"player_count":0,"max_players":24,"Bots":0,"server_type":"Dedicated","server_os":"Linux","password":true,"vac":true,"version":"7708610","steam_id":85568392924470000,"keywords":["cp","nocrits","nodmgspread","uncletopia"],"game_id":440,"stv_port":27026,"stv_name":"Uncletopia | San Francisco | 2 | All Maps | STV","players":null},{"server_id":19,"name":"Uncletopia | San Francisco | 3 | No Payload","name_short":"sfo-3","host":"sfo-1.us.uncletopia.com","port":27035,"enabled":true,"region":"us-west","cc":"us","latitude":37.77397,"longitude":-122.4313,"reserved":0,"last_update":"0001-01-01T00:00:00Z","name_a2s":"Uncletopia | San Francisco | 3 | No Payload","protocol":17,"map":"cp_mountainlab","folder":"tf","game":"Team Fortress","app_id":440,"player_count":0,"max_players":24,"Bots":0,"server_type":"Dedicated","server_os":"Linux","password":true,"vac":true,"version":"7708610","steam_id":85568392924742824,"keywords":["cp","nocrits","nodmgspread","uncletopia"],"game_id":440,"stv_port":27036,"stv_name":"Uncletopia | San Francisco | 3 | No Payload | STV","players":null},{"server_id":20,"name":"Uncletopia | San Francisco | 4 | Community","name_short":"sfo-4","host":"sfo-1.us.uncletopia.com","port":27045,"enabled":true,"region":"us-west","cc":"us","latitude":37.77397,"longitude":-122.4313,"reserved":0,"last_update":"0001-01-01T00:00:00Z","name_a2s":"Uncletopia | San Francisco | 4 | Community","protocol":17,"map":"cp_altitude","folder":"tf","game":"Team Fortress","app_id":440,"player_count":0,"max_players":24,"Bots":0,"server_type":"Dedicated","server_os":"Linux","password":true,"vac":true,"version":"7708610","steam_id":85568392924742826,"keywords":["cp","nocrits","nodmgspread","uncletopia"],"game_id":440,"stv_port":27046,"stv_name":"Uncletopia | San Francisco | 4 | Community | STV","players":null},{"server_id":141,"name":"Uncletopia | Sydney | 1 | All Maps","name_short":"syd-1","host":"syd-1.au.uncletopia.com","port":27015,"enabled":true,"region":"au","cc":"au","latitude":-33.865143,"longitude":151.2099,"reserved":0,"last_update":"0001-01-01T00:00:00Z","name_a2s":"Uncletopia | Sydney | 1 | All Maps","protocol":17,"map":"pl_barnblitz","folder":"tf","game":"Team Fortress","app_id":440,"player_count":24,"max_players":24,"Bots":0,"server_type":"Dedicated","server_os":"Linux","password":true,"vac":true,"version":"7708610","steam_id":85568392924470001,"keywords":["nocrits","nodmgspread","payload","uncletopia"],"game_id":440,"stv_port":27016,"stv_name":"Uncletopia | Sydney | 1 | All Maps | STV","players":[{"user_id":105,"name":"Raypest","steam_id":76561197980678745,"connected_time":189000000000,"state":"active","ping":41},{"user_id":97,"name":"SHPONGLE","steam_id":76561197962351413,"connected_time":552000000000,"state":"active","ping":50},{"user_id":52,"name":"bird","steam_id":76561198258514103,"connected_time":3069000000000,"state":"active","ping":66},{"user_id":94,"name":"Dirty Deeds Done Dirt Cheap","steam_id":76561198256760480,"connected_time":682000000000,"state":"active","ping":52},{"user_id":102,"name":"SassnCheeky","steam_id":76561197993875592,"connected_time":377000000000,"state":"active","ping":60},{"user_id":86,"name":"Mr Chrome","steam_id":76561198115397609,"connected_time":1149000000000,"state":"active","ping":61},{"user_id":99,"name":"Soru","steam_id":76561198010844786,"connected_time":464000000000,"state":"active","ping":74},{"user_id":107,"name":"oldbie","steam_id":76561198053297711,"connected_time":3000000000,"state":"spawning","ping":145},{"user_id":35,"name":"dc","steam_id":76561198040993425,"connected_time":4619000000000,"state":"active","ping":80},{"user_id":92,"name":"Mr Asian","steam_id":76561199119648313,"connected_time":731000000000,"state":"active","ping":73},{"user_id":70,"name":"humph","steam_id":76561198083730533,"connected_time":2030000000000,"state":"active","ping":55},{"user_id":64,"name":"dagger","steam_id":76561198068130633,"connected_time":2334000000000,"state":"active","ping":60},{"user_id":75,"name":"Chops","steam_id":76561198071178936,"connected_time":1705000000000,"state":"active","ping":90},{"user_id":89,"name":"JokerMain","steam_id":76561198144857794,"connected_time":1024000000000,"state":"active","ping":46},{"user_id":104,"name":"rich","steam_id":76561198003594944,"connected_time":251000000000,"state":"active","ping":52},{"user_id":68,"name":"trozechad","steam_id":76561198163570075,"connected_time":2164000000000,"state":"active","ping":63},{"user_id":53,"name":"NewChris","steam_id":76561198254754182,"connected_time":3051000000000,"state":"active","ping":69},{"user_id":91,"name":"Winky","steam_id":76561199059450243,"connected_time":863000000000,"state":"active","ping":68},{"user_id":63,"name":"Rapscallion","steam_id":76561198063315934,"connected_time":2384000000000,"state":"active","ping":48},{"user_id":98,"name":"haiiii ^_^ hi!! \u003c3 haiii hii :3","steam_id":76561198930683342,"connected_time":524000000000,"state":"active","ping":59},{"user_id":78,"name":"ELITE","steam_id":76561198442911462,"connected_time":1626000000000,"state":"active","ping":64},{"user_id":81,"name":"LeCarz","steam_id":76561198091515229,"connected_time":1503000000000,"state":"active","ping":71},{"user_id":106,"name":"Ack!","steam_id":76561198147967798,"connected_time":74000000000,"state":"active","ping":60},{"user_id":60,"name":"twitch.tv/DrTreggles","steam_id":76561198042806226,"connected_time":2570000000000,"state":"active","ping":79}]},{"server_id":123,"name":"Uncletopia | Sydney | 2 | All Maps","name_short":"syd-2","host":"syd-1.au.uncletopia.com","port":27025,"enabled":true,"region":"au","cc":"au","latitude":-33.865143,"longitude":151.2099,"reserved":0,"last_update":"0001-01-01T00:00:00Z","name_a2s":"Uncletopia | Sydney | 2 | All Maps","protocol":17,"map":"cp_process_final","folder":"tf","game":"Team Fortress","app_id":440,"player_count":23,"max_players":24,"Bots":0,"server_type":"Dedicated","server_os":"Linux","password":true,"vac":true,"version":"7708610","steam_id":85568392924470002,"keywords":["cp","nocrits","nodmgspread","uncletopia"],"game_id":440,"stv_port":27026,"stv_name":"Uncletopia | Sydney | 2 | All Maps | STV","players":[{"user_id":105,"name":"“ÇStorm","steam_id":76561198073213264,"connected_time":409000000000,"state":"active","ping":44},{"user_id":54,"name":"krandlez` (Any/All)","steam_id":76561198044839726,"connected_time":3333000000000,"state":"active","ping":44},{"user_id":94,"name":"Malkouhs","steam_id":76561198393188026,"connected_time":1133000000000,"state":"active","ping":159},{"user_id":63,"name":"DelicousSoup","steam_id":76561199247776039,"connected_time":2800000000000,"state":"active","ping":146},{"user_id":50,"name":"Editor_Billy","steam_id":76561199165608946,"connected_time":3383000000000,"state":"active","ping":61},{"user_id":108,"name":"Nylk","steam_id":76561198033625169,"connected_time":279000000000,"state":"active","ping":44},{"user_id":77,"name":"Lancer","steam_id":76561198122813810,"connected_time":2092000000000,"state":"active","ping":78},{"user_id":21,"name":"xX_sexhaver_Xx(real)","steam_id":76561199205171109,"connected_time":4215000000000,"state":"active","ping":68},{"user_id":88,"name":"shirt without the r","steam_id":76561199071810220,"connected_time":1450000000000,"state":"active","ping":59},{"user_id":87,"name":"KumbyaKumbyaKumbyaKumbyaKumbya","steam_id":76561198117979249,"connected_time":1458000000000,"state":"active","ping":70},{"user_id":97,"name":"Jonkles","steam_id":76561197988782005,"connected_time":821000000000,"state":"active","ping":45},{"user_id":66,"name":"SaltierThanYou","steam_id":76561198444395188,"connected_time":2542000000000,"state":"active","ping":72},{"user_id":53,"name":"Vsauce","steam_id":76561198100064404,"connected_time":3345000000000,"state":"active","ping":44},{"user_id":100,"name":"Homebrand Chronic","steam_id":76561198941549137,"connected_time":662000000000,"state":"active","ping":79},{"user_id":106,"name":"ericacummins","steam_id":76561198946280912,"connected_time":373000000000,"state":"active","ping":94},{"user_id":107,"name":"Hot Yoga Instructor","steam_id":76561199163801558,"connected_time":305000000000,"state":"active","ping":40},{"user_id":55,"name":"EpicGuy4227","steam_id":76561198094132328,"connected_time":3308000000000,"state":"active","ping":52},{"user_id":43,"name":"Jetgirljo","steam_id":76561198178284561,"connected_time":3595000000000,"state":"active","ping":57},{"user_id":95,"name":"Deal","steam_id":76561199141649504,"connected_time":1059000000000,"state":"active","ping":66},{"user_id":65,"name":"Abraham Lincoln","steam_id":76561198095292515,"connected_time":2693000000000,"state":"active","ping":58},{"user_id":103,"name":"Selling Anti-Matter for $543","steam_id":76561198070708382,"connected_time":495000000000,"state":"active","ping":70},{"user_id":56,"name":"cimpact","steam_id":76561198452258917,"connected_time":3218000000000,"state":"active","ping":155},{"user_id":104,"name":"WebSpook","steam_id":76561197976931725,"connected_time":483000000000,"state":"active","ping":57}]},{"server_id":395,"name":"Uncletopia | Sydney | 3 | All Maps","name_short":"syd-3","host":"syd-1.au.uncletopia.com","port":27035,"enabled":true,"region":"au","cc":"au","latitude":-33.865143,"longitude":151.2099,"reserved":0,"last_update":"0001-01-01T00:00:00Z","name_a2s":"Uncletopia | Sydney | 3 | All Maps","protocol":17,"map":"pl_badwater","folder":"tf","game":"Team Fortress","app_id":440,"player_count":24,"max_players":24,"Bots":0,"server_type":"Dedicated","server_os":"Linux","password":true,"vac":true,"version":"7708610","steam_id":85568392925194467,"keywords":["nocrits","nodmgspread","payload","uncletopia"],"game_id":440,"stv_port":27036,"stv_name":"Uncletopia | Sydney | 3 | All Maps | STV","players":[{"user_id":7,"name":"the lad#savetf2","steam_id":76561198865537226,"connected_time":2057000000000,"state":"active","ping":84},{"user_id":45,"name":"Shrood","steam_id":76561198418201430,"connected_time":384000000000,"state":"active","ping":50},{"user_id":11,"name":"Ungstein","steam_id":76561197998374531,"connected_time":1747000000000,"state":"active","ping":60},{"user_id":48,"name":"penis muncher","steam_id":76561198288259746,"connected_time":182000000000,"state":"active","ping":55},{"user_id":34,"name":"skatebored","steam_id":76561198129299181,"connected_time":880000000000,"state":"active","ping":69},{"user_id":13,"name":"ice_freeze101","steam_id":76561198060902496,"connected_time":1680000000000,"state":"active","ping":47},{"user_id":14,"name":"Jam","steam_id":76561198047515235,"connected_time":1519000000000,"state":"active","ping":60},{"user_id":16,"name":"Thomasjack07","steam_id":76561198236388592,"connected_time":1426000000000,"state":"active","ping":69},{"user_id":22,"name":"Mungbean","steam_id":76561198192300679,"connected_time":1233000000000,"state":"active","ping":76},{"user_id":29,"name":"Dame Da Ne Guy","steam_id":76561198145027367,"connected_time":987000000000,"state":"active","ping":74},{"user_id":46,"name":"S‚¨ÜÔ∏èLADDER","steam_id":76561198807736779,"connected_time":354000000000,"state":"active","ping":42},{"user_id":23,"name":"ThatsAmoori","steam_id":76561198067837522,"connected_time":1156000000000,"state":"active","ping":61},{"user_id":49,"name":"Branko","steam_id":76561199262196710,"connected_time":145000000000,"state":"active","ping":43},{"user_id":30,"name":"Swaggeroth","steam_id":76561198084066189,"connected_time":979000000000,"state":"active","ping":44},{"user_id":27,"name":"Xx_True gamer_xX","steam_id":76561199210541615,"connected_time":1039000000000,"state":"active","ping":256},{"user_id":28,"name":"ttv/svettf","steam_id":76561198152210509,"connected_time":1012000000000,"state":"active","ping":38},{"user_id":31,"name":"Big Booty Llama","steam_id":76561198074422721,"connected_time":925000000000,"state":"active","ping":94},{"user_id":32,"name":"electro599","steam_id":76561198058148858,"connected_time":897000000000,"state":"active","ping":59},{"user_id":33,"name":"grahhh jumpscare ahh","steam_id":76561198094589768,"connected_time":887000000000,"state":"active","ping":69},{"user_id":50,"name":"Bin","steam_id":76561199117653318,"connected_time":113000000000,"state":"active","ping":62},{"user_id":41,"name":"PULSE. PULSE. 12. 42. TUNA TUNA","steam_id":76561198122031469,"connected_time":592000000000,"state":"active","ping":73},{"user_id":38,"name":"infinite toast","steam_id":76561198808826338,"connected_time":769000000000,"state":"active","ping":99},{"user_id":39,"name":"Madison Ivy","steam_id":76561198074674290,"connected_time":747000000000,"state":"active","ping":61},{"user_id":40,"name":"doctor morbin' (real)","steam_id":76561199365241695,"connected_time":695000000000,"state":"active","ping":133}]},{"server_id":396,"name":"Uncletopia | Sydney | 4 | All Maps","name_short":"syd-4","host":"syd-1.au.uncletopia.com","port":27045,"enabled":true,"region":"au","cc":"au","latitude":-33.865143,"longitude":151.2099,"reserved":0,"last_update":"0001-01-01T00:00:00Z","name_a2s":"Uncletopia | Sydney | 4 | All Maps","protocol":17,"map":"pl_frontier_final","folder":"tf","game":"Team Fortress","app_id":440,"player_count":0,"max_players":24,"Bots":0,"server_type":"Dedicated","server_os":"Linux","password":true,"vac":true,"version":"7708610","steam_id":85568392925397958,"keywords":["nocrits","nodmgspread","payload","uncletopia"],"game_id":440,"stv_port":27046,"stv_name":"Uncletopia | Sydney | 4 | All Maps | STV","players":null},{"server_id":58,"name":"Uncletopia | Sydney | 5 | No Payload","name_short":"syd-5","host":"syd-1.au.uncletopia.com","port":27055,"enabled":true,"region":"au","cc":"au","latitude":-33.865143,"longitude":151.2099,"reserved":0,"last_update":"0001-01-01T00:00:00Z","name_a2s":"Uncletopia | Sydney | 5 | No Payload","protocol":17,"map":"koth_lakeside_final","folder":"tf","game":"Team Fortress","app_id":440,"player_count":0,"max_players":24,"Bots":0,"server_type":"Dedicated","server_os":"Linux","password":true,"vac":true,"version":"7708610","steam_id":85568392925397959,"keywords":["cp","nocrits","nodmgspread","uncletopia"],"game_id":440,"stv_port":27056,"stv_name":"Uncletopia | Sydney | 5 | No Payload | STV","players":null},{"server_id":59,"name":"Uncletopia | Sydney | 6 | Community","name_short":"syd-6","host":"syd-1.au.uncletopia.com","port":27065,"enabled":true,"region":"au","cc":"au","latitude":-33.865143,"longitude":151.2099,"reserved":0,"last_update":"0001-01-01T00:00:00Z","name_a2s":"Uncletopia | Sydney | 6 | Community","protocol":17,"map":"koth_lakeside_final","folder":"tf","game":"Team Fortress","app_id":440,"player_count":0,"max_players":24,"Bots":0,"server_type":"Dedicated","server_os":"Linux","password":true,"vac":true,"version":"7708610","steam_id":85568392925397960,"keywords":["cp","nocrits","nodmgspread","uncletopia"],"game_id":440,"stv_port":27066,"stv_name":"Uncletopia | Sydney | 6 | Community | STV","players":null},{"server_id":49,"name":"Uncletopia | Warsaw | 1 | All Maps","name_short":"waw-1","host":"waw-1.pl.uncletopia.com","port":27015,"enabled":true,"region":"eu","cc":"pl","latitude":52.2297,"longitude":21.017532,"reserved":0,"last_update":"0001-01-01T00:00:00Z","name_a2s":"Uncletopia | Warsaw | 1 | All Maps","protocol":17,"map":"koth_viaduct","folder":"tf","game":"Team Fortress","app_id":440,"player_count":1,"max_players":24,"Bots":0,"server_type":"Dedicated","server_os":"Linux","password":true,"vac":true,"version":"7708610","steam_id":85568392925397850,"keywords":["cp","nocrits","nodmgspread","uncletopia"],"game_id":440,"stv_port":27016,"stv_name":"Uncletopia | Warsaw | 1 | All Maps | STV","players":[{"user_id":4,"name":"homestuck on main","steam_id":76561198820197253,"connected_time":906000000000,"state":"active","ping":67}]},{"server_id":50,"name":"Uncletopia | Warsaw | 2 | All Maps","name_short":"waw-2","host":"waw-1.pl.uncletopia.com","port":27025,"enabled":true,"region":"eu","cc":"pl","latitude":52.2297,"longitude":21.017532,"reserved":0,"last_update":"0001-01-01T00:00:00Z","name_a2s":"Uncletopia | Warsaw | 2 | All Maps","protocol":17,"map":"koth_cascade","folder":"tf","game":"Team Fortress","app_id":440,"player_count":0,"max_players":24,"Bots":0,"server_type":"Dedicated","server_os":"Linux","password":true,"vac":true,"version":"7708610","steam_id":85568392925397851,"keywords":["cp","nocrits","nodmgspread","uncletopia"],"game_id":440,"stv_port":27026,"stv_name":"Uncletopia | Warsaw | 2 | All Maps | STV","players":null},{"server_id":51,"name":"Uncletopia | Warsaw | 3 | All Maps","name_short":"waw-3","host":"waw-1.pl.uncletopia.com","port":27035,"enabled":true,"region":"eu","cc":"pl","latitude":52.2297,"longitude":21.017532,"reserved":0,"last_update":"0001-01-01T00:00:00Z","name_a2s":"Uncletopia | Warsaw | 3 | All Maps","protocol":17,"map":"cp_process_final","folder":"tf","game":"Team Fortress","app_id":440,"player_count":0,"max_players":24,"Bots":0,"server_type":"Dedicated","server_os":"Linux","password":true,"vac":true,"version":"7708610","steam_id":85568392925397852,"keywords":["cp","nocrits","nodmgspread","uncletopia"],"game_id":440,"stv_port":27036,"stv_name":"Uncletopia | Warsaw | 3 | All Maps | STV","players":null},{"server_id":52,"name":"Uncletopia | Warsaw | 4 | All Maps","name_short":"waw-4","host":"waw-1.pl.uncletopia.com","port":27045,"enabled":true,"region":"eu","cc":"pl","latitude":52.2297,"longitude":21.017532,"reserved":0,"last_update":"0001-01-01T00:00:00Z","name_a2s":"Uncletopia | Warsaw | 4 | All Maps","protocol":17,"map":"koth_cascade","folder":"tf","game":"Team Fortress","app_id":440,"player_count":0,"max_players":24,"Bots":0,"server_type":"Dedicated","server_os":"Linux","password":true,"vac":true,"version":"7708610","steam_id":85568392925397853,"keywords":["cp","nocrits","nodmgspread","uncletopia"],"game_id":440,"stv_port":27046,"stv_name":"Uncletopia | Warsaw | 4 | All Maps | STV","players":null},{"server_id":53,"name":"Uncletopia | Warsaw | 5 | No Payload","name_short":"waw-5","host":"waw-1.pl.uncletopia.com","port":27055,"enabled":true,"region":"eu","cc":"pl","latitude":52.2297,"longitude":21.017532,"reserved":0,"last_update":"0001-01-01T00:00:00Z","name_a2s":"Uncletopia | Warsaw | 5 | No Payload","protocol":17,"map":"cp_altitude","folder":"tf","game":"Team Fortress","app_id":440,"player_count":0,"max_players":24,"Bots":0,"server_type":"Dedicated","server_os":"Linux","password":true,"vac":true,"version":"7708610","steam_id":85568392925397854,"keywords":["cp","nocrits","nodmgspread","uncletopia"],"game_id":440,"stv_port":27056,"stv_name":"Uncletopia | Warsaw | 5 | No Payload | STV","players":null},{"server_id":54,"name":"Uncletopia | Warsaw | 6 | Community","name_short":"waw-6","host":"waw-1.pl.uncletopia.com","port":27065,"enabled":true,"region":"eu","cc":"pl","latitude":52.2297,"longitude":21.017532,"reserved":0,"last_update":"0001-01-01T00:00:00Z","name_a2s":"Uncletopia | Warsaw | 6 | Community","protocol":17,"map":"cp_process_final","folder":"tf","game":"Team Fortress","app_id":440,"player_count":0,"max_players":24,"Bots":0,"server_type":"Dedicated","server_os":"Linux","password":true,"vac":true,"version":"7708610","steam_id":85568392925397856,"keywords":["cp","nocrits","nodmgspread","uncletopia"],"game_id":440,"stv_port":27066,"stv_name":"Uncletopia | Warsaw | 6 | Community | STV","players":null}]}