{"status":true,"message":"","result":[{"server_id":9,"name":"Uncletopia | Atlanta | 1 | All Maps","name_short":"atl-1","host":"atl-1.us.uncletopia.com","port":27015,"enabled":true,"region":"us-east","cc":"us","latitude":33.753746,"longitude":-84.38633,"reserved":0,"last_update":"0001-01-01T00:00:00Z","name_a2s":"Uncletopia | Atlanta | 1 | All Maps","protocol":17,"map":"ctf_2fort","folder":"tf","game":"Team Fortress","app_id":440,"player_count":18,"max_players":24,"Bots":0,"server_type":"Dedicated","server_os":"Linux","password":true,"vac":true,"version":"7757534","steam_id":85568392924469982,"keywords":["ctf","nocrits","nodmgspread","uncletopia"],"game_id":440,"stv_port":27016,"stv_name":"Uncletopia | Atlanta | 1 | All Maps | STV","players":[{"user_id":327,"name":"ShadowDragon0125","steam_id":76561198343849022,"connected_time":3163000000000,"state":"active","ping":114},{"user_id":318,"name":"goober","steam_id":76561198943598378,"connected_time":4160000000000,"state":"active","ping":45},{"user_id":336,"name":"Spy_Is_Pye","steam_id":76561199439622967,"connected_time":1848000000000,"state":"active","ping":73},{"user_id":351,"name":"JetpagBoy","steam_id":76561199178575029,"connected_time":942000000000,"state":"active","ping":80},{"user_id":366,"name":"Tue","steam_id":76561198181668501,"connected_time":146000000000,"state":"active","ping":55},{"user_id":342,"name":"HARRY","steam_id":76561198842067238,"connected_time":1521000000000,"state":"active","ping":64},{"user_id":365,"name":"Chris Pratt's pocket spaghetti","steam_id":76561198138347045,"connected_time":169000000000,"state":"active","ping":59},{"user_id":298,"name":"cola","steam_id":76561198374390458,"connected_time":6802000000000,"state":"active","ping":60},{"user_id":368,"name":"The destroyer of foreskin","steam_id":76561198135275966,"connected_time":12000000000,"state":"active","ping":85},{"user_id":364,"name":"lker","steam_id":76561197976975075,"connected_time":231000000000,"state":"active","ping":33},{"user_id":360,"name":"Lawtumn","steam_id":76561198347286009,"connected_time":281000000000,"state":"active","ping":65},{"user_id":305,"name":"cheeks","steam_id":76561197993371179,"connected_time":5669000000000,"state":"active","ping":54},{"user_id":359,"name":"Uung","steam_id":76561198183956731,"connected_time":479000000000,"state":"active","ping":44},{"user_id":310,"name":"Flint","steam_id":76561198066547582,"connected_time":5043000000000,"state":"active","ping":103},{"user_id":345,"name":"Sanic_Bum","steam_id":76561198094179822,"connected_time":1486000000000,"state":"active","ping":51},{"user_id":315,"name":"ATL 1 | Save your wifi","steam_id":76561198286147372,"connected_time":4175000000000,"state":"active","ping":58},{"user_id":354,"name":"IZISOO","steam_id":76561198970380577,"connected_time":829000000000,"state":"active","ping":86},{"user_id":242,"name":"sansa musa","steam_id":76561198163723555,"connected_time":8764000000000,"state":"active","ping":74}]},{"server_id":400,"name":"Uncletopia | Atlanta | 3 | Community","name_short":"atl-3","host":"atl-1.us.uncletopia.com","port":27035,"enabled":true,"region":"us-east","cc":"us","latitude":33.753746,"longitude":-84.38633,"reserved":0,"last_update":"0001-01-01T00:00:00Z","name_a2s":"Uncletopia | Atlanta | 3 | Community","protocol":17,"map":"workshop/koth_trenchfoot_b1a.ugc731436616","folder":"tf","game":"Team Fortress","app_id":440,"player_count":2,"max_players":32,"Bots":0,"server_type":"Dedicated","server_os":"Linux","password":true,"vac":true,"version":"7757534","steam_id":85568392924515187,"keywords":["cp","increased_maxplayers","nocrits","nodmgspread","uncletopia"],"game_id":440,"stv_port":27036,"stv_name":"Uncletopia | Atlanta | 3 | Community | STV","players":[{"user_id":34,"name":"Vi (Bug Fables)","steam_id":76561199101397767,"connected_time":553000000000,"state":"active","ping":93},{"user_id":35,"name":"♥♥♥ A Femboy ♥♥♥","steam_id":76561198429704286,"connected_time":211000000000,"state":"active","ping":64}]},{"server_id":401,"name":"Uncletopia | Atlanta | 4 | No Payload","name_short":"atl-4","host":"atl-1.us.uncletopia.com","port":27045,"enabled":true,"region":"us-east","cc":"us","latitude":33.753746,"longitude":-84.38633,"reserved":0,"last_update":"0001-01-01T00:00:00Z","name_a2s":"","protocol":0,"map":"","folder":"","game":"","app_id":0,"player_count":0,"max_players":0,"Bots":0,"server_type":"","server_os":"","password":false,"vac":false,"version":"","steam_id":0,"keywords":null,"game_id":0,"stv_port":0,"stv_name":"","players":null},{"server_id":2,"name":"Uncletopia | Chicago | 1 | All Maps","name_short":"chi-1","host":"chi-1.us.uncletopia.com","port":27015,"enabled":true,"region":"us-central","cc":"us","latitude":41.881832,"longitude":-87.62318,"reserved":0,"last_update":"0001-01-01T00:00:00Z","name_a2s":"Uncletopia | Chicago | 1 | All Maps","protocol":17,"map":"cp_steel","folder":"tf","game":"Team Fortress","app_id":440,"player_count":24,"max_players":24,"Bots":0,"server_type":"Dedicated","server_os":"Linux","password":true,"vac":true,"version":"7757534","steam_id":85568392924469984,"keywords":["cp","nocrits","nodmgspread","uncletopia"],"game_id":440,"stv_port":27016,"stv_name":"Uncletopia | Chicago | 1 | All Maps | STV","players":[{"user_id":542,"name":"PheebsyDeebsy","steam_id":76561198101509436,"connected_time":734000000000,"state":"active","ping":91},{"user_id":550,"name":"Biosock Infiknit","steam_id":76561198072693794,"connected_time":389000000000,"state":"active","ping":51},{"user_id":531,"name":"magotago","steam_id":76561198013650292,"connected_time":1078000000000,"state":"active","ping":108},{"user_id":515,"name":"Morgster","steam_id":76561198131697761,"connected_time":1910000000000,"state":"active","ping":76},{"user_id":488,"name":"Universal Knowledge Allah","steam_id":76561198855935442,"connected_time":4836000000000,"state":"active","ping":73},{"user_id":551,"name":"Waddluigi","steam_id":76561198181328519,"connected_time":378000000000,"state":"active","ping":70},{"user_id":532,"name":"ItsTanleyCrunch","steam_id":76561198037915942,"connected_time":1055000000000,"state":"active","ping":84},{"user_id":526,"name":"PKBEAST_7","steam_id":76561198177136537,"connected_time":1274000000000,"state":"active","ping":91},{"user_id":539,"name":"shadow wizard","steam_id":76561198165212575,"connected_time":747000000000,"state":"active","ping":65},{"user_id":540,"name":"the","steam_id":76561198311446636,"connected_time":747000000000,"state":"active","ping":59},{"user_id":547,"name":"drugger. (aristophanes implant)","steam_id":76561198353463585,"connected_time":669000000000,"state":"active","ping":81},{"user_id":552,"name":"Bilgecrank","steam_id":76561197967191751,"connected_time":373000000000,"state":"active","ping":86},{"user_id":548,"name":"blob","steam_id":76561198122375328,"connected_time":498000000000,"state":"active","ping":67},{"user_id":549,"name":"hack fraud","steam_id":76561198015036066,"connected_time":410000000000,"state":"active","ping":96},{"user_id":476,"name":"oh god","steam_id":76561198068558572,"connected_time":5993000000000,"state":"active","ping":84},{"user_id":557,"name":"swooce","steam_id":76561198156232484,"connected_time":81000000000,"state":"active","ping":67},{"user_id":534,"name":"The Bombinomicon","steam_id":76561198209881263,"connected_time":1036000000000,"state":"active","ping":99},{"user_id":556,"name":"kite","steam_id":76561198346516392,"connected_time":92000000000,"state":"active","ping":66},{"user_id":544,"name":"GalaxySheep","steam_id":76561198066484754,"connected_time":724000000000,"state":"active","ping":81},{"user_id":541,"name":"tjgameplay2","steam_id":76561199093794558,"connected_time":745000000000,"state":"active","ping":85},{"user_id":514,"name":"Ademar","steam_id":76561199391802581,"connected_time":1924000000000,"state":"active","ping":62},{"user_id":553,"name":"SuperFresh","steam_id":76561198200723198,"connected_time":368000000000,"state":"active","ping":43},{"user_id":545,"name":"Kip","steam_id":76561197998180212,"connected_time":722000000000,"state":"active","ping":56},{"user_id":555,"name":"chen","steam_id":76561198278879575,"connected_time":183000000000,"state":"active","ping":61}]},{"server_id":106,"name":"Uncletopia | Chicago | 2 | All Maps","name_short":"chi-2","host":"chi-1.us.uncletopia.com","port":27025,"enabled":true,"region":"us-central","cc":"us","latitude":41.881832,"longitude":-87.62318,"reserved":0,"last_update":"0001-01-01T00:00:00Z","name_a2s":"Uncletopia | Chicago | 2 | All Maps","protocol":17,"map":"cp_junction_final","folder":"tf","game":"Team Fortress","app_id":440,"player_count":24,"max_players":24,"Bots":0,"server_type":"Dedicated","server_os":"Linux","password":true,"vac":true,"version":"7757534","steam_id":85568392924469985,"keywords":["cp","nocrits","nodmgspread","uncletopia"],"game_id":440,"stv_port":27026,"stv_name":"Uncletopia | Chicago | 2 | All Maps | STV","players":[{"user_id":194,"name":"Capn. Wing Ding","steam_id":76561198076068424,"connected_time":6605000000000,"state":"active","ping":74},{"user_id":281,"name":"DrankDuck","steam_id":76561198063146716,"connected_time":337000000000,"state":"active","ping":58},{"user_id":208,"name":"Nodin","steam_id":76561198135757376,"connected_time":5030000000000,"state":"active","ping":59},{"user_id":275,"name":"MuZe","steam_id":76561198096212604,"connected_time":524000000000,"state":"active","ping":82},{"user_id":258,"name":"Dr. Dick","steam_id":76561198138011922,"connected_time":1583000000000,"state":"active","ping":82},{"user_id":209,"name":"FreeZy","steam_id":76561198183906287,"connected_time":5010000000000,"state":"active","ping":68},{"user_id":276,"name":"Iggy Dogg","steam_id":76561198059602545,"connected_time":497000000000,"state":"active","ping":55},{"user_id":277,"name":"Strangelove","steam_id":76561198353773611,"connected_time":491000000000,"state":"active","ping":114},{"user_id":270,"name":"The Doc K","steam_id":76561198035695029,"connected_time":564000000000,"state":"active","ping":93},{"user_id":284,"name":"a crazy hobo","steam_id":76561198289650060,"connected_time":189000000000,"state":"active","ping":81},{"user_id":280,"name":"theghazinator","steam_id":76561198188027695,"connected_time":430000000000,"state":"active","ping":118},{"user_id":268,"name":"swan","steam_id":76561198012569200,"connected_time":994000000000,"state":"active","ping":71},{"user_id":255,"name":"LegendaryMister151","steam_id":76561198064890524,"connected_time":2238000000000,"state":"active","ping":85},{"user_id":273,"name":"Boogie","steam_id":76561198043626626,"connected_time":549000000000,"state":"active","ping":56},{"user_id":250,"name":"Rowan","steam_id":76561199002411211,"connected_time":2703000000000,"state":"active","ping":137},{"user_id":282,"name":"Scum!","steam_id":76561198051805219,"connected_time":334000000000,"state":"active","ping":55},{"user_id":279,"name":"I Am Alpharius","steam_id":76561198033100226,"connected_time":474000000000,"state":"active","ping":148},{"user_id":251,"name":"Ashe Fox","steam_id":76561198073404069,"connected_time":2691000000000,"state":"active","ping":75},{"user_id":283,"name":"Psychromaniac","steam_id":76561198012215214,"connected_time":332000000000,"state":"active","ping":105},{"user_id":256,"name":"Protato","steam_id":76561198061182563,"connected_time":2223000000000,"state":"active","ping":69},{"user_id":253,"name":"gps","steam_id":76561198067492304,"connected_time":2406000000000,"state":"active","ping":77},{"user_id":274,"name":"Furrio","steam_id":76561198174104607,"connected_time":541000000000,"state":"active","ping":78},{"user_id":271,"name":"wiiblob","steam_id":76561198109106242,"connected_time":561000000000,"state":"active","ping":140},{"user_id":244,"name":"Maik","steam_id":76561198045257088,"connected_time":3098000000000,"state":"active","ping":125}]},{"server_id":402,"name":"Uncletopia | Chicago | 3 | All Maps","name_short":"chi-3","host":"chi-1.us.uncletopia.com","port":27035,"enabled":true,"region":"us-central","cc":"us","latitude":41.881832,"longitude":-87.62318,"reserved":0,"last_update":"0001-01-01T00:00:00Z","name_a2s":"Uncletopia | Chicago | 3 | All Maps","protocol":17,"map":"cp_egypt_final","folder":"tf","game":"Team Fortress","app_id":440,"player_count":24,"max_players":24,"Bots":0,"server_type":"Dedicated","server_os":"Linux","password":true,"vac":true,"version":"7757534","steam_id":85568392924515191,"keywords":["cp","nocrits","nodmgspread","uncletopia"],"game_id":440,"stv_port":27036,"stv_name":"Uncletopia | Chicago | 3 | All Maps | STV","players":[{"user_id":449,"name":"zero .","steam_id":76561198880290310,"connected_time":3130000000000,"state":"active","ping":134},{"user_id":432,"name":"the lesbianist pyroshark","steam_id":76561198374227766,"connected_time":5504000000000,"state":"active","ping":80},{"user_id":443,"name":"weeb_whacker #Jenius","steam_id":76561198187098041,"connected_time":4902000000000,"state":"active","ping":54},{"user_id":493,"name":"hilarious dinglebat","steam_id":76561198170840838,"connected_time":1291000000000,"state":"active","ping":79},{"user_id":501,"name":"Unwavering Flavor","steam_id":76561198053306065,"connected_time":403000000000,"state":"active","ping":78},{"user_id":502,"name":"Post nut clarity","steam_id":76561198060246831,"connected_time":396000000000,"state":"active","ping":82},{"user_id":503,"name":"Eins","steam_id":76561199030343810,"connected_time":385000000000,"state":"active","ping":72},{"user_id":492,"name":"glarpnorp pimdroid","steam_id":76561198930116758,"connected_time":1305000000000,"state":"active","ping":31},{"user_id":455,"name":"athletesfoot","steam_id":76561197997331867,"connected_time":3113000000000,"state":"active","ping":60},{"user_id":460,"name":"wyatt","steam_id":76561198253574099,"connected_time":3085000000000,"state":"active","ping":56},{"user_id":486,"name":"Coupon","steam_id":76561198111947598,"connected_time":1729000000000,"state":"active","ping":95},{"user_id":472,"name":"pearly","steam_id":76561198017274978,"connected_time":2630000000000,"state":"active","ping":84},{"user_id":504,"name":"reymundo","steam_id":76561197989412830,"connected_time":357000000000,"state":"active","ping":117},{"user_id":487,"name":"rudy","steam_id":76561198088712799,"connected_time":1644000000000,"state":"active","ping":74},{"user_id":498,"name":"Fake Uncle","steam_id":76561198880227689,"connected_time":1040000000000,"state":"active","ping":66},{"user_id":467,"name":"trenchpines","steam_id":76561199165140868,"connected_time":2791000000000,"state":"active","ping":170},{"user_id":505,"name":"hotline bling","steam_id":76561198984131011,"connected_time":330000000000,"state":"active","ping":70},{"user_id":488,"name":"Tallyden","steam_id":76561197998572962,"connected_time":1500000000000,"state":"active","ping":67},{"user_id":506,"name":"Wiccaa","steam_id":76561199209580985,"connected_time":300000000000,"state":"active","ping":73},{"user_id":438,"name":"Cousin Corn on the Cob","steam_id":76561198049837377,"connected_time":5375000000000,"state":"active","ping":51},{"user_id":507,"name":"upside down cat","steam_id":76561198028288349,"connected_time":299000000000,"state":"active","ping":87},{"user_id":508,"name":"Smacked to the Shadowrealm","steam_id":76561199047187302,"connected_time":241000000000,"state":"active","ping":47},{"user_id":509,"name":"igotmail","steam_id":76561198070631899,"connected_time":237000000000,"state":"active","ping":72},{"user_id":500,"name":"m yfrogs","steam_id":76561198371149432,"connected_time":848000000000,"state":"active","ping":46}]},{"server_id":403,"name":"Uncletopia | Chicago | 4 | All Maps","name_short":"chi-4","host":"chi-1.us.uncletopia.com","port":27045,"enabled":true,"region":"us-central","cc":"us","latitude":41.881832,"longitude":-87.62318,"reserved":0,"last_update":"0001-01-01T00:00:00Z","name_a2s":"Uncletopia | Chicago | 4 | All Maps","protocol":17,"map":"pl_frontier_final","folder":"tf","game":"Team Fortress","app_id":440,"player_count":24,"max_players":24,"Bots":0,"server_type":"Dedicated","server_os":"Linux","password":true,"vac":true,"version":"7757534","steam_id":85568392924515193,"keywords":["nocrits","nodmgspread","payload","uncletopia"],"game_id":440,"stv_port":27046,"stv_name":"Uncletopia | Chicago | 4 | All Maps | STV","players":[{"user_id":597,"name":"Nodspine","steam_id":76561198253579994,"connected_time":3691000000000,"state":"active","ping":137},{"user_id":663,"name":"Concolor","steam_id":76561198027734150,"connected_time":350000000000,"state":"active","ping":68},{"user_id":623,"name":"OpenDown","steam_id":76561198064132688,"connected_time":2453000000000,"state":"active","ping":150},{"user_id":654,"name":"Trisbone","steam_id":76561198119826352,"connected_time":684000000000,"state":"active","ping":75},{"user_id":661,"name":"(っ◔◡◔)っ†","steam_id":76561198070635731,"connected_time":481000000000,"state":"active","ping":62},{"user_id":662,"name":"-W3E- grim10465","steam_id":76561198045698581,"connected_time":472000000000,"state":"active","ping":45},{"user_id":644,"name":"threethree","steam_id":76561198177354155,"connected_time":1411000000000,"state":"active","ping":72},{"user_id":608,"name":"Dojoloachfr","steam_id":76561198826298849,"connected_time":3269000000000,"state":"active","ping":87},{"user_id":648,"name":"loudpisser","steam_id":76561198078802110,"connected_time":1355000000000,"state":"active","ping":71},{"user_id":627,"name":"sharia compliant gamer","steam_id":76561198005884261,"connected_time":2376000000000,"state":"active","ping":60},{"user_id":633,"name":"Shichinitzi","steam_id":76561198003833732,"connected_time":2034000000000,"state":"active","ping":54},{"user_id":613,"name":"faze pantalla","steam_id":76561198250215734,"connected_time":2981000000000,"state":"active","ping":72},{"user_id":587,"name":"ENA","steam_id":76561198057457396,"connected_time":3821000000000,"state":"active","ping":89},{"user_id":664,"name":"Salem Goose Trial","steam_id":76561198052083066,"connected_time":214000000000,"state":"active","ping":85},{"user_id":645,"name":"Bobbn","steam_id":76561198876124683,"connected_time":1410000000000,"state":"active","ping":67},{"user_id":657,"name":"captainskullet","steam_id":76561198314597170,"connected_time":653000000000,"state":"active","ping":68},{"user_id":625,"name":"deepmeta","steam_id":76561199053600691,"connected_time":2421000000000,"state":"active","ping":63},{"user_id":626,"name":"dbelow_","steam_id":76561198056148853,"connected_time":2395000000000,"state":"active","ping":61},{"user_id":667,"name":".-.","steam_id":76561198820617005,"connected_time":20000000000,"state":"spawning","ping":295},{"user_id":647,"name":"HanSwolo","steam_id":76561198137223316,"connected_time":1402000000000,"state":"active","ping":76},{"user_id":652,"name":"allenr200415","steam_id":76561198950845093,"connected_time":854000000000,"state":"active","ping":89},{"user_id":629,"name":"Kit Carson","steam_id":76561198115691546,"connected_time":2357000000000,"state":"active","ping":102},{"user_id":651,"name":"Phillip Jeffries","steam_id":76561198064052174,"connected_time":1106000000000,"state":"active","ping":60},{"user_id":665,"name":"The Super Mario Bros. Movie","steam_id":76561198871692156,"connected_time":192000000000,"state":"active","ping":105}]},{"server_id":36,"name":"Uncletopia | Chicago | 5 | All Maps","name_short":"chi-5","host":"chi-2.us.uncletopia.com","port":27015,"enabled":true,"region":"us-central","cc":"us","latitude":41.881832,"longitude":-87.62318,"reserved":0,"last_update":"0001-01-01T00:00:00Z","name_a2s":"Uncletopia | Chicago | 5 | All Maps","protocol":17,"map":"pl_thundermountain","folder":"tf","game":"Team Fortress","app_id":440,"player_count":24,"max_players":24,"Bots":0,"server_type":"Dedicated","server_os":"Linux","password":true,"vac":true,"version":"7757534","steam_id":85568392924866362,"keywords":["nocrits","nodmgspread","payload","uncletopia"],"game_id":440,"stv_port":27016,"stv_name":"Uncletopia | Chicago | 5 | All Maps | STV","players":[{"user_id":197,"name":"Windy Writer","steam_id":76561198048217633,"connected_time":2017000000000,"state":"active","ping":53},{"user_id":224,"name":"\u003e:D","steam_id":76561198074678273,"connected_time":694000000000,"state":"active","ping":59},{"user_id":203,"name":"Indigolake","steam_id":76561198202215807,"connected_time":1885000000000,"state":"active","ping":87},{"user_id":193,"name":"SORPER","steam_id":76561198425503395,"connected_time":2065000000000,"state":"active","ping":63},{"user_id":195,"name":"Droz misses shots","steam_id":76561198072555204,"connected_time":2051000000000,"state":"active","ping":47},{"user_id":228,"name":"AjProductions","steam_id":76561198217950125,"connected_time":629000000000,"state":"active","ping":130},{"user_id":226,"name":"LocaKola","steam_id":76561198173435430,"connected_time":653000000000,"state":"active","ping":74},{"user_id":207,"name":"chiswola","steam_id":76561198046920142,"connected_time":1453000000000,"state":"active","ping":83},{"user_id":217,"name":"Infinity","steam_id":76561199134919099,"connected_time":943000000000,"state":"active","ping":74},{"user_id":231,"name":"Riff","steam_id":76561198066921423,"connected_time":464000000000,"state":"active","ping":73},{"user_id":196,"name":"deech","steam_id":76561198066429444,"connected_time":2048000000000,"state":"active","ping":68},{"user_id":205,"name":"candied mosquito","steam_id":76561199060494678,"connected_time":1530000000000,"state":"active","ping":61},{"user_id":230,"name":"FuzzyWuzzyVonBear","steam_id":76561198273020482,"connected_time":614000000000,"state":"active","ping":56},{"user_id":153,"name":"KevCraft","steam_id":76561199000622939,"connected_time":5297000000000,"state":"active","ping":77},{"user_id":202,"name":"sexgaming_","steam_id":76561198245994746,"connected_time":1905000000000,"state":"active","ping":54},{"user_id":180,"name":"muffin","steam_id":76561199101981082,"connected_time":3813000000000,"state":"active","ping":66},{"user_id":210,"name":"thecal","steam_id":76561198307893384,"connected_time":1264000000000,"state":"active","ping":55},{"user_id":233,"name":"ThatEmoEmu","steam_id":76561198272304706,"connected_time":317000000000,"state":"active","ping":104},{"user_id":201,"name":"Pancreas Enjoyer","steam_id":76561199438598904,"connected_time":1965000000000,"state":"active","ping":101},{"user_id":219,"name":"Otto","steam_id":76561198139834597,"connected_time":878000000000,"state":"active","ping":85},{"user_id":176,"name":"Pinapley","steam_id":76561198063130298,"connected_time":4006000000000,"state":"active","ping":133},{"user_id":211,"name":"flexer_2000","steam_id":76561198084422657,"connected_time":1061000000000,"state":"active","ping":88},{"user_id":220,"name":"trevano","steam_id":76561198087554873,"connected_time":868000000000,"state":"active","ping":84},{"user_id":223,"name":"Ricky","steam_id":76561199078364552,"connected_time":714000000000,"state":"active","ping":66}]},{"server_id":37,"name":"Uncletopia | Chicago | 6 | All Maps","name_short":"chi-6","host":"chi-2.us.uncletopia.com","port":27025,"enabled":true,"region":"us-central","cc":"us","latitude":41.881832,"longitude":-87.62318,"reserved":0,"last_update":"0001-01-01T00:00:00Z","name_a2s":"Uncletopia | Chicago | 6 | All Maps","protocol":17,"map":"pl_swiftwater_final1","folder":"tf","game":"Team Fortress","app_id":440,"player_count":24,"max_players":24,"Bots":0,"server_type":"Dedicated","server_os":"Linux","password":true,"vac":true,"version":"7757534","steam_id":85568392924866363,"keywords":["nocrits","nodmgspread","payload","uncletopia"],"game_id":440,"stv_port":27026,"stv_name":"Uncletopia | Chicago | 6 | All Maps | STV","players":[{"user_id":103,"name":"\u003c3Elise\u003c3","steam_id":76561198146435005,"connected_time":524000000000,"state":"active","ping":87},{"user_id":50,"name":"papi Chulo","steam_id":76561198126274984,"connected_time":4022000000000,"state":"active","ping":139},{"user_id":57,"name":"Olive","steam_id":76561198003474783,"connected_time":3571000000000,"state":"active","ping":76},{"user_id":98,"name":"nah","steam_id":76561198130671890,"connected_time":1453000000000,"state":"active","ping":56},{"user_id":108,"name":"FoSP","steam_id":76561198132363430,"connected_time":467000000000,"state":"active","ping":66},{"user_id":53,"name":"Viokik","steam_id":76561198408846602,"connected_time":3879000000000,"state":"active","ping":71},{"user_id":104,"name":"NW","steam_id":76561199092907535,"connected_time":519000000000,"state":"active","ping":135},{"user_id":75,"name":"Decimus","steam_id":76561198341781527,"connected_time":2536000000000,"state":"active","ping":73},{"user_id":114,"name":"Isaac","steam_id":76561198015727013,"connected_time":300000000000,"state":"active","ping":114},{"user_id":80,"name":"Not_Douglas","steam_id":76561199024184136,"connected_time":2319000000000,"state":"active","ping":64},{"user_id":106,"name":"KennyRufus","steam_id":76561199007229925,"connected_time":517000000000,"state":"active","ping":103},{"user_id":66,"name":"Mister36","steam_id":76561198019132100,"connected_time":2904000000000,"state":"active","ping":47},{"user_id":107,"name":"jordanddean2016","steam_id":76561198323772677,"connected_time":506000000000,"state":"active","ping":103},{"user_id":109,"name":"Ben-Shapiro-Gaming","steam_id":76561198133520011,"connected_time":442000000000,"state":"active","ping":89},{"user_id":110,"name":"Kite","steam_id":76561199060915563,"connected_time":424000000000,"state":"active","ping":148},{"user_id":111,"name":"Ozone-flavored Starburst","steam_id":76561199163688421,"connected_time":403000000000,"state":"active","ping":100},{"user_id":96,"name":"moist","steam_id":76561198301176077,"connected_time":1493000000000,"state":"active","ping":72},{"user_id":97,"name":"parsuh","steam_id":76561198057197772,"connected_time":1488000000000,"state":"active","ping":106},{"user_id":115,"name":"Swifgz","steam_id":76561198162875756,"connected_time":100000000000,"state":"active","ping":63},{"user_id":87,"name":"[BBW] Justario","steam_id":76561198016095410,"connected_time":2035000000000,"state":"active","ping":68},{"user_id":112,"name":"Dieu-Sama","steam_id":76561198002075862,"connected_time":371000000000,"state":"active","ping":85},{"user_id":113,"name":"Gino Fratelli","steam_id":76561198166409300,"connected_time":371000000000,"state":"active","ping":63},{"user_id":49,"name":"boppetson","steam_id":76561198073529045,"connected_time":4128000000000,"state":"active","ping":69},{"user_id":102,"name":"leumas","steam_id":76561198240408540,"connected_time":671000000000,"state":"active","ping":75}]},{"server_id":38,"name":"Uncletopia | Chicago | 7 | Stopwatch Beta","name_short":"chi-7","host":"chi-2.us.uncletopia.com","port":27035,"enabled":true,"region":"us-central","cc":"us","latitude":41.881832,"longitude":-87.62318,"reserved":0,"last_update":"0001-01-01T00:00:00Z","name_a2s":"Uncletopia | Chicago | 7 | Stopwatch Beta","protocol":17,"map":"workshop/koth_ramjam_rc1.ugc459778887","folder":"tf","game":"Team Fortress","app_id":440,"player_count":0,"max_players":24,"Bots":0,"server_type":"Dedicated","server_os":"Linux","password":true,"vac":true,"version":"7757534","steam_id":85568392924866364,"keywords":["cp","nocrits","nodmgspread","uncletopia"],"game_id":440,"stv_port":27036,"stv_name":"Uncletopia | Chicago | 7 | Stopwatch Beta | STV","players":null},{"server_id":39,"name":"Uncletopia | Chicago | 8 | Community","name_short":"chi-8","host":"chi-2.us.uncletopia.com","port":27045,"enabled":true,"region":"us-central","cc":"us","latitude":41.881832,"longitude":-87.62318,"reserved":0,"last_update":"0001-01-01T00:00:00Z","name_a2s":"Uncletopia | Chicago | 8 | Community","protocol":17,"map":"workshop/koth_kemptown_rc1.ugc767410655","folder":"tf","game":"Team Fortress","app_id":440,"player_count":0,"max_players":24,"Bots":0,"server_type":"Dedicated","server_os":"Linux","password":true,"vac":true,"version":"7757534","steam_id":85568392924866365,"keywords":["cp","nocrits","nodmgspread","uncletopia"],"game_id":440,"stv_port":27046,"stv_name":"Uncletopia | Chicago | 8 | Community | STV","players":null},{"server_id":8,"name":"Uncletopia | Dallas | 1 | All Maps","name_short":"dal-1","host":"dal-1.us.uncletopia.com","port":27015,"enabled":true,"region":"us-central","cc":"us","latitude":32.779167,"longitude":-96.80889,"reserved":0,"last_update":"0001-01-01T00:00:00Z","name_a2s":"Uncletopia | Dallas | 1 | All Maps","protocol":17,"map":"cp_mountainlab","folder":"tf","game":"Team Fortress","app_id":440,"player_count":23,"max_players":24,"Bots":0,"server_type":"Dedicated","server_os":"Linux","password":true,"vac":true,"version":"7757534","steam_id":85568392924469986,"keywords":["cp","nocrits","nodmgspread","uncletopia"],"game_id":440,"stv_port":27016,"stv_name":"Uncletopia | Dallas | 1 | All Maps | STV","players":[{"user_id":473,"name":"vvichael","steam_id":76561198238148528,"connected_time":253000000000,"state":"active","ping":85},{"user_id":285,"name":"Brass beast heavy","steam_id":76561198274197623,"connected_time":12187000000000,"state":"active","ping":165},{"user_id":474,"name":"Mitty","steam_id":76561198014177684,"connected_time":252000000000,"state":"active","ping":85},{"user_id":475,"name":"Sup m8","steam_id":76561198081659121,"connected_time":247000000000,"state":"active","ping":30},{"user_id":468,"name":"Flarpjacks","steam_id":76561199117086921,"connected_time":475000000000,"state":"active","ping":52},{"user_id":476,"name":"seats","steam_id":76561197998756039,"connected_time":239000000000,"state":"active","ping":74},{"user_id":484,"name":"Caoticaos","steam_id":76561198114800227,"connected_time":37000000000,"state":"active","ping":147},{"user_id":477,"name":"cup","steam_id":76561198121245586,"connected_time":224000000000,"state":"active","ping":83},{"user_id":483,"name":"Omni","steam_id":76561198035774007,"connected_time":75000000000,"state":"active","ping":55},{"user_id":470,"name":"Random Baker","steam_id":76561198147946248,"connected_time":278000000000,"state":"active","ping":58},{"user_id":442,"name":"bhop","steam_id":76561198064885639,"connected_time":1877000000000,"state":"active","ping":87},{"user_id":463,"name":"Grinski","steam_id":76561198054787727,"connected_time":1018000000000,"state":"active","ping":101},{"user_id":469,"name":"big ol' buford","steam_id":76561198290675957,"connected_time":411000000000,"state":"active","ping":30},{"user_id":444,"name":"mr.oof110","steam_id":76561198870737383,"connected_time":1812000000000,"state":"active","ping":48},{"user_id":478,"name":"xthyl","steam_id":76561199361299006,"connected_time":221000000000,"state":"active","ping":88},{"user_id":480,"name":"deadpixel","steam_id":76561198150249843,"connected_time":201000000000,"state":"active","ping":75},{"user_id":472,"name":"The Robot Menace","steam_id":76561198043390413,"connected_time":261000000000,"state":"active","ping":59},{"user_id":471,"name":"snoiper","steam_id":76561198089355751,"connected_time":278000000000,"state":"active","ping":59},{"user_id":479,"name":"LtK","steam_id":76561197993180943,"connected_time":215000000000,"state":"active","ping":42},{"user_id":485,"name":"Moregun Freeman | trade.tf","steam_id":76561198159772617,"connected_time":18000000000,"state":"active","ping":56},{"user_id":482,"name":"Phil Collins","steam_id":76561198068868644,"connected_time":188000000000,"state":"active","ping":77},{"user_id":445,"name":"DragonHeart","steam_id":76561198013245625,"connected_time":1797000000000,"state":"active","ping":74},{"user_id":467,"name":"「Jimbo Reference」","steam_id":76561198016078541,"connected_time":802000000000,"state":"active","ping":86}]},{"server_id":108,"name":"Uncletopia | Dallas | 2 | All Maps","name_short":"dal-2","host":"dal-1.us.uncletopia.com","port":27025,"enabled":true,"region":"us-central","cc":"us","latitude":32.779167,"longitude":-96.80889,"reserved":0,"last_update":"0001-01-01T00:00:00Z","name_a2s":"Uncletopia | Dallas | 2 | All Maps","protocol":17,"map":"pl_pier","folder":"tf","game":"Team Fortress","app_id":440,"player_count":23,"max_players":24,"Bots":0,"server_type":"Dedicated","server_os":"Linux","password":true,"vac":true,"version":"7757534","steam_id":85568392924469988,"keywords":["nocrits","nodmgspread","payload","uncletopia"],"game_id":440,"stv_port":27026,"stv_name":"Uncletopia | Dallas | 2 | All Maps | STV","players":[{"user_id":10,"name":"pepsoi","steam_id":76561198361818082,"connected_time":12709000000000,"state":"active","ping":74},{"user_id":188,"name":"Annoying_Dog","steam_id":76561199034025357,"connected_time":660000000000,"state":"active","ping":98},{"user_id":145,"name":"A Duck Phone!?","steam_id":76561198044707749,"connected_time":3377000000000,"state":"active","ping":75},{"user_id":149,"name":"Coffee","steam_id":76561198154646418,"connected_time":2658000000000,"state":"active","ping":55},{"user_id":182,"name":"|-[LINUX]-| Purple Pybro","steam_id":76561198093538786,"connected_time":853000000000,"state":"active","ping":45},{"user_id":174,"name":"hippo mode","steam_id":76561198073455521,"connected_time":1154000000000,"state":"active","ping":147},{"user_id":148,"name":"The Glizzanator","steam_id":76561198115355451,"connected_time":3031000000000,"state":"active","ping":69},{"user_id":193,"name":"Caught a Thundah","steam_id":76561198054495572,"connected_time":461000000000,"state":"active","ping":56},{"user_id":179,"name":"Joe Beef","steam_id":76561198437703253,"connected_time":1123000000000,"state":"active","ping":76},{"user_id":164,"name":"Lemon Demon Enthusiast","steam_id":76561199026721822,"connected_time":2154000000000,"state":"active","ping":117},{"user_id":152,"name":"darkness.danny3481","steam_id":76561198132808002,"connected_time":2632000000000,"state":"active","ping":78},{"user_id":168,"name":"Dragons\u003eEverything","steam_id":76561199140784635,"connected_time":1351000000000,"state":"active","ping":64},{"user_id":196,"name":"Kidzbopsicle","steam_id":76561198047660691,"connected_time":158000000000,"state":"active","ping":75},{"user_id":180,"name":"giveit5","steam_id":76561198030815437,"connected_time":1078000000000,"state":"active","ping":75},{"user_id":186,"name":"D0g","steam_id":76561199151862721,"connected_time":766000000000,"state":"active","ping":188},{"user_id":195,"name":"Rudy","steam_id":76561198013456828,"connected_time":277000000000,"state":"active","ping":81},{"user_id":181,"name":"Smiles","steam_id":76561198107197973,"connected_time":975000000000,"state":"active","ping":100},{"user_id":155,"name":"bolainassr0","steam_id":76561199079078845,"connected_time":2596000000000,"state":"active","ping":105},{"user_id":197,"name":"fart","steam_id":76561198046405072,"connected_time":29000000000,"state":"spawning","ping":62},{"user_id":158,"name":"Lynux","steam_id":76561198343651916,"connected_time":2358000000000,"state":"active","ping":150},{"user_id":190,"name":"bottom pride burger","steam_id":76561198322247602,"connected_time":640000000000,"state":"active","ping":89},{"user_id":192,"name":"boy from the rafters","steam_id":76561198042926224,"connected_time":615000000000,"state":"active","ping":72},{"user_id":191,"name":"Red","steam_id":76561198031865869,"connected_time":640000000000,"state":"active","ping":66}]},{"server_id":5,"name":"Uncletopia | Frankfurt | 1 | All Maps","name_short":"frk-1","host":"frk-1.de.uncletopia.com","port":27015,"enabled":true,"region":"eu","cc":"de","latitude":50.110924,"longitude":8.682127,"reserved":0,"last_update":"0001-01-01T00:00:00Z","name_a2s":"Uncletopia | Frankfurt | 1 | All Maps","protocol":17,"map":"koth_highpass","folder":"tf","game":"Team Fortress","app_id":440,"player_count":0,"max_players":24,"Bots":0,"server_type":"Dedicated","server_os":"Linux","password":true,"vac":true,"version":"7757534","steam_id":85568392924469989,"keywords":["cp","nocrits","nodmgspread","uncletopia"],"game_id":440,"stv_port":27016,"stv_name":"Uncletopia | Frankfurt | 1 | All Maps | STV","players":null},{"server_id":110,"name":"Uncletopia | Frankfurt | 2 | All Maps","name_short":"frk-2","host":"frk-1.de.uncletopia.com","port":27025,"enabled":true,"region":"eu","cc":"de","latitude":50.110924,"longitude":8.682127,"reserved":0,"last_update":"0001-01-01T00:00:00Z","name_a2s":"Uncletopia | Frankfurt | 2 | All Maps","protocol":17,"map":"cp_altitude","folder":"tf","game":"Team Fortress","app_id":440,"player_count":0,"max_players":24,"Bots":0,"server_type":"Dedicated","server_os":"Linux","password":true,"vac":true,"version":"7757534","steam_id":85568392924469990,"keywords":["cp","nocrits","nodmgspread","uncletopia"],"game_id":440,"stv_port":27026,"stv_name":"Uncletopia | Frankfurt | 2 | All Maps | STV","players":null},{"server_id":308,"name":"Uncletopia | Frankfurt | 3 | All Maps","name_short":"frk-3","host":"frk-1.de.uncletopia.com","port":27035,"enabled":true,"region":"eu","cc":"de","latitude":50.110924,"longitude":8.682127,"reserved":0,"last_update":"0001-01-01T00:00:00Z","name_a2s":"Uncletopia | Frankfurt | 3 | All Maps","protocol":17,"map":"koth_viaduct","folder":"tf","game":"Team Fortress","app_id":440,"player_count":0,"max_players":24,"Bots":0,"server_type":"Dedicated","server_os":"Linux","password":true,"vac":true,"version":"7757534","steam_id":85568392924504274,"keywords":["cp","nocrits","nodmgspread","uncletopia"],"game_id":440,"stv_port":27036,"stv_name":"Uncletopia | Frankfurt | 3 | All Maps | STV","players":null},{"server_id":309,"name":"Uncletopia | Frankfurt | 4 | All Maps","name_short":"frk-4","host":"frk-1.de.uncletopia.com","port":27045,"enabled":true,"region":"eu","cc":"de","latitude":50.110924,"longitude":8.682127,"reserved":0,"last_update":"0001-01-01T00:00:00Z","name_a2s":"Uncletopia | Frankfurt | 4 | All Maps","protocol":17,"map":"cp_dustbowl","folder":"tf","game":"Team Fortress","app_id":440,"player_count":0,"max_players":24,"Bots":0,"server_type":"Dedicated","server_os":"Linux","password":true,"vac":true,"version":"7757534","steam_id":85568392924504275,"keywords":["cp","nocrits","nodmgspread","uncletopia"],"game_id":440,"stv_port":27046,"stv_name":"Uncletopia | Frankfurt | 4 | All Maps | STV","players":null},{"server_id":310,"name":"Uncletopia | Frankfurt | 5 | All Maps","name_short":"frk-5","host":"frk-1.de.uncletopia.com","port":27055,"enabled":true,"region":"eu","cc":"de","latitude":50.110924,"longitude":8.682127,"reserved":0,"last_update":"0001-01-01T00:00:00Z","name_a2s":"Uncletopia | Frankfurt | 5 | All Maps","protocol":17,"map":"koth_cascade","folder":"tf","game":"Team Fortress","app_id":440,"player_count":0,"max_players":24,"Bots":0,"server_type":"Dedicated","server_os":"Linux","password":true,"vac":true,"version":"7757534","steam_id":85568392924504277,"keywords":["cp","nocrits","nodmgspread","uncletopia"],"game_id":440,"stv_port":27056,"stv_name":"Uncletopia | Frankfurt | 5 | All Maps | STV","players":null},{"server_id":311,"name":"Uncletopia | Frankfurt | 6 | All Maps","name_short":"frk-6","host":"frk-1.de.uncletopia.com","port":27065,"enabled":true,"region":"eu","cc":"de","latitude":50.110924,"longitude":8.682127,"reserved":0,"last_update":"0001-01-01T00:00:00Z","name_a2s":"Uncletopia | Frankfurt | 6 | All Maps","protocol":17,"map":"koth_viaduct","folder":"tf","game":"Team Fortress","app_id":440,"player_count":0,"max_players":24,"Bots":0,"server_type":"Dedicated","server_os":"Linux","password":true,"vac":true,"version":"7757534","steam_id":85568392924504278,"keywords":["cp","nocrits","nodmgspread","uncletopia"],"game_id":440,"stv_port":27066,"stv_name":"Uncletopia | Frankfurt | 6 | All Maps | STV","players":null},{"server_id":23,"name":"Uncletopia | Frankfurt | 7 | Stopwatch Beta","name_short":"frk-7","host":"frk-1.de.uncletopia.com","port":27075,"enabled":true,"region":"eu","cc":"de","latitude":50.110924,"longitude":8.682127,"reserved":0,"last_update":"0001-01-01T00:00:00Z","name_a2s":"Uncletopia | Frankfurt | 7 | Stopwatch Beta","protocol":17,"map":"pl_frontier_final","folder":"tf","game":"Team Fortress","app_id":440,"player_count":0,"max_players":24,"Bots":0,"server_type":"Dedicated","server_os":"Linux","password":true,"vac":true,"version":"7757534","steam_id":85568392924742827,"keywords":["nocrits","nodmgspread","payload","uncletopia"],"game_id":440,"stv_port":27076,"stv_name":"Uncletopia | Frankfurt | 7 | Stopwatch Beta | STV","players":null},{"server_id":24,"name":"Uncletopia | Frankfurt | 8 | Community","name_short":"frk-8","host":"frk-1.de.uncletopia.com","port":27085,"enabled":true,"region":"eu","cc":"de","latitude":50.110924,"longitude":8.682127,"reserved":0,"last_update":"0001-01-01T00:00:00Z","name_a2s":"Uncletopia | Frankfurt | 8 | Community","protocol":17,"map":"workshop/cp_logjam_rc12.ugc454812035","folder":"tf","game":"Team Fortress","app_id":440,"player_count":0,"max_players":24,"Bots":0,"server_type":"Dedicated","server_os":"Linux","password":true,"vac":true,"version":"7757534","steam_id":85568392924742828,"keywords":["cp","nocrits","nodmgspread","uncletopia"],"game_id":440,"stv_port":27086,"stv_name":"Uncletopia | Frankfurt | 8 | Community | STV","players":null},{"server_id":202,"name":"Uncletopia | Hong Kong | 1 | All Maps","name_short":"hgk-1","host":"hgk-1.hk.uncletopia.com","port":27015,"enabled":true,"region":"asia","cc":"hk","latitude":22.302711,"longitude":114.177216,"reserved":0,"last_update":"0001-01-01T00:00:00Z","name_a2s":"Uncletopia | Hong Kong | 1 | All Maps","protocol":17,"map":"cp_process_final","folder":"tf","game":"Team Fortress","app_id":440,"player_count":0,"max_players":24,"Bots":0,"server_type":"Dedicated","server_os":"Linux","password":true,"vac":true,"version":"7757534","steam_id":85568392924494504,"keywords":["cp","nocrits","nodmgspread","uncletopia"],"game_id":440,"stv_port":27016,"stv_name":"Uncletopia | Hong Kong | 1 | All Maps | STV","players":null},{"server_id":1,"name":"Uncletopia | Los Angeles | 1 | All Maps","name_short":"lax-1","host":"lax-1.us.uncletopia.com","port":27015,"enabled":true,"region":"us-west","cc":"us","latitude":33.94279,"longitude":-118.41004,"reserved":0,"last_update":"0001-01-01T00:00:00Z","name_a2s":"Uncletopia | Los Angeles | 1 | All Maps","protocol":17,"map":"cp_mountainlab","folder":"tf","game":"Team Fortress","app_id":440,"player_count":24,"max_players":24,"Bots":0,"server_type":"Dedicated","server_os":"Linux","password":true,"vac":true,"version":"7757534","steam_id":85568392924469991,"keywords":["cp","nocrits","nodmgspread","uncletopia"],"game_id":440,"stv_port":27016,"stv_name":"Uncletopia | Los Angeles | 1 | All Maps | STV","players":[{"user_id":184,"name":"HomesliceHobbes","steam_id":76561198042770895,"connected_time":2500000000000,"state":"active","ping":72},{"user_id":189,"name":"Polygunner","steam_id":76561199165741650,"connected_time":1829000000000,"state":"active","ping":109},{"user_id":211,"name":"Loashes","steam_id":76561198119608299,"connected_time":82000000000,"state":"active","ping":78},{"user_id":202,"name":"JAPANESE GOBLIN","steam_id":76561198190950354,"connected_time":502000000000,"state":"active","ping":70},{"user_id":208,"name":"Project Dusk","steam_id":76561198193521149,"connected_time":124000000000,"state":"active","ping":88},{"user_id":177,"name":"matto1120","steam_id":76561198201321499,"connected_time":2928000000000,"state":"active","ping":55},{"user_id":117,"name":"Nickolish","steam_id":76561198287046224,"connected_time":6940000000000,"state":"active","ping":47},{"user_id":197,"name":"times table","steam_id":76561198341452558,"connected_time":1639000000000,"state":"active","ping":77},{"user_id":201,"name":"hoopswoop9","steam_id":76561199203050556,"connected_time":1179000000000,"state":"active","ping":53},{"user_id":210,"name":"Brando","steam_id":76561198078306678,"connected_time":117000000000,"state":"active","ping":60},{"user_id":205,"name":"Reem0h","steam_id":76561198169848690,"connected_time":227000000000,"state":"active","ping":163},{"user_id":200,"name":"bebo","steam_id":76561198385085005,"connected_time":1343000000000,"state":"active","ping":54},{"user_id":191,"name":"MantisToboggan","steam_id":76561197969447887,"connected_time":1826000000000,"state":"active","ping":114},{"user_id":183,"name":"not a bot","steam_id":76561198319280303,"connected_time":2628000000000,"state":"active","ping":74},{"user_id":198,"name":"Igrium","steam_id":76561198119549811,"connected_time":1424000000000,"state":"active","ping":57},{"user_id":166,"name":"Bond","steam_id":76561198089262776,"connected_time":3934000000000,"state":"active","ping":84},{"user_id":206,"name":"tie dye die guy","steam_id":76561198049845337,"connected_time":214000000000,"state":"active","ping":65},{"user_id":168,"name":"Quon Grene for Vice Prez","steam_id":76561198127545817,"connected_time":3911000000000,"state":"active","ping":70},{"user_id":194,"name":"melt-banana","steam_id":76561198056330171,"connected_time":1808000000000,"state":"active","ping":86},{"user_id":196,"name":"chief.chunk","steam_id":76561198807928980,"connected_time":1692000000000,"state":"active","ping":119},{"user_id":111,"name":"zzz","steam_id":76561199066425911,"connected_time":7075000000000,"state":"active","ping":51},{"user_id":186,"name":"Sky","steam_id":76561198106938500,"connected_time":2086000000000,"state":"active","ping":56},{"user_id":207,"name":"Kraftlos","steam_id":76561198074350350,"connected_time":183000000000,"state":"active","ping":117},{"user_id":212,"name":"BruhMoment","steam_id":76561199213415134,"connected_time":72000000000,"state":"active","ping":64}]},{"server_id":112,"name":"Uncletopia | Los Angeles | 2 | All Maps","name_short":"lax-2","host":"lax-1.us.uncletopia.com","port":27025,"enabled":true,"region":"us-west","cc":"us","latitude":33.94279,"longitude":-118.41004,"reserved":0,"last_update":"0001-01-01T00:00:00Z","name_a2s":"Uncletopia | Los Angeles | 2 | All Maps","protocol":17,"map":"koth_cascade","folder":"tf","game":"Team Fortress","app_id":440,"player_count":0,"max_players":24,"Bots":0,"server_type":"Dedicated","server_os":"Linux","password":true,"vac":true,"version":"7757534","steam_id":85568392924469992,"keywords":["cp","nocrits","nodmgspread","uncletopia"],"game_id":440,"stv_port":27026,"stv_name":"Uncletopia | Los Angeles | 2 | All Maps | STV","players":null},{"server_id":324,"name":"Uncletopia | Los Angeles | 3 | All Maps","name_short":"lax-3","host":"lax-1.us.uncletopia.com","port":27035,"enabled":true,"region":"us-west","cc":"us","latitude":33.94279,"longitude":-118.41004,"reserved":0,"last_update":"0001-01-01T00:00:00Z","name_a2s":"Uncletopia | Los Angeles | 3 | All Maps","protocol":17,"map":"pl_swiftwater_final1","folder":"tf","game":"Team Fortress","app_id":440,"player_count":2,"max_players":24,"Bots":0,"server_type":"Dedicated","server_os":"Linux","password":true,"vac":true,"version":"7757534","steam_id":85568392924510198,"keywords":["nocrits","nodmgspread","payload","uncletopia"],"game_id":440,"stv_port":27036,"stv_name":"Uncletopia | Los Angeles | 3 | All Maps | STV","players":[{"user_id":17,"name":"MancalaMadMan","steam_id":76561198347324053,"connected_time":2926000000000,"state":"active","ping":98},{"user_id":25,"name":"AwesomenessPhD","steam_id":76561198152631718,"connected_time":535000000000,"state":"active","ping":70}]},{"server_id":25,"name":"Uncletopia | Los Angeles | 4 | Stopwatch Beta","name_short":"lax-4","host":"lax-1.us.uncletopia.com","port":27045,"enabled":true,"region":"us-west","cc":"us","latitude":33.94279,"longitude":-118.41004,"reserved":0,"last_update":"0001-01-01T00:00:00Z","name_a2s":"Uncletopia | Los Angeles | 4 | Stopwatch Beta","protocol":17,"map":"pl_frontier_final","folder":"tf","game":"Team Fortress","app_id":440,"player_count":0,"max_players":24,"Bots":0,"server_type":"Dedicated","server_os":"Linux","password":true,"vac":true,"version":"7757534","steam_id":85568392924510199,"keywords":["nocrits","nodmgspread","payload","uncletopia"],"game_id":440,"stv_port":27046,"stv_name":"Uncletopia | Los Angeles | 4 | Stopwatch Beta | STV","players":null},{"server_id":11,"name":"Uncletopia | London | 1 | All Maps","name_short":"lon-1","host":"lon-1.uk.uncletopia.com","port":27015,"enabled":true,"region":"eu","cc":"gb","latitude":51.509865,"longitude":-0.118092,"reserved":0,"last_update":"0001-01-01T00:00:00Z","name_a2s":"Uncletopia | London | 1 | All Maps","protocol":17,"map":"cp_process_final","folder":"tf","game":"Team Fortress","app_id":440,"player_count":21,"max_players":24,"Bots":0,"server_type":"Dedicated","server_os":"Linux","password":true,"vac":true,"version":"7757534","steam_id":85568392924367362,"keywords":["cp","nocrits","nodmgspread","uncletopia"],"game_id":440,"stv_port":27016,"stv_name":"Uncletopia | London | 1 | All Maps | STV","players":[{"user_id":986,"name":"qt wavyz","steam_id":76561199060668138,"connected_time":1430000000000,"state":"active","ping":160},{"user_id":991,"name":"perch","steam_id":76561198214849363,"connected_time":1277000000000,"state":"active","ping":85},{"user_id":996,"name":"thegreentofu","steam_id":76561198164654177,"connected_time":812000000000,"state":"active","ping":54},{"user_id":1008,"name":"Hildreth","steam_id":76561197995254867,"connected_time":52000000000,"state":"active","ping":56},{"user_id":1007,"name":"akari","steam_id":76561198322862462,"connected_time":194000000000,"state":"active","ping":59},{"user_id":968,"name":"Fred","steam_id":76561198107137362,"connected_time":2468000000000,"state":"active","ping":48},{"user_id":975,"name":"Dr.Disrespect","steam_id":76561198043820228,"connected_time":1910000000000,"state":"active","ping":55},{"user_id":1000,"name":"khamba","steam_id":76561198054783240,"connected_time":794000000000,"state":"active","ping":128},{"user_id":997,"name":"multiflex","steam_id":76561198049639319,"connected_time":812000000000,"state":"active","ping":71},{"user_id":1009,"name":"SuntanPikachu","steam_id":76561198121242476,"connected_time":49000000000,"state":"spawning","ping":48},{"user_id":1010,"name":"maze","steam_id":76561197998394797,"connected_time":41000000000,"state":"active","ping":51},{"user_id":983,"name":"Not Jessie","steam_id":76561198025129721,"connected_time":1525000000000,"state":"active","ping":30},{"user_id":1006,"name":"Werakzz","steam_id":76561199043947806,"connected_time":527000000000,"state":"active","ping":54},{"user_id":987,"name":"Economic crisis","steam_id":76561198063562843,"connected_time":1425000000000,"state":"active","ping":62},{"user_id":984,"name":"R0boprod","steam_id":76561198052092018,"connected_time":1521000000000,"state":"active","ping":45},{"user_id":985,"name":"thekoolest88","steam_id":76561199022415672,"connected_time":1451000000000,"state":"active","ping":132},{"user_id":993,"name":"hmscole09","steam_id":76561198811362788,"connected_time":939000000000,"state":"active","ping":55},{"user_id":972,"name":"Bolund Falkreath","steam_id":76561198531978435,"connected_time":1960000000000,"state":"active","ping":68},{"user_id":1001,"name":"dlk","steam_id":76561198086660302,"connected_time":733000000000,"state":"active","ping":42},{"user_id":954,"name":"Tsuruko","steam_id":76561198063618114,"connected_time":3597000000000,"state":"active","ping":66},{"user_id":971,"name":"stuntz","steam_id":76561197974814348,"connected_time":1970000000000,"state":"active","ping":72}]},{"server_id":114,"name":"Uncletopia | London | 2 | All Maps","name_short":"lon-2","host":"lon-1.uk.uncletopia.com","port":27025,"enabled":true,"region":"eu","cc":"gb","latitude":51.509865,"longitude":-0.118092,"reserved":0,"last_update":"0001-01-01T00:00:00Z","name_a2s":"Uncletopia | London | 2 | All Maps","protocol":17,"map":"cp_sunshine","folder":"tf","game":"Team Fortress","app_id":440,"player_count":0,"max_players":24,"Bots":0,"server_type":"Dedicated","server_os":"Linux","password":true,"vac":true,"version":"7757534","steam_id":85568392924470941,"keywords":["cp","nocrits","nodmgspread","uncletopia"],"game_id":440,"stv_port":27026,"stv_name":"Uncletopia | London | 2 | All Maps | STV","players":null},{"server_id":320,"name":"Uncletopia | London | 3 | All Maps","name_short":"lon-3","host":"lon-1.uk.uncletopia.com","port":27035,"enabled":true,"region":"eu","cc":"gb","latitude":51.509865,"longitude":-0.118092,"reserved":0,"last_update":"0001-01-01T00:00:00Z","name_a2s":"Uncletopia | London | 3 | All Maps","protocol":17,"map":"koth_viaduct","folder":"tf","game":"Team Fortress","app_id":440,"player_count":0,"max_players":24,"Bots":0,"server_type":"Dedicated","server_os":"Linux","password":true,"vac":true,"version":"7757534","steam_id":85568392924510192,"keywords":["cp","nocrits","nodmgspread","uncletopia"],"game_id":440,"stv_port":27036,"stv_name":"Uncletopia | London | 3 | All Maps | STV","players":null},{"server_id":321,"name":"Uncletopia | London | 4 | All Maps","name_short":"lon-4","host":"lon-1.uk.uncletopia.com","port":27045,"enabled":true,"region":"eu","cc":"gb","latitude":51.509865,"longitude":-0.118092,"reserved":0,"last_update":"0001-01-01T00:00:00Z","name_a2s":"Uncletopia | London | 4 | All Maps","protocol":17,"map":"koth_viaduct","folder":"tf","game":"Team Fortress","app_id":440,"player_count":0,"max_players":24,"Bots":0,"server_type":"Dedicated","server_os":"Linux","password":true,"vac":true,"version":"7757534","steam_id":85568392924510193,"keywords":["cp","nocrits","nodmgspread","uncletopia"],"game_id":440,"stv_port":27046,"stv_name":"Uncletopia | London | 4 | All Maps | STV","players":null},{"server_id":21,"name":"Uncletopia | London | 5 | All Maps","name_short":"lon-5","host":"lon-1.uk.uncletopia.com","port":27055,"enabled":true,"region":"eu","cc":"gb","latitude":51.509865,"longitude":-0.118092,"reserved":0,"last_update":"0001-01-01T00:00:00Z","name_a2s":"Uncletopia | London | 5 | All Maps","protocol":17,"map":"cp_mountainlab","folder":"tf","game":"Team Fortress","app_id":440,"player_count":0,"max_players":24,"Bots":0,"server_type":"Dedicated","server_os":"Linux","password":true,"vac":true,"version":"7757534","steam_id":85568392924742829,"keywords":["cp","nocrits","nodmgspread","uncletopia"],"game_id":440,"stv_port":27056,"stv_name":"Uncletopia | London | 5 | All Maps | STV","players":null},{"server_id":22,"name":"Uncletopia | London | 6 | All Maps","name_short":"lon-6","host":"lon-1.uk.uncletopia.com","port":27065,"enabled":true,"region":"eu","cc":"gb","latitude":51.509865,"longitude":-0.118092,"reserved":0,"last_update":"0001-01-01T00:00:00Z","name_a2s":"Uncletopia | London | 6 | All Maps","protocol":17,"map":"koth_cascade","folder":"tf","game":"Team Fortress","app_id":440,"player_count":0,"max_players":24,"Bots":0,"server_type":"Dedicated","server_os":"Linux","password":true,"vac":true,"version":"7757534","steam_id":85568392924742830,"keywords":["cp","nocrits","nodmgspread","uncletopia"],"game_id":440,"stv_port":27066,"stv_name":"Uncletopia | London | 6 | All Maps | STV","players":null},{"server_id":40,"name":"Uncletopia | London | 7 | No Payload","name_short":"lon-7","host":"lon-1.uk.uncletopia.com","port":27075,"enabled":true,"region":"eu","cc":"gb","latitude":51.509865,"longitude":-0.118092,"reserved":0,"last_update":"0001-01-01T00:00:00Z","name_a2s":"Uncletopia | London | 7 | No Payload","protocol":17,"map":"cp_sunshine","folder":"tf","game":"Team Fortress","app_id":440,"player_count":0,"max_players":24,"Bots":0,"server_type":"Dedicated","server_os":"Linux","password":true,"vac":true,"version":"7757534","steam_id":85568392924964314,"keywords":["cp","nocrits","nodmgspread","uncletopia"],"game_id":440,"stv_port":27076,"stv_name":"Uncletopia | London | 7 | No Payload | STV","players":null},{"server_id":41,"name":"Uncletopia | London | 8 | Community","name_short":"lon-8","host":"lon-1.uk.uncletopia.com","port":27085,"enabled":true,"region":"eu","cc":"gb","latitude":51.509865,"longitude":-0.118092,"reserved":0,"last_update":"0001-01-01T00:00:00Z","name_a2s":"Uncletopia | London | 8 | Community","protocol":17,"map":"workshop/koth_ashville_final.ugc2130459942","folder":"tf","game":"Team Fortress","app_id":440,"player_count":0,"max_players":24,"Bots":0,"server_type":"Dedicated","server_os":"Linux","password":true,"vac":true,"version":"7757534","steam_id":85568392924964315,"keywords":["cp","nocrits","nodmgspread","uncletopia"],"game_id":440,"stv_port":27086,"stv_name":"Uncletopia | London | 8 | Community | STV","players":null},{"server_id":300,"name":"Uncletopia | Montréal | 1 | All Maps","name_short":"mtl-1","host":"mtl-1.ca.uncletopia.com","port":27015,"enabled":true,"region":"us-east","cc":"ca","latitude":45.50889,"longitude":-73.56167,"reserved":0,"last_update":"0001-01-01T00:00:00Z","name_a2s":"Uncletopia | Montréal | 1 | All Maps","protocol":17,"map":"pl_swiftwater_final1","folder":"tf","game":"Team Fortress","app_id":440,"player_count":0,"max_players":24,"Bots":0,"server_type":"Dedicated","server_os":"Linux","password":true,"vac":true,"version":"7757534","steam_id":85568392924500087,"keywords":["nocrits","nodmgspread","payload","uncletopia"],"game_id":440,"stv_port":27016,"stv_name":"Uncletopia | Montréal | 1 | All Maps | STV","players":null},{"server_id":301,"name":"Uncletopia | Montréal | 2 | All Maps","name_short":"mtl-2","host":"mtl-1.ca.uncletopia.com","port":27025,"enabled":true,"region":"us-east","cc":"ca","latitude":45.50889,"longitude":-73.56167,"reserved":0,"last_update":"0001-01-01T00:00:00Z","name_a2s":"Uncletopia | Montréal | 2 | All Maps","protocol":17,"map":"koth_viaduct","folder":"tf","game":"Team Fortress","app_id":440,"player_count":0,"max_players":24,"Bots":0,"server_type":"Dedicated","server_os":"Linux","password":true,"vac":true,"version":"7757534","steam_id":85568392924500088,"keywords":["cp","nocrits","nodmgspread","uncletopia"],"game_id":440,"stv_port":27026,"stv_name":"Uncletopia | Montréal | 2 | All Maps | STV","players":null},{"server_id":302,"name":"Uncletopia | Montréal | 3 | All Maps","name_short":"mtl-3","host":"mtl-1.ca.uncletopia.com","port":27035,"enabled":true,"region":"us-east","cc":"ca","latitude":45.50889,"longitude":-73.56167,"reserved":0,"last_update":"0001-01-01T00:00:00Z","name_a2s":"Uncletopia | Montréal | 3 | All Maps","protocol":17,"map":"cp_dustbowl","folder":"tf","game":"Team Fortress","app_id":440,"player_count":0,"max_players":24,"Bots":0,"server_type":"Dedicated","server_os":"Linux","password":true,"vac":true,"version":"7757534","steam_id":85568392924500089,"keywords":["cp","nocrits","nodmgspread","uncletopia"],"game_id":440,"stv_port":27036,"stv_name":"Uncletopia | Montréal | 3 | All Maps | STV","players":null},{"server_id":303,"name":"Uncletopia | Montréal | 4 | No Payload","name_short":"mtl-4","host":"mtl-1.ca.uncletopia.com","port":27045,"enabled":true,"region":"us-east","cc":"ca","latitude":45.50889,"longitude":-73.56167,"reserved":0,"last_update":"0001-01-01T00:00:00Z","name_a2s":"Uncletopia | Montréal | 4 | No Payload","protocol":17,"map":"ctf_doublecross","folder":"tf","game":"Team Fortress","app_id":440,"player_count":0,"max_players":24,"Bots":0,"server_type":"Dedicated","server_os":"Linux","password":true,"vac":true,"version":"7757534","steam_id":85568392924500090,"keywords":["ctf","nocrits","nodmgspread","uncletopia"],"game_id":440,"stv_port":27046,"stv_name":"Uncletopia | Montréal | 4 | No Payload | STV","players":null},{"server_id":13,"name":"Uncletopia | New York City | 1 | All Maps","name_short":"nyc-1","host":"nyc-1.us.uncletopia.com","port":27015,"enabled":true,"region":"us-east","cc":"us","latitude":40.73061,"longitude":-73.93524,"reserved":0,"last_update":"0001-01-01T00:00:00Z","name_a2s":"Uncletopia | New York City | 1 | All Maps","protocol":17,"map":"pl_upward","folder":"tf","game":"Team Fortress","app_id":440,"player_count":24,"max_players":24,"Bots":0,"server_type":"Dedicated","server_os":"Linux","password":true,"vac":true,"version":"7757534","steam_id":85568392924469993,"keywords":["nocrits","nodmgspread","payload","uncletopia"],"game_id":440,"stv_port":27016,"stv_name":"Uncletopia | New York City | 1 | All Maps | STV","players":[{"user_id":600,"name":"Mythical Lag","steam_id":76561198347031281,"connected_time":1608000000000,"state":"active","ping":87},{"user_id":628,"name":"sam!!! :)","steam_id":76561198217362968,"connected_time":38000000000,"state":"spawning","ping":90},{"user_id":588,"name":"portablestove","steam_id":76561197999392355,"connected_time":2544000000000,"state":"active","ping":79},{"user_id":629,"name":"Lemongrab Enjoyer","steam_id":76561199059257565,"connected_time":14000000000,"state":"active","ping":110},{"user_id":622,"name":"muzikelretifhbr","steam_id":76561198445169719,"connected_time":497000000000,"state":"active","ping":114},{"user_id":630,"name":"Aristotle Voulton","steam_id":76561198100174923,"connected_time":9000000000,"state":"spawning","ping":112},{"user_id":631,"name":"guac","steam_id":76561198025481672,"connected_time":3000000000,"state":"spawning","ping":39},{"user_id":601,"name":"FierceDietingLink","steam_id":76561197977133159,"connected_time":1601000000000,"state":"active","ping":38},{"user_id":597,"name":"PinkLemonade","steam_id":76561198799286228,"connected_time":1977000000000,"state":"active","ping":47},{"user_id":578,"name":"Marshall","steam_id":76561198042570322,"connected_time":4044000000000,"state":"active","ping":74},{"user_id":605,"name":"Complex_Divine","steam_id":76561198812369488,"connected_time":1577000000000,"state":"active","ping":122},{"user_id":620,"name":"craig","steam_id":76561198402235691,"connected_time":766000000000,"state":"active","ping":73},{"user_id":614,"name":"Big G","steam_id":76561198067496197,"connected_time":1159000000000,"state":"active","ping":48},{"user_id":559,"name":"cooltool21","steam_id":76561197996817585,"connected_time":5310000000000,"state":"active","ping":56},{"user_id":580,"name":"Pizza","steam_id":76561198118748364,"connected_time":4036000000000,"state":"active","ping":62},{"user_id":624,"name":"Wubs","steam_id":76561198100722286,"connected_time":323000000000,"state":"active","ping":63},{"user_id":603,"name":"JACOB","steam_id":76561198211874895,"connected_time":1589000000000,"state":"spawning","ping":72},{"user_id":615,"name":"Heropon","steam_id":76561198105224481,"connected_time":1000000000000,"state":"active","ping":64},{"user_id":619,"name":"Johnny Lawrence #JohnnyMaxxing","steam_id":76561199367141671,"connected_time":796000000000,"state":"active","ping":45},{"user_id":583,"name":"Super D Duper","steam_id":76561198078203677,"connected_time":3746000000000,"state":"spawning","ping":49},{"user_id":587,"name":"Autogyro","steam_id":76561198047943679,"connected_time":2550000000000,"state":"active","ping":78},{"user_id":610,"name":"PAC-MATH","steam_id":76561198327729748,"connected_time":1436000000000,"state":"active","ping":64},{"user_id":627,"name":"ClericsRose","steam_id":76561198011013806,"connected_time":220000000000,"state":"active","ping":122},{"user_id":632,"name":"Theodore Roosevelt","steam_id":76561197993295656,"connected_time":3000000000,"state":"spawning","ping":59}]},{"server_id":14,"name":"Uncletopia | New York City | 2 | All Maps","name_short":"nyc-2","host":"nyc-1.us.uncletopia.com","port":27025,"enabled":true,"region":"us-east","cc":"us","latitude":40.73061,"longitude":-73.93524,"reserved":0,"last_update":"0001-01-01T00:00:00Z","name_a2s":"Uncletopia | New York City | 2 | All Maps","protocol":17,"map":"cp_badlands","folder":"tf","game":"Team Fortress","app_id":440,"player_count":25,"max_players":24,"Bots":0,"server_type":"Dedicated","server_os":"Linux","password":true,"vac":true,"version":"7757534","steam_id":85568392924469994,"keywords":["cp","nocrits","nodmgspread","uncletopia"],"game_id":440,"stv_port":27026,"stv_name":"Uncletopia | New York City | 2 | All Maps | STV","players":[{"user_id":433,"name":"Meurik","steam_id":76561198078032795,"connected_time":1877000000000,"state":"active","ping":162},{"user_id":452,"name":"Tyrone","steam_id":76561198189429665,"connected_time":260000000000,"state":"active","ping":75},{"user_id":426,"name":"thegamer5196","steam_id":76561199096526841,"connected_time":1931000000000,"state":"active","ping":44},{"user_id":445,"name":"weedcat","steam_id":76561198346054736,"connected_time":1155000000000,"state":"active","ping":62},{"user_id":439,"name":"Luami","steam_id":76561198873330971,"connected_time":1549000000000,"state":"active","ping":59},{"user_id":415,"name":"Chewbacca","steam_id":76561198041927925,"connected_time":2701000000000,"state":"active","ping":56},{"user_id":461,"name":"Plutia","steam_id":76561197996787193,"connected_time":27000000000,"state":"active","ping":65},{"user_id":450,"name":"Rex","steam_id":76561198138365053,"connected_time":532000000000,"state":"active","ping":129},{"user_id":441,"name":"rkp!","steam_id":76561199053070819,"connected_time":1502000000000,"state":"active","ping":74},{"user_id":432,"name":"Alex","steam_id":76561198116937513,"connected_time":1904000000000,"state":"active","ping":69},{"user_id":428,"name":"alrs921","steam_id":76561199180508348,"connected_time":1926000000000,"state":"active","ping":103},{"user_id":457,"name":"Punkin","steam_id":76561198334301755,"connected_time":158000000000,"state":"active","ping":53},{"user_id":419,"name":"koob","steam_id":76561198987464129,"connected_time":2628000000000,"state":"active","ping":43},{"user_id":377,"name":"the doo doo man","steam_id":76561198057076267,"connected_time":5084000000000,"state":"active","ping":75},{"user_id":423,"name":"lesbian demon ⛤","steam_id":76561198039604491,"connected_time":2094000000000,"state":"active","ping":114},{"user_id":379,"name":"Gian","steam_id":76561198041434512,"connected_time":5077000000000,"state":"active","ping":111},{"user_id":454,"name":"ClericsRose","steam_id":76561198011013806,"connected_time":243000000000,"state":"connecting","ping":0},{"user_id":443,"name":"white ray","steam_id":76561198026664629,"connected_time":1451000000000,"state":"active","ping":45},{"user_id":268,"name":"Elixir","steam_id":76561198166786809,"connected_time":13060000000000,"state":"active","ping":55},{"user_id":459,"name":"Big McThankies From McSpankies","steam_id":76561198020516880,"connected_time":126000000000,"state":"active","ping":106},{"user_id":413,"name":"Lesbian Chungus","steam_id":76561198055964295,"connected_time":2848000000000,"state":"active","ping":68},{"user_id":449,"name":"Lost CS player","steam_id":76561198892387723,"connected_time":597000000000,"state":"active","ping":58},{"user_id":455,"name":"Brock O'Brian","steam_id":76561198117839474,"connected_time":202000000000,"state":"active","ping":77},{"user_id":421,"name":"Dorothy","steam_id":76561198152455316,"connected_time":2625000000000,"state":"active","ping":155},{"user_id":458,"name":"Taze","steam_id":76561198000708462,"connected_time":158000000000,"state":"active","ping":68}]},{"server_id":15,"name":"Uncletopia | New York City | 3 | Stopwatch Beta","name_short":"nyc-3","host":"nyc-1.us.uncletopia.com","port":27035,"enabled":true,"region":"us-east","cc":"us","latitude":40.73061,"longitude":-73.93524,"reserved":0,"last_update":"0001-01-01T00:00:00Z","name_a2s":"Uncletopia | New York City | 3 | Stopwatch Beta","protocol":17,"map":"koth_highpass","folder":"tf","game":"Team Fortress","app_id":440,"player_count":0,"max_players":24,"Bots":0,"server_type":"Dedicated","server_os":"Linux","password":true,"vac":true,"version":"7757534","steam_id":85568392924742820,"keywords":["cp","nocrits","nodmgspread","uncletopia"],"game_id":440,"stv_port":27036,"stv_name":"Uncletopia | New York City | 3 | Stopwatch Beta | STV","players":null},{"server_id":16,"name":"Uncletopia | New York City | 4 | Community","name_short":"nyc-4","host":"nyc-1.us.uncletopia.com","port":27045,"enabled":true,"region":"us-east","cc":"us","latitude":40.73061,"longitude":-73.93524,"reserved":0,"last_update":"0001-01-01T00:00:00Z","name_a2s":"Uncletopia | New York City | 4 | Community","protocol":17,"map":"workshop/koth_ashville_final.ugc2130459942","folder":"tf","game":"Team Fortress","app_id":440,"player_count":0,"max_players":24,"Bots":0,"server_type":"Dedicated","server_os":"Linux","password":true,"vac":true,"version":"7757534","steam_id":85568392924742821,"keywords":["cp","nocrits","nodmgspread","uncletopia"],"game_id":440,"stv_port":27046,"stv_name":"Uncletopia | New York City | 4 | Community | STV","players":null},{"server_id":142,"name":"Uncletopia | São Paulo | 1 | All Maps","name_short":"sao-1","host":"sao-1.br.uncletopia.com","port":27015,"enabled":true,"region":"sa","cc":"br","latitude":-23.533773,"longitude":-46.62529,"reserved":0,"last_update":"0001-01-01T00:00:00Z","name_a2s":"Uncletopia | São Paulo | 1 | All Maps","protocol":17,"map":"koth_cascade","folder":"tf","game":"Team Fortress","app_id":440,"player_count":0,"max_players":24,"Bots":0,"server_type":"Dedicated","server_os":"Linux","password":true,"vac":true,"version":"7757534","steam_id":85568392924469996,"keywords":["cp","nocrits","nodmgspread","uncletopia"],"game_id":440,"stv_port":27016,"stv_name":"Uncletopia | São Paulo | 1 | All Maps | STV","players":null},{"server_id":143,"name":"Uncletopia | São Paulo | 2 | All Maps","name_short":"sao-2","host":"sao-2.br.uncletopia.com","port":27015,"enabled":true,"region":"sa","cc":"br","latitude":-23.533773,"longitude":-46.62529,"reserved":0,"last_update":"0001-01-01T00:00:00Z","name_a2s":"Uncletopia | São Paulo | 2 | All Maps","protocol":17,"map":"koth_highpass","folder":"tf","game":"Team Fortress","app_id":440,"player_count":0,"max_players":24,"Bots":0,"server_type":"Dedicated","server_os":"Linux","password":true,"vac":true,"version":"7757534","steam_id":85568392924485349,"keywords":["cp","nocrits","nodmgspread","uncletopia"],"game_id":440,"stv_port":27016,"stv_name":"Uncletopia | São Paulo | 2 | All Maps | STV","players":null},{"server_id":7,"name":"Uncletopia | Seattle | 1 | All Maps","name_short":"sea-1","host":"sea-1.us.uncletopia.com","port":27015,"enabled":true,"region":"us-west","cc":"us","latitude":47.608013,"longitude":-122.33517,"reserved":0,"last_update":"0001-01-01T00:00:00Z","name_a2s":"Uncletopia | Seattle | 1 | All Maps","protocol":17,"map":"pl_swiftwater_final1","folder":"tf","game":"Team Fortress","app_id":440,"player_count":24,"max_players":24,"Bots":0,"server_type":"Dedicated","server_os":"Linux","password":true,"vac":true,"version":"7757534","steam_id":85568392924469997,"keywords":["nocrits","nodmgspread","payload","uncletopia"],"game_id":440,"stv_port":27016,"stv_name":"Uncletopia | Seattle | 1 | All Maps | STV","players":[{"user_id":509,"name":"Lambchop","steam_id":76561198043900363,"connected_time":6339000000000,"state":"active","ping":82},{"user_id":532,"name":"Fh","steam_id":76561198000903511,"connected_time":4184000000000,"state":"active","ping":61},{"user_id":568,"name":"soup","steam_id":76561198043209046,"connected_time":932000000000,"state":"active","ping":88},{"user_id":573,"name":"rat gets the cheese","steam_id":76561198031234032,"connected_time":480000000000,"state":"active","ping":98},{"user_id":569,"name":"money getter","steam_id":76561199065645094,"connected_time":838000000000,"state":"active","ping":84},{"user_id":520,"name":"shane","steam_id":76561198060491451,"connected_time":5765000000000,"state":"active","ping":119},{"user_id":545,"name":"resh","steam_id":76561198239598834,"connected_time":3453000000000,"state":"active","ping":144},{"user_id":548,"name":"SHADOW (he/him)","steam_id":76561198207768148,"connected_time":3183000000000,"state":"active","ping":89},{"user_id":563,"name":"Must Ard","steam_id":76561198271939793,"connected_time":1202000000000,"state":"active","ping":47},{"user_id":537,"name":"EEBIGAA","steam_id":76561198056535988,"connected_time":4006000000000,"state":"active","ping":76},{"user_id":571,"name":"en.wikipedia.org/wiki/Nae_Nae","steam_id":76561198418288939,"connected_time":790000000000,"state":"active","ping":78},{"user_id":561,"name":"Flyingcat9000","steam_id":76561198179561797,"connected_time":1635000000000,"state":"active","ping":53},{"user_id":559,"name":"Steve","steam_id":76561198352805460,"connected_time":1740000000000,"state":"active","ping":72},{"user_id":570,"name":"HUNTER","steam_id":76561198085325660,"connected_time":836000000000,"state":"active","ping":63},{"user_id":574,"name":"TROY","steam_id":76561197983852176,"connected_time":418000000000,"state":"active","ping":84},{"user_id":547,"name":"Xruffel :3 (gay)","steam_id":76561198067697879,"connected_time":3212000000000,"state":"active","ping":107},{"user_id":480,"name":"Luca","steam_id":76561198125087140,"connected_time":9532000000000,"state":"active","ping":46},{"user_id":543,"name":"chunkysquare","steam_id":76561199076468383,"connected_time":3507000000000,"state":"active","ping":63},{"user_id":564,"name":"KingTinkerer","steam_id":76561198226856548,"connected_time":1198000000000,"state":"active","ping":77},{"user_id":560,"name":"ohio","steam_id":76561198097637080,"connected_time":1726000000000,"state":"active","ping":127},{"user_id":530,"name":"mumbles","steam_id":76561197994528974,"connected_time":4625000000000,"state":"active","ping":81},{"user_id":553,"name":"BolognaWithOlives","steam_id":76561198101262668,"connected_time":2365000000000,"state":"active","ping":89},{"user_id":556,"name":"Grammaring","steam_id":76561198867366139,"connected_time":2336000000000,"state":"active","ping":81},{"user_id":567,"name":"YahYeeterson","steam_id":76561198120480906,"connected_time":972000000000,"state":"active","ping":65}]},{"server_id":119,"name":"Uncletopia | Seattle | 2 | All Maps","name_short":"sea-2","host":"sea-1.us.uncletopia.com","port":27025,"enabled":true,"region":"us-west","cc":"us","latitude":47.608013,"longitude":-122.33517,"reserved":0,"last_update":"0001-01-01T00:00:00Z","name_a2s":"Uncletopia | Seattle | 2 | All Maps","protocol":17,"map":"cp_dustbowl","folder":"tf","game":"Team Fortress","app_id":440,"player_count":24,"max_players":24,"Bots":0,"server_type":"Dedicated","server_os":"Linux","password":true,"vac":true,"version":"7757534","steam_id":85568392924469998,"keywords":["cp","nocrits","nodmgspread","uncletopia"],"game_id":440,"stv_port":27026,"stv_name":"Uncletopia | Seattle | 2 | All Maps | STV","players":[{"user_id":374,"name":"flishko","steam_id":76561198326489802,"connected_time":1889000000000,"state":"active","ping":56},{"user_id":390,"name":"texticks","steam_id":76561198045184255,"connected_time":851000000000,"state":"active","ping":47},{"user_id":378,"name":"Butters495","steam_id":76561197998689042,"connected_time":1689000000000,"state":"active","ping":93},{"user_id":397,"name":"online","steam_id":76561198192531745,"connected_time":80000000000,"state":"active","ping":65},{"user_id":396,"name":"Kanga Roo","steam_id":76561198073358867,"connected_time":205000000000,"state":"active","ping":49},{"user_id":359,"name":"Genius Meme","steam_id":76561198162911254,"connected_time":3344000000000,"state":"active","ping":107},{"user_id":329,"name":"Agent86","steam_id":76561198046794593,"connected_time":4882000000000,"state":"active","ping":97},{"user_id":386,"name":"Jorge_dude_2008","steam_id":76561198870649125,"connected_time":1166000000000,"state":"active","ping":81},{"user_id":389,"name":"come here cupcake","steam_id":76561198877042360,"connected_time":1056000000000,"state":"active","ping":121},{"user_id":344,"name":"Algibruh","steam_id":76561199221599415,"connected_time":4121000000000,"state":"active","ping":38},{"user_id":357,"name":"NGsterson","steam_id":76561198162108154,"connected_time":3379000000000,"state":"active","ping":51},{"user_id":380,"name":"Rude Dog","steam_id":76561197980385816,"connected_time":1533000000000,"state":"active","ping":72},{"user_id":361,"name":"aqua","steam_id":76561199407709552,"connected_time":3322000000000,"state":"active","ping":90},{"user_id":367,"name":"larguu","steam_id":76561197994336210,"connected_time":2558000000000,"state":"active","ping":116},{"user_id":394,"name":"xd","steam_id":76561197995927883,"connected_time":260000000000,"state":"active","ping":59},{"user_id":398,"name":"h","steam_id":76561198868164815,"connected_time":31000000000,"state":"active","ping":57},{"user_id":312,"name":"Deathninja952","steam_id":76561199066489355,"connected_time":6208000000000,"state":"active","ping":149},{"user_id":383,"name":"Fear mé","steam_id":76561198212969373,"connected_time":1246000000000,"state":"active","ping":74},{"user_id":307,"name":"leeeeeeeeeeeeeeeeeeeeeeeeeee","steam_id":76561199083322731,"connected_time":6308000000000,"state":"active","ping":116},{"user_id":355,"name":"Tibetan Pop Star","steam_id":76561198844903984,"connected_time":3385000000000,"state":"active","ping":85},{"user_id":375,"name":"1dk","steam_id":76561198135104742,"connected_time":1797000000000,"state":"active","ping":55},{"user_id":333,"name":"DoctorHa","steam_id":76561198044026008,"connected_time":4642000000000,"state":"active","ping":94},{"user_id":388,"name":"Joey The Goat","steam_id":76561198864691307,"connected_time":1126000000000,"state":"active","ping":123},{"user_id":319,"name":"eye see you","steam_id":76561198115242460,"connected_time":5784000000000,"state":"active","ping":47}]},{"server_id":406,"name":"Uncletopia | Seattle | 3 | Stopwatch Beta","name_short":"sea-3","host":"sea-1.us.uncletopia.com","port":27035,"enabled":true,"region":"us-west","cc":"us","latitude":47.608013,"longitude":-122.33517,"reserved":0,"last_update":"0001-01-01T00:00:00Z","name_a2s":"Uncletopia | Seattle | 3 | Stopwatch Beta","protocol":17,"map":"cp_sunshine","folder":"tf","game":"Team Fortress","app_id":440,"player_count":0,"max_players":24,"Bots":0,"server_type":"Dedicated","server_os":"Linux","password":true,"vac":true,"version":"7757534","steam_id":85568392924515217,"keywords":["cp","nocrits","nodmgspread","uncletopia"],"game_id":440,"stv_port":27036,"stv_name":"Uncletopia | Seattle | 3 | Stopwatch Beta | STV","players":null},{"server_id":17,"name":"Uncletopia | San Francisco | 1 | All Maps","name_short":"sfo-1","host":"sfo-1.us.uncletopia.com","port":27015,"enabled":true,"region":"us-west","cc":"us","latitude":37.77397,"longitude":-122.4313,"reserved":0,"last_update":"0001-01-01T00:00:00Z","name_a2s":"Uncletopia | San Francisco | 1 | All Maps","protocol":17,"map":"pl_upward","folder":"tf","game":"Team Fortress","app_id":440,"player_count":24,"max_players":24,"Bots":0,"server_type":"Dedicated","server_os":"Linux","password":true,"vac":true,"version":"7757534","steam_id":85568392924469999,"keywords":["nocrits","nodmgspread","payload","uncletopia"],"game_id":440,"stv_port":27016,"stv_name":"Uncletopia | San Francisco | 1 | All Maps | STV","players":[{"user_id":257,"name":"Jon Snuh","steam_id":76561198075298635,"connected_time":1235000000000,"state":"active","ping":128},{"user_id":216,"name":"LazyDoll","steam_id":76561198053186338,"connected_time":5073000000000,"state":"active","ping":53},{"user_id":253,"name":"your mom calls me princess too","steam_id":76561198020400899,"connected_time":1362000000000,"state":"active","ping":63},{"user_id":132,"name":"domky","steam_id":76561198066114874,"connected_time":11620000000000,"state":"active","ping":75},{"user_id":254,"name":"Poopie Babie","steam_id":76561198047500494,"connected_time":1357000000000,"state":"active","ping":65},{"user_id":184,"name":"Smiley_R5","steam_id":76561198113083770,"connected_time":8334000000000,"state":"active","ping":100},{"user_id":269,"name":"Horse","steam_id":76561199112075552,"connected_time":75000000000,"state":"active","ping":110},{"user_id":256,"name":"hersheybargame","steam_id":76561199162003623,"connected_time":1345000000000,"state":"active","ping":64},{"user_id":252,"name":"Starbound","steam_id":76561198417285529,"connected_time":1712000000000,"state":"active","ping":89},{"user_id":242,"name":"Xavibite","steam_id":76561198209380493,"connected_time":2316000000000,"state":"active","ping":106},{"user_id":217,"name":"Jkbh1","steam_id":76561198093449670,"connected_time":5060000000000,"state":"active","ping":77},{"user_id":237,"name":"❤ Ashley ❤","steam_id":76561198056428303,"connected_time":3249000000000,"state":"active","ping":54},{"user_id":258,"name":"Nokomus","steam_id":76561198056973765,"connected_time":1224000000000,"state":"active","ping":117},{"user_id":248,"name":"self sufficient kitten","steam_id":76561197960592612,"connected_time":1804000000000,"state":"active","ping":63},{"user_id":138,"name":":bunnyinablanket:","steam_id":76561198149443710,"connected_time":11485000000000,"state":"active","ping":61},{"user_id":262,"name":"Calypso","steam_id":76561198082939544,"connected_time":1060000000000,"state":"active","ping":99},{"user_id":267,"name":"Red Heavy The Sandwich Slayer","steam_id":76561199187226776,"connected_time":101000000000,"state":"active","ping":86},{"user_id":251,"name":"cool #1 weezer fan","steam_id":76561199172518546,"connected_time":1743000000000,"state":"active","ping":106},{"user_id":210,"name":"mcdonal poptart","steam_id":76561198206922028,"connected_time":6061000000000,"state":"active","ping":59},{"user_id":263,"name":"A Fruit","steam_id":76561198951830050,"connected_time":551000000000,"state":"active","ping":88},{"user_id":265,"name":"I (heart) HENTAI","steam_id":76561198890621303,"connected_time":364000000000,"state":"active","ping":124},{"user_id":197,"name":"wizard","steam_id":76561198153972834,"connected_time":6760000000000,"state":"active","ping":88},{"user_id":261,"name":"OldManArzo","steam_id":76561198414873074,"connected_time":1082000000000,"state":"active","ping":69},{"user_id":268,"name":"ELECTROMASTER899","steam_id":76561199176657870,"connected_time":97000000000,"state":"active","ping":79}]},{"server_id":18,"name":"Uncletopia | San Francisco | 2 | All Maps","name_short":"sfo-2","host":"sfo-1.us.uncletopia.com","port":27025,"enabled":true,"region":"us-west","cc":"us","latitude":37.77397,"longitude":-122.4313,"reserved":0,"last_update":"0001-01-01T00:00:00Z","name_a2s":"Uncletopia | San Francisco | 2 | All Maps","protocol":17,"map":"cp_mountainlab","folder":"tf","game":"Team Fortress","app_id":440,"player_count":23,"max_players":24,"Bots":0,"server_type":"Dedicated","server_os":"Linux","password":true,"vac":true,"version":"7757534","steam_id":85568392924470000,"keywords":["cp","nocrits","nodmgspread","uncletopia"],"game_id":440,"stv_port":27026,"stv_name":"Uncletopia | San Francisco | 2 | All Maps | STV","players":[{"user_id":26,"name":"Bip","steam_id":76561199022962204,"connected_time":1595000000000,"state":"active","ping":99},{"user_id":27,"name":"CivilWarMike","steam_id":76561198141188839,"connected_time":1553000000000,"state":"active","ping":106},{"user_id":29,"name":"Yimbo","steam_id":76561198087329444,"connected_time":1450000000000,"state":"active","ping":56},{"user_id":28,"name":"Screw and Wrench Rob","steam_id":76561198407166710,"connected_time":1552000000000,"state":"active","ping":124},{"user_id":20,"name":"Dorso","steam_id":76561198380590080,"connected_time":1838000000000,"state":"active","ping":55},{"user_id":21,"name":"alepapa6","steam_id":76561198967508561,"connected_time":1830000000000,"state":"active","ping":93},{"user_id":22,"name":"paolobuts","steam_id":76561199047108638,"connected_time":1764000000000,"state":"active","ping":40},{"user_id":23,"name":"Zero Hour","steam_id":76561198032790221,"connected_time":1734000000000,"state":"active","ping":78},{"user_id":24,"name":"DoctorDucky","steam_id":76561198356434380,"connected_time":1726000000000,"state":"active","ping":60},{"user_id":25,"name":"naothns17213876378","steam_id":76561199128155539,"connected_time":1720000000000,"state":"active","ping":87},{"user_id":52,"name":"ryghehn","steam_id":76561198195359229,"connected_time":225000000000,"state":"active","ping":52},{"user_id":32,"name":"GRFyN","steam_id":76561198107481503,"connected_time":1422000000000,"state":"active","ping":54},{"user_id":42,"name":"zinnk","steam_id":76561198092081825,"connected_time":1284000000000,"state":"active","ping":42},{"user_id":54,"name":"KitKat","steam_id":76561198191536489,"connected_time":121000000000,"state":"active","ping":72},{"user_id":35,"name":"I Snort Spies","steam_id":76561198969987841,"connected_time":1401000000000,"state":"active","ping":76},{"user_id":37,"name":"Adalwolfa","steam_id":76561198194671218,"connected_time":1359000000000,"state":"active","ping":99},{"user_id":50,"name":"Duncle Frazzle","steam_id":76561198145596626,"connected_time":406000000000,"state":"active","ping":57},{"user_id":46,"name":"brandofpie","steam_id":76561198835825550,"connected_time":918000000000,"state":"active","ping":100},{"user_id":40,"name":"dubba (•̀_•́ )","steam_id":76561199428471192,"connected_time":1337000000000,"state":"active","ping":78},{"user_id":51,"name":"Risky","steam_id":76561198231029328,"connected_time":375000000000,"state":"active","ping":39},{"user_id":43,"name":"Mr. Tickle","steam_id":76561198126684647,"connected_time":1277000000000,"state":"active","ping":115},{"user_id":48,"name":"Firedust19","steam_id":76561198153238631,"connected_time":643000000000,"state":"active","ping":77},{"user_id":45,"name":"Jayne","steam_id":76561198119580622,"connected_time":1276000000000,"state":"active","ping":165}]},{"server_id":19,"name":"Uncletopia | San Francisco | 3 | Stopwatch Beta","name_short":"sfo-3","host":"sfo-1.us.uncletopia.com","port":27035,"enabled":true,"region":"us-west","cc":"us","latitude":37.77397,"longitude":-122.4313,"reserved":0,"last_update":"0001-01-01T00:00:00Z","name_a2s":"Uncletopia | San Francisco | 3 | Stopwatch Beta","protocol":17,"map":"pl_borneo","folder":"tf","game":"Team Fortress","app_id":440,"player_count":0,"max_players":24,"Bots":0,"server_type":"Dedicated","server_os":"Linux","password":true,"vac":true,"version":"7757534","steam_id":85568392924742824,"keywords":["nocrits","nodmgspread","payload","uncletopia"],"game_id":440,"stv_port":27036,"stv_name":"Uncletopia | San Francisco | 3 | Stopwatch Beta | STV","players":null},{"server_id":20,"name":"Uncletopia | San Francisco | 4 | Community","name_short":"sfo-4","host":"sfo-1.us.uncletopia.com","port":27045,"enabled":true,"region":"us-west","cc":"us","latitude":37.77397,"longitude":-122.4313,"reserved":0,"last_update":"0001-01-01T00:00:00Z","name_a2s":"Uncletopia | San Francisco | 4 | Community","protocol":17,"map":"workshop/cp_bruhstbowl_b5.ugc2878604990","folder":"tf","game":"Team Fortress","app_id":440,"player_count":15,"max_players":24,"Bots":0,"server_type":"Dedicated","server_os":"Linux","password":true,"vac":true,"version":"7757534","steam_id":85568392924742826,"keywords":["cp","nocrits","nodmgspread","uncletopia"],"game_id":440,"stv_port":27046,"stv_name":"Uncletopia | San Francisco | 4 | Community | STV","players":[{"user_id":104,"name":"sounds_terrible","steam_id":76561199289729485,"connected_time":1489000000000,"state":"active","ping":60},{"user_id":116,"name":"Magical.Puffin","steam_id":76561198129039275,"connected_time":154000000000,"state":"active","ping":54},{"user_id":103,"name":"Hairy Pear","steam_id":76561198087397457,"connected_time":1573000000000,"state":"active","ping":84},{"user_id":118,"name":"pooter9","steam_id":76561198357077029,"connected_time":90000000000,"state":"active","ping":103},{"user_id":63,"name":"Pnuema the Skooma Drinker","steam_id":76561199024080693,"connected_time":4968000000000,"state":"active","ping":126},{"user_id":82,"name":"SHI ' THEAD","steam_id":76561198119697137,"connected_time":2888000000000,"state":"active","ping":93},{"user_id":64,"name":"bergly","steam_id":76561198811650078,"connected_time":4909000000000,"state":"active","ping":119},{"user_id":108,"name":"no","steam_id":76561198862660741,"connected_time":1209000000000,"state":"active","ping":81},{"user_id":114,"name":"victordead121","steam_id":76561199180843121,"connected_time":976000000000,"state":"active","ping":77},{"user_id":21,"name":"Villchip","steam_id":76561198198599982,"connected_time":6787000000000,"state":"active","ping":66},{"user_id":53,"name":"Omnoman","steam_id":76561198006258213,"connected_time":5394000000000,"state":"active","ping":116},{"user_id":83,"name":"chrisd149","steam_id":76561198018710480,"connected_time":2856000000000,"state":"active","ping":125},{"user_id":112,"name":"SquirrelAway™","steam_id":76561197998828619,"connected_time":1086000000000,"state":"active","ping":84},{"user_id":59,"name":"Bronze Age GRINDSET","steam_id":76561198859118263,"connected_time":5172000000000,"state":"active","ping":122},{"user_id":115,"name":"DJ Absolute Garbage","steam_id":76561198068000747,"connected_time":680000000000,"state":"active","ping":116}]},{"server_id":141,"name":"Uncletopia | Sydney | 1 | All Maps","name_short":"syd-1","host":"syd-1.au.uncletopia.com","port":27015,"enabled":true,"region":"au","cc":"au","latitude":-33.865143,"longitude":151.2099,"reserved":0,"last_update":"0001-01-01T00:00:00Z","name_a2s":"Uncletopia | Sydney | 1 | All Maps","protocol":17,"map":"pl_hoodoo_final","folder":"tf","game":"Team Fortress","app_id":440,"player_count":24,"max_players":24,"Bots":0,"server_type":"Dedicated","server_os":"Linux","password":true,"vac":true,"version":"7757534","steam_id":85568392924470001,"keywords":["nocrits","nodmgspread","payload","uncletopia"],"game_id":440,"stv_port":27016,"stv_name":"Uncletopia | Sydney | 1 | All Maps | STV","players":[{"user_id":40,"name":"stupid_cow","steam_id":76561198241303512,"connected_time":7957000000000,"state":"active","ping":57},{"user_id":91,"name":"Dragondude_FX","steam_id":76561198993814246,"connected_time":5395000000000,"state":"active","ping":106},{"user_id":181,"name":"conga man","steam_id":76561198406959622,"connected_time":643000000000,"state":"active","ping":361},{"user_id":189,"name":"Del Davis","steam_id":76561199365669004,"connected_time":455000000000,"state":"active","ping":55},{"user_id":184,"name":"yeetingbaby","steam_id":76561199011454860,"connected_time":597000000000,"state":"active","ping":54},{"user_id":54,"name":"Pat","steam_id":76561198244663182,"connected_time":6929000000000,"state":"active","ping":57},{"user_id":173,"name":"NollReed","steam_id":76561198098501571,"connected_time":881000000000,"state":"active","ping":76},{"user_id":161,"name":"Genuline","steam_id":76561198126426787,"connected_time":1750000000000,"state":"active","ping":48},{"user_id":142,"name":"Jazza Boi","steam_id":76561198196764109,"connected_time":2512000000000,"state":"active","ping":98},{"user_id":188,"name":"Billabong Jim","steam_id":76561198887985240,"connected_time":483000000000,"state":"active","ping":109},{"user_id":190,"name":"Quackers","steam_id":76561199446476670,"connected_time":344000000000,"state":"active","ping":57},{"user_id":160,"name":"Empr","steam_id":76561198024387396,"connected_time":1775000000000,"state":"active","ping":69},{"user_id":167,"name":"Maestro[FmJ]","steam_id":76561197996842734,"connected_time":1322000000000,"state":"active","ping":71},{"user_id":168,"name":"rigsmig","steam_id":76561198330670345,"connected_time":1309000000000,"state":"active","ping":57},{"user_id":177,"name":"A Spaceman","steam_id":76561198400378180,"connected_time":790000000000,"state":"active","ping":48},{"user_id":178,"name":"Hyperbeam","steam_id":76561199185507683,"connected_time":755000000000,"state":"active","ping":39},{"user_id":125,"name":"dog","steam_id":76561198073933737,"connected_time":3531000000000,"state":"active","ping":35},{"user_id":162,"name":"Lain","steam_id":76561198149217307,"connected_time":1698000000000,"state":"active","ping":85},{"user_id":104,"name":"shaymii","steam_id":76561198058562392,"connected_time":4425000000000,"state":"active","ping":87},{"user_id":163,"name":"Meat Consumption","steam_id":76561198095752015,"connected_time":1689000000000,"state":"active","ping":58},{"user_id":164,"name":"DragRiper","steam_id":76561198050917553,"connected_time":1664000000000,"state":"active","ping":59},{"user_id":146,"name":"Lick_My_Nuts","steam_id":76561198410558580,"connected_time":2321000000000,"state":"active","ping":101},{"user_id":191,"name":"covenofbats","steam_id":76561198152117315,"connected_time":310000000000,"state":"active","ping":44},{"user_id":148,"name":"Jdn","steam_id":76561198293079232,"connected_time":2235000000000,"state":"active","ping":59}]},{"server_id":123,"name":"Uncletopia | Sydney | 2 | All Maps","name_short":"syd-2","host":"syd-1.au.uncletopia.com","port":27025,"enabled":true,"region":"au","cc":"au","latitude":-33.865143,"longitude":151.2099,"reserved":0,"last_update":"0001-01-01T00:00:00Z","name_a2s":"Uncletopia | Sydney | 2 | All Maps","protocol":17,"map":"koth_cascade","folder":"tf","game":"Team Fortress","app_id":440,"player_count":2,"max_players":24,"Bots":0,"server_type":"Dedicated","server_os":"Linux","password":true,"vac":true,"version":"7757534","steam_id":85568392924470002,"keywords":["cp","nocrits","nodmgspread","uncletopia"],"game_id":440,"stv_port":27026,"stv_name":"Uncletopia | Sydney | 2 | All Maps | STV","players":[{"user_id":13,"name":"Ślimak","steam_id":76561198296476784,"connected_time":783000000000,"state":"active","ping":256},{"user_id":14,"name":"FlammableRadish","steam_id":76561198368515185,"connected_time":768000000000,"state":"active","ping":320}]},{"server_id":395,"name":"Uncletopia | Sydney | 3 | All Maps","name_short":"syd-3","host":"syd-1.au.uncletopia.com","port":27035,"enabled":true,"region":"au","cc":"au","latitude":-33.865143,"longitude":151.2099,"reserved":0,"last_update":"0001-01-01T00:00:00Z","name_a2s":"Uncletopia | Sydney | 3 | All Maps","protocol":17,"map":"pl_badwater","folder":"tf","game":"Team Fortress","app_id":440,"player_count":0,"max_players":24,"Bots":0,"server_type":"Dedicated","server_os":"Linux","password":true,"vac":true,"version":"7757534","steam_id":85568392925194467,"keywords":["nocrits","nodmgspread","payload","uncletopia"],"game_id":440,"stv_port":27036,"stv_name":"Uncletopia | Sydney | 3 | All Maps | STV","players":null},{"server_id":396,"name":"Uncletopia | Sydney | 4 | All Maps","name_short":"syd-4","host":"syd-1.au.uncletopia.com","port":27045,"enabled":true,"region":"au","cc":"au","latitude":-33.865143,"longitude":151.2099,"reserved":0,"last_update":"0001-01-01T00:00:00Z","name_a2s":"Uncletopia | Sydney | 4 | All Maps","protocol":17,"map":"koth_lakeside_final","folder":"tf","game":"Team Fortress","app_id":440,"player_count":3,"max_players":24,"Bots":0,"server_type":"Dedicated","server_os":"Linux","password":true,"vac":true,"version":"7757534","steam_id":85568392925397958,"keywords":["cp","nocrits","nodmgspread","uncletopia"],"game_id":440,"stv_port":27046,"stv_name":"Uncletopia | Sydney | 4 | All Maps | STV","players":[{"user_id":4,"name":"TheTophatterOfTophats","steam_id":76561199142504761,"connected_time":744000000000,"state":"active","ping":61},{"user_id":5,"name":"ConcreteChad","steam_id":76561199221677511,"connected_time":733000000000,"state":"active","ping":46},{"user_id":6,"name":"The Bisoneer TF2","steam_id":76561199446773766,"connected_time":258000000000,"state":"active","ping":88}]},{"server_id":58,"name":"Uncletopia | Sydney | 5 | Stopwatch Beta","name_short":"syd-5","host":"syd-1.au.uncletopia.com","port":27055,"enabled":true,"region":"au","cc":"au","latitude":-33.865143,"longitude":151.2099,"reserved":0,"last_update":"0001-01-01T00:00:00Z","name_a2s":"Uncletopia | Sydney | 5 | Stopwatch Beta","protocol":17,"map":"koth_highpass","folder":"tf","game":"Team Fortress","app_id":440,"player_count":0,"max_players":24,"Bots":0,"server_type":"Dedicated","server_os":"Linux","password":true,"vac":true,"version":"7757534","steam_id":85568392925397959,"keywords":["cp","nocrits","nodmgspread","uncletopia"],"game_id":440,"stv_port":27056,"stv_name":"Uncletopia | Sydney | 5 | Stopwatch Beta | STV","players":null},{"server_id":59,"name":"Uncletopia | Sydney | 6 | Community","name_short":"syd-6","host":"syd-1.au.uncletopia.com","port":27065,"enabled":true,"region":"au","cc":"au","latitude":-33.865143,"longitude":151.2099,"reserved":0,"last_update":"0001-01-01T00:00:00Z","name_a2s":"Uncletopia | Sydney | 6 | Community","protocol":17,"map":"workshop/koth_slaughter_rc1.ugc1712845210","folder":"tf","game":"Team Fortress","app_id":440,"player_count":0,"max_players":24,"Bots":0,"server_type":"Dedicated","server_os":"Linux","password":true,"vac":true,"version":"7757534","steam_id":85568392925397960,"keywords":["cp","nocrits","nodmgspread","uncletopia"],"game_id":440,"stv_port":27066,"stv_name":"Uncletopia | Sydney | 6 | Community | STV","players":null},{"server_id":49,"name":"Uncletopia | Warsaw | 1 | All Maps","name_short":"waw-1","host":"waw-1.pl.uncletopia.com","port":27015,"enabled":true,"region":"eu","cc":"pl","latitude":52.2297,"longitude":21.017532,"reserved":0,"last_update":"0001-01-01T00:00:00Z","name_a2s":"","protocol":0,"map":"","folder":"","game":"","app_id":0,"player_count":0,"max_players":0,"Bots":0,"server_type":"","server_os":"","password":false,"vac":false,"version":"","steam_id":0,"keywords":null,"game_id":0,"stv_port":0,"stv_name":"","players":null},{"server_id":50,"name":"Uncletopia | Warsaw | 2 | All Maps","name_short":"waw-2","host":"waw-1.pl.uncletopia.com","port":27025,"enabled":true,"region":"eu","cc":"pl","latitude":52.2297,"longitude":21.017532,"reserved":0,"last_update":"0001-01-01T00:00:00Z","name_a2s":"Uncletopia | Warsaw | 2 | All Maps","protocol":17,"map":"koth_highpass","folder":"tf","game":"Team Fortress","app_id":440,"player_count":0,"max_players":24,"Bots":0,"server_type":"Dedicated","server_os":"Linux","password":true,"vac":true,"version":"7757534","steam_id":85568392925397851,"keywords":["cp","nocrits","nodmgspread","uncletopia"],"game_id":440,"stv_port":27026,"stv_name":"Uncletopia | Warsaw | 2 | All Maps | STV","players":null},{"server_id":51,"name":"Uncletopia | Warsaw | 3 | All Maps","name_short":"waw-3","host":"waw-1.pl.uncletopia.com","port":27035,"enabled":true,"region":"eu","cc":"pl","latitude":52.2297,"longitude":21.017532,"reserved":0,"last_update":"0001-01-01T00:00:00Z","name_a2s":"Uncletopia | Warsaw | 3 | All Maps","protocol":17,"map":"koth_cascade","folder":"tf","game":"Team Fortress","app_id":440,"player_count":0,"max_players":24,"Bots":0,"server_type":"Dedicated","server_os":"Linux","password":true,"vac":true,"version":"7757534","steam_id":85568392925397852,"keywords":["cp","nocrits","nodmgspread","uncletopia"],"game_id":440,"stv_port":27036,"stv_name":"Uncletopia | Warsaw | 3 | All Maps | STV","players":null},{"server_id":52,"name":"Uncletopia | Warsaw | 4 | All Maps","name_short":"waw-4","host":"waw-1.pl.uncletopia.com","port":27045,"enabled":true,"region":"eu","cc":"pl","latitude":52.2297,"longitude":21.017532,"reserved":0,"last_update":"0001-01-01T00:00:00Z","name_a2s":"Uncletopia | Warsaw | 4 | All Maps","protocol":17,"map":"koth_lakeside_final","folder":"tf","game":"Team Fortress","app_id":440,"player_count":0,"max_players":24,"Bots":0,"server_type":"Dedicated","server_os":"Linux","password":true,"vac":true,"version":"7757534","steam_id":85568392925397853,"keywords":["cp","nocrits","nodmgspread","uncletopia"],"game_id":440,"stv_port":27046,"stv_name":"Uncletopia | Warsaw | 4 | All Maps | STV","players":null},{"server_id":53,"name":"Uncletopia | Warsaw | 5 | Stopwatch Beta","name_short":"waw-5","host":"waw-1.pl.uncletopia.com","port":27055,"enabled":true,"region":"eu","cc":"pl","latitude":52.2297,"longitude":21.017532,"reserved":0,"last_update":"0001-01-01T00:00:00Z","name_a2s":"Uncletopia | Warsaw | 5 | Stopwatch Beta","protocol":17,"map":"pl_barnblitz","folder":"tf","game":"Team Fortress","app_id":440,"player_count":0,"max_players":24,"Bots":0,"server_type":"Dedicated","server_os":"Linux","password":true,"vac":true,"version":"7757534","steam_id":85568392925397854,"keywords":["nocrits","nodmgspread","payload","uncletopia"],"game_id":440,"stv_port":27056,"stv_name":"Uncletopia | Warsaw | 5 | Stopwatch Beta | STV","players":null},{"server_id":54,"name":"Uncletopia | Warsaw | 6 | Community","name_short":"waw-6","host":"waw-1.pl.uncletopia.com","port":27065,"enabled":true,"region":"eu","cc":"pl","latitude":52.2297,"longitude":21.017532,"reserved":0,"last_update":"0001-01-01T00:00:00Z","name_a2s":"Uncletopia | Warsaw | 6 | Community","protocol":17,"map":"workshop/rd_asteroid_redux_b1.ugc2154902912","folder":"tf","game":"Team Fortress","app_id":440,"player_count":0,"max_players":24,"Bots":0,"server_type":"Dedicated","server_os":"Linux","password":true,"vac":true,"version":"7757534","steam_id":85568392925397856,"keywords":["beta","nocrits","nodmgspread","rd","uncletopia"],"game_id":440,"stv_port":27066,"stv_name":"Uncletopia | Warsaw | 6 | Community | STV","players":null}]}