{"status":true,"message":"","result":[{"server_id":9,"name":"Uncletopia | Atlanta | 1 | All Maps","name_short":"atl-1","host":"atl-1.us.uncletopia.com","port":27015,"enabled":true,"region":"us-east","cc":"us","latitude":33.753746,"longitude":-84.38633,"reserved":0,"last_update":"0001-01-01T00:00:00Z","name_a2s":"Uncletopia | Atlanta | 1 | All Maps","protocol":17,"map":"pl_borneo","folder":"tf","game":"Team Fortress","app_id":440,"player_count":24,"max_players":24,"Bots":0,"server_type":"Dedicated","server_os":"Linux","password":true,"vac":true,"version":"7961495","steam_id":85568392924469982,"keywords":["nocrits","nodmgspread","payload","uncletopia"],"game_id":440,"stv_port":27016,"stv_name":"Uncletopia | Atlanta | 1 | All Maps | STV","players":[{"user_id":401,"name":"Hyper","steam_id":76561199102864718,"connected_time":3547000000000,"state":"active","ping":71},{"user_id":396,"name":"ATL1 | to4st","steam_id":76561198981009008,"connected_time":4192000000000,"state":"active","ping":67},{"user_id":388,"name":"kite","steam_id":76561198346516392,"connected_time":5281000000000,"state":"active","ping":86},{"user_id":411,"name":"Killbasa","steam_id":76561198064868400,"connected_time":2941000000000,"state":"active","ping":74},{"user_id":257,"name":"Intro Bonito","steam_id":76561198119478838,"connected_time":18586000000000,"state":"active","ping":50},{"user_id":423,"name":"Cardboard10","steam_id":76561198095427456,"connected_time":635000000000,"state":"active","ping":55},{"user_id":408,"name":"Mr_MagicMan","steam_id":76561198372713689,"connected_time":3003000000000,"state":"active","ping":67},{"user_id":342,"name":"Thotimus Begonimus","steam_id":76561197970275938,"connected_time":9996000000000,"state":"active","ping":46},{"user_id":397,"name":"SnazzyCelestial","steam_id":76561198328763813,"connected_time":4191000000000,"state":"active","ping":57},{"user_id":429,"name":"Yes!","steam_id":76561198084208477,"connected_time":60000000000,"state":"active","ping":63},{"user_id":395,"name":"ATL1 | on my hunting trip","steam_id":76561198315341646,"connected_time":4227000000000,"state":"active","ping":61},{"user_id":364,"name":"Heathcliff","steam_id":76561198044288534,"connected_time":7486000000000,"state":"active","ping":67},{"user_id":417,"name":"Boneless Blithen","steam_id":76561197989955619,"connected_time":1315000000000,"state":"active","ping":119},{"user_id":419,"name":"Sythoo","steam_id":76561198220893788,"connected_time":1115000000000,"state":"active","ping":71},{"user_id":405,"name":"eat salad","steam_id":76561198960183175,"connected_time":3026000000000,"state":"active","ping":95},{"user_id":399,"name":"com lag","steam_id":76561198019019392,"connected_time":4183000000000,"state":"active","ping":61},{"user_id":426,"name":"Ok-Par","steam_id":76561199221067945,"connected_time":370000000000,"state":"active","ping":71},{"user_id":412,"name":"Sucsubot","steam_id":76561198106456128,"connected_time":2926000000000,"state":"active","ping":60},{"user_id":414,"name":"I need to reach my friend!","steam_id":76561198982810452,"connected_time":2757000000000,"state":"active","ping":86},{"user_id":361,"name":"Le4n!!!","steam_id":76561198045522596,"connected_time":7893000000000,"state":"active","ping":74},{"user_id":421,"name":"Erchius (she/her)","steam_id":76561198256892300,"connected_time":1074000000000,"state":"active","ping":53},{"user_id":380,"name":"Punchy","steam_id":76561198200000641,"connected_time":6412000000000,"state":"active","ping":63},{"user_id":409,"name":"Laura Palmer Gaming","steam_id":76561198282965733,"connected_time":3003000000000,"state":"active","ping":69},{"user_id":410,"name":"LH1 T-Girl named Lavie","steam_id":76561198825997674,"connected_time":3002000000000,"state":"active","ping":52}]},{"server_id":104,"name":"Uncletopia | Atlanta | 2 | All Maps","name_short":"atl-2","host":"atl-1.us.uncletopia.com","port":27025,"enabled":true,"region":"us-east","cc":"us","latitude":33.753746,"longitude":-84.38633,"reserved":0,"last_update":"0001-01-01T00:00:00Z","name_a2s":"Uncletopia | Atlanta | 2 | All Maps","protocol":17,"map":"pl_swiftwater_final1","folder":"tf","game":"Team Fortress","app_id":440,"player_count":24,"max_players":24,"Bots":0,"server_type":"Dedicated","server_os":"Linux","password":true,"vac":true,"version":"7961495","steam_id":85568392924469983,"keywords":["nocrits","nodmgspread","payload","uncletopia"],"game_id":440,"stv_port":27026,"stv_name":"Uncletopia | Atlanta | 2 | All Maps | STV","players":[{"user_id":179,"name":"Talented","steam_id":76561198800259660,"connected_time":7441000000000,"state":"active","ping":49},{"user_id":277,"name":"melon soda","steam_id":76561198066748230,"connected_time":1579000000000,"state":"active","ping":74},{"user_id":291,"name":"Blake Belladonna","steam_id":76561198010169911,"connected_time":922000000000,"state":"active","ping":57},{"user_id":242,"name":"Humanbean37","steam_id":76561199232932739,"connected_time":3930000000000,"state":"active","ping":73},{"user_id":280,"name":"KnightOfGames","steam_id":76561198080460659,"connected_time":1543000000000,"state":"active","ping":82},{"user_id":292,"name":"Frost","steam_id":76561199168526456,"connected_time":921000000000,"state":"active","ping":62},{"user_id":290,"name":"Amish Robot","steam_id":76561198041156065,"connected_time":951000000000,"state":"active","ping":69},{"user_id":278,"name":"Strangelove","steam_id":76561198353773611,"connected_time":1557000000000,"state":"active","ping":98},{"user_id":296,"name":"what","steam_id":76561198082336619,"connected_time":62000000000,"state":"active","ping":74},{"user_id":257,"name":"Cat on Your Porch","steam_id":76561197979078330,"connected_time":2946000000000,"state":"active","ping":78},{"user_id":288,"name":"✙ Braeska ✙","steam_id":76561198144348365,"connected_time":1025000000000,"state":"active","ping":48},{"user_id":274,"name":"psychicweaver","steam_id":76561198089255752,"connected_time":2042000000000,"state":"active","ping":51},{"user_id":272,"name":"vastrobotmax","steam_id":76561198417110724,"connected_time":2073000000000,"state":"active","ping":78},{"user_id":267,"name":"5oc","steam_id":76561199196300397,"connected_time":2664000000000,"state":"active","ping":92},{"user_id":196,"name":"Oxygen User","steam_id":76561199111975528,"connected_time":6415000000000,"state":"active","ping":60},{"user_id":279,"name":"Festive Conch Shell","steam_id":76561198042072993,"connected_time":1556000000000,"state":"active","ping":74},{"user_id":259,"name":"Fuzzy Toast","steam_id":76561198028067781,"connected_time":2938000000000,"state":"active","ping":78},{"user_id":275,"name":"BlauJay","steam_id":76561198269540023,"connected_time":1920000000000,"state":"active","ping":81},{"user_id":281,"name":"TranvesTito","steam_id":76561198140034262,"connected_time":1541000000000,"state":"active","ping":161},{"user_id":286,"name":"Santamen","steam_id":76561198119478199,"connected_time":1125000000000,"state":"active","ping":52},{"user_id":276,"name":"BlueMew","steam_id":76561198060454348,"connected_time":1880000000000,"state":"active","ping":76},{"user_id":289,"name":"JellyParrot","steam_id":76561199190990163,"connected_time":1022000000000,"state":"active","ping":48},{"user_id":295,"name":"Propaniac Gaming ☑","steam_id":76561198133963270,"connected_time":449000000000,"state":"active","ping":46},{"user_id":265,"name":"Max","steam_id":76561197997931874,"connected_time":2780000000000,"state":"active","ping":82}]},{"server_id":400,"name":"Uncletopia | Atlanta | 3 | Stopwatch","name_short":"atl-3","host":"atl-1.us.uncletopia.com","port":27035,"enabled":true,"region":"us-east","cc":"us","latitude":33.753746,"longitude":-84.38633,"reserved":0,"last_update":"0001-01-01T00:00:00Z","name_a2s":"Uncletopia | Atlanta | 3 | Stopwatch","protocol":17,"map":"pl_upward","folder":"tf","game":"Team Fortress","app_id":440,"player_count":6,"max_players":24,"Bots":0,"server_type":"Dedicated","server_os":"Linux","password":true,"vac":true,"version":"7961495","steam_id":85568392924515187,"keywords":["nocrits","nodmgspread","payload","uncletopia"],"game_id":440,"stv_port":27036,"stv_name":"Uncletopia | Atlanta | 3 | Stopwatch | STV","players":[{"user_id":13,"name":"A Giant L","steam_id":76561199082073504,"connected_time":1703000000000,"state":"active","ping":46},{"user_id":17,"name":"Dr. Nobotnik","steam_id":76561198357339092,"connected_time":106000000000,"state":"active","ping":75},{"user_id":18,"name":"Uncle Nick","steam_id":76561199279194356,"connected_time":86000000000,"state":"active","ping":46},{"user_id":16,"name":"bandana","steam_id":76561199098102289,"connected_time":807000000000,"state":"active","ping":79},{"user_id":19,"name":"the milk man","steam_id":76561199247476314,"connected_time":25000000000,"state":"spawning","ping":68},{"user_id":20,"name":"Cannon Fodder 668","steam_id":76561199242093570,"connected_time":25000000000,"state":"spawning","ping":74}]},{"server_id":401,"name":"Uncletopia | Atlanta | 4 | Community","name_short":"atl-4","host":"atl-1.us.uncletopia.com","port":27045,"enabled":true,"region":"us-east","cc":"us","latitude":33.753746,"longitude":-84.38633,"reserved":0,"last_update":"0001-01-01T00:00:00Z","name_a2s":"Uncletopia | Atlanta | 4 | Community","protocol":17,"map":"workshop/koth_slaughter_rc1.ugc1712845210","folder":"tf","game":"Team Fortress","app_id":440,"player_count":0,"max_players":24,"Bots":0,"server_type":"Dedicated","server_os":"Linux","password":true,"vac":true,"version":"7961495","steam_id":85568392924515188,"keywords":["cp","nocrits","nodmgspread","uncletopia"],"game_id":440,"stv_port":27046,"stv_name":"Uncletopia | Atlanta | 4 | Community | STV","players":null},{"server_id":2,"name":"Uncletopia | Chicago | 1 | All Maps","name_short":"chi-1","host":"chi-1.us.uncletopia.com","port":27015,"enabled":true,"region":"us-central","cc":"us","latitude":41.881832,"longitude":-87.62318,"reserved":0,"last_update":"0001-01-01T00:00:00Z","name_a2s":"Uncletopia | Chicago | 1 | All Maps","protocol":17,"map":"plr_pipeline","folder":"tf","game":"Team Fortress","app_id":440,"player_count":24,"max_players":24,"Bots":0,"server_type":"Dedicated","server_os":"Linux","password":true,"vac":true,"version":"7961495","steam_id":85568392924469984,"keywords":["nocrits","nodmgspread","payload","uncletopia"],"game_id":440,"stv_port":27016,"stv_name":"Uncletopia | Chicago | 1 | All Maps | STV","players":[{"user_id":360,"name":"YoshiGaming64","steam_id":76561199396299350,"connected_time":543000000000,"state":"active","ping":178},{"user_id":338,"name":"Space Lizard","steam_id":76561198056798193,"connected_time":1592000000000,"state":"active","ping":66},{"user_id":365,"name":"Kuri","steam_id":76561199037050183,"connected_time":272000000000,"state":"active","ping":80},{"user_id":343,"name":"BatJet","steam_id":76561198147738441,"connected_time":1175000000000,"state":"active","ping":116},{"user_id":361,"name":"pineApple Zoo","steam_id":76561198013732450,"connected_time":511000000000,"state":"active","ping":55},{"user_id":324,"name":"ekgooby","steam_id":76561198043678479,"connected_time":2148000000000,"state":"active","ping":52},{"user_id":358,"name":"jolo","steam_id":76561198042831480,"connected_time":678000000000,"state":"active","ping":76},{"user_id":313,"name":"A Sun","steam_id":76561198142545364,"connected_time":2748000000000,"state":"active","ping":57},{"user_id":363,"name":"Lennu","steam_id":76561198060730154,"connected_time":384000000000,"state":"active","ping":95},{"user_id":317,"name":"Fantastibad","steam_id":76561199087329262,"connected_time":2332000000000,"state":"active","ping":79},{"user_id":341,"name":"TheTimeLord","steam_id":76561198083715205,"connected_time":1305000000000,"state":"active","ping":89},{"user_id":362,"name":"fresco","steam_id":76561199101199477,"connected_time":406000000000,"state":"active","ping":52},{"user_id":303,"name":"Scarecrow","steam_id":76561198045870511,"connected_time":3070000000000,"state":"active","ping":46},{"user_id":351,"name":"Mingephreaker","steam_id":76561198215825893,"connected_time":884000000000,"state":"active","ping":59},{"user_id":366,"name":"dantheman","steam_id":76561199486390813,"connected_time":138000000000,"state":"active","ping":78},{"user_id":364,"name":"sheep","steam_id":76561198172943006,"connected_time":330000000000,"state":"active","ping":46},{"user_id":348,"name":"Steve","steam_id":76561199066660022,"connected_time":1022000000000,"state":"active","ping":77},{"user_id":335,"name":"corbenis","steam_id":76561199012442511,"connected_time":1616000000000,"state":"active","ping":91},{"user_id":355,"name":"Shaunhan","steam_id":76561198386596938,"connected_time":799000000000,"state":"active","ping":64},{"user_id":345,"name":"The Sydney Sleeper Itself","steam_id":76561198180251763,"connected_time":1170000000000,"state":"active","ping":62},{"user_id":357,"name":"Bad Boy Teenager Club","steam_id":76561198355815002,"connected_time":695000000000,"state":"active","ping":74},{"user_id":287,"name":"OH BOY","steam_id":76561199052273428,"connected_time":3939000000000,"state":"active","ping":54},{"user_id":367,"name":"Mf Zoom","steam_id":76561198844434119,"connected_time":58000000000,"state":"active","ping":100},{"user_id":347,"name":"QuintupletPuppies","steam_id":76561198926124738,"connected_time":1123000000000,"state":"active","ping":56}]},{"server_id":106,"name":"Uncletopia | Chicago | 2 | All Maps","name_short":"chi-2","host":"chi-1.us.uncletopia.com","port":27025,"enabled":true,"region":"us-central","cc":"us","latitude":41.881832,"longitude":-87.62318,"reserved":0,"last_update":"0001-01-01T00:00:00Z","name_a2s":"Uncletopia | Chicago | 2 | All Maps","protocol":17,"map":"pl_upward","folder":"tf","game":"Team Fortress","app_id":440,"player_count":24,"max_players":24,"Bots":0,"server_type":"Dedicated","server_os":"Linux","password":true,"vac":true,"version":"7961495","steam_id":85568392924469985,"keywords":["nocrits","nodmgspread","payload","uncletopia"],"game_id":440,"stv_port":27026,"stv_name":"Uncletopia | Chicago | 2 | All Maps | STV","players":[{"user_id":660,"name":"Fredrick","steam_id":76561197981419964,"connected_time":426000000000,"state":"active","ping":54},{"user_id":585,"name":"Alpha","steam_id":76561199482290132,"connected_time":4777000000000,"state":"active","ping":68},{"user_id":662,"name":"Dude Time","steam_id":76561198269551204,"connected_time":400000000000,"state":"active","ping":74},{"user_id":629,"name":"runescape legend","steam_id":76561198077791373,"connected_time":2310000000000,"state":"active","ping":43},{"user_id":628,"name":"Big Weeb Man","steam_id":76561198127819973,"connected_time":2344000000000,"state":"active","ping":57},{"user_id":646,"name":"MoondogIe","steam_id":76561198063328194,"connected_time":1704000000000,"state":"active","ping":85},{"user_id":659,"name":"goldenninja76","steam_id":76561198123341944,"connected_time":508000000000,"state":"active","ping":62},{"user_id":653,"name":"KBoneski ♡","steam_id":76561198307409065,"connected_time":1284000000000,"state":"active","ping":71},{"user_id":651,"name":"your fwiend","steam_id":76561198154773643,"connected_time":1351000000000,"state":"active","ping":82},{"user_id":661,"name":"Ganondorf","steam_id":76561198010421059,"connected_time":410000000000,"state":"active","ping":49},{"user_id":649,"name":"feleven","steam_id":76561198853721046,"connected_time":1522000000000,"state":"active","ping":69},{"user_id":656,"name":"cow","steam_id":76561198117331762,"connected_time":942000000000,"state":"active","ping":47},{"user_id":643,"name":"bengineer","steam_id":76561198171912174,"connected_time":1848000000000,"state":"active","ping":90},{"user_id":634,"name":"infamouscheese","steam_id":76561198334122936,"connected_time":2024000000000,"state":"active","ping":135},{"user_id":657,"name":"Shipmunk","steam_id":76561198063062670,"connected_time":896000000000,"state":"active","ping":59},{"user_id":650,"name":"Nicopico","steam_id":76561198080371321,"connected_time":1437000000000,"state":"active","ping":53},{"user_id":638,"name":"Whooooah","steam_id":76561198128244031,"connected_time":1976000000000,"state":"active","ping":85},{"user_id":617,"name":"largefish","steam_id":76561198066215341,"connected_time":3034000000000,"state":"active","ping":60},{"user_id":599,"name":"Jack-O DigitAL","steam_id":76561199412782836,"connected_time":3703000000000,"state":"active","ping":113},{"user_id":663,"name":"Arcelite","steam_id":76561198007089716,"connected_time":399000000000,"state":"active","ping":69},{"user_id":587,"name":"gaming elliptical","steam_id":76561198013456569,"connected_time":4741000000000,"state":"active","ping":46},{"user_id":665,"name":"Drilly22","steam_id":76561198068838338,"connected_time":246000000000,"state":"active","ping":76},{"user_id":654,"name":"Drake the Pixel","steam_id":76561198131824401,"connected_time":1150000000000,"state":"active","ping":65},{"user_id":666,"name":"RyInc","steam_id":76561198874261643,"connected_time":242000000000,"state":"active","ping":46}]},{"server_id":402,"name":"Uncletopia | Chicago | 3 | All Maps","name_short":"chi-3","host":"chi-1.us.uncletopia.com","port":27035,"enabled":true,"region":"us-central","cc":"us","latitude":41.881832,"longitude":-87.62318,"reserved":0,"last_update":"0001-01-01T00:00:00Z","name_a2s":"Uncletopia | Chicago | 3 | All Maps","protocol":17,"map":"pl_barnblitz","folder":"tf","game":"Team Fortress","app_id":440,"player_count":24,"max_players":24,"Bots":0,"server_type":"Dedicated","server_os":"Linux","password":true,"vac":true,"version":"7961495","steam_id":85568392924515191,"keywords":["nocrits","nodmgspread","payload","uncletopia"],"game_id":440,"stv_port":27036,"stv_name":"Uncletopia | Chicago | 3 | All Maps | STV","players":[{"user_id":433,"name":"Pepsiman","steam_id":76561198436946165,"connected_time":759000000000,"state":"active","ping":50},{"user_id":427,"name":"Zoramine Fae","steam_id":76561198346753422,"connected_time":1130000000000,"state":"active","ping":34},{"user_id":415,"name":"Juan Pablo Gonzalez 2023","steam_id":76561199197961413,"connected_time":2218000000000,"state":"active","ping":59},{"user_id":437,"name":"kikikikoboy","steam_id":76561198073380271,"connected_time":356000000000,"state":"active","ping":67},{"user_id":373,"name":"Chrisscar","steam_id":76561198086298130,"connected_time":3967000000000,"state":"active","ping":101},{"user_id":435,"name":"Mantequilla","steam_id":76561198317927140,"connected_time":391000000000,"state":"active","ping":57},{"user_id":416,"name":"The Idiot","steam_id":76561198049837377,"connected_time":2211000000000,"state":"active","ping":52},{"user_id":417,"name":"a1ex","steam_id":76561198341411993,"connected_time":2191000000000,"state":"active","ping":67},{"user_id":436,"name":"hej","steam_id":76561197996366940,"connected_time":379000000000,"state":"active","ping":60},{"user_id":369,"name":"aphexjh","steam_id":76561197985854658,"connected_time":4064000000000,"state":"active","ping":48},{"user_id":434,"name":"Rockcrusher","steam_id":76561199012666353,"connected_time":730000000000,"state":"active","ping":46},{"user_id":432,"name":"Chai","steam_id":76561198044327873,"connected_time":926000000000,"state":"active","ping":58},{"user_id":230,"name":"Mer","steam_id":76561198192171041,"connected_time":11401000000000,"state":"active","ping":111},{"user_id":374,"name":"Killmaster185","steam_id":76561198375520177,"connected_time":3938000000000,"state":"active","ping":102},{"user_id":392,"name":"EmotreX","steam_id":76561198366518989,"connected_time":3197000000000,"state":"active","ping":83},{"user_id":430,"name":"who is gavin?","steam_id":76561198069415057,"connected_time":959000000000,"state":"active","ping":65},{"user_id":438,"name":"Captain_Crispylego","steam_id":76561199453679719,"connected_time":128000000000,"state":"active","ping":93},{"user_id":425,"name":"hearthian","steam_id":76561198113235260,"connected_time":1638000000000,"state":"active","ping":90},{"user_id":379,"name":"Noobert McGlitchington the 3st","steam_id":76561198073176682,"connected_time":3888000000000,"state":"active","ping":65},{"user_id":380,"name":"ʏᴜᴊɪ","steam_id":76561198401572620,"connected_time":3873000000000,"state":"active","ping":67},{"user_id":424,"name":"SlurpyTheDog","steam_id":76561198799733154,"connected_time":1664000000000,"state":"active","ping":70},{"user_id":387,"name":"washed advanced dropout","steam_id":76561198043911582,"connected_time":3492000000000,"state":"active","ping":62},{"user_id":404,"name":"Mega_Man23","steam_id":76561198138341391,"connected_time":2567000000000,"state":"active","ping":61},{"user_id":413,"name":"monsterkill4567","steam_id":76561198272986367,"connected_time":2358000000000,"state":"active","ping":103}]},{"server_id":403,"name":"Uncletopia | Chicago | 4 | All Maps","name_short":"chi-4","host":"chi-1.us.uncletopia.com","port":27045,"enabled":true,"region":"us-central","cc":"us","latitude":41.881832,"longitude":-87.62318,"reserved":0,"last_update":"0001-01-01T00:00:00Z","name_a2s":"Uncletopia | Chicago | 4 | All Maps","protocol":17,"map":"pl_barnblitz","folder":"tf","game":"Team Fortress","app_id":440,"player_count":24,"max_players":24,"Bots":0,"server_type":"Dedicated","server_os":"Linux","password":true,"vac":true,"version":"7961495","steam_id":85568392924515193,"keywords":["nocrits","nodmgspread","payload","uncletopia"],"game_id":440,"stv_port":27046,"stv_name":"Uncletopia | Chicago | 4 | All Maps | STV","players":[{"user_id":150,"name":"femboy gaming","steam_id":76561199084226553,"connected_time":313000000000,"state":"active","ping":62},{"user_id":123,"name":"Rick Astley Is A F2P?","steam_id":76561199258805660,"connected_time":2554000000000,"state":"active","ping":70},{"user_id":155,"name":"Jabber","steam_id":76561197998379294,"connected_time":199000000000,"state":"active","ping":80},{"user_id":143,"name":"Ferguson","steam_id":76561198121349387,"connected_time":1380000000000,"state":"active","ping":46},{"user_id":158,"name":"DeMarc0","steam_id":76561198150900434,"connected_time":33000000000,"state":"active","ping":71},{"user_id":146,"name":"Ghost Kaisar","steam_id":76561198103629357,"connected_time":345000000000,"state":"active","ping":60},{"user_id":124,"name":"paypur -rng","steam_id":76561198214370515,"connected_time":2530000000000,"state":"active","ping":106},{"user_id":133,"name":"jimmyfnaf172198yay","steam_id":76561198311446636,"connected_time":1755000000000,"state":"active","ping":68},{"user_id":159,"name":"remina","steam_id":76561198046091954,"connected_time":31000000000,"state":"active","ping":60},{"user_id":135,"name":"SPYCHECK ME","steam_id":76561198980994364,"connected_time":1745000000000,"state":"active","ping":84},{"user_id":139,"name":"CASR","steam_id":76561199122040210,"connected_time":1668000000000,"state":"active","ping":77},{"user_id":131,"name":"Mosh Ruum (Whydoitmc)","steam_id":76561198076328582,"connected_time":1970000000000,"state":"active","ping":45},{"user_id":147,"name":"Gotta Move That Gear Up","steam_id":76561197993467034,"connected_time":336000000000,"state":"active","ping":50},{"user_id":144,"name":"The Looker","steam_id":76561198272961376,"connected_time":1235000000000,"state":"active","ping":68},{"user_id":104,"name":"PiRA","steam_id":76561197962440292,"connected_time":3387000000000,"state":"active","ping":69},{"user_id":148,"name":"Voodo133","steam_id":76561198042670351,"connected_time":335000000000,"state":"active","ping":78},{"user_id":122,"name":"Captain_Shorts","steam_id":76561199097598023,"connected_time":2577000000000,"state":"active","ping":75},{"user_id":156,"name":"The Fiend","steam_id":76561199229771413,"connected_time":172000000000,"state":"active","ping":60},{"user_id":149,"name":"No, this is Patrick","steam_id":76561198058776774,"connected_time":330000000000,"state":"active","ping":50},{"user_id":140,"name":"Karrot","steam_id":76561198058970903,"connected_time":1630000000000,"state":"active","ping":62},{"user_id":151,"name":"cheeser","steam_id":76561198281772700,"connected_time":311000000000,"state":"active","ping":62},{"user_id":152,"name":"Johnny Lawrence #JohnnyMaxxing","steam_id":76561199367141671,"connected_time":306000000000,"state":"active","ping":65},{"user_id":153,"name":"Swag Messiah","steam_id":76561198400058665,"connected_time":301000000000,"state":"active","ping":63},{"user_id":154,"name":"kicks","steam_id":76561199228854923,"connected_time":301000000000,"state":"active","ping":50}]},{"server_id":36,"name":"Uncletopia | Chicago | 5 | All Maps","name_short":"chi-5","host":"chi-2.us.uncletopia.com","port":27015,"enabled":true,"region":"us-central","cc":"us","latitude":41.881832,"longitude":-87.62318,"reserved":0,"last_update":"0001-01-01T00:00:00Z","name_a2s":"Uncletopia | Chicago | 5 | All Maps","protocol":17,"map":"cp_dustbowl","folder":"tf","game":"Team Fortress","app_id":440,"player_count":24,"max_players":24,"Bots":0,"server_type":"Dedicated","server_os":"Linux","password":true,"vac":true,"version":"7961495","steam_id":85568392924866362,"keywords":["cp","nocrits","nodmgspread","uncletopia"],"game_id":440,"stv_port":27016,"stv_name":"Uncletopia | Chicago | 5 | All Maps | STV","players":[{"user_id":693,"name":"neeK","steam_id":76561198106571410,"connected_time":1129000000000,"state":"active","ping":81},{"user_id":697,"name":"appy","steam_id":76561198074357676,"connected_time":1053000000000,"state":"active","ping":61},{"user_id":687,"name":"qory","steam_id":76561198152064890,"connected_time":1917000000000,"state":"active","ping":50},{"user_id":706,"name":"TehOneZoot","steam_id":76561198121944243,"connected_time":13000000000,"state":"spawning","ping":68},{"user_id":568,"name":"Gunkzilla","steam_id":76561198068228415,"connected_time":8424000000000,"state":"active","ping":57},{"user_id":704,"name":"Bartholomew Binglebottom","steam_id":76561198347286009,"connected_time":629000000000,"state":"active","ping":71},{"user_id":636,"name":"Tito","steam_id":76561198041702529,"connected_time":5055000000000,"state":"active","ping":74},{"user_id":685,"name":"gothpapa","steam_id":76561198452122510,"connected_time":2100000000000,"state":"active","ping":55},{"user_id":577,"name":"Bap","steam_id":76561198056717319,"connected_time":8253000000000,"state":"active","ping":51},{"user_id":662,"name":"Kerpal","steam_id":76561198153340350,"connected_time":3578000000000,"state":"active","ping":81},{"user_id":694,"name":"Captain 'Murica","steam_id":76561198032659712,"connected_time":1126000000000,"state":"active","ping":64},{"user_id":688,"name":"Hugs","steam_id":76561198214584133,"connected_time":1913000000000,"state":"active","ping":108},{"user_id":621,"name":"get scrongled, idiot","steam_id":76561198115874625,"connected_time":5837000000000,"state":"active","ping":70},{"user_id":655,"name":"Waffle","steam_id":76561199000034608,"connected_time":4090000000000,"state":"active","ping":51},{"user_id":701,"name":"PK","steam_id":76561198368722500,"connected_time":800000000000,"state":"active","ping":74},{"user_id":678,"name":"CCdukes","steam_id":76561199200448760,"connected_time":2526000000000,"state":"active","ping":73},{"user_id":667,"name":"Der Krieger105","steam_id":76561197978384609,"connected_time":3069000000000,"state":"active","ping":81},{"user_id":699,"name":"Just a BLU Toon","steam_id":76561198273199771,"connected_time":992000000000,"state":"active","ping":79},{"user_id":700,"name":"UberDog","steam_id":76561198978172607,"connected_time":982000000000,"state":"active","ping":76},{"user_id":690,"name":"Луис","steam_id":76561198818196886,"connected_time":1867000000000,"state":"active","ping":60},{"user_id":705,"name":"astrobob911","steam_id":76561199099110654,"connected_time":566000000000,"state":"active","ping":65},{"user_id":691,"name":"Unlimited_Trees","steam_id":76561198299141443,"connected_time":1825000000000,"state":"active","ping":126},{"user_id":682,"name":"daffodil","steam_id":76561198049480053,"connected_time":2354000000000,"state":"active","ping":62},{"user_id":668,"name":"Lia_Rein","steam_id":76561198151569597,"connected_time":3025000000000,"state":"active","ping":147}]},{"server_id":37,"name":"Uncletopia | Chicago | 6 | All Maps","name_short":"chi-6","host":"chi-2.us.uncletopia.com","port":27025,"enabled":true,"region":"us-central","cc":"us","latitude":41.881832,"longitude":-87.62318,"reserved":0,"last_update":"0001-01-01T00:00:00Z","name_a2s":"Uncletopia | Chicago | 6 | All Maps","protocol":17,"map":"cp_dustbowl","folder":"tf","game":"Team Fortress","app_id":440,"player_count":24,"max_players":24,"Bots":0,"server_type":"Dedicated","server_os":"Linux","password":true,"vac":true,"version":"7961495","steam_id":85568392924866363,"keywords":["cp","nocrits","nodmgspread","uncletopia"],"game_id":440,"stv_port":27026,"stv_name":"Uncletopia | Chicago | 6 | All Maps | STV","players":[{"user_id":139,"name":"EvilStickGuy","steam_id":76561197985379320,"connected_time":931000000000,"state":"active","ping":54},{"user_id":134,"name":"Colras","steam_id":76561198021048894,"connected_time":1161000000000,"state":"active","ping":61},{"user_id":36,"name":"tydogzilla","steam_id":76561198054254518,"connected_time":7325000000000,"state":"active","ping":69},{"user_id":127,"name":"Flowers","steam_id":76561198031669899,"connected_time":2038000000000,"state":"active","ping":73},{"user_id":67,"name":"truezyoungblood","steam_id":76561198044589114,"connected_time":6140000000000,"state":"active","ping":72},{"user_id":106,"name":"MilesFireStorm","steam_id":76561198078642820,"connected_time":3138000000000,"state":"active","ping":75},{"user_id":128,"name":"Alex G Piss Pants","steam_id":76561199406829810,"connected_time":1996000000000,"state":"active","ping":69},{"user_id":147,"name":"Luci★Fer","steam_id":76561199030343810,"connected_time":144000000000,"state":"active","ping":64},{"user_id":86,"name":"Dr Gregory House, MD","steam_id":76561198986281248,"connected_time":4600000000000,"state":"active","ping":71},{"user_id":140,"name":"Zoom","steam_id":76561198079215612,"connected_time":873000000000,"state":"active","ping":40},{"user_id":130,"name":"AJTarcza","steam_id":76561198070800190,"connected_time":1941000000000,"state":"active","ping":76},{"user_id":131,"name":"Prsm","steam_id":76561198053344995,"connected_time":1913000000000,"state":"active","ping":59},{"user_id":115,"name":"Takeover","steam_id":76561197996081461,"connected_time":2760000000000,"state":"active","ping":62},{"user_id":144,"name":"StretchySnail59","steam_id":76561198073535005,"connected_time":694000000000,"state":"active","ping":54},{"user_id":117,"name":"bakkhertz","steam_id":76561198046745579,"connected_time":2678000000000,"state":"active","ping":94},{"user_id":120,"name":"D","steam_id":76561198292908619,"connected_time":2558000000000,"state":"active","ping":73},{"user_id":143,"name":"HOMIE","steam_id":76561198057325155,"connected_time":805000000000,"state":"active","ping":57},{"user_id":43,"name":"Hater","steam_id":76561198124685704,"connected_time":7267000000000,"state":"active","ping":84},{"user_id":146,"name":"THIRDPIERCE","steam_id":76561198405366314,"connected_time":190000000000,"state":"active","ping":90},{"user_id":123,"name":"Local Eliksni Enjoyer","steam_id":76561198122725834,"connected_time":2476000000000,"state":"active","ping":60},{"user_id":137,"name":"Aviyarn","steam_id":76561199074194652,"connected_time":1129000000000,"state":"active","ping":82},{"user_id":138,"name":"Paco ツ","steam_id":76561198084515903,"connected_time":1028000000000,"state":"active","ping":46},{"user_id":141,"name":"azufelt","steam_id":76561199259331226,"connected_time":864000000000,"state":"active","ping":74},{"user_id":149,"name":"CoolyEclipse","steam_id":76561199472254358,"connected_time":46000000000,"state":"active","ping":109}]},{"server_id":38,"name":"Uncletopia | Chicago | 7 | Stopwatch","name_short":"chi-7","host":"chi-2.us.uncletopia.com","port":27035,"enabled":true,"region":"us-central","cc":"us","latitude":41.881832,"longitude":-87.62318,"reserved":0,"last_update":"0001-01-01T00:00:00Z","name_a2s":"Uncletopia | Chicago | 7 | Stopwatch","protocol":17,"map":"pl_upward","folder":"tf","game":"Team Fortress","app_id":440,"player_count":3,"max_players":24,"Bots":0,"server_type":"Dedicated","server_os":"Linux","password":true,"vac":true,"version":"7961495","steam_id":85568392924866364,"keywords":["nocrits","nodmgspread","payload","uncletopia"],"game_id":440,"stv_port":27036,"stv_name":"Uncletopia | Chicago | 7 | Stopwatch | STV","players":[{"user_id":24,"name":"Maxtheand","steam_id":76561198967517258,"connected_time":475000000000,"state":"active","ping":59},{"user_id":25,"name":"_Toazt","steam_id":76561199011728341,"connected_time":475000000000,"state":"active","ping":55},{"user_id":27,"name":"Pilot Lighter","steam_id":76561198041622040,"connected_time":4000000000,"state":"spawning","ping":51}]},{"server_id":39,"name":"Uncletopia | Chicago | 8 | Community","name_short":"chi-8","host":"chi-2.us.uncletopia.com","port":27045,"enabled":true,"region":"us-central","cc":"us","latitude":41.881832,"longitude":-87.62318,"reserved":0,"last_update":"0001-01-01T00:00:00Z","name_a2s":"Uncletopia | Chicago | 8 | Community","protocol":17,"map":"workshop/cp_fulgur_rc2a.ugc2068252300","folder":"tf","game":"Team Fortress","app_id":440,"player_count":24,"max_players":24,"Bots":0,"server_type":"Dedicated","server_os":"Linux","password":true,"vac":true,"version":"7961495","steam_id":85568392924866365,"keywords":["cp","nocrits","nodmgspread","uncletopia"],"game_id":440,"stv_port":27046,"stv_name":"Uncletopia | Chicago | 8 | Community | STV","players":[{"user_id":378,"name":"Foxral","steam_id":76561198027135158,"connected_time":305000000000,"state":"active","ping":70},{"user_id":315,"name":"MangoMaster7834","steam_id":76561199231165397,"connected_time":1911000000000,"state":"active","ping":88},{"user_id":320,"name":"Lyps","steam_id":76561198095459318,"connected_time":1864000000000,"state":"active","ping":54},{"user_id":379,"name":"bo","steam_id":76561198342449098,"connected_time":120000000000,"state":"active","ping":61},{"user_id":301,"name":"Applesauce (she/her)","steam_id":76561198049642811,"connected_time":2220000000000,"state":"active","ping":61},{"user_id":354,"name":"Mae the Porn Addict","steam_id":76561198410011711,"connected_time":1148000000000,"state":"active","ping":74},{"user_id":269,"name":"WeegeePJ","steam_id":76561199383362382,"connected_time":4151000000000,"state":"active","ping":77},{"user_id":329,"name":"dubz","steam_id":76561198178334459,"connected_time":1696000000000,"state":"active","ping":60},{"user_id":376,"name":"Fatpoob","steam_id":76561198056730096,"connected_time":367000000000,"state":"active","ping":49},{"user_id":380,"name":"lesbian jolyne cujoh","steam_id":76561198988918229,"connected_time":11000000000,"state":"spawning","ping":128},{"user_id":377,"name":"Gaming is for girls","steam_id":76561198401725755,"connected_time":340000000000,"state":"active","ping":46},{"user_id":371,"name":"nick","steam_id":76561198041362771,"connected_time":524000000000,"state":"active","ping":81},{"user_id":369,"name":"mashed soft warm soup in a can.","steam_id":76561198171368297,"connected_time":560000000000,"state":"active","ping":57},{"user_id":240,"name":"memphis rappers:","steam_id":76561198292049646,"connected_time":6232000000000,"state":"active","ping":52},{"user_id":372,"name":"hooley","steam_id":76561198041923067,"connected_time":523000000000,"state":"active","ping":73},{"user_id":261,"name":"BB Lorexav","steam_id":76561198207565988,"connected_time":4638000000000,"state":"active","ping":76},{"user_id":373,"name":"IceySpicyMilk","steam_id":76561198401939390,"connected_time":519000000000,"state":"active","ping":95},{"user_id":374,"name":"stblaine","steam_id":76561198088229155,"connected_time":518000000000,"state":"active","ping":101},{"user_id":314,"name":"slasher4713","steam_id":76561199033532858,"connected_time":2005000000000,"state":"active","ping":57},{"user_id":341,"name":"Magnet Dood","steam_id":76561198364178746,"connected_time":1484000000000,"state":"active","ping":54},{"user_id":319,"name":"MonthlyPeep","steam_id":76561198306950523,"connected_time":1870000000000,"state":"active","ping":67},{"user_id":365,"name":"CommodoreEvac","steam_id":76561198035694806,"connected_time":920000000000,"state":"active","ping":67},{"user_id":364,"name":"Greenshrum","steam_id":76561198318605958,"connected_time":929000000000,"state":"active","ping":67},{"user_id":289,"name":"☼Barracuda☼","steam_id":76561198013022083,"connected_time":2604000000000,"state":"active","ping":61}]},{"server_id":8,"name":"Uncletopia | Dallas | 1 | All Maps","name_short":"dal-1","host":"dal-1.us.uncletopia.com","port":27015,"enabled":true,"region":"us-central","cc":"us","latitude":32.779167,"longitude":-96.80889,"reserved":0,"last_update":"0001-01-01T00:00:00Z","name_a2s":"Uncletopia | Dallas | 1 | All Maps","protocol":17,"map":"koth_harvest_final","folder":"tf","game":"Team Fortress","app_id":440,"player_count":23,"max_players":24,"Bots":0,"server_type":"Dedicated","server_os":"Linux","password":true,"vac":true,"version":"7961495","steam_id":85568392924469986,"keywords":["cp","nocrits","nodmgspread","uncletopia"],"game_id":440,"stv_port":27016,"stv_name":"Uncletopia | Dallas | 1 | All Maps | STV","players":[{"user_id":169,"name":"Marzbee115","steam_id":76561198095821025,"connected_time":3749000000000,"state":"active","ping":60},{"user_id":219,"name":"Olly","steam_id":76561198054273611,"connected_time":495000000000,"state":"active","ping":77},{"user_id":145,"name":"CeLeb144","steam_id":76561199089907740,"connected_time":5734000000000,"state":"active","ping":60},{"user_id":205,"name":"Spoinga Bob","steam_id":76561198172772014,"connected_time":1024000000000,"state":"active","ping":79},{"user_id":214,"name":"mrpineapple070","steam_id":76561199088278757,"connected_time":730000000000,"state":"active","ping":103},{"user_id":202,"name":"Sku11yy","steam_id":76561198378094265,"connected_time":1640000000000,"state":"active","ping":68},{"user_id":189,"name":"Mr.Bubbles","steam_id":76561198091843238,"connected_time":2475000000000,"state":"active","ping":60},{"user_id":201,"name":"Liminality","steam_id":76561198002601402,"connected_time":1675000000000,"state":"active","ping":89},{"user_id":208,"name":"I have no enemies","steam_id":76561198127039453,"connected_time":789000000000,"state":"active","ping":64},{"user_id":129,"name":"Seskova","steam_id":76561198090207032,"connected_time":6205000000000,"state":"active","ping":101},{"user_id":226,"name":"[12V] Marv","steam_id":76561198158638384,"connected_time":108000000000,"state":"active","ping":71},{"user_id":209,"name":"Mamaiymasentinel","steam_id":76561198151360048,"connected_time":787000000000,"state":"active","ping":84},{"user_id":223,"name":"Rob","steam_id":76561199187786660,"connected_time":310000000000,"state":"active","ping":42},{"user_id":211,"name":"mollusk_obliteration","steam_id":76561198085388962,"connected_time":765000000000,"state":"active","ping":67},{"user_id":213,"name":"toolbox","steam_id":76561198446151354,"connected_time":748000000000,"state":"active","ping":100},{"user_id":215,"name":"Reverie","steam_id":76561198987005784,"connected_time":713000000000,"state":"active","ping":83},{"user_id":203,"name":"big ol' buford","steam_id":76561198290675957,"connected_time":1136000000000,"state":"active","ping":45},{"user_id":177,"name":"Ryzema","steam_id":76561198165594229,"connected_time":3163000000000,"state":"active","ping":76},{"user_id":187,"name":"Descenso","steam_id":76561198059290812,"connected_time":2529000000000,"state":"active","ping":130},{"user_id":157,"name":"Owtk","steam_id":76561198362380245,"connected_time":5309000000000,"state":"active","ping":174},{"user_id":221,"name":"Caught a Thundah","steam_id":76561198054495572,"connected_time":490000000000,"state":"active","ping":57},{"user_id":125,"name":"leesh","steam_id":76561198079603938,"connected_time":6320000000000,"state":"active","ping":67},{"user_id":218,"name":"her","steam_id":76561198817968375,"connected_time":680000000000,"state":"active","ping":121}]},{"server_id":108,"name":"Uncletopia | Dallas | 2 | All Maps","name_short":"dal-2","host":"dal-1.us.uncletopia.com","port":27025,"enabled":true,"region":"us-central","cc":"us","latitude":32.779167,"longitude":-96.80889,"reserved":0,"last_update":"0001-01-01T00:00:00Z","name_a2s":"Uncletopia | Dallas | 2 | All Maps","protocol":17,"map":"cp_gorge","folder":"tf","game":"Team Fortress","app_id":440,"player_count":24,"max_players":24,"Bots":0,"server_type":"Dedicated","server_os":"Linux","password":true,"vac":true,"version":"7961495","steam_id":85568392924469988,"keywords":["cp","nocrits","nodmgspread","uncletopia"],"game_id":440,"stv_port":27026,"stv_name":"Uncletopia | Dallas | 2 | All Maps | STV","players":[{"user_id":203,"name":"Winzinf","steam_id":76561198026152232,"connected_time":3807000000000,"state":"active","ping":74},{"user_id":193,"name":"Sone","steam_id":76561198069601032,"connected_time":4413000000000,"state":"active","ping":93},{"user_id":224,"name":"OwningTundra2","steam_id":76561198936893224,"connected_time":2630000000000,"state":"active","ping":49},{"user_id":245,"name":"Shuu","steam_id":76561199199180558,"connected_time":286000000000,"state":"active","ping":75},{"user_id":234,"name":"Pinetree w/ apples.","steam_id":76561198105411709,"connected_time":1689000000000,"state":"active","ping":89},{"user_id":248,"name":"Kobbert","steam_id":76561198045040833,"connected_time":196000000000,"state":"active","ping":61},{"user_id":228,"name":"Brickolas","steam_id":76561198125899882,"connected_time":2363000000000,"state":"active","ping":213},{"user_id":172,"name":"have blue","steam_id":76561198054260599,"connected_time":6561000000000,"state":"active","ping":58},{"user_id":243,"name":"Wick","steam_id":76561198062996360,"connected_time":532000000000,"state":"active","ping":80},{"user_id":244,"name":"vanta","steam_id":76561198084317504,"connected_time":313000000000,"state":"active","ping":72},{"user_id":249,"name":"ryce","steam_id":76561198114572309,"connected_time":136000000000,"state":"active","ping":63},{"user_id":34,"name":"Moonflower ✦","steam_id":76561198191782483,"connected_time":14565000000000,"state":"active","ping":51},{"user_id":236,"name":"doubledanage","steam_id":76561198418629356,"connected_time":1150000000000,"state":"active","ping":51},{"user_id":225,"name":"Raz","steam_id":76561198002426150,"connected_time":2628000000000,"state":"active","ping":45},{"user_id":240,"name":"yum","steam_id":76561199103766971,"connected_time":686000000000,"state":"active","ping":93},{"user_id":218,"name":"CreateADebate","steam_id":76561198115760035,"connected_time":2800000000000,"state":"active","ping":63},{"user_id":220,"name":"Hovg9000","steam_id":76561199191556710,"connected_time":2709000000000,"state":"active","ping":69},{"user_id":194,"name":"Owen","steam_id":76561198025446908,"connected_time":4405000000000,"state":"active","ping":89},{"user_id":247,"name":"Mcfighter2","steam_id":76561198168073956,"connected_time":260000000000,"state":"active","ping":72},{"user_id":242,"name":"Horse","steam_id":76561198004583631,"connected_time":546000000000,"state":"active","ping":89},{"user_id":237,"name":"Yoru","steam_id":76561198119698950,"connected_time":1050000000000,"state":"active","ping":127},{"user_id":235,"name":"crisp","steam_id":76561198084230569,"connected_time":1494000000000,"state":"active","ping":74},{"user_id":179,"name":"Grumby","steam_id":76561198149175262,"connected_time":5078000000000,"state":"active","ping":45},{"user_id":226,"name":"Constipated Barry","steam_id":76561198004482269,"connected_time":2607000000000,"state":"active","ping":89}]},{"server_id":404,"name":"Uncletopia | Dallas | 3 | All Maps","name_short":"dal-3","host":"dal-1.us.uncletopia.com","port":27035,"enabled":true,"region":"us-central","cc":"us","latitude":32.779167,"longitude":-96.80889,"reserved":0,"last_update":"0001-01-01T00:00:00Z","name_a2s":"Uncletopia | Dallas | 3 | All Maps","protocol":17,"map":"pl_badwater","folder":"tf","game":"Team Fortress","app_id":440,"player_count":24,"max_players":24,"Bots":0,"server_type":"Dedicated","server_os":"Linux","password":true,"vac":true,"version":"7961495","steam_id":85568392924515219,"keywords":["nocrits","nodmgspread","payload","uncletopia"],"game_id":440,"stv_port":27036,"stv_name":"Uncletopia | Dallas | 3 | All Maps | STV","players":[{"user_id":87,"name":"Mint Jelly","steam_id":76561197991286751,"connected_time":1705000000000,"state":"active","ping":64},{"user_id":105,"name":"The gang is what I trust","steam_id":76561198046775352,"connected_time":1053000000000,"state":"active","ping":83},{"user_id":107,"name":"Walter Malone","steam_id":76561198078661356,"connected_time":1015000000000,"state":"active","ping":71},{"user_id":114,"name":"Siopao","steam_id":76561198254089497,"connected_time":693000000000,"state":"active","ping":90},{"user_id":117,"name":"shaq$","steam_id":76561198045246504,"connected_time":379000000000,"state":"active","ping":82},{"user_id":63,"name":"Twinkus","steam_id":76561198209306929,"connected_time":3968000000000,"state":"active","ping":123},{"user_id":112,"name":"trackball gaming","steam_id":76561198057371485,"connected_time":744000000000,"state":"active","ping":67},{"user_id":89,"name":"R. Achael","steam_id":76561198133715771,"connected_time":1671000000000,"state":"active","ping":65},{"user_id":53,"name":"An Engineer","steam_id":76561198110381643,"connected_time":4615000000000,"state":"active","ping":45},{"user_id":119,"name":"TechnoBear2099","steam_id":76561198238863596,"connected_time":11000000000,"state":"active","ping":48},{"user_id":95,"name":"Soap","steam_id":76561197994893383,"connected_time":1555000000000,"state":"active","ping":65},{"user_id":96,"name":"wylss.","steam_id":76561198234851276,"connected_time":1532000000000,"state":"active","ping":91},{"user_id":98,"name":"Shrebbie","steam_id":76561198875230824,"connected_time":1520000000000,"state":"active","ping":87},{"user_id":33,"name":"ItsThatBear","steam_id":76561198169617659,"connected_time":5266000000000,"state":"active","ping":75},{"user_id":64,"name":"dereck","steam_id":76561198283886556,"connected_time":3959000000000,"state":"active","ping":115},{"user_id":109,"name":"intense radish","steam_id":76561199061038624,"connected_time":815000000000,"state":"active","ping":83},{"user_id":84,"name":"joddson63","steam_id":76561198124576125,"connected_time":2107000000000,"state":"active","ping":90},{"user_id":100,"name":"LoboSolo","steam_id":76561198006883170,"connected_time":1494000000000,"state":"active","ping":111},{"user_id":48,"name":"ZombeeNinja","steam_id":76561198122038563,"connected_time":4752000000000,"state":"active","ping":92},{"user_id":83,"name":"Peppa Pig","steam_id":76561198147772879,"connected_time":2175000000000,"state":"active","ping":62},{"user_id":101,"name":"dragons2008","steam_id":76561199071151136,"connected_time":1492000000000,"state":"active","ping":76},{"user_id":111,"name":"Serenue","steam_id":76561199040361250,"connected_time":798000000000,"state":"active","ping":123},{"user_id":113,"name":"Russell","steam_id":76561198024159373,"connected_time":725000000000,"state":"active","ping":76},{"user_id":116,"name":"Human Resources Manager","steam_id":76561198066386411,"connected_time":484000000000,"state":"active","ping":76}]},{"server_id":405,"name":"Uncletopia | Dallas | 4 | Community","name_short":"dal-4","host":"dal-1.us.uncletopia.com","port":27045,"enabled":true,"region":"us-central","cc":"us","latitude":32.779167,"longitude":-96.80889,"reserved":0,"last_update":"0001-01-01T00:00:00Z","name_a2s":"Uncletopia | Dallas | 4 | Community","protocol":17,"map":"workshop/koth_ashville_final.ugc2130459942","folder":"tf","game":"Team Fortress","app_id":440,"player_count":0,"max_players":24,"Bots":0,"server_type":"Dedicated","server_os":"Linux","password":true,"vac":true,"version":"7961495","steam_id":85568392924515220,"keywords":["cp","nocrits","nodmgspread","uncletopia"],"game_id":440,"stv_port":27046,"stv_name":"Uncletopia | Dallas | 4 | Community | STV","players":null},{"server_id":5,"name":"Uncletopia | Frankfurt | 1 | All Maps","name_short":"frk-1","host":"frk-1.de.uncletopia.com","port":27015,"enabled":true,"region":"eu","cc":"de","latitude":50.110924,"longitude":8.682127,"reserved":0,"last_update":"0001-01-01T00:00:00Z","name_a2s":"Uncletopia | Frankfurt | 1 | All Maps","protocol":17,"map":"pl_pier","folder":"tf","game":"Team Fortress","app_id":440,"player_count":4,"max_players":24,"Bots":0,"server_type":"Dedicated","server_os":"Linux","password":true,"vac":true,"version":"7961495","steam_id":85568392924469989,"keywords":["nocrits","nodmgspread","payload","uncletopia"],"game_id":440,"stv_port":27016,"stv_name":"Uncletopia | Frankfurt | 1 | All Maps | STV","players":[{"user_id":705,"name":"Kolius","steam_id":76561198057346614,"connected_time":3226000000000,"state":"active","ping":75},{"user_id":745,"name":"Bruxão","steam_id":76561198285241958,"connected_time":612000000000,"state":"active","ping":261},{"user_id":731,"name":"BL4Z3RU22ER","steam_id":76561199495737715,"connected_time":1316000000000,"state":"active","ping":129},{"user_id":736,"name":"nota","steam_id":76561198144554259,"connected_time":872000000000,"state":"active","ping":55}]},{"server_id":110,"name":"Uncletopia | Frankfurt | 2 | All Maps","name_short":"frk-2","host":"frk-1.de.uncletopia.com","port":27025,"enabled":true,"region":"eu","cc":"de","latitude":50.110924,"longitude":8.682127,"reserved":0,"last_update":"0001-01-01T00:00:00Z","name_a2s":"Uncletopia | Frankfurt | 2 | All Maps","protocol":17,"map":"koth_harvest_final","folder":"tf","game":"Team Fortress","app_id":440,"player_count":23,"max_players":24,"Bots":0,"server_type":"Dedicated","server_os":"Linux","password":true,"vac":true,"version":"7961495","steam_id":85568392924469990,"keywords":["cp","nocrits","nodmgspread","uncletopia"],"game_id":440,"stv_port":27026,"stv_name":"Uncletopia | Frankfurt | 2 | All Maps | STV","players":[{"user_id":715,"name":"agent youppii","steam_id":76561198055264447,"connected_time":4251000000000,"state":"active","ping":64},{"user_id":749,"name":"BadFemboy","steam_id":76561198072320671,"connected_time":1261000000000,"state":"active","ping":47},{"user_id":736,"name":"herbal tea","steam_id":76561197980736364,"connected_time":2167000000000,"state":"active","ping":73},{"user_id":750,"name":"Proto-arc","steam_id":76561198012776747,"connected_time":1260000000000,"state":"active","ping":53},{"user_id":713,"name":"sarge","steam_id":76561198243380546,"connected_time":4465000000000,"state":"active","ping":69},{"user_id":737,"name":"Gorgeous George","steam_id":76561198144256544,"connected_time":2128000000000,"state":"active","ping":61},{"user_id":697,"name":"i beat the last giant","steam_id":76561198080524596,"connected_time":5834000000000,"state":"active","ping":59},{"user_id":732,"name":"Cabbch","steam_id":76561198045955679,"connected_time":2954000000000,"state":"active","ping":58},{"user_id":758,"name":"trans werewolf (it/its)","steam_id":76561198107235989,"connected_time":270000000000,"state":"active","ping":47},{"user_id":753,"name":"hedren","steam_id":76561198146075691,"connected_time":900000000000,"state":"active","ping":72},{"user_id":759,"name":"Piellino","steam_id":76561198156873276,"connected_time":220000000000,"state":"active","ping":166},{"user_id":733,"name":"Marquis de Hoto","steam_id":76561198080687708,"connected_time":2946000000000,"state":"active","ping":48},{"user_id":721,"name":"DRYG                           ","steam_id":76561197994299134,"connected_time":3997000000000,"state":"active","ping":62},{"user_id":703,"name":"tube sock","steam_id":76561198073576350,"connected_time":5605000000000,"state":"active","ping":70},{"user_id":761,"name":"Sputnik","steam_id":76561198138660241,"connected_time":120000000000,"state":"active","ping":62},{"user_id":756,"name":"katana on the trains","steam_id":76561198202464032,"connected_time":715000000000,"state":"active","ping":63},{"user_id":752,"name":"ashley","steam_id":76561198448551449,"connected_time":1020000000000,"state":"active","ping":49},{"user_id":745,"name":"Mysterious Dave","steam_id":76561197970114051,"connected_time":1614000000000,"state":"active","ping":58},{"user_id":760,"name":"Bobirulez","steam_id":76561198009125458,"connected_time":142000000000,"state":"active","ping":78},{"user_id":741,"name":"Achterhoeker","steam_id":76561198051685232,"connected_time":1895000000000,"state":"active","ping":50},{"user_id":714,"name":"Vershal Smershal","steam_id":76561198116223995,"connected_time":4293000000000,"state":"active","ping":58},{"user_id":744,"name":"Charon","steam_id":76561198061714753,"connected_time":1630000000000,"state":"active","ping":81},{"user_id":746,"name":"VinnyTheG","steam_id":76561198862202293,"connected_time":1597000000000,"state":"active","ping":155}]},{"server_id":308,"name":"Uncletopia | Frankfurt | 3 | All Maps","name_short":"frk-3","host":"frk-1.de.uncletopia.com","port":27035,"enabled":true,"region":"eu","cc":"de","latitude":50.110924,"longitude":8.682127,"reserved":0,"last_update":"0001-01-01T00:00:00Z","name_a2s":"Uncletopia | Frankfurt | 3 | All Maps","protocol":17,"map":"cp_gorge","folder":"tf","game":"Team Fortress","app_id":440,"player_count":0,"max_players":24,"Bots":0,"server_type":"Dedicated","server_os":"Linux","password":true,"vac":true,"version":"7961495","steam_id":85568392924504274,"keywords":["cp","nocrits","nodmgspread","uncletopia"],"game_id":440,"stv_port":27036,"stv_name":"Uncletopia | Frankfurt | 3 | All Maps | STV","players":null},{"server_id":309,"name":"Uncletopia | Frankfurt | 4 | All Maps","name_short":"frk-4","host":"frk-1.de.uncletopia.com","port":27045,"enabled":true,"region":"eu","cc":"de","latitude":50.110924,"longitude":8.682127,"reserved":0,"last_update":"0001-01-01T00:00:00Z","name_a2s":"Uncletopia | Frankfurt | 4 | All Maps","protocol":17,"map":"pl_pier","folder":"tf","game":"Team Fortress","app_id":440,"player_count":12,"max_players":24,"Bots":0,"server_type":"Dedicated","server_os":"Linux","password":true,"vac":true,"version":"7961495","steam_id":85568392924504275,"keywords":["nocrits","nodmgspread","payload","uncletopia"],"game_id":440,"stv_port":27046,"stv_name":"Uncletopia | Frankfurt | 4 | All Maps | STV","players":[{"user_id":551,"name":"elijah","steam_id":76561198093936708,"connected_time":79000000000,"state":"active","ping":59},{"user_id":550,"name":"cranfordtheodore45","steam_id":76561199161577403,"connected_time":165000000000,"state":"active","ping":191},{"user_id":547,"name":"Perpetual Pub Push","steam_id":76561198256714846,"connected_time":429000000000,"state":"active","ping":48},{"user_id":548,"name":"Siegmeyer","steam_id":76561198328543549,"connected_time":426000000000,"state":"active","ping":70},{"user_id":533,"name":"fred","steam_id":76561199015161498,"connected_time":3557000000000,"state":"active","ping":78},{"user_id":543,"name":"beguilingfool","steam_id":76561199128745972,"connected_time":1709000000000,"state":"active","ping":165},{"user_id":536,"name":"WEEP","steam_id":76561199499933159,"connected_time":3309000000000,"state":"active","ping":53},{"user_id":545,"name":"ChPerette 🎮","steam_id":76561198060004887,"connected_time":458000000000,"state":"active","ping":46},{"user_id":544,"name":"smittenkittenmittens","steam_id":76561198130900442,"connected_time":1651000000000,"state":"active","ping":168},{"user_id":520,"name":"King Nugget","steam_id":76561198134037464,"connected_time":4664000000000,"state":"active","ping":89},{"user_id":521,"name":"the rat","steam_id":76561198079101313,"connected_time":4658000000000,"state":"active","ping":46},{"user_id":546,"name":"Iris","steam_id":76561198430295815,"connected_time":458000000000,"state":"active","ping":75}]},{"server_id":310,"name":"Uncletopia | Frankfurt | 5 | All Maps","name_short":"frk-5","host":"frk-1.de.uncletopia.com","port":27055,"enabled":true,"region":"eu","cc":"de","latitude":50.110924,"longitude":8.682127,"reserved":0,"last_update":"0001-01-01T00:00:00Z","name_a2s":"Uncletopia | Frankfurt | 5 | All Maps","protocol":17,"map":"pl_frontier_final","folder":"tf","game":"Team Fortress","app_id":440,"player_count":0,"max_players":24,"Bots":0,"server_type":"Dedicated","server_os":"Linux","password":true,"vac":true,"version":"7961495","steam_id":85568392924504277,"keywords":["nocrits","nodmgspread","payload","uncletopia"],"game_id":440,"stv_port":27056,"stv_name":"Uncletopia | Frankfurt | 5 | All Maps | STV","players":null},{"server_id":311,"name":"Uncletopia | Frankfurt | 6 | All Maps","name_short":"frk-6","host":"frk-1.de.uncletopia.com","port":27065,"enabled":true,"region":"eu","cc":"de","latitude":50.110924,"longitude":8.682127,"reserved":0,"last_update":"0001-01-01T00:00:00Z","name_a2s":"Uncletopia | Frankfurt | 6 | All Maps","protocol":17,"map":"cp_mountainlab","folder":"tf","game":"Team Fortress","app_id":440,"player_count":0,"max_players":24,"Bots":0,"server_type":"Dedicated","server_os":"Linux","password":true,"vac":true,"version":"7961495","steam_id":85568392924504278,"keywords":["cp","nocrits","nodmgspread","uncletopia"],"game_id":440,"stv_port":27066,"stv_name":"Uncletopia | Frankfurt | 6 | All Maps | STV","players":null},{"server_id":23,"name":"Uncletopia | Frankfurt | 7 | Stopwatch","name_short":"frk-7","host":"frk-1.de.uncletopia.com","port":27075,"enabled":true,"region":"eu","cc":"de","latitude":50.110924,"longitude":8.682127,"reserved":0,"last_update":"0001-01-01T00:00:00Z","name_a2s":"Uncletopia | Frankfurt | 7 | Stopwatch","protocol":17,"map":"workshop/koth_ashville_final.ugc2130459942","folder":"tf","game":"Team Fortress","app_id":440,"player_count":0,"max_players":24,"Bots":0,"server_type":"Dedicated","server_os":"Linux","password":true,"vac":true,"version":"7961495","steam_id":85568392924742827,"keywords":["cp","nocrits","nodmgspread","uncletopia"],"game_id":440,"stv_port":27076,"stv_name":"Uncletopia | Frankfurt | 7 | Stopwatch | STV","players":null},{"server_id":24,"name":"Uncletopia | Frankfurt | 8 | Community","name_short":"frk-8","host":"frk-1.de.uncletopia.com","port":27085,"enabled":true,"region":"eu","cc":"de","latitude":50.110924,"longitude":8.682127,"reserved":0,"last_update":"0001-01-01T00:00:00Z","name_a2s":"Uncletopia | Frankfurt | 8 | Community","protocol":17,"map":"workshop/pl_vigil_rc10.ugc1266210012","folder":"tf","game":"Team Fortress","app_id":440,"player_count":0,"max_players":24,"Bots":0,"server_type":"Dedicated","server_os":"Linux","password":true,"vac":true,"version":"7961495","steam_id":85568392924742828,"keywords":["nocrits","nodmgspread","payload","uncletopia"],"game_id":440,"stv_port":27086,"stv_name":"Uncletopia | Frankfurt | 8 | Community | STV","players":null},{"server_id":202,"name":"Uncletopia | Hong Kong | 1 | All Maps","name_short":"hgk-1","host":"hgk-1.hk.uncletopia.com","port":27015,"enabled":true,"region":"asia","cc":"hk","latitude":22.302711,"longitude":114.177216,"reserved":0,"last_update":"0001-01-01T00:00:00Z","name_a2s":"Uncletopia | Hong Kong | 1 | All Maps","protocol":17,"map":"koth_highpass","folder":"tf","game":"Team Fortress","app_id":440,"player_count":0,"max_players":24,"Bots":0,"server_type":"Dedicated","server_os":"Linux","password":true,"vac":true,"version":"7961495","steam_id":85568392924494504,"keywords":["cp","nocrits","nodmgspread","uncletopia"],"game_id":440,"stv_port":27016,"stv_name":"Uncletopia | Hong Kong | 1 | All Maps | STV","players":null},{"server_id":1,"name":"Uncletopia | Los Angeles | 1 | All Maps","name_short":"lax-1","host":"lax-1.us.uncletopia.com","port":27015,"enabled":true,"region":"us-west","cc":"us","latitude":33.94279,"longitude":-118.41004,"reserved":0,"last_update":"0001-01-01T00:00:00Z","name_a2s":"Uncletopia | Los Angeles | 1 | All Maps","protocol":17,"map":"koth_suijin","folder":"tf","game":"Team Fortress","app_id":440,"player_count":23,"max_players":24,"Bots":0,"server_type":"Dedicated","server_os":"Linux","password":true,"vac":true,"version":"7961495","steam_id":85568392924469991,"keywords":["cp","nocrits","nodmgspread","uncletopia"],"game_id":440,"stv_port":27016,"stv_name":"Uncletopia | Los Angeles | 1 | All Maps | STV","players":[{"user_id":55,"name":"Flyingmeadow","steam_id":76561198144687723,"connected_time":334000000000,"state":"active","ping":122},{"user_id":26,"name":"Filtershakes","steam_id":76561197990484413,"connected_time":1085000000000,"state":"active","ping":132},{"user_id":61,"name":"Goomba gaming","steam_id":76561199470354045,"connected_time":26000000000,"state":"active","ping":122},{"user_id":56,"name":"Big Boy Beni","steam_id":76561197995469460,"connected_time":328000000000,"state":"active","ping":44},{"user_id":20,"name":"Uh Oh!","steam_id":76561197981137624,"connected_time":1722000000000,"state":"active","ping":95},{"user_id":21,"name":"Lesbian Saul Goodman","steam_id":76561198040812902,"connected_time":1710000000000,"state":"active","ping":101},{"user_id":57,"name":"Esteban Delsin","steam_id":76561198433519639,"connected_time":324000000000,"state":"active","ping":98},{"user_id":25,"name":"SomeRandomBetaFish","steam_id":76561198827731399,"connected_time":1327000000000,"state":"active","ping":92},{"user_id":58,"name":"Renota","steam_id":76561198058224488,"connected_time":315000000000,"state":"active","ping":115},{"user_id":59,"name":"Equinox","steam_id":76561198274279754,"connected_time":177000000000,"state":"active","ping":113},{"user_id":29,"name":"Cuno Doesn't Care!","steam_id":76561198007372782,"connected_time":1020000000000,"state":"active","ping":52},{"user_id":30,"name":"Noire","steam_id":76561198149370109,"connected_time":987000000000,"state":"active","ping":64},{"user_id":51,"name":"Mack","steam_id":76561198089361823,"connected_time":583000000000,"state":"active","ping":121},{"user_id":40,"name":"lev","steam_id":76561198246752166,"connected_time":747000000000,"state":"active","ping":45},{"user_id":60,"name":"the rat gets the cheese","steam_id":76561199077027954,"connected_time":99000000000,"state":"active","ping":77},{"user_id":34,"name":"Mushroom","steam_id":76561198824029709,"connected_time":877000000000,"state":"active","ping":77},{"user_id":62,"name":"TrueBoredom","steam_id":76561198027021364,"connected_time":11000000000,"state":"spawning","ping":58},{"user_id":37,"name":"Humus","steam_id":76561198175286355,"connected_time":848000000000,"state":"active","ping":54},{"user_id":47,"name":"ginosaurusx","steam_id":76561198410640142,"connected_time":634000000000,"state":"active","ping":115},{"user_id":48,"name":"Brastion","steam_id":76561198257707303,"connected_time":625000000000,"state":"active","ping":86},{"user_id":41,"name":"minerkid2004","steam_id":76561198044262827,"connected_time":727000000000,"state":"active","ping":56},{"user_id":52,"name":"Batso","steam_id":76561198106589452,"connected_time":568000000000,"state":"active","ping":52},{"user_id":53,"name":"Phlog Roach","steam_id":76561198111154662,"connected_time":547000000000,"state":"active","ping":79}]},{"server_id":112,"name":"Uncletopia | Los Angeles | 2 | All Maps","name_short":"lax-2","host":"lax-1.us.uncletopia.com","port":27025,"enabled":true,"region":"us-west","cc":"us","latitude":33.94279,"longitude":-118.41004,"reserved":0,"last_update":"0001-01-01T00:00:00Z","name_a2s":"Uncletopia | Los Angeles | 2 | All Maps","protocol":17,"map":"pl_upward","folder":"tf","game":"Team Fortress","app_id":440,"player_count":24,"max_players":24,"Bots":0,"server_type":"Dedicated","server_os":"Linux","password":true,"vac":true,"version":"7961495","steam_id":85568392924469992,"keywords":["nocrits","nodmgspread","payload","uncletopia"],"game_id":440,"stv_port":27026,"stv_name":"Uncletopia | Los Angeles | 2 | All Maps | STV","players":[{"user_id":64,"name":"Weegee","steam_id":76561198140095755,"connected_time":1109000000000,"state":"active","ping":66},{"user_id":47,"name":"hyazz ( :3 )","steam_id":76561199100342013,"connected_time":2791000000000,"state":"active","ping":46},{"user_id":58,"name":"Scrux","steam_id":76561198129763115,"connected_time":1470000000000,"state":"active","ping":44},{"user_id":12,"name":"BigNut","steam_id":76561198073570489,"connected_time":3742000000000,"state":"active","ping":88},{"user_id":70,"name":"d4ngerd4n","steam_id":76561198043758735,"connected_time":223000000000,"state":"active","ping":46},{"user_id":68,"name":"Silverstream73","steam_id":76561198848035770,"connected_time":675000000000,"state":"active","ping":90},{"user_id":72,"name":"zinnk","steam_id":76561198092081825,"connected_time":197000000000,"state":"active","ping":59},{"user_id":65,"name":"ronald_stackerusa55","steam_id":76561198150406851,"connected_time":970000000000,"state":"active","ping":51},{"user_id":74,"name":"ShaggyRed","steam_id":76561198046996355,"connected_time":173000000000,"state":"active","ping":105},{"user_id":69,"name":"GreenApples","steam_id":76561198120559543,"connected_time":440000000000,"state":"active","ping":56},{"user_id":59,"name":"Punished Shitster","steam_id":76561198150452857,"connected_time":1400000000000,"state":"active","ping":80},{"user_id":66,"name":"Eden","steam_id":76561198081284664,"connected_time":848000000000,"state":"active","ping":50},{"user_id":75,"name":"Dr. Nefario Gaming","steam_id":76561199013431182,"connected_time":134000000000,"state":"active","ping":107},{"user_id":76,"name":"IKON | Jame Bond","steam_id":76561198172117538,"connected_time":7000000000,"state":"spawning","ping":50},{"user_id":57,"name":"manbearswineflu","steam_id":76561198083945137,"connected_time":1535000000000,"state":"active","ping":103},{"user_id":67,"name":"chocky","steam_id":76561198057491296,"connected_time":817000000000,"state":"active","ping":74},{"user_id":52,"name":"elephant thumb","steam_id":76561198118859752,"connected_time":2187000000000,"state":"active","ping":46},{"user_id":62,"name":"sunny4182","steam_id":76561198069380992,"connected_time":1380000000000,"state":"active","ping":82},{"user_id":71,"name":"you just got dyked on","steam_id":76561198018977723,"connected_time":215000000000,"state":"active","ping":79},{"user_id":40,"name":"the noise","steam_id":76561198811500361,"connected_time":2966000000000,"state":"active","ping":71},{"user_id":42,"name":"Lambchop","steam_id":76561198043900363,"connected_time":2939000000000,"state":"active","ping":66},{"user_id":77,"name":"Gary Budussy","steam_id":76561197969793969,"connected_time":0,"state":"spawning","ping":0},{"user_id":45,"name":"cupcakedealer69402","steam_id":76561199122061900,"connected_time":2862000000000,"state":"active","ping":117},{"user_id":53,"name":"Anthid","steam_id":76561198074493797,"connected_time":2022000000000,"state":"active","ping":75}]},{"server_id":324,"name":"Uncletopia | Los Angeles | 3 | All Maps","name_short":"lax-3","host":"lax-1.us.uncletopia.com","port":27035,"enabled":true,"region":"us-west","cc":"us","latitude":33.94279,"longitude":-118.41004,"reserved":0,"last_update":"0001-01-01T00:00:00Z","name_a2s":"Uncletopia | Los Angeles | 3 | All Maps","protocol":17,"map":"pl_badwater","folder":"tf","game":"Team Fortress","app_id":440,"player_count":0,"max_players":24,"Bots":0,"server_type":"Dedicated","server_os":"Linux","password":true,"vac":true,"version":"7961495","steam_id":85568392924510198,"keywords":["nocrits","nodmgspread","payload","uncletopia"],"game_id":440,"stv_port":27036,"stv_name":"Uncletopia | Los Angeles | 3 | All Maps | STV","players":null},{"server_id":25,"name":"Uncletopia | Los Angeles | 4 | Stopwatch","name_short":"lax-4","host":"lax-1.us.uncletopia.com","port":27045,"enabled":true,"region":"us-west","cc":"us","latitude":33.94279,"longitude":-118.41004,"reserved":0,"last_update":"0001-01-01T00:00:00Z","name_a2s":"Uncletopia | Los Angeles | 4 | Stopwatch","protocol":17,"map":"pl_upward","folder":"tf","game":"Team Fortress","app_id":440,"player_count":0,"max_players":24,"Bots":0,"server_type":"Dedicated","server_os":"Linux","password":true,"vac":true,"version":"7961495","steam_id":85568392924510199,"keywords":["nocrits","nodmgspread","payload","uncletopia"],"game_id":440,"stv_port":27046,"stv_name":"Uncletopia | Los Angeles | 4 | Stopwatch | STV","players":null},{"server_id":11,"name":"Uncletopia | London | 1 | All Maps","name_short":"lon-1","host":"lon-1.uk.uncletopia.com","port":27015,"enabled":true,"region":"eu","cc":"gb","latitude":51.509865,"longitude":-0.118092,"reserved":0,"last_update":"0001-01-01T00:00:00Z","name_a2s":"Uncletopia | London | 1 | All Maps","protocol":17,"map":"plr_bananabay","folder":"tf","game":"Team Fortress","app_id":440,"player_count":18,"max_players":24,"Bots":0,"server_type":"Dedicated","server_os":"Linux","password":true,"vac":true,"version":"7961495","steam_id":85568392924367362,"keywords":["nocrits","nodmgspread","payload","uncletopia"],"game_id":440,"stv_port":27016,"stv_name":"Uncletopia | London | 1 | All Maps | STV","players":[{"user_id":845,"name":"SKY_","steam_id":76561198080980508,"connected_time":981000000000,"state":"active","ping":47},{"user_id":839,"name":"sticks","steam_id":76561198127099299,"connected_time":1793000000000,"state":"active","ping":44},{"user_id":842,"name":"Czechmated","steam_id":76561198075648001,"connected_time":1707000000000,"state":"active","ping":56},{"user_id":817,"name":"anaphylaxis","steam_id":76561198097396447,"connected_time":4408000000000,"state":"active","ping":58},{"user_id":835,"name":"Dale ❤","steam_id":76561197995189004,"connected_time":1920000000000,"state":"active","ping":45},{"user_id":847,"name":"Maneon","steam_id":76561198208386005,"connected_time":76000000000,"state":"spawning","ping":58},{"user_id":843,"name":"jonbob","steam_id":76561197963506620,"connected_time":1277000000000,"state":"active","ping":43},{"user_id":699,"name":"Speed-Dial","steam_id":76561198012428315,"connected_time":13727000000000,"state":"active","ping":36},{"user_id":802,"name":"cropping","steam_id":76561198026586456,"connected_time":4879000000000,"state":"active","ping":55},{"user_id":801,"name":"lark","steam_id":76561198091724522,"connected_time":5045000000000,"state":"active","ping":59},{"user_id":804,"name":"dools18","steam_id":76561198880768062,"connected_time":4818000000000,"state":"active","ping":60},{"user_id":834,"name":"Dan","steam_id":76561198289353288,"connected_time":2041000000000,"state":"active","ping":50},{"user_id":803,"name":"Saken","steam_id":76561198049075295,"connected_time":4859000000000,"state":"active","ping":60},{"user_id":833,"name":"tractor time","steam_id":76561198069449912,"connected_time":2383000000000,"state":"active","ping":126},{"user_id":830,"name":"Triploon","steam_id":76561198173304074,"connected_time":2597000000000,"state":"active","ping":45},{"user_id":846,"name":"Sodsboy","steam_id":76561198030482006,"connected_time":676000000000,"state":"active","ping":39},{"user_id":841,"name":"xbox 720","steam_id":76561198025795825,"connected_time":1782000000000,"state":"active","ping":41},{"user_id":821,"name":"Zedifo","steam_id":76561198044032070,"connected_time":4068000000000,"state":"active","ping":46}]},{"server_id":114,"name":"Uncletopia | London | 2 | All Maps","name_short":"lon-2","host":"lon-1.uk.uncletopia.com","port":27025,"enabled":true,"region":"eu","cc":"gb","latitude":51.509865,"longitude":-0.118092,"reserved":0,"last_update":"0001-01-01T00:00:00Z","name_a2s":"Uncletopia | London | 2 | All Maps","protocol":17,"map":"cp_mountainlab","folder":"tf","game":"Team Fortress","app_id":440,"player_count":0,"max_players":24,"Bots":0,"server_type":"Dedicated","server_os":"Linux","password":true,"vac":true,"version":"7961495","steam_id":85568392924470941,"keywords":["cp","nocrits","nodmgspread","uncletopia"],"game_id":440,"stv_port":27026,"stv_name":"Uncletopia | London | 2 | All Maps | STV","players":null},{"server_id":320,"name":"Uncletopia | London | 3 | All Maps","name_short":"lon-3","host":"lon-1.uk.uncletopia.com","port":27035,"enabled":true,"region":"eu","cc":"gb","latitude":51.509865,"longitude":-0.118092,"reserved":0,"last_update":"0001-01-01T00:00:00Z","name_a2s":"Uncletopia | London | 3 | All Maps","protocol":17,"map":"cp_sunshine","folder":"tf","game":"Team Fortress","app_id":440,"player_count":0,"max_players":24,"Bots":0,"server_type":"Dedicated","server_os":"Linux","password":true,"vac":true,"version":"7961495","steam_id":85568392924510192,"keywords":["cp","nocrits","nodmgspread","uncletopia"],"game_id":440,"stv_port":27036,"stv_name":"Uncletopia | London | 3 | All Maps | STV","players":null},{"server_id":321,"name":"Uncletopia | London | 4 | All Maps","name_short":"lon-4","host":"lon-1.uk.uncletopia.com","port":27045,"enabled":true,"region":"eu","cc":"gb","latitude":51.509865,"longitude":-0.118092,"reserved":0,"last_update":"0001-01-01T00:00:00Z","name_a2s":"Uncletopia | London | 4 | All Maps","protocol":17,"map":"pl_badwater","folder":"tf","game":"Team Fortress","app_id":440,"player_count":0,"max_players":24,"Bots":0,"server_type":"Dedicated","server_os":"Linux","password":true,"vac":true,"version":"7961495","steam_id":85568392924510193,"keywords":["nocrits","nodmgspread","payload","uncletopia"],"game_id":440,"stv_port":27046,"stv_name":"Uncletopia | London | 4 | All Maps | STV","players":null},{"server_id":21,"name":"Uncletopia | London | 5 | All Maps","name_short":"lon-5","host":"lon-1.uk.uncletopia.com","port":27055,"enabled":true,"region":"eu","cc":"gb","latitude":51.509865,"longitude":-0.118092,"reserved":0,"last_update":"0001-01-01T00:00:00Z","name_a2s":"Uncletopia | London | 5 | All Maps","protocol":17,"map":"pl_badwater","folder":"tf","game":"Team Fortress","app_id":440,"player_count":0,"max_players":24,"Bots":0,"server_type":"Dedicated","server_os":"Linux","password":true,"vac":true,"version":"7961495","steam_id":85568392924742829,"keywords":["nocrits","nodmgspread","payload","uncletopia"],"game_id":440,"stv_port":27056,"stv_name":"Uncletopia | London | 5 | All Maps | STV","players":null},{"server_id":22,"name":"Uncletopia | London | 6 | All Maps","name_short":"lon-6","host":"lon-1.uk.uncletopia.com","port":27065,"enabled":true,"region":"eu","cc":"gb","latitude":51.509865,"longitude":-0.118092,"reserved":0,"last_update":"0001-01-01T00:00:00Z","name_a2s":"Uncletopia | London | 6 | All Maps","protocol":17,"map":"pl_badwater","folder":"tf","game":"Team Fortress","app_id":440,"player_count":0,"max_players":24,"Bots":0,"server_type":"Dedicated","server_os":"Linux","password":true,"vac":true,"version":"7961495","steam_id":85568392924742830,"keywords":["nocrits","nodmgspread","payload","uncletopia"],"game_id":440,"stv_port":27066,"stv_name":"Uncletopia | London | 6 | All Maps | STV","players":null},{"server_id":40,"name":"Uncletopia | London | 7 | Stopwatch","name_short":"lon-7","host":"lon-1.uk.uncletopia.com","port":27075,"enabled":true,"region":"eu","cc":"gb","latitude":51.509865,"longitude":-0.118092,"reserved":0,"last_update":"0001-01-01T00:00:00Z","name_a2s":"Uncletopia | London | 7 | Stopwatch","protocol":17,"map":"koth_lakeside_final","folder":"tf","game":"Team Fortress","app_id":440,"player_count":0,"max_players":24,"Bots":0,"server_type":"Dedicated","server_os":"Linux","password":true,"vac":true,"version":"7961495","steam_id":85568392924964314,"keywords":["cp","nocrits","nodmgspread","uncletopia"],"game_id":440,"stv_port":27076,"stv_name":"Uncletopia | London | 7 | Stopwatch | STV","players":null},{"server_id":41,"name":"Uncletopia | London | 8 | Community","name_short":"lon-8","host":"lon-1.uk.uncletopia.com","port":27085,"enabled":true,"region":"eu","cc":"gb","latitude":51.509865,"longitude":-0.118092,"reserved":0,"last_update":"0001-01-01T00:00:00Z","name_a2s":"Uncletopia | London | 8 | Community","protocol":17,"map":"workshop/pl_corrode_rc2.ugc546577989","folder":"tf","game":"Team Fortress","app_id":440,"player_count":0,"max_players":24,"Bots":0,"server_type":"Dedicated","server_os":"Linux","password":true,"vac":true,"version":"7961495","steam_id":85568392924964315,"keywords":["nocrits","nodmgspread","payload","uncletopia"],"game_id":440,"stv_port":27086,"stv_name":"Uncletopia | London | 8 | Community | STV","players":null},{"server_id":300,"name":"Uncletopia | Montréal | 1 | One Thousand Uncles","name_short":"mtl-1","host":"mtl-1.ca.uncletopia.com","port":27015,"enabled":true,"region":"us-east","cc":"ca","latitude":45.50889,"longitude":-73.56167,"reserved":0,"last_update":"0001-01-01T00:00:00Z","name_a2s":"Uncletopia | Montréal | 1 | One Thousand Uncles","protocol":17,"map":"pl_barnblitz","folder":"tf","game":"Team Fortress","app_id":440,"player_count":29,"max_players":32,"Bots":16,"server_type":"Dedicated","server_os":"Linux","password":true,"vac":true,"version":"7961495","steam_id":85568392924500087,"keywords":["alltalk","bots","danepve","increased_maxplayers","norespawntime","payload","uncletopia"],"game_id":440,"stv_port":0,"stv_name":"","players":[{"user_id":295,"name":"heavy jumpscare","steam_id":76561198376752965,"connected_time":7796000000000,"state":"active","ping":52},{"user_id":414,"name":"Average Pinkerton Enjoyer","steam_id":76561199376462977,"connected_time":398000000000,"state":"active","ping":105},{"user_id":372,"name":"morbidly a beast","steam_id":76561198061653298,"connected_time":1568000000000,"state":"active","ping":51},{"user_id":336,"name":"tuatramxo5","steam_id":76561198324441191,"connected_time":2973000000000,"state":"active","ping":59},{"user_id":292,"name":"Rhutebeer","steam_id":76561198018302761,"connected_time":10185000000000,"state":"active","ping":106},{"user_id":332,"name":"RacoonGamer","steam_id":76561198100907657,"connected_time":3780000000000,"state":"active","ping":45},{"user_id":311,"name":"Metal Socks","steam_id":76561198049854770,"connected_time":4072000000000,"state":"active","ping":62},{"user_id":299,"name":"Im Groot","steam_id":76561198294943420,"connected_time":7064000000000,"state":"active","ping":88},{"user_id":333,"name":"Thurricane","steam_id":76561198410724666,"connected_time":3761000000000,"state":"active","ping":60},{"user_id":394,"name":"SirGageXenon","steam_id":76561198354317942,"connected_time":1068000000000,"state":"active","ping":95},{"user_id":396,"name":"darklord20782078","steam_id":76561199258883833,"connected_time":515000000000,"state":"active","ping":49},{"user_id":315,"name":"ZharMeny","steam_id":76561199086841610,"connected_time":3819000000000,"state":"active","ping":202},{"user_id":417,"name":"Busta-Ma-Balls","steam_id":76561198005777658,"connected_time":19000000000,"state":"active","ping":47}]},{"server_id":301,"name":"Uncletopia | Montréal | 2 | One Thousand Uncles","name_short":"mtl-2","host":"mtl-1.ca.uncletopia.com","port":27025,"enabled":true,"region":"us-east","cc":"ca","latitude":45.50889,"longitude":-73.56167,"reserved":0,"last_update":"0001-01-01T00:00:00Z","name_a2s":"Uncletopia | Montréal | 2 | One Thousand Uncles","protocol":17,"map":"pl_chilly","folder":"tf","game":"Team Fortress","app_id":440,"player_count":0,"max_players":32,"Bots":0,"server_type":"Dedicated","server_os":"Linux","password":true,"vac":true,"version":"7961495","steam_id":85568392924500088,"keywords":["alltalk","danepve","increased_maxplayers","norespawntime","payload","uncletopia"],"game_id":440,"stv_port":0,"stv_name":"","players":null},{"server_id":302,"name":"Uncletopia | Montréal | 3 | One Thousand Uncles","name_short":"mtl-3","host":"mtl-1.ca.uncletopia.com","port":27035,"enabled":true,"region":"us-east","cc":"ca","latitude":45.50889,"longitude":-73.56167,"reserved":0,"last_update":"0001-01-01T00:00:00Z","name_a2s":"Uncletopia | Montréal | 3 | One Thousand Uncles","protocol":17,"map":"pl_swiftwater_final1","folder":"tf","game":"Team Fortress","app_id":440,"player_count":19,"max_players":32,"Bots":16,"server_type":"Dedicated","server_os":"Linux","password":true,"vac":true,"version":"7961495","steam_id":85568392924500089,"keywords":["alltalk","bots","danepve","increased_maxplayers","norespawntime","payload","uncletopia"],"game_id":440,"stv_port":0,"stv_name":"","players":[{"user_id":242,"name":"DoingBooing","steam_id":76561199503942745,"connected_time":819000000000,"state":"active","ping":65},{"user_id":259,"name":"cold","steam_id":76561199017901552,"connected_time":631000000000,"state":"active","ping":78},{"user_id":260,"name":"CCTV CAMERA","steam_id":76561198079973828,"connected_time":2000000000,"state":"spawning","ping":78}]},{"server_id":13,"name":"Uncletopia | New York City | 1 | All Maps","name_short":"nyc-1","host":"nyc-1.us.uncletopia.com","port":27015,"enabled":true,"region":"us-east","cc":"us","latitude":40.73061,"longitude":-73.93524,"reserved":0,"last_update":"0001-01-01T00:00:00Z","name_a2s":"Uncletopia | New York City | 1 | All Maps","protocol":17,"map":"pl_thundermountain","folder":"tf","game":"Team Fortress","app_id":440,"player_count":24,"max_players":24,"Bots":0,"server_type":"Dedicated","server_os":"Linux","password":true,"vac":true,"version":"7961495","steam_id":85568392924469993,"keywords":["nocrits","nodmgspread","payload","uncletopia"],"game_id":440,"stv_port":27016,"stv_name":"Uncletopia | New York City | 1 | All Maps | STV","players":[{"user_id":327,"name":"wayne rooney","steam_id":76561199508116891,"connected_time":2259000000000,"state":"active","ping":31},{"user_id":317,"name":"Turt","steam_id":76561198097705964,"connected_time":2793000000000,"state":"active","ping":89},{"user_id":265,"name":"dog","steam_id":76561198263873491,"connected_time":6341000000000,"state":"active","ping":61},{"user_id":239,"name":"AlecTheNefarious","steam_id":76561198035291230,"connected_time":8444000000000,"state":"active","ping":74},{"user_id":334,"name":"nice tea. good house","steam_id":76561197992669506,"connected_time":1723000000000,"state":"active","ping":65},{"user_id":339,"name":"sithreis","steam_id":76561198000564263,"connected_time":349000000000,"state":"active","ping":74},{"user_id":292,"name":"Aokuma","steam_id":76561198808387179,"connected_time":4608000000000,"state":"active","ping":56},{"user_id":303,"name":"kimshwim","steam_id":76561198287933134,"connected_time":3876000000000,"state":"active","ping":60},{"user_id":310,"name":"Pasta La Vista","steam_id":76561198129450033,"connected_time":3454000000000,"state":"active","ping":44},{"user_id":314,"name":"microsoft solitaire expert","steam_id":76561199134895220,"connected_time":3370000000000,"state":"active","ping":46},{"user_id":333,"name":"BarrowBaron","steam_id":76561198013633236,"connected_time":1848000000000,"state":"active","ping":62},{"user_id":335,"name":"cellogamer","steam_id":76561198016937098,"connected_time":1305000000000,"state":"active","ping":44},{"user_id":321,"name":"Bacchus","steam_id":76561198113244990,"connected_time":2493000000000,"state":"active","ping":67},{"user_id":347,"name":"Yuzu","steam_id":76561198417913035,"connected_time":93000000000,"state":"active","ping":49},{"user_id":344,"name":"Trunkerunk","steam_id":76561197993724071,"connected_time":147000000000,"state":"active","ping":84},{"user_id":271,"name":"java","steam_id":76561198030276792,"connected_time":5859000000000,"state":"active","ping":59},{"user_id":294,"name":"Tank Chili","steam_id":76561198161183031,"connected_time":4584000000000,"state":"active","ping":60},{"user_id":319,"name":"you forgot the sauce","steam_id":76561198387016713,"connected_time":2636000000000,"state":"active","ping":47},{"user_id":342,"name":"silki","steam_id":76561198980883789,"connected_time":333000000000,"state":"active","ping":66},{"user_id":298,"name":"Olifont","steam_id":76561198141162919,"connected_time":4253000000000,"state":"active","ping":62},{"user_id":346,"name":"TheLastOfSus","steam_id":76561198158671573,"connected_time":133000000000,"state":"active","ping":111},{"user_id":338,"name":"FattSucc","steam_id":76561198009500503,"connected_time":635000000000,"state":"active","ping":83},{"user_id":343,"name":"Gruko","steam_id":76561198282965665,"connected_time":322000000000,"state":"active","ping":38},{"user_id":296,"name":"Stonks","steam_id":76561199490085068,"connected_time":4569000000000,"state":"active","ping":58}]},{"server_id":14,"name":"Uncletopia | New York City | 2 | All Maps","name_short":"nyc-2","host":"nyc-1.us.uncletopia.com","port":27025,"enabled":true,"region":"us-east","cc":"us","latitude":40.73061,"longitude":-73.93524,"reserved":0,"last_update":"0001-01-01T00:00:00Z","name_a2s":"Uncletopia | New York City | 2 | All Maps","protocol":17,"map":"pl_badwater","folder":"tf","game":"Team Fortress","app_id":440,"player_count":24,"max_players":24,"Bots":0,"server_type":"Dedicated","server_os":"Linux","password":true,"vac":true,"version":"7961495","steam_id":85568392924469994,"keywords":["nocrits","nodmgspread","payload","uncletopia"],"game_id":440,"stv_port":27026,"stv_name":"Uncletopia | New York City | 2 | All Maps | STV","players":[{"user_id":463,"name":"Onionboy","steam_id":76561198110340279,"connected_time":903000000000,"state":"active","ping":45},{"user_id":451,"name":"Doctor Glocktorpus [NGC]","steam_id":76561198049194645,"connected_time":1586000000000,"state":"active","ping":52},{"user_id":465,"name":"Lost CS2 player","steam_id":76561198892387723,"connected_time":388000000000,"state":"active","ping":46},{"user_id":435,"name":"noise","steam_id":76561198081375875,"connected_time":2775000000000,"state":"active","ping":93},{"user_id":422,"name":"Dynamic","steam_id":76561198204547960,"connected_time":2989000000000,"state":"active","ping":70},{"user_id":392,"name":"BeerPowder","steam_id":76561198058129400,"connected_time":7122000000000,"state":"active","ping":39},{"user_id":448,"name":"LUPAAAAAAAAAAAAAAAAAAAAN","steam_id":76561198804082097,"connected_time":1706000000000,"state":"active","ping":56},{"user_id":395,"name":"Harry S. Truman","steam_id":76561197993339757,"connected_time":6754000000000,"state":"active","ping":52},{"user_id":464,"name":"vinny6","steam_id":76561198386735728,"connected_time":616000000000,"state":"active","ping":53},{"user_id":461,"name":"SubZeroDestruction","steam_id":76561198145082209,"connected_time":919000000000,"state":"active","ping":49},{"user_id":398,"name":"Dei Genetrix","steam_id":76561198305678122,"connected_time":5843000000000,"state":"active","ping":115},{"user_id":424,"name":"Brawns","steam_id":76561198045190199,"connected_time":2984000000000,"state":"active","ping":59},{"user_id":467,"name":"Jagmaster","steam_id":76561198839361014,"connected_time":19000000000,"state":"active","ping":45},{"user_id":385,"name":"Jeff","steam_id":76561197997564762,"connected_time":7906000000000,"state":"active","ping":89},{"user_id":455,"name":"Da Walrus","steam_id":76561198045190191,"connected_time":1334000000000,"state":"active","ping":48},{"user_id":413,"name":"Werm","steam_id":76561198149601897,"connected_time":4625000000000,"state":"active","ping":47},{"user_id":399,"name":"Chiefirons","steam_id":76561198057984431,"connected_time":5840000000000,"state":"active","ping":85},{"user_id":459,"name":"Mipsiek","steam_id":76561198164013471,"connected_time":1230000000000,"state":"active","ping":42},{"user_id":447,"name":"Autumn Clover","steam_id":76561198012295314,"connected_time":1946000000000,"state":"active","ping":50},{"user_id":453,"name":"leumas","steam_id":76561198240408540,"connected_time":1570000000000,"state":"active","ping":67},{"user_id":450,"name":"Krispy","steam_id":76561197994783393,"connected_time":1629000000000,"state":"active","ping":51},{"user_id":449,"name":"Cervidé","steam_id":76561198098579497,"connected_time":1658000000000,"state":"active","ping":47},{"user_id":457,"name":"danman","steam_id":76561198070618595,"connected_time":1318000000000,"state":"active","ping":60},{"user_id":434,"name":"Slime Rancher 2 Enjoyer","steam_id":76561199171272762,"connected_time":2817000000000,"state":"active","ping":71}]},{"server_id":15,"name":"Uncletopia | New York City | 3 | Stopwatch","name_short":"nyc-3","host":"nyc-1.us.uncletopia.com","port":27035,"enabled":true,"region":"us-east","cc":"us","latitude":40.73061,"longitude":-73.93524,"reserved":0,"last_update":"0001-01-01T00:00:00Z","name_a2s":"Uncletopia | New York City | 3 | Stopwatch","protocol":17,"map":"koth_highpass","folder":"tf","game":"Team Fortress","app_id":440,"player_count":0,"max_players":24,"Bots":0,"server_type":"Dedicated","server_os":"Linux","password":true,"vac":true,"version":"7961495","steam_id":85568392924742820,"keywords":["cp","nocrits","nodmgspread","uncletopia"],"game_id":440,"stv_port":27036,"stv_name":"Uncletopia | New York City | 3 | Stopwatch | STV","players":null},{"server_id":16,"name":"Uncletopia | New York City | 4 | Community","name_short":"nyc-4","host":"nyc-1.us.uncletopia.com","port":27045,"enabled":true,"region":"us-east","cc":"us","latitude":40.73061,"longitude":-73.93524,"reserved":0,"last_update":"0001-01-01T00:00:00Z","name_a2s":"Uncletopia | New York City | 4 | Community","protocol":17,"map":"workshop/cp_indulge.ugc528106646","folder":"tf","game":"Team Fortress","app_id":440,"player_count":0,"max_players":24,"Bots":0,"server_type":"Dedicated","server_os":"Linux","password":true,"vac":true,"version":"7961495","steam_id":85568392924742821,"keywords":["cp","nocrits","nodmgspread","uncletopia"],"game_id":440,"stv_port":27046,"stv_name":"Uncletopia | New York City | 4 | Community | STV","players":null},{"server_id":142,"name":"Uncletopia | São Paulo | 1 | All Maps","name_short":"sao-1","host":"sao-1.br.uncletopia.com","port":27015,"enabled":true,"region":"sa","cc":"br","latitude":-23.533773,"longitude":-46.62529,"reserved":0,"last_update":"0001-01-01T00:00:00Z","name_a2s":"Uncletopia | São Paulo | 1 | All Maps","protocol":17,"map":"koth_viaduct","folder":"tf","game":"Team Fortress","app_id":440,"player_count":0,"max_players":24,"Bots":0,"server_type":"Dedicated","server_os":"Linux","password":true,"vac":true,"version":"7961495","steam_id":85568392924469996,"keywords":["cp","nocrits","nodmgspread","uncletopia"],"game_id":440,"stv_port":27016,"stv_name":"Uncletopia | São Paulo | 1 | All Maps | STV","players":null},{"server_id":143,"name":"Uncletopia | São Paulo | 2 | Community","name_short":"sao-2","host":"sao-2.br.uncletopia.com","port":27015,"enabled":true,"region":"sa","cc":"br","latitude":-23.533773,"longitude":-46.62529,"reserved":0,"last_update":"0001-01-01T00:00:00Z","name_a2s":"Uncletopia | São Paulo | 2 | Community","protocol":17,"map":"workshop/koth_product_final.ugc454272353","folder":"tf","game":"Team Fortress","app_id":440,"player_count":0,"max_players":24,"Bots":0,"server_type":"Dedicated","server_os":"Linux","password":true,"vac":true,"version":"7961495","steam_id":85568392924485349,"keywords":["cp","nocrits","nodmgspread","uncletopia"],"game_id":440,"stv_port":27016,"stv_name":"Uncletopia | São Paulo | 2 | Community | STV","players":null},{"server_id":7,"name":"Uncletopia | Seattle | 1 | All Maps","name_short":"sea-1","host":"sea-1.us.uncletopia.com","port":27015,"enabled":true,"region":"us-west","cc":"us","latitude":47.608013,"longitude":-122.33517,"reserved":0,"last_update":"0001-01-01T00:00:00Z","name_a2s":"Uncletopia | Seattle | 1 | All Maps","protocol":17,"map":"pl_thundermountain","folder":"tf","game":"Team Fortress","app_id":440,"player_count":24,"max_players":24,"Bots":0,"server_type":"Dedicated","server_os":"Linux","password":true,"vac":true,"version":"7961495","steam_id":85568392924469997,"keywords":["nocrits","nodmgspread","payload","uncletopia"],"game_id":440,"stv_port":27016,"stv_name":"Uncletopia | Seattle | 1 | All Maps | STV","players":[{"user_id":472,"name":"стив харви","steam_id":76561199075986117,"connected_time":1725000000000,"state":"active","ping":55},{"user_id":481,"name":"NinjaWolf74","steam_id":76561198278272446,"connected_time":858000000000,"state":"active","ping":76},{"user_id":459,"name":"Lane (She/Her)","steam_id":76561199048555878,"connected_time":2350000000000,"state":"active","ping":51},{"user_id":488,"name":"evilOlive","steam_id":76561198106222025,"connected_time":459000000000,"state":"active","ping":90},{"user_id":371,"name":"Nom Skirrett","steam_id":76561198014600788,"connected_time":10426000000000,"state":"active","ping":72},{"user_id":474,"name":"what a fukkin","steam_id":76561198298442983,"connected_time":1696000000000,"state":"active","ping":41},{"user_id":446,"name":"ATHEIST TIL I REALIZED I AM GOD","steam_id":76561199190800520,"connected_time":2905000000000,"state":"active","ping":41},{"user_id":482,"name":"Clorox Chugger 69","steam_id":76561198049508548,"connected_time":855000000000,"state":"active","ping":75},{"user_id":411,"name":"Igrium","steam_id":76561198119549811,"connected_time":5668000000000,"state":"active","ping":68},{"user_id":436,"name":"goofy goober","steam_id":76561199024079388,"connected_time":3372000000000,"state":"active","ping":46},{"user_id":489,"name":"bunceian","steam_id":76561198975662918,"connected_time":218000000000,"state":"active","ping":91},{"user_id":492,"name":"Banzailizard","steam_id":76561197986785469,"connected_time":35000000000,"state":"spawning","ping":56},{"user_id":441,"name":"Master Of Whales","steam_id":76561198349104889,"connected_time":2951000000000,"state":"active","ping":69},{"user_id":477,"name":"Kangarule","steam_id":76561198147171260,"connected_time":1218000000000,"state":"active","ping":54},{"user_id":467,"name":"deez","steam_id":76561198103841731,"connected_time":1994000000000,"state":"active","ping":60},{"user_id":431,"name":"Keamy","steam_id":76561199471434875,"connected_time":4633000000000,"state":"active","ping":44},{"user_id":462,"name":"Fredorando","steam_id":76561198242546842,"connected_time":2298000000000,"state":"active","ping":59},{"user_id":476,"name":"Shit (REAL)","steam_id":76561198206490352,"connected_time":1365000000000,"state":"active","ping":75},{"user_id":405,"name":"TROY","steam_id":76561197983852176,"connected_time":6669000000000,"state":"active","ping":75},{"user_id":434,"name":"mega","steam_id":76561198089520959,"connected_time":3950000000000,"state":"active","ping":91},{"user_id":487,"name":"crazyabe111","steam_id":76561198407686352,"connected_time":721000000000,"state":"active","ping":77},{"user_id":486,"name":"Dimple","steam_id":76561198980324190,"connected_time":773000000000,"state":"active","ping":54},{"user_id":491,"name":"Papa Panda","steam_id":76561198159061475,"connected_time":145000000000,"state":"active","ping":57},{"user_id":485,"name":"Greskrendtregk","steam_id":76561197969553142,"connected_time":802000000000,"state":"active","ping":54}]},{"server_id":119,"name":"Uncletopia | Seattle | 2 | All Maps","name_short":"sea-2","host":"sea-1.us.uncletopia.com","port":27025,"enabled":true,"region":"us-west","cc":"us","latitude":47.608013,"longitude":-122.33517,"reserved":0,"last_update":"0001-01-01T00:00:00Z","name_a2s":"Uncletopia | Seattle | 2 | All Maps","protocol":17,"map":"cp_dustbowl","folder":"tf","game":"Team Fortress","app_id":440,"player_count":5,"max_players":24,"Bots":0,"server_type":"Dedicated","server_os":"Linux","password":true,"vac":true,"version":"7961495","steam_id":85568392924469998,"keywords":["cp","nocrits","nodmgspread","uncletopia"],"game_id":440,"stv_port":27026,"stv_name":"Uncletopia | Seattle | 2 | All Maps | STV","players":[{"user_id":40,"name":"ghor","steam_id":76561197994547132,"connected_time":818000000000,"state":"active","ping":30},{"user_id":34,"name":"thezranger","steam_id":76561198454086460,"connected_time":2887000000000,"state":"active","ping":72},{"user_id":48,"name":"Watermelon","steam_id":76561199487351992,"connected_time":91000000000,"state":"active","ping":89},{"user_id":49,"name":"SiMSiM","steam_id":76561198305599070,"connected_time":77000000000,"state":"active","ping":29},{"user_id":50,"name":"cielael","steam_id":76561198043971956,"connected_time":76000000000,"state":"active","ping":75}]},{"server_id":406,"name":"Uncletopia | Seattle | 3 | Stopwatch","name_short":"sea-3","host":"sea-1.us.uncletopia.com","port":27035,"enabled":true,"region":"us-west","cc":"us","latitude":47.608013,"longitude":-122.33517,"reserved":0,"last_update":"0001-01-01T00:00:00Z","name_a2s":"Uncletopia | Seattle | 3 | Stopwatch","protocol":17,"map":"workshop/pl_summercoast_rc8e.ugc1761528829","folder":"tf","game":"Team Fortress","app_id":440,"player_count":0,"max_players":24,"Bots":0,"server_type":"Dedicated","server_os":"Linux","password":true,"vac":true,"version":"7961495","steam_id":85568392924515217,"keywords":["nocrits","nodmgspread","payload","uncletopia"],"game_id":440,"stv_port":27036,"stv_name":"Uncletopia | Seattle | 3 | Stopwatch | STV","players":null},{"server_id":17,"name":"Uncletopia | San Francisco | 1 | All Maps","name_short":"sfo-1","host":"sfo-1.us.uncletopia.com","port":27015,"enabled":true,"region":"us-west","cc":"us","latitude":37.77397,"longitude":-122.4313,"reserved":0,"last_update":"0001-01-01T00:00:00Z","name_a2s":"Uncletopia | San Francisco | 1 | All Maps","protocol":17,"map":"koth_highpass","folder":"tf","game":"Team Fortress","app_id":440,"player_count":0,"max_players":24,"Bots":0,"server_type":"Dedicated","server_os":"Linux","password":true,"vac":true,"version":"7961495","steam_id":85568392924469999,"keywords":["cp","nocrits","nodmgspread","uncletopia"],"game_id":440,"stv_port":27016,"stv_name":"Uncletopia | San Francisco | 1 | All Maps | STV","players":null},{"server_id":18,"name":"Uncletopia | San Francisco | 2 | All Maps","name_short":"sfo-2","host":"sfo-1.us.uncletopia.com","port":27025,"enabled":true,"region":"us-west","cc":"us","latitude":37.77397,"longitude":-122.4313,"reserved":0,"last_update":"0001-01-01T00:00:00Z","name_a2s":"Uncletopia | San Francisco | 2 | All Maps","protocol":17,"map":"cp_freight_final1","folder":"tf","game":"Team Fortress","app_id":440,"player_count":0,"max_players":24,"Bots":0,"server_type":"Dedicated","server_os":"Linux","password":true,"vac":true,"version":"7961495","steam_id":85568392924470000,"keywords":["cp","nocrits","nodmgspread","uncletopia"],"game_id":440,"stv_port":27026,"stv_name":"Uncletopia | San Francisco | 2 | All Maps | STV","players":null},{"server_id":19,"name":"Uncletopia | San Francisco | 3 | Stopwatch","name_short":"sfo-3","host":"sfo-1.us.uncletopia.com","port":27035,"enabled":true,"region":"us-west","cc":"us","latitude":37.77397,"longitude":-122.4313,"reserved":0,"last_update":"0001-01-01T00:00:00Z","name_a2s":"Uncletopia | San Francisco | 3 | Stopwatch","protocol":17,"map":"workshop/koth_jamram_rc1a.ugc2964065613","folder":"tf","game":"Team Fortress","app_id":440,"player_count":0,"max_players":24,"Bots":0,"server_type":"Dedicated","server_os":"Linux","password":true,"vac":true,"version":"7961495","steam_id":85568392924742824,"keywords":["cp","nocrits","nodmgspread","uncletopia"],"game_id":440,"stv_port":27036,"stv_name":"Uncletopia | San Francisco | 3 | Stopwatch | STV","players":null},{"server_id":20,"name":"Uncletopia | San Francisco | 4 | Community","name_short":"sfo-4","host":"sfo-1.us.uncletopia.com","port":27045,"enabled":true,"region":"us-west","cc":"us","latitude":37.77397,"longitude":-122.4313,"reserved":0,"last_update":"0001-01-01T00:00:00Z","name_a2s":"Uncletopia | San Francisco | 4 | Community","protocol":17,"map":"workshop/pl_cactuscanyon_redux_final2.ugc2579644293","folder":"tf","game":"Team Fortress","app_id":440,"player_count":0,"max_players":24,"Bots":0,"server_type":"Dedicated","server_os":"Linux","password":true,"vac":true,"version":"7961495","steam_id":85568392924742826,"keywords":["nocrits","nodmgspread","payload","uncletopia"],"game_id":440,"stv_port":27046,"stv_name":"Uncletopia | San Francisco | 4 | Community | STV","players":null},{"server_id":141,"name":"Uncletopia | Sydney | 1 | All Maps","name_short":"syd-1","host":"syd-1.au.uncletopia.com","port":27015,"enabled":true,"region":"au","cc":"au","latitude":-33.865143,"longitude":151.2099,"reserved":0,"last_update":"0001-01-01T00:00:00Z","name_a2s":"Uncletopia | Sydney | 1 | All Maps","protocol":17,"map":"koth_nucleus","folder":"tf","game":"Team Fortress","app_id":440,"player_count":0,"max_players":24,"Bots":0,"server_type":"Dedicated","server_os":"Linux","password":true,"vac":true,"version":"7961495","steam_id":85568392924470001,"keywords":["cp","nocrits","nodmgspread","uncletopia"],"game_id":440,"stv_port":27016,"stv_name":"Uncletopia | Sydney | 1 | All Maps | STV","players":null},{"server_id":123,"name":"Uncletopia | Sydney | 2 | All Maps","name_short":"syd-2","host":"syd-1.au.uncletopia.com","port":27025,"enabled":true,"region":"au","cc":"au","latitude":-33.865143,"longitude":151.2099,"reserved":0,"last_update":"0001-01-01T00:00:00Z","name_a2s":"Uncletopia | Sydney | 2 | All Maps","protocol":17,"map":"cp_fastlane","folder":"tf","game":"Team Fortress","app_id":440,"player_count":0,"max_players":24,"Bots":0,"server_type":"Dedicated","server_os":"Linux","password":true,"vac":true,"version":"7961495","steam_id":85568392924470002,"keywords":["cp","nocrits","nodmgspread","uncletopia"],"game_id":440,"stv_port":27026,"stv_name":"Uncletopia | Sydney | 2 | All Maps | STV","players":null},{"server_id":395,"name":"Uncletopia | Sydney | 3 | All Maps","name_short":"syd-3","host":"syd-1.au.uncletopia.com","port":27035,"enabled":true,"region":"au","cc":"au","latitude":-33.865143,"longitude":151.2099,"reserved":0,"last_update":"0001-01-01T00:00:00Z","name_a2s":"Uncletopia | Sydney | 3 | All Maps","protocol":17,"map":"cp_metalworks","folder":"tf","game":"Team Fortress","app_id":440,"player_count":0,"max_players":24,"Bots":0,"server_type":"Dedicated","server_os":"Linux","password":true,"vac":true,"version":"7961495","steam_id":85568392925194467,"keywords":["cp","nocrits","nodmgspread","uncletopia"],"game_id":440,"stv_port":27036,"stv_name":"Uncletopia | Sydney | 3 | All Maps | STV","players":null},{"server_id":396,"name":"Uncletopia | Sydney | 4 | All Maps","name_short":"syd-4","host":"syd-1.au.uncletopia.com","port":27045,"enabled":true,"region":"au","cc":"au","latitude":-33.865143,"longitude":151.2099,"reserved":0,"last_update":"0001-01-01T00:00:00Z","name_a2s":"Uncletopia | Sydney | 4 | All Maps","protocol":17,"map":"koth_cascade","folder":"tf","game":"Team Fortress","app_id":440,"player_count":0,"max_players":24,"Bots":0,"server_type":"Dedicated","server_os":"Linux","password":true,"vac":true,"version":"7961495","steam_id":85568392925397958,"keywords":["cp","nocrits","nodmgspread","uncletopia"],"game_id":440,"stv_port":27046,"stv_name":"Uncletopia | Sydney | 4 | All Maps | STV","players":null},{"server_id":58,"name":"Uncletopia | Sydney | 5 | Stopwatch","name_short":"syd-5","host":"syd-1.au.uncletopia.com","port":27055,"enabled":true,"region":"au","cc":"au","latitude":-33.865143,"longitude":151.2099,"reserved":0,"last_update":"0001-01-01T00:00:00Z","name_a2s":"Uncletopia | Sydney | 5 | Stopwatch","protocol":17,"map":"workshop/koth_product_final.ugc454272353","folder":"tf","game":"Team Fortress","app_id":440,"player_count":0,"max_players":24,"Bots":0,"server_type":"Dedicated","server_os":"Linux","password":true,"vac":true,"version":"7961495","steam_id":85568392925397959,"keywords":["cp","nocrits","nodmgspread","uncletopia"],"game_id":440,"stv_port":27056,"stv_name":"Uncletopia | Sydney | 5 | Stopwatch | STV","players":null},{"server_id":59,"name":"Uncletopia | Sydney | 6 | Community","name_short":"syd-6","host":"syd-1.au.uncletopia.com","port":27065,"enabled":true,"region":"au","cc":"au","latitude":-33.865143,"longitude":151.2099,"reserved":0,"last_update":"0001-01-01T00:00:00Z","name_a2s":"Uncletopia | Sydney | 6 | Community","protocol":17,"map":"workshop/koth_trenchfoot_ab1.ugc731436616","folder":"tf","game":"Team Fortress","app_id":440,"player_count":0,"max_players":24,"Bots":0,"server_type":"Dedicated","server_os":"Linux","password":true,"vac":true,"version":"7961495","steam_id":85568392925397960,"keywords":["cp","nocrits","nodmgspread","uncletopia"],"game_id":440,"stv_port":27066,"stv_name":"Uncletopia | Sydney | 6 | Community | STV","players":null},{"server_id":49,"name":"Uncletopia | Warsaw | 1 | One Thousand Uncles","name_short":"waw-1","host":"waw-1.pl.uncletopia.com","port":27015,"enabled":true,"region":"eu","cc":"pl","latitude":52.2297,"longitude":21.017532,"reserved":0,"last_update":"0001-01-01T00:00:00Z","name_a2s":"Uncletopia | Warsaw | 1 | One Thousand Uncles","protocol":17,"map":"pl_badwater","folder":"tf","game":"Team Fortress","app_id":440,"player_count":0,"max_players":32,"Bots":0,"server_type":"Dedicated","server_os":"Linux","password":true,"vac":true,"version":"7961495","steam_id":85568392925397850,"keywords":["alltalk","danepve","increased_maxplayers","norespawntime","payload","uncletopia"],"game_id":440,"stv_port":0,"stv_name":"","players":null},{"server_id":50,"name":"Uncletopia | Warsaw | 2 | One Thousand Uncles","name_short":"waw-2","host":"waw-1.pl.uncletopia.com","port":27025,"enabled":true,"region":"eu","cc":"pl","latitude":52.2297,"longitude":21.017532,"reserved":0,"last_update":"0001-01-01T00:00:00Z","name_a2s":"Uncletopia | Warsaw | 2 | One Thousand Uncles","protocol":17,"map":"pl_upward","folder":"tf","game":"Team Fortress","app_id":440,"player_count":0,"max_players":32,"Bots":0,"server_type":"Dedicated","server_os":"Linux","password":true,"vac":true,"version":"7961495","steam_id":85568392925397851,"keywords":["alltalk","danepve","increased_maxplayers","norespawntime","payload","uncletopia"],"game_id":440,"stv_port":0,"stv_name":"","players":null},{"server_id":51,"name":"Uncletopia | Warsaw | 3 | All Maps","name_short":"waw-3","host":"waw-1.pl.uncletopia.com","port":27035,"enabled":true,"region":"eu","cc":"pl","latitude":52.2297,"longitude":21.017532,"reserved":0,"last_update":"0001-01-01T00:00:00Z","name_a2s":"Uncletopia | Warsaw | 3 | All Maps","protocol":17,"map":"cp_sunshine","folder":"tf","game":"Team Fortress","app_id":440,"player_count":0,"max_players":24,"Bots":0,"server_type":"Dedicated","server_os":"Linux","password":true,"vac":true,"version":"7961495","steam_id":85568392925397852,"keywords":["cp","nocrits","nodmgspread","uncletopia"],"game_id":440,"stv_port":27036,"stv_name":"Uncletopia | Warsaw | 3 | All Maps | STV","players":null},{"server_id":52,"name":"Uncletopia | Warsaw | 4 | All Maps","name_short":"waw-4","host":"waw-1.pl.uncletopia.com","port":27045,"enabled":true,"region":"eu","cc":"pl","latitude":52.2297,"longitude":21.017532,"reserved":0,"last_update":"0001-01-01T00:00:00Z","name_a2s":"Uncletopia | Warsaw | 4 | All Maps","protocol":17,"map":"cp_snakewater_final1","folder":"tf","game":"Team Fortress","app_id":440,"player_count":0,"max_players":24,"Bots":0,"server_type":"Dedicated","server_os":"Linux","password":true,"vac":true,"version":"7961495","steam_id":85568392925397853,"keywords":["cp","nocrits","nodmgspread","uncletopia"],"game_id":440,"stv_port":27046,"stv_name":"Uncletopia | Warsaw | 4 | All Maps | STV","players":null},{"server_id":53,"name":"Uncletopia | Warsaw | 5 | Stopwatch","name_short":"waw-5","host":"waw-1.pl.uncletopia.com","port":27055,"enabled":true,"region":"eu","cc":"pl","latitude":52.2297,"longitude":21.017532,"reserved":0,"last_update":"0001-01-01T00:00:00Z","name_a2s":"Uncletopia | Warsaw | 5 | Stopwatch","protocol":17,"map":"workshop/koth_product_final.ugc454272353","folder":"tf","game":"Team Fortress","app_id":440,"player_count":0,"max_players":24,"Bots":0,"server_type":"Dedicated","server_os":"Linux","password":true,"vac":true,"version":"7961495","steam_id":85568392925397854,"keywords":["cp","nocrits","nodmgspread","uncletopia"],"game_id":440,"stv_port":27056,"stv_name":"Uncletopia | Warsaw | 5 | Stopwatch | STV","players":null},{"server_id":54,"name":"Uncletopia | Warsaw | 6 | Community","name_short":"waw-6","host":"waw-1.pl.uncletopia.com","port":27065,"enabled":true,"region":"eu","cc":"pl","latitude":52.2297,"longitude":21.017532,"reserved":0,"last_update":"0001-01-01T00:00:00Z","name_a2s":"Uncletopia | Warsaw | 6 | Community","protocol":17,"map":"workshop/pl_corrode_rc2.ugc546577989","folder":"tf","game":"Team Fortress","app_id":440,"player_count":0,"max_players":24,"Bots":0,"server_type":"Dedicated","server_os":"Linux","password":true,"vac":true,"version":"7961495","steam_id":85568392925397856,"keywords":["nocrits","nodmgspread","payload","uncletopia"],"game_id":440,"stv_port":27066,"stv_name":"Uncletopia | Warsaw | 6 | Community | STV","players":null}]}