{"status":true,"message":"","result":[{"server_id":9,"name":"Uncletopia | Atlanta | 1 | All Maps","name_short":"atl-1","host":"atl-1.us.uncletopia.com","port":27015,"enabled":true,"region":"us-east","cc":"us","latitude":33.753746,"longitude":-84.38633,"reserved":0,"last_update":"0001-01-01T00:00:00Z","name_a2s":"Uncletopia | Atlanta | 1 | All Maps","protocol":17,"map":"pl_borneo","folder":"tf","game":"Team Fortress","app_id":440,"player_count":24,"max_players":24,"Bots":0,"server_type":"Dedicated","server_os":"Linux","password":true,"vac":true,"version":"7757534","steam_id":85568392924469982,"keywords":["nocrits","nodmgspread","payload","uncletopia"],"game_id":440,"stv_port":27016,"stv_name":"Uncletopia | Atlanta | 1 | All Maps | STV","players":[{"user_id":180,"name":"Zen Skye","steam_id":76561198114452552,"connected_time":2153000000000,"state":"active","ping":86},{"user_id":228,"name":"saywhat_","steam_id":76561198088191503,"connected_time":1398000000000,"state":"active","ping":67},{"user_id":231,"name":"Bass Pro Gaming","steam_id":76561198444456721,"connected_time":1338000000000,"state":"active","ping":45},{"user_id":246,"name":"ÁÅ´Êòü | Marsy","steam_id":76561198014979892,"connected_time":1038000000000,"state":"active","ping":65},{"user_id":280,"name":"AkaDoggo","steam_id":76561198968291063,"connected_time":330000000000,"state":"active","ping":81},{"user_id":9,"name":"RED1 | nomad","steam_id":76561197998740399,"connected_time":4277000000000,"state":"active","ping":68},{"user_id":183,"name":"Weerk","steam_id":76561199209543551,"connected_time":2115000000000,"state":"active","ping":75},{"user_id":187,"name":"DuckMann","steam_id":76561198197058638,"connected_time":2015000000000,"state":"active","ping":67},{"user_id":122,"name":"MyamE","steam_id":76561198133278462,"connected_time":2844000000000,"state":"active","ping":72},{"user_id":99,"name":"BurgerPizza","steam_id":76561198151256410,"connected_time":3378000000000,"state":"active","ping":127},{"user_id":142,"name":"Fight Milk","steam_id":76561198046189668,"connected_time":2443000000000,"state":"active","ping":75},{"user_id":18,"name":"RED1 | eish","steam_id":76561198089463603,"connected_time":4246000000000,"state":"active","ping":119},{"user_id":19,"name":"Messy_","steam_id":76561199095580664,"connected_time":4246000000000,"state":"active","ping":121},{"user_id":276,"name":"Karma","steam_id":76561198030565234,"connected_time":363000000000,"state":"active","ping":69},{"user_id":192,"name":"lag","steam_id":76561198117898839,"connected_time":1946000000000,"state":"active","ping":130},{"user_id":277,"name":"ucdrakebros","steam_id":76561199147788726,"connected_time":349000000000,"state":"active","ping":100},{"user_id":229,"name":"BLU1 | cola","steam_id":76561198374390458,"connected_time":1394000000000,"state":"active","ping":56},{"user_id":269,"name":"RED1 | Mug","steam_id":76561199282207802,"connected_time":575000000000,"state":"active","ping":82},{"user_id":26,"name":"amazing","steam_id":76561198386233160,"connected_time":4229000000000,"state":"active","ping":89},{"user_id":179,"name":"miraakz420","steam_id":76561199013850154,"connected_time":2181000000000,"state":"active","ping":72},{"user_id":278,"name":"RED1 | mayhem","steam_id":76561199246637881,"connected_time":345000000000,"state":"active","ping":60},{"user_id":275,"name":"Jatt","steam_id":76561198822011219,"connected_time":474000000000,"state":"active","ping":77},{"user_id":112,"name":"Atomic Waffles","steam_id":76561197970935570,"connected_time":3036000000000,"state":"active","ping":91},{"user_id":279,"name":"BotchyAlarm8","steam_id":76561198092682129,"connected_time":345000000000,"state":"active","ping":553}]},{"server_id":400,"name":"Uncletopia | Atlanta | 3 | Community","name_short":"atl-3","host":"atl-1.us.uncletopia.com","port":27035,"enabled":true,"region":"us-east","cc":"us","latitude":33.753746,"longitude":-84.38633,"reserved":0,"last_update":"0001-01-01T00:00:00Z","name_a2s":"Uncletopia | Atlanta | 3 | Community","protocol":17,"map":"workshop/koth_ashville_final.ugc2130459942","folder":"tf","game":"Team Fortress","app_id":440,"player_count":0,"max_players":24,"Bots":0,"server_type":"Dedicated","server_os":"Linux","password":true,"vac":true,"version":"7757534","steam_id":85568392924515187,"keywords":["cp","nocrits","nodmgspread","uncletopia"],"game_id":440,"stv_port":27036,"stv_name":"Uncletopia | Atlanta | 3 | Community | STV","players":null},{"server_id":401,"name":"Uncletopia | Atlanta | 4 | No Payload","name_short":"atl-4","host":"atl-1.us.uncletopia.com","port":27045,"enabled":true,"region":"us-east","cc":"us","latitude":33.753746,"longitude":-84.38633,"reserved":0,"last_update":"0001-01-01T00:00:00Z","name_a2s":"Uncletopia | Atlanta | 4 | No Payload","protocol":17,"map":"pl_pier","folder":"tf","game":"Team Fortress","app_id":440,"player_count":0,"max_players":24,"Bots":0,"server_type":"Dedicated","server_os":"Linux","password":true,"vac":true,"version":"7723704","steam_id":85568392924515188,"keywords":["nocrits","nodmgspread","payload","uncletopia"],"game_id":440,"stv_port":27046,"stv_name":"Uncletopia | Atlanta | 4 | No Payload | STV","players":null},{"server_id":2,"name":"Uncletopia | Chicago | 1 | All Maps","name_short":"chi-1","host":"chi-1.us.uncletopia.com","port":27015,"enabled":true,"region":"us-central","cc":"us","latitude":41.881832,"longitude":-87.62318,"reserved":0,"last_update":"0001-01-01T00:00:00Z","name_a2s":"Uncletopia | Chicago | 1 | All Maps","protocol":17,"map":"cp_dustbowl","folder":"tf","game":"Team Fortress","app_id":440,"player_count":24,"max_players":24,"Bots":0,"server_type":"Dedicated","server_os":"Linux","password":true,"vac":true,"version":"7757534","steam_id":85568392924469984,"keywords":["cp","nocrits","nodmgspread","uncletopia"],"game_id":440,"stv_port":27016,"stv_name":"Uncletopia | Chicago | 1 | All Maps | STV","players":[{"user_id":174,"name":"ProfessorCagan","steam_id":76561198141372356,"connected_time":1647000000000,"state":"active","ping":48},{"user_id":144,"name":"blob","steam_id":76561198122375328,"connected_time":4084000000000,"state":"active","ping":63},{"user_id":196,"name":"Whizzo the Clown","steam_id":76561197995910627,"connected_time":81000000000,"state":"active","ping":90},{"user_id":186,"name":"Horse","steam_id":76561199112075552,"connected_time":1298000000000,"state":"active","ping":55},{"user_id":179,"name":"Sad Dent","steam_id":76561198103189993,"connected_time":1448000000000,"state":"active","ping":110},{"user_id":157,"name":"bruiseraaron","steam_id":76561198020092380,"connected_time":3361000000000,"state":"active","ping":56},{"user_id":188,"name":"Terminator","steam_id":76561198287318432,"connected_time":1035000000000,"state":"active","ping":63},{"user_id":162,"name":"Cobalt","steam_id":76561198353896624,"connected_time":2527000000000,"state":"active","ping":96},{"user_id":194,"name":"Genius Meme","steam_id":76561198162911254,"connected_time":655000000000,"state":"active","ping":110},{"user_id":95,"name":"Supr","steam_id":76561198093790672,"connected_time":7855000000000,"state":"active","ping":61},{"user_id":160,"name":"Astoriae!","steam_id":76561199090168858,"connected_time":2926000000000,"state":"active","ping":66},{"user_id":193,"name":"NGsterson","steam_id":76561198162108154,"connected_time":679000000000,"state":"active","ping":96},{"user_id":170,"name":".JIFF","steam_id":76561198045181760,"connected_time":1824000000000,"state":"active","ping":60},{"user_id":177,"name":"DeathByGinger","steam_id":76561198145825228,"connected_time":1595000000000,"state":"active","ping":62},{"user_id":180,"name":"mr. nine","steam_id":76561198097599414,"connected_time":1390000000000,"state":"active","ping":113},{"user_id":173,"name":"Qball","steam_id":76561198179016466,"connected_time":1659000000000,"state":"active","ping":55},{"user_id":181,"name":"Fencer!","steam_id":76561198029081038,"connected_time":1387000000000,"state":"active","ping":69},{"user_id":182,"name":"RED1 | Lylith","steam_id":76561198386687546,"connected_time":1386000000000,"state":"active","ping":68},{"user_id":192,"name":"Copter_Boy","steam_id":76561198322921312,"connected_time":723000000000,"state":"active","ping":72},{"user_id":190,"name":"t h e n a","steam_id":76561198169736062,"connected_time":819000000000,"state":"active","ping":96},{"user_id":133,"name":"FiddyFoMike","steam_id":76561198057072581,"connected_time":5459000000000,"state":"active","ping":93},{"user_id":187,"name":"mark","steam_id":76561198223421912,"connected_time":1140000000000,"state":"active","ping":94},{"user_id":195,"name":"Rug","steam_id":76561198093911181,"connected_time":381000000000,"state":"active","ping":55},{"user_id":184,"name":"Lia_Rein","steam_id":76561198151569597,"connected_time":1360000000000,"state":"active","ping":148}]},{"server_id":106,"name":"Uncletopia | Chicago | 2 | All Maps","name_short":"chi-2","host":"chi-1.us.uncletopia.com","port":27025,"enabled":true,"region":"us-central","cc":"us","latitude":41.881832,"longitude":-87.62318,"reserved":0,"last_update":"0001-01-01T00:00:00Z","name_a2s":"Uncletopia | Chicago | 2 | All Maps","protocol":17,"map":"pl_barnblitz","folder":"tf","game":"Team Fortress","app_id":440,"player_count":24,"max_players":24,"Bots":0,"server_type":"Dedicated","server_os":"Linux","password":true,"vac":true,"version":"7757534","steam_id":85568392924469985,"keywords":["nocrits","nodmgspread","payload","uncletopia"],"game_id":440,"stv_port":27026,"stv_name":"Uncletopia | Chicago | 2 | All Maps | STV","players":[{"user_id":270,"name":"Dr Spaceman","steam_id":76561197969755657,"connected_time":642000000000,"state":"active","ping":50},{"user_id":267,"name":"WhoIsFrosty","steam_id":76561198880588117,"connected_time":924000000000,"state":"active","ping":69},{"user_id":256,"name":"Cyber Cylon","steam_id":76561198048972781,"connected_time":1943000000000,"state":"active","ping":56},{"user_id":222,"name":"God of bread","steam_id":76561198373688035,"connected_time":3450000000000,"state":"active","ping":58},{"user_id":258,"name":"randomusername","steam_id":76561199078214700,"connected_time":1826000000000,"state":"active","ping":67},{"user_id":255,"name":"Caffeine Fuelled Gamer Boi","steam_id":76561197974364849,"connected_time":2062000000000,"state":"active","ping":62},{"user_id":179,"name":"Kasane","steam_id":76561198209006780,"connected_time":5041000000000,"state":"active","ping":78},{"user_id":275,"name":"HollowMan","steam_id":76561198967266827,"connected_time":439000000000,"state":"active","ping":87},{"user_id":268,"name":"Sexyrevolver","steam_id":76561199058132505,"connected_time":754000000000,"state":"active","ping":68},{"user_id":215,"name":"A Puppy","steam_id":76561198828184456,"connected_time":3887000000000,"state":"active","ping":59},{"user_id":237,"name":"SilentFootba11","steam_id":76561199006570947,"connected_time":2513000000000,"state":"active","ping":73},{"user_id":248,"name":"Rubber Child","steam_id":76561198144654350,"connected_time":2196000000000,"state":"active","ping":90},{"user_id":249,"name":"GoozeNugget","steam_id":76561198077257617,"connected_time":2176000000000,"state":"active","ping":91},{"user_id":235,"name":"gristle","steam_id":76561198046815360,"connected_time":2593000000000,"state":"active","ping":91},{"user_id":203,"name":"SEGNO","steam_id":76561198102780113,"connected_time":4016000000000,"state":"active","ping":61},{"user_id":250,"name":"DarkMeadow","steam_id":76561198086254517,"connected_time":2144000000000,"state":"active","ping":62},{"user_id":272,"name":"WarpdriveEngineer","steam_id":76561198073530973,"connected_time":617000000000,"state":"active","ping":64},{"user_id":273,"name":"sumo dumplings","steam_id":76561198115553314,"connected_time":616000000000,"state":"active","ping":62},{"user_id":262,"name":"Diesel of Alrest","steam_id":76561198143450491,"connected_time":1174000000000,"state":"active","ping":66},{"user_id":269,"name":"Xbox_Pro_2016","steam_id":76561198176126519,"connected_time":702000000000,"state":"active","ping":77},{"user_id":266,"name":"Skate Duck","steam_id":76561198125041862,"connected_time":935000000000,"state":"active","ping":90},{"user_id":219,"name":"Final_MarioXD","steam_id":76561199184862419,"connected_time":3762000000000,"state":"active","ping":89},{"user_id":232,"name":"Cornelius","steam_id":76561198123447388,"connected_time":2713000000000,"state":"active","ping":47},{"user_id":274,"name":"FellowGamer","steam_id":76561198089600392,"connected_time":612000000000,"state":"active","ping":77}]},{"server_id":402,"name":"Uncletopia | Chicago | 3 | All Maps","name_short":"chi-3","host":"chi-1.us.uncletopia.com","port":27035,"enabled":true,"region":"us-central","cc":"us","latitude":41.881832,"longitude":-87.62318,"reserved":0,"last_update":"0001-01-01T00:00:00Z","name_a2s":"Uncletopia | Chicago | 3 | All Maps","protocol":17,"map":"pl_snowycoast","folder":"tf","game":"Team Fortress","app_id":440,"player_count":24,"max_players":24,"Bots":0,"server_type":"Dedicated","server_os":"Linux","password":true,"vac":true,"version":"7757534","steam_id":85568392924515191,"keywords":["nocrits","nodmgspread","payload","uncletopia"],"game_id":440,"stv_port":27036,"stv_name":"Uncletopia | Chicago | 3 | All Maps | STV","players":[{"user_id":198,"name":"rainbowdad","steam_id":76561198272354852,"connected_time":507000000000,"state":"active","ping":43},{"user_id":182,"name":"The Drunk Clown","steam_id":76561197986850426,"connected_time":1121000000000,"state":"active","ping":76},{"user_id":169,"name":"Forge","steam_id":76561198042751067,"connected_time":2503000000000,"state":"active","ping":66},{"user_id":189,"name":"Satan","steam_id":76561198049821475,"connected_time":757000000000,"state":"active","ping":85},{"user_id":202,"name":"meth","steam_id":76561198103347094,"connected_time":358000000000,"state":"active","ping":46},{"user_id":156,"name":"DRPIELZ","steam_id":76561198816135253,"connected_time":3040000000000,"state":"active","ping":131},{"user_id":197,"name":"WishedFuzzball","steam_id":76561198055642827,"connected_time":587000000000,"state":"active","ping":71},{"user_id":203,"name":"Maik","steam_id":76561198045257088,"connected_time":322000000000,"state":"active","ping":133},{"user_id":152,"name":"ZofoJackson","steam_id":76561197998366861,"connected_time":3164000000000,"state":"active","ping":61},{"user_id":183,"name":"mr.edderkopper","steam_id":76561198152614478,"connected_time":1049000000000,"state":"active","ping":52},{"user_id":153,"name":"Snoopy","steam_id":76561198273735974,"connected_time":3157000000000,"state":"active","ping":100},{"user_id":192,"name":"AlbinoRhino","steam_id":76561199192140783,"connected_time":698000000000,"state":"active","ping":105},{"user_id":164,"name":"chad","steam_id":76561198112826532,"connected_time":2974000000000,"state":"active","ping":56},{"user_id":193,"name":"idiot normie","steam_id":76561198397662124,"connected_time":660000000000,"state":"active","ping":89},{"user_id":194,"name":"Wang of Wall St","steam_id":76561198047460598,"connected_time":648000000000,"state":"active","ping":81},{"user_id":126,"name":"REALLINUSJEWTIP.","steam_id":76561198056647983,"connected_time":5710000000000,"state":"active","ping":73},{"user_id":147,"name":"MedRed‚Ñ¢ #IATAH","steam_id":76561198002962970,"connected_time":3656000000000,"state":"active","ping":103},{"user_id":127,"name":"paisano","steam_id":76561198065575472,"connected_time":5703000000000,"state":"active","ping":67},{"user_id":201,"name":"Magik","steam_id":76561198200169706,"connected_time":449000000000,"state":"active","ping":63},{"user_id":204,"name":"*****setget","steam_id":76561198118824188,"connected_time":221000000000,"state":"active","ping":121},{"user_id":111,"name":"pou123321","steam_id":76561198069211237,"connected_time":6994000000000,"state":"active","ping":80},{"user_id":149,"name":"hej","steam_id":76561197996366940,"connected_time":3248000000000,"state":"active","ping":61},{"user_id":165,"name":"Adam (Cursed Confetti Creature)","steam_id":76561198317690197,"connected_time":2953000000000,"state":"active","ping":47},{"user_id":206,"name":"+r Testament 2.0","steam_id":76561198257691881,"connected_time":132000000000,"state":"active","ping":96}]},{"server_id":403,"name":"Uncletopia | Chicago | 4 | All Maps","name_short":"chi-4","host":"chi-1.us.uncletopia.com","port":27045,"enabled":true,"region":"us-central","cc":"us","latitude":41.881832,"longitude":-87.62318,"reserved":0,"last_update":"0001-01-01T00:00:00Z","name_a2s":"Uncletopia | Chicago | 4 | All Maps","protocol":17,"map":"pl_frontier_final","folder":"tf","game":"Team Fortress","app_id":440,"player_count":24,"max_players":24,"Bots":0,"server_type":"Dedicated","server_os":"Linux","password":true,"vac":true,"version":"7757534","steam_id":85568392924515193,"keywords":["nocrits","nodmgspread","payload","uncletopia"],"game_id":440,"stv_port":27046,"stv_name":"Uncletopia | Chicago | 4 | All Maps | STV","players":[{"user_id":215,"name":"Emperor Dankatine","steam_id":76561198044741086,"connected_time":278000000000,"state":"active","ping":73},{"user_id":177,"name":"Deathpill","steam_id":76561197994404793,"connected_time":2710000000000,"state":"active","ping":72},{"user_id":209,"name":"RaPids","steam_id":76561198082496100,"connected_time":796000000000,"state":"active","ping":72},{"user_id":210,"name":"Berny!!","steam_id":76561198042826477,"connected_time":557000000000,"state":"active","ping":48},{"user_id":181,"name":"Cucumber Gaming","steam_id":76561198982680715,"connected_time":2425000000000,"state":"active","ping":50},{"user_id":225,"name":"North","steam_id":76561199173696836,"connected_time":174000000000,"state":"active","ping":85},{"user_id":81,"name":"gasparmx","steam_id":76561197998611994,"connected_time":8761000000000,"state":"active","ping":113},{"user_id":155,"name":"pwllw","steam_id":76561198095431471,"connected_time":4040000000000,"state":"active","ping":72},{"user_id":199,"name":"Comet","steam_id":76561198079578011,"connected_time":1473000000000,"state":"active","ping":77},{"user_id":204,"name":"crabapples","steam_id":76561198075818655,"connected_time":1071000000000,"state":"active","ping":53},{"user_id":218,"name":"Mercenary Alpha | trade.tf","steam_id":76561198057047071,"connected_time":270000000000,"state":"active","ping":66},{"user_id":214,"name":"Weird","steam_id":76561199082362722,"connected_time":452000000000,"state":"active","ping":105},{"user_id":53,"name":"Vegerot","steam_id":76561197997843710,"connected_time":11094000000000,"state":"active","ping":60},{"user_id":203,"name":"nut","steam_id":76561198395577807,"connected_time":1388000000000,"state":"active","ping":73},{"user_id":207,"name":"OctopusCrime","steam_id":76561198060141069,"connected_time":875000000000,"state":"active","ping":83},{"user_id":219,"name":"WannaSeeA","steam_id":76561198097701042,"connected_time":263000000000,"state":"active","ping":76},{"user_id":208,"name":"Boomboombop","steam_id":76561198267531538,"connected_time":852000000000,"state":"active","ping":81},{"user_id":185,"name":"Kaypo","steam_id":76561198262420097,"connected_time":2345000000000,"state":"active","ping":64},{"user_id":212,"name":"zenith","steam_id":76561198809227311,"connected_time":536000000000,"state":"active","ping":65},{"user_id":220,"name":"Vem","steam_id":76561198117273112,"connected_time":263000000000,"state":"active","ping":73},{"user_id":224,"name":"SuperKid_GamingYT","steam_id":76561199005019104,"connected_time":237000000000,"state":"active","ping":91},{"user_id":138,"name":"Ask Nicely For Heals","steam_id":76561198138478907,"connected_time":5263000000000,"state":"active","ping":44},{"user_id":189,"name":"incompetentmedic","steam_id":76561199466073856,"connected_time":2250000000000,"state":"active","ping":68},{"user_id":223,"name":"creamgravy573","steam_id":76561198093308746,"connected_time":240000000000,"state":"active","ping":77}]},{"server_id":36,"name":"Uncletopia | Chicago | 5 | All Maps","name_short":"chi-5","host":"chi-2.us.uncletopia.com","port":27015,"enabled":true,"region":"us-central","cc":"us","latitude":41.881832,"longitude":-87.62318,"reserved":0,"last_update":"0001-01-01T00:00:00Z","name_a2s":"Uncletopia | Chicago | 5 | All Maps","protocol":17,"map":"pl_badwater","folder":"tf","game":"Team Fortress","app_id":440,"player_count":24,"max_players":24,"Bots":0,"server_type":"Dedicated","server_os":"Linux","password":true,"vac":true,"version":"7757534","steam_id":85568392924866362,"keywords":["nocrits","nodmgspread","payload","uncletopia"],"game_id":440,"stv_port":27016,"stv_name":"Uncletopia | Chicago | 5 | All Maps | STV","players":[{"user_id":168,"name":"Xecco","steam_id":76561198200028290,"connected_time":838000000000,"state":"active","ping":90},{"user_id":177,"name":"Wilhelmktx","steam_id":76561198158102295,"connected_time":412000000000,"state":"active","ping":55},{"user_id":166,"name":"Red_Hatkins","steam_id":76561198214004105,"connected_time":842000000000,"state":"active","ping":90},{"user_id":151,"name":"O'Keearns","steam_id":76561198042213797,"connected_time":1428000000000,"state":"active","ping":62},{"user_id":167,"name":"JayK","steam_id":76561198046277492,"connected_time":841000000000,"state":"active","ping":70},{"user_id":165,"name":"Ark","steam_id":76561198053000340,"connected_time":882000000000,"state":"active","ping":62},{"user_id":169,"name":"anttheknee","steam_id":76561198061579682,"connected_time":831000000000,"state":"active","ping":75},{"user_id":170,"name":"don't pursue lu bu","steam_id":76561198105515914,"connected_time":805000000000,"state":"active","ping":57},{"user_id":172,"name":"raduski","steam_id":76561198795699119,"connected_time":776000000000,"state":"active","ping":89},{"user_id":135,"name":"legowizdude","steam_id":76561198086688058,"connected_time":2674000000000,"state":"active","ping":60},{"user_id":164,"name":"motov","steam_id":76561197990238902,"connected_time":951000000000,"state":"active","ping":113},{"user_id":178,"name":"Buttons :)","steam_id":76561198139478534,"connected_time":340000000000,"state":"active","ping":164},{"user_id":154,"name":"Solo.","steam_id":76561198090308641,"connected_time":1340000000000,"state":"active","ping":70},{"user_id":120,"name":"Razz","steam_id":76561198158027533,"connected_time":4406000000000,"state":"active","ping":46},{"user_id":173,"name":"McLovin","steam_id":76561199158397833,"connected_time":753000000000,"state":"active","ping":81},{"user_id":138,"name":"Kinbo2487","steam_id":76561198184714198,"connected_time":2636000000000,"state":"active","ping":78},{"user_id":97,"name":"Rex","steam_id":76561198138365053,"connected_time":6066000000000,"state":"active","ping":131},{"user_id":139,"name":"amazon piss bottle energy drink","steam_id":76561198061103166,"connected_time":2601000000000,"state":"active","ping":60},{"user_id":140,"name":"solitude freak","steam_id":76561198066585785,"connected_time":2594000000000,"state":"active","ping":80},{"user_id":180,"name":"Furrio","steam_id":76561198174104607,"connected_time":185000000000,"state":"active","ping":81},{"user_id":176,"name":"Mug Maniac","steam_id":76561198120866920,"connected_time":506000000000,"state":"active","ping":77},{"user_id":174,"name":"GlitchGame","steam_id":76561198935134697,"connected_time":745000000000,"state":"active","ping":51},{"user_id":125,"name":"cixcin","steam_id":76561199215821942,"connected_time":3705000000000,"state":"active","ping":74},{"user_id":175,"name":"Johnny Lawrence #JohnnyMaxxing","steam_id":76561199367141671,"connected_time":703000000000,"state":"active","ping":74}]},{"server_id":37,"name":"Uncletopia | Chicago | 6 | All Maps","name_short":"chi-6","host":"chi-2.us.uncletopia.com","port":27025,"enabled":true,"region":"us-central","cc":"us","latitude":41.881832,"longitude":-87.62318,"reserved":0,"last_update":"0001-01-01T00:00:00Z","name_a2s":"Uncletopia | Chicago | 6 | All Maps","protocol":17,"map":"pl_badwater","folder":"tf","game":"Team Fortress","app_id":440,"player_count":24,"max_players":24,"Bots":0,"server_type":"Dedicated","server_os":"Linux","password":true,"vac":true,"version":"7757534","steam_id":85568392924866363,"keywords":["nocrits","nodmgspread","payload","uncletopia"],"game_id":440,"stv_port":27026,"stv_name":"Uncletopia | Chicago | 6 | All Maps | STV","players":[{"user_id":165,"name":"extinct111","steam_id":76561199013696367,"connected_time":1031000000000,"state":"active","ping":77},{"user_id":169,"name":"thomasdee725","steam_id":76561199189526173,"connected_time":650000000000,"state":"active","ping":81},{"user_id":168,"name":"Cog","steam_id":76561198119812649,"connected_time":662000000000,"state":"active","ping":59},{"user_id":167,"name":"dahperson","steam_id":76561198067207467,"connected_time":863000000000,"state":"active","ping":58},{"user_id":156,"name":"Bartolomew Jackson","steam_id":76561198306596853,"connected_time":1222000000000,"state":"active","ping":55},{"user_id":134,"name":"Discourse","steam_id":76561198984286678,"connected_time":1758000000000,"state":"active","ping":63},{"user_id":136,"name":"MrrPickle","steam_id":76561198122046514,"connected_time":1714000000000,"state":"active","ping":73},{"user_id":101,"name":"Sulong","steam_id":76561198798244209,"connected_time":2455000000000,"state":"active","ping":74},{"user_id":170,"name":"MELT MY EYEZ SEE YOUR FUTURE","steam_id":76561198397009880,"connected_time":646000000000,"state":"active","ping":74},{"user_id":155,"name":"Dee's Nuts","steam_id":76561198330058347,"connected_time":1252000000000,"state":"active","ping":64},{"user_id":171,"name":"AGagagaga","steam_id":76561199008585183,"connected_time":628000000000,"state":"active","ping":96},{"user_id":102,"name":"-=Bits=-Dinkleberg","steam_id":76561198080367616,"connected_time":2410000000000,"state":"active","ping":71},{"user_id":177,"name":"-_-","steam_id":76561198005773253,"connected_time":462000000000,"state":"active","ping":72},{"user_id":114,"name":"three three","steam_id":76561198177354155,"connected_time":2223000000000,"state":"active","ping":57},{"user_id":80,"name":"demoknight tf2","steam_id":76561198070393998,"connected_time":4123000000000,"state":"active","ping":75},{"user_id":173,"name":"Vanadium","steam_id":76561198445677637,"connected_time":545000000000,"state":"active","ping":126},{"user_id":105,"name":"old slimey ichabod","steam_id":76561198043900518,"connected_time":2400000000000,"state":"active","ping":56},{"user_id":76,"name":"Phoelamander","steam_id":76561198001462472,"connected_time":4700000000000,"state":"active","ping":88},{"user_id":52,"name":"glue790","steam_id":76561199215798445,"connected_time":7456000000000,"state":"active","ping":61},{"user_id":93,"name":"Moshi Man","steam_id":76561198038249762,"connected_time":2984000000000,"state":"active","ping":59},{"user_id":175,"name":"Possum Witch","steam_id":76561199119125112,"connected_time":495000000000,"state":"active","ping":57},{"user_id":106,"name":"your pants long for my pee","steam_id":76561198326083509,"connected_time":2394000000000,"state":"active","ping":82},{"user_id":176,"name":"Chucklenuts","steam_id":76561199255694844,"connected_time":495000000000,"state":"active","ping":108},{"user_id":124,"name":"ChefMike","steam_id":76561198414034069,"connected_time":2045000000000,"state":"active","ping":69}]},{"server_id":38,"name":"Uncletopia | Chicago | 7 | Stopwatch Beta","name_short":"chi-7","host":"chi-2.us.uncletopia.com","port":27035,"enabled":true,"region":"us-central","cc":"us","latitude":41.881832,"longitude":-87.62318,"reserved":0,"last_update":"0001-01-01T00:00:00Z","name_a2s":"Uncletopia | Chicago | 7 | Stopwatch Beta","protocol":17,"map":"koth_highpass","folder":"tf","game":"Team Fortress","app_id":440,"player_count":2,"max_players":24,"Bots":0,"server_type":"Dedicated","server_os":"Linux","password":true,"vac":true,"version":"7757534","steam_id":85568392924866364,"keywords":["cp","nocrits","nodmgspread","uncletopia"],"game_id":440,"stv_port":27036,"stv_name":"Uncletopia | Chicago | 7 | Stopwatch Beta | STV","players":[{"user_id":12,"name":"Vevo","steam_id":76561198316753540,"connected_time":3206000000000,"state":"active","ping":56},{"user_id":11,"name":"itsgearfear","steam_id":76561198801849281,"connected_time":3223000000000,"state":"active","ping":70}]},{"server_id":39,"name":"Uncletopia | Chicago | 8 | Community","name_short":"chi-8","host":"chi-2.us.uncletopia.com","port":27045,"enabled":true,"region":"us-central","cc":"us","latitude":41.881832,"longitude":-87.62318,"reserved":0,"last_update":"0001-01-01T00:00:00Z","name_a2s":"Uncletopia | Chicago | 8 | Community","protocol":17,"map":"workshop/pl_divulgence_b4b.ugc2884808746","folder":"tf","game":"Team Fortress","app_id":440,"player_count":24,"max_players":24,"Bots":0,"server_type":"Dedicated","server_os":"Linux","password":true,"vac":true,"version":"7757534","steam_id":85568392924866365,"keywords":["nocrits","nodmgspread","payload","uncletopia"],"game_id":440,"stv_port":27046,"stv_name":"Uncletopia | Chicago | 8 | Community | STV","players":[{"user_id":270,"name":"storm","steam_id":76561199122798427,"connected_time":1162000000000,"state":"active","ping":87},{"user_id":286,"name":"tyler","steam_id":76561198054260599,"connected_time":154000000000,"state":"active","ping":79},{"user_id":268,"name":"The vines üè≥‚öß‚ôÄ‚ô•‚ô•?","steam_id":76561199376578224,"connected_time":1573000000000,"state":"active","ping":103},{"user_id":283,"name":"All 24 Pok√©mon movies at once","steam_id":76561198164738311,"connected_time":434000000000,"state":"active","ping":66},{"user_id":282,"name":"TrustworthyStranger","steam_id":76561198154105678,"connected_time":567000000000,"state":"active","ping":86},{"user_id":233,"name":"AlphaScout","steam_id":76561198047797890,"connected_time":3348000000000,"state":"active","ping":70},{"user_id":285,"name":"Remy the rat","steam_id":76561198080519558,"connected_time":180000000000,"state":"active","ping":72},{"user_id":138,"name":"King Sans","steam_id":76561198294198517,"connected_time":9930000000000,"state":"active","ping":107},{"user_id":273,"name":"prdxninja","steam_id":76561198170081774,"connected_time":1118000000000,"state":"active","ping":45},{"user_id":250,"name":"radio","steam_id":76561198148059714,"connected_time":2171000000000,"state":"active","ping":72},{"user_id":287,"name":"Neophyte","steam_id":76561198027183394,"connected_time":152000000000,"state":"active","ping":95},{"user_id":288,"name":"catwithextracod","steam_id":76561199192645209,"connected_time":109000000000,"state":"active","ping":62},{"user_id":275,"name":"Silverio","steam_id":76561197999425381,"connected_time":1082000000000,"state":"active","ping":73},{"user_id":214,"name":"Zin","steam_id":76561199041369507,"connected_time":4087000000000,"state":"active","ping":84},{"user_id":289,"name":"truck freak [euclid]","steam_id":76561198062712676,"connected_time":84000000000,"state":"active","ping":101},{"user_id":290,"name":"That \"Spud\" Guy","steam_id":76561197997444126,"connected_time":82000000000,"state":"active","ping":103},{"user_id":203,"name":"Dieu-Sama","steam_id":76561198002075862,"connected_time":5036000000000,"state":"active","ping":80},{"user_id":276,"name":"dmitri","steam_id":76561198060559286,"connected_time":1045000000000,"state":"active","ping":101},{"user_id":198,"name":"groond","steam_id":76561198309426720,"connected_time":5182000000000,"state":"active","ping":70},{"user_id":266,"name":"rathotel","steam_id":76561198208126512,"connected_time":1625000000000,"state":"active","ping":83},{"user_id":291,"name":"guy","steam_id":76561198196443262,"connected_time":42000000000,"state":"active","ping":106},{"user_id":279,"name":"Snarkel","steam_id":76561198070688550,"connected_time":912000000000,"state":"active","ping":59},{"user_id":269,"name":"Backtotheeric","steam_id":76561198331228470,"connected_time":1540000000000,"state":"active","ping":85},{"user_id":292,"name":"anipe10","steam_id":76561199084698417,"connected_time":35000000000,"state":"active","ping":100}]},{"server_id":8,"name":"Uncletopia | Dallas | 1 | All Maps","name_short":"dal-1","host":"dal-1.us.uncletopia.com","port":27015,"enabled":true,"region":"us-central","cc":"us","latitude":32.779167,"longitude":-96.80889,"reserved":0,"last_update":"0001-01-01T00:00:00Z","name_a2s":"Uncletopia | Dallas | 1 | All Maps","protocol":17,"map":"plr_nightfall_final","folder":"tf","game":"Team Fortress","app_id":440,"player_count":24,"max_players":24,"Bots":0,"server_type":"Dedicated","server_os":"Linux","password":true,"vac":true,"version":"7757534","steam_id":85568392924469986,"keywords":["nocrits","nodmgspread","payload","uncletopia"],"game_id":440,"stv_port":27016,"stv_name":"Uncletopia | Dallas | 1 | All Maps | STV","players":[{"user_id":179,"name":"TheAilingSword","steam_id":76561198250350844,"connected_time":2045000000000,"state":"active","ping":46},{"user_id":193,"name":"JaketheDog217","steam_id":76561198424859448,"connected_time":632000000000,"state":"active","ping":81},{"user_id":162,"name":"MARIOPARTYDSFAN","steam_id":76561198872122117,"connected_time":2936000000000,"state":"active","ping":65},{"user_id":152,"name":"Chad the Sex Haver","steam_id":76561198058236528,"connected_time":4218000000000,"state":"active","ping":64},{"user_id":158,"name":"Pyro with long index finger","steam_id":76561198353789504,"connected_time":3432000000000,"state":"active","ping":74},{"user_id":127,"name":"Eliteplaster","steam_id":76561198846417774,"connected_time":5277000000000,"state":"active","ping":70},{"user_id":161,"name":"vastrobotmax","steam_id":76561198417110724,"connected_time":2994000000000,"state":"active","ping":102},{"user_id":188,"name":"Pinetree w/ apples.","steam_id":76561198105411709,"connected_time":863000000000,"state":"active","ping":110},{"user_id":121,"name":"Derply","steam_id":76561198871211642,"connected_time":5393000000000,"state":"active","ping":77},{"user_id":197,"name":"LordOfLemons","steam_id":76561198904408482,"connected_time":341000000000,"state":"active","ping":96},{"user_id":165,"name":"A Gamer [F2P]","steam_id":76561198138712892,"connected_time":2845000000000,"state":"active","ping":38},{"user_id":180,"name":"Fishstall","steam_id":76561198038126034,"connected_time":2017000000000,"state":"active","ping":68},{"user_id":166,"name":"Winter the Witchie","steam_id":76561198151971178,"connected_time":2833000000000,"state":"active","ping":97},{"user_id":198,"name":"Captain_Eldeezee","steam_id":76561198301560834,"connected_time":328000000000,"state":"active","ping":39},{"user_id":153,"name":"Spangbab","steam_id":76561199006526991,"connected_time":4215000000000,"state":"active","ping":76},{"user_id":186,"name":"Red","steam_id":76561198031865869,"connected_time":1134000000000,"state":"active","ping":61},{"user_id":194,"name":"BananaFana","steam_id":76561198008891875,"connected_time":607000000000,"state":"active","ping":85},{"user_id":190,"name":"Demianeithor","steam_id":76561198800036537,"connected_time":832000000000,"state":"active","ping":71},{"user_id":183,"name":"Moonflower ‚ú¶","steam_id":76561198191782483,"connected_time":1628000000000,"state":"active","ping":51},{"user_id":169,"name":"C0SMIC PLAGU3","steam_id":76561198051958643,"connected_time":2787000000000,"state":"active","ping":67},{"user_id":170,"name":"Eleonora [RAT GANG]","steam_id":76561198139672600,"connected_time":2784000000000,"state":"active","ping":96},{"user_id":195,"name":"Bigfoot ate my ass","steam_id":76561198071605190,"connected_time":568000000000,"state":"active","ping":77},{"user_id":185,"name":"Tribute","steam_id":76561198081594043,"connected_time":1257000000000,"state":"active","ping":63},{"user_id":196,"name":"„Äåiam3nigma„Äç","steam_id":76561198081580177,"connected_time":556000000000,"state":"active","ping":90}]},{"server_id":108,"name":"Uncletopia | Dallas | 2 | All Maps","name_short":"dal-2","host":"dal-1.us.uncletopia.com","port":27025,"enabled":true,"region":"us-central","cc":"us","latitude":32.779167,"longitude":-96.80889,"reserved":0,"last_update":"0001-01-01T00:00:00Z","name_a2s":"Uncletopia | Dallas | 2 | All Maps","protocol":17,"map":"pl_barnblitz","folder":"tf","game":"Team Fortress","app_id":440,"player_count":24,"max_players":24,"Bots":0,"server_type":"Dedicated","server_os":"Linux","password":true,"vac":true,"version":"7757534","steam_id":85568392924469988,"keywords":["nocrits","nodmgspread","payload","uncletopia"],"game_id":440,"stv_port":27026,"stv_name":"Uncletopia | Dallas | 2 | All Maps | STV","players":[{"user_id":174,"name":"bigboimarven","steam_id":76561198844778810,"connected_time":1785000000000,"state":"active","ping":58},{"user_id":185,"name":"Dat Franklin Pierce Do","steam_id":76561198027749453,"connected_time":1265000000000,"state":"active","ping":104},{"user_id":101,"name":"IF I WERE A BAD DEMOMAN...","steam_id":76561197966078491,"connected_time":6898000000000,"state":"active","ping":107},{"user_id":186,"name":"Broadsword","steam_id":76561198011160411,"connected_time":1220000000000,"state":"active","ping":85},{"user_id":193,"name":"Every step of the way","steam_id":76561198010242117,"connected_time":388000000000,"state":"active","ping":94},{"user_id":178,"name":"plink","steam_id":76561198057829889,"connected_time":1493000000000,"state":"active","ping":106},{"user_id":182,"name":"big fish","steam_id":76561198186479818,"connected_time":1348000000000,"state":"active","ping":87},{"user_id":154,"name":"Silvercoat's Stargazer","steam_id":76561198399525329,"connected_time":4038000000000,"state":"active","ping":96},{"user_id":180,"name":"doughboy","steam_id":76561198219012928,"connected_time":1452000000000,"state":"active","ping":80},{"user_id":192,"name":"I Eat Endangered Animals","steam_id":76561198156574502,"connected_time":811000000000,"state":"active","ping":61},{"user_id":170,"name":"ancient :3 rizz","steam_id":76561198042518244,"connected_time":2373000000000,"state":"active","ping":113},{"user_id":181,"name":"The Sydney Sleeper Itself","steam_id":76561198180251763,"connected_time":1426000000000,"state":"active","ping":58},{"user_id":191,"name":"Richard \"Waterhate'n\" Nixon","steam_id":76561198092161655,"connected_time":818000000000,"state":"active","ping":68},{"user_id":78,"name":"Coosnut","steam_id":76561198061106216,"connected_time":8565000000000,"state":"active","ping":54},{"user_id":155,"name":"Vegan Strawberry Milk","steam_id":76561198059809457,"connected_time":3933000000000,"state":"active","ping":70},{"user_id":183,"name":"Teddy \"The Bear\" Roosevelt","steam_id":76561198022397601,"connected_time":1347000000000,"state":"active","ping":82},{"user_id":184,"name":"Bheem","steam_id":76561198170453459,"connected_time":1340000000000,"state":"active","ping":95},{"user_id":188,"name":"bengineer","steam_id":76561198171912174,"connected_time":985000000000,"state":"active","ping":107},{"user_id":187,"name":"Quaker Oats","steam_id":76561197992800293,"connected_time":1203000000000,"state":"active","ping":91},{"user_id":189,"name":"Ultra Vegan Battle Gamer","steam_id":76561198082907729,"connected_time":958000000000,"state":"active","ping":53},{"user_id":132,"name":"watuh","steam_id":76561198089414077,"connected_time":5939000000000,"state":"active","ping":90},{"user_id":149,"name":"The Winter Medic","steam_id":76561198197112922,"connected_time":4692000000000,"state":"active","ping":97},{"user_id":168,"name":"Captain Red","steam_id":76561198191587983,"connected_time":2699000000000,"state":"active","ping":71},{"user_id":173,"name":"SomeBandicoot","steam_id":76561198086977906,"connected_time":2226000000000,"state":"active","ping":83}]},{"server_id":5,"name":"Uncletopia | Frankfurt | 1 | All Maps","name_short":"frk-1","host":"frk-1.de.uncletopia.com","port":27015,"enabled":true,"region":"eu","cc":"de","latitude":50.110924,"longitude":8.682127,"reserved":0,"last_update":"0001-01-01T00:00:00Z","name_a2s":"Uncletopia | Frankfurt | 1 | All Maps","protocol":17,"map":"pl_pier","folder":"tf","game":"Team Fortress","app_id":440,"player_count":0,"max_players":24,"Bots":0,"server_type":"Dedicated","server_os":"Linux","password":true,"vac":true,"version":"7757534","steam_id":85568392924469989,"keywords":["nocrits","nodmgspread","payload","uncletopia"],"game_id":440,"stv_port":27016,"stv_name":"Uncletopia | Frankfurt | 1 | All Maps | STV","players":null},{"server_id":110,"name":"Uncletopia | Frankfurt | 2 | All Maps","name_short":"frk-2","host":"frk-1.de.uncletopia.com","port":27025,"enabled":true,"region":"eu","cc":"de","latitude":50.110924,"longitude":8.682127,"reserved":0,"last_update":"0001-01-01T00:00:00Z","name_a2s":"Uncletopia | Frankfurt | 2 | All Maps","protocol":17,"map":"pl_pier","folder":"tf","game":"Team Fortress","app_id":440,"player_count":0,"max_players":24,"Bots":0,"server_type":"Dedicated","server_os":"Linux","password":true,"vac":true,"version":"7757534","steam_id":85568392924469990,"keywords":["nocrits","nodmgspread","payload","uncletopia"],"game_id":440,"stv_port":27026,"stv_name":"Uncletopia | Frankfurt | 2 | All Maps | STV","players":null},{"server_id":308,"name":"Uncletopia | Frankfurt | 3 | All Maps","name_short":"frk-3","host":"frk-1.de.uncletopia.com","port":27035,"enabled":true,"region":"eu","cc":"de","latitude":50.110924,"longitude":8.682127,"reserved":0,"last_update":"0001-01-01T00:00:00Z","name_a2s":"Uncletopia | Frankfurt | 3 | All Maps","protocol":17,"map":"cp_sunshine","folder":"tf","game":"Team Fortress","app_id":440,"player_count":0,"max_players":24,"Bots":0,"server_type":"Dedicated","server_os":"Linux","password":true,"vac":true,"version":"7757534","steam_id":85568392924504274,"keywords":["cp","nocrits","nodmgspread","uncletopia"],"game_id":440,"stv_port":27036,"stv_name":"Uncletopia | Frankfurt | 3 | All Maps | STV","players":null},{"server_id":309,"name":"Uncletopia | Frankfurt | 4 | All Maps","name_short":"frk-4","host":"frk-1.de.uncletopia.com","port":27045,"enabled":true,"region":"eu","cc":"de","latitude":50.110924,"longitude":8.682127,"reserved":0,"last_update":"0001-01-01T00:00:00Z","name_a2s":"Uncletopia | Frankfurt | 4 | All Maps","protocol":17,"map":"pl_pier","folder":"tf","game":"Team Fortress","app_id":440,"player_count":0,"max_players":24,"Bots":0,"server_type":"Dedicated","server_os":"Linux","password":true,"vac":true,"version":"7757534","steam_id":85568392924504275,"keywords":["nocrits","nodmgspread","payload","uncletopia"],"game_id":440,"stv_port":27046,"stv_name":"Uncletopia | Frankfurt | 4 | All Maps | STV","players":null},{"server_id":310,"name":"Uncletopia | Frankfurt | 5 | All Maps","name_short":"frk-5","host":"frk-1.de.uncletopia.com","port":27055,"enabled":true,"region":"eu","cc":"de","latitude":50.110924,"longitude":8.682127,"reserved":0,"last_update":"0001-01-01T00:00:00Z","name_a2s":"Uncletopia | Frankfurt | 5 | All Maps","protocol":17,"map":"cp_dustbowl","folder":"tf","game":"Team Fortress","app_id":440,"player_count":7,"max_players":24,"Bots":0,"server_type":"Dedicated","server_os":"Linux","password":true,"vac":true,"version":"7757534","steam_id":85568392924504277,"keywords":["cp","nocrits","nodmgspread","uncletopia"],"game_id":440,"stv_port":27056,"stv_name":"Uncletopia | Frankfurt | 5 | All Maps | STV","players":[{"user_id":144,"name":"Weakest Sniper Enjoyer","steam_id":76561198133597860,"connected_time":2561000000000,"state":"active","ping":82},{"user_id":146,"name":"ais ‡∂û","steam_id":76561198401473150,"connected_time":2288000000000,"state":"active","ping":175},{"user_id":148,"name":"sunny","steam_id":76561198194849578,"connected_time":1447000000000,"state":"active","ping":57},{"user_id":149,"name":"walking sentry","steam_id":76561199225363633,"connected_time":1356000000000,"state":"active","ping":149},{"user_id":126,"name":"brkc_love","steam_id":76561198090152271,"connected_time":5479000000000,"state":"active","ping":46},{"user_id":129,"name":"Ocrim_R","steam_id":76561198050479516,"connected_time":5315000000000,"state":"active","ping":51},{"user_id":132,"name":"Bowbius","steam_id":76561198262381355,"connected_time":5191000000000,"state":"active","ping":81}]},{"server_id":311,"name":"Uncletopia | Frankfurt | 6 | All Maps","name_short":"frk-6","host":"frk-1.de.uncletopia.com","port":27065,"enabled":true,"region":"eu","cc":"de","latitude":50.110924,"longitude":8.682127,"reserved":0,"last_update":"0001-01-01T00:00:00Z","name_a2s":"Uncletopia | Frankfurt | 6 | All Maps","protocol":17,"map":"koth_highpass","folder":"tf","game":"Team Fortress","app_id":440,"player_count":0,"max_players":24,"Bots":0,"server_type":"Dedicated","server_os":"Linux","password":true,"vac":true,"version":"7757534","steam_id":85568392924504278,"keywords":["cp","nocrits","nodmgspread","uncletopia"],"game_id":440,"stv_port":27066,"stv_name":"Uncletopia | Frankfurt | 6 | All Maps | STV","players":null},{"server_id":23,"name":"Uncletopia | Frankfurt | 7 | Stopwatch Beta","name_short":"frk-7","host":"frk-1.de.uncletopia.com","port":27075,"enabled":true,"region":"eu","cc":"de","latitude":50.110924,"longitude":8.682127,"reserved":0,"last_update":"0001-01-01T00:00:00Z","name_a2s":"Uncletopia | Frankfurt | 7 | Stopwatch Beta","protocol":17,"map":"pl_frontier_final","folder":"tf","game":"Team Fortress","app_id":440,"player_count":0,"max_players":24,"Bots":0,"server_type":"Dedicated","server_os":"Linux","password":true,"vac":true,"version":"7757534","steam_id":85568392924742827,"keywords":["nocrits","nodmgspread","payload","uncletopia"],"game_id":440,"stv_port":27076,"stv_name":"Uncletopia | Frankfurt | 7 | Stopwatch Beta | STV","players":null},{"server_id":24,"name":"Uncletopia | Frankfurt | 8 | Community","name_short":"frk-8","host":"frk-1.de.uncletopia.com","port":27085,"enabled":true,"region":"eu","cc":"de","latitude":50.110924,"longitude":8.682127,"reserved":0,"last_update":"0001-01-01T00:00:00Z","name_a2s":"Uncletopia | Frankfurt | 8 | Community","protocol":17,"map":"workshop/pl_barnblitz_pro7.ugc582280235","folder":"tf","game":"Team Fortress","app_id":440,"player_count":0,"max_players":24,"Bots":0,"server_type":"Dedicated","server_os":"Linux","password":true,"vac":true,"version":"7757534","steam_id":85568392924742828,"keywords":["nocrits","nodmgspread","payload","uncletopia"],"game_id":440,"stv_port":27086,"stv_name":"Uncletopia | Frankfurt | 8 | Community | STV","players":null},{"server_id":202,"name":"Uncletopia | Hong Kong | 1 | All Maps","name_short":"hgk-1","host":"hgk-1.hk.uncletopia.com","port":27015,"enabled":true,"region":"asia","cc":"hk","latitude":22.302711,"longitude":114.177216,"reserved":0,"last_update":"0001-01-01T00:00:00Z","name_a2s":"Uncletopia | Hong Kong | 1 | All Maps","protocol":17,"map":"cp_dustbowl","folder":"tf","game":"Team Fortress","app_id":440,"player_count":0,"max_players":24,"Bots":0,"server_type":"Dedicated","server_os":"Linux","password":true,"vac":true,"version":"7757534","steam_id":85568392924494504,"keywords":["cp","nocrits","nodmgspread","uncletopia"],"game_id":440,"stv_port":27016,"stv_name":"Uncletopia | Hong Kong | 1 | All Maps | STV","players":null},{"server_id":1,"name":"Uncletopia | Los Angeles | 1 | All Maps","name_short":"lax-1","host":"lax-1.us.uncletopia.com","port":27015,"enabled":true,"region":"us-west","cc":"us","latitude":33.94279,"longitude":-118.41004,"reserved":0,"last_update":"0001-01-01T00:00:00Z","name_a2s":"Uncletopia | Los Angeles | 1 | All Maps","protocol":17,"map":"pl_hoodoo_final","folder":"tf","game":"Team Fortress","app_id":440,"player_count":24,"max_players":24,"Bots":0,"server_type":"Dedicated","server_os":"Linux","password":true,"vac":true,"version":"7757534","steam_id":85568392924469991,"keywords":["nocrits","nodmgspread","payload","uncletopia"],"game_id":440,"stv_port":27016,"stv_name":"Uncletopia | Los Angeles | 1 | All Maps | STV","players":[{"user_id":231,"name":"helloyes_123","steam_id":76561198184669555,"connected_time":1032000000000,"state":"active","ping":43},{"user_id":238,"name":"N64Kanroji","steam_id":76561198045209288,"connected_time":327000000000,"state":"active","ping":40},{"user_id":211,"name":"WaterWorks","steam_id":76561198801899310,"connected_time":2256000000000,"state":"active","ping":29},{"user_id":234,"name":"Batso","steam_id":76561198106589452,"connected_time":371000000000,"state":"active","ping":53},{"user_id":226,"name":"Charaxx","steam_id":76561198982744071,"connected_time":1195000000000,"state":"active","ping":113},{"user_id":199,"name":"SneakyRocks","steam_id":76561198201694213,"connected_time":2887000000000,"state":"active","ping":55},{"user_id":136,"name":"Christocat","steam_id":76561198132817642,"connected_time":4696000000000,"state":"active","ping":120},{"user_id":200,"name":"flexer_2000","steam_id":76561198084422657,"connected_time":2752000000000,"state":"active","ping":46},{"user_id":227,"name":"Schnitz(Lost my Glasses)","steam_id":76561198265484253,"connected_time":1160000000000,"state":"active","ping":52},{"user_id":209,"name":"Tresthebest360","steam_id":76561198965347175,"connected_time":2335000000000,"state":"active","ping":100},{"user_id":212,"name":"zuna","steam_id":76561199038981515,"connected_time":2185000000000,"state":"active","ping":50},{"user_id":228,"name":"bunceian","steam_id":76561198975662918,"connected_time":1143000000000,"state":"active","ping":122},{"user_id":223,"name":"BasedGod","steam_id":76561198061177973,"connected_time":1306000000000,"state":"active","ping":47},{"user_id":241,"name":"Attrition","steam_id":76561197969881916,"connected_time":122000000000,"state":"active","ping":75},{"user_id":202,"name":"Course Brains","steam_id":76561198349105723,"connected_time":2716000000000,"state":"active","ping":71},{"user_id":218,"name":"Nibotshooter","steam_id":76561199284825579,"connected_time":2035000000000,"state":"active","ping":76},{"user_id":220,"name":"jawnymac","steam_id":76561198179529599,"connected_time":1453000000000,"state":"active","ping":63},{"user_id":41,"name":"Stranger Danger","steam_id":76561198115242460,"connected_time":10477000000000,"state":"active","ping":76},{"user_id":233,"name":"LogicalFurret","steam_id":76561198350604657,"connected_time":382000000000,"state":"active","ping":47},{"user_id":235,"name":"SonicTheHedgehogEpicGamer2013","steam_id":76561199229577594,"connected_time":366000000000,"state":"active","ping":66},{"user_id":240,"name":"Homeless pleas help gaming","steam_id":76561199098230670,"connected_time":215000000000,"state":"active","ping":111},{"user_id":230,"name":"Punk Leafeon","steam_id":76561199092607721,"connected_time":1108000000000,"state":"active","ping":113},{"user_id":232,"name":"TheBrocklobster","steam_id":76561198039682984,"connected_time":1005000000000,"state":"active","ping":67},{"user_id":237,"name":"Myravrax","steam_id":76561198138730061,"connected_time":358000000000,"state":"active","ping":119}]},{"server_id":112,"name":"Uncletopia | Los Angeles | 2 | All Maps","name_short":"lax-2","host":"lax-1.us.uncletopia.com","port":27025,"enabled":true,"region":"us-west","cc":"us","latitude":33.94279,"longitude":-118.41004,"reserved":0,"last_update":"0001-01-01T00:00:00Z","name_a2s":"Uncletopia | Los Angeles | 2 | All Maps","protocol":17,"map":"pl_badwater","folder":"tf","game":"Team Fortress","app_id":440,"player_count":24,"max_players":24,"Bots":0,"server_type":"Dedicated","server_os":"Linux","password":true,"vac":true,"version":"7757534","steam_id":85568392924469992,"keywords":["nocrits","nodmgspread","payload","uncletopia"],"game_id":440,"stv_port":27026,"stv_name":"Uncletopia | Los Angeles | 2 | All Maps | STV","players":[{"user_id":29,"name":"Mom","steam_id":76561198207936000,"connected_time":5985000000000,"state":"active","ping":60},{"user_id":25,"name":"Heavy","steam_id":76561198437794740,"connected_time":6216000000000,"state":"active","ping":60},{"user_id":108,"name":"ZRMicrowave","steam_id":76561198288574525,"connected_time":161000000000,"state":"active","ping":94},{"user_id":26,"name":"john depp","steam_id":76561198161199653,"connected_time":6192000000000,"state":"active","ping":108},{"user_id":107,"name":"me","steam_id":76561199468285784,"connected_time":327000000000,"state":"active","ping":45},{"user_id":62,"name":"Open Mailbox","steam_id":76561198051933580,"connected_time":3059000000000,"state":"active","ping":130},{"user_id":55,"name":"Stargazer A.","steam_id":76561198035479925,"connected_time":4028000000000,"state":"active","ping":42},{"user_id":85,"name":"BillKnuckleJinsei","steam_id":76561198126359222,"connected_time":1645000000000,"state":"active","ping":62},{"user_id":28,"name":"dosimeter","steam_id":76561198039608940,"connected_time":6082000000000,"state":"active","ping":88},{"user_id":79,"name":"buggy schlap","steam_id":76561198978665598,"connected_time":1920000000000,"state":"active","ping":51},{"user_id":109,"name":"Spring Beans","steam_id":76561197978546259,"connected_time":3000000000,"state":"spawning","ping":59},{"user_id":34,"name":"chrissyoons","steam_id":76561198870009361,"connected_time":5727000000000,"state":"active","ping":112},{"user_id":35,"name":"Dr. Harold coomer Phd","steam_id":76561197999158580,"connected_time":5720000000000,"state":"active","ping":83},{"user_id":106,"name":"McNamJam","steam_id":76561198028128686,"connected_time":627000000000,"state":"active","ping":56},{"user_id":103,"name":"Nuts","steam_id":76561199258535559,"connected_time":736000000000,"state":"active","ping":76},{"user_id":92,"name":"Drakon","steam_id":76561198078210822,"connected_time":1507000000000,"state":"active","ping":65},{"user_id":93,"name":"SD","steam_id":76561198217410988,"connected_time":1332000000000,"state":"active","ping":46},{"user_id":89,"name":"(1)mom","steam_id":76561198333370104,"connected_time":1580000000000,"state":"active","ping":50},{"user_id":95,"name":"‚ô• bug eater ‚ô•","steam_id":76561198291044316,"connected_time":1223000000000,"state":"active","ping":78},{"user_id":91,"name":"beatrix","steam_id":76561199057103062,"connected_time":1524000000000,"state":"active","ping":55},{"user_id":68,"name":"Krazy","steam_id":76561198835502709,"connected_time":2852000000000,"state":"active","ping":44},{"user_id":69,"name":"b3afy","steam_id":76561198084208649,"connected_time":2852000000000,"state":"active","ping":88},{"user_id":74,"name":"AlaNo","steam_id":76561198133099582,"connected_time":2515000000000,"state":"active","ping":47},{"user_id":98,"name":"Reem0h","steam_id":76561198169848690,"connected_time":858000000000,"state":"active","ping":112}]},{"server_id":324,"name":"Uncletopia | Los Angeles | 3 | All Maps","name_short":"lax-3","host":"lax-1.us.uncletopia.com","port":27035,"enabled":true,"region":"us-west","cc":"us","latitude":33.94279,"longitude":-118.41004,"reserved":0,"last_update":"0001-01-01T00:00:00Z","name_a2s":"Uncletopia | Los Angeles | 3 | All Maps","protocol":17,"map":"cp_sunshine","folder":"tf","game":"Team Fortress","app_id":440,"player_count":24,"max_players":24,"Bots":0,"server_type":"Dedicated","server_os":"Linux","password":true,"vac":true,"version":"7757534","steam_id":85568392924510198,"keywords":["cp","nocrits","nodmgspread","uncletopia"],"game_id":440,"stv_port":27036,"stv_name":"Uncletopia | Los Angeles | 3 | All Maps | STV","players":[{"user_id":195,"name":"Grim","steam_id":76561198016978310,"connected_time":1183000000000,"state":"active","ping":67},{"user_id":194,"name":"a chicken","steam_id":76561198313121580,"connected_time":1243000000000,"state":"active","ping":57},{"user_id":174,"name":"Nani?","steam_id":76561198130982692,"connected_time":2697000000000,"state":"active","ping":101},{"user_id":208,"name":"VerseG","steam_id":76561198059246919,"connected_time":329000000000,"state":"active","ping":75},{"user_id":196,"name":"OH JIMMY I'M HOME #SaveTf2","steam_id":76561198396658806,"connected_time":1144000000000,"state":"active","ping":57},{"user_id":197,"name":"jc71777","steam_id":76561199124210364,"connected_time":1127000000000,"state":"active","ping":58},{"user_id":198,"name":"Whoplops","steam_id":76561197977188933,"connected_time":1125000000000,"state":"active","ping":121},{"user_id":193,"name":"HAT-WEARING‚Ñ¢ Maggot Gamer Cat","steam_id":76561197973992705,"connected_time":1547000000000,"state":"active","ping":70},{"user_id":199,"name":"ipuntpuppies","steam_id":76561198064972073,"connected_time":1121000000000,"state":"active","ping":113},{"user_id":179,"name":"Sparrow","steam_id":76561199122118959,"connected_time":2442000000000,"state":"active","ping":61},{"user_id":209,"name":"TomTheF00l","steam_id":76561198829932650,"connected_time":220000000000,"state":"active","ping":108},{"user_id":201,"name":"crunchy obama","steam_id":76561198044485217,"connected_time":1107000000000,"state":"active","ping":66},{"user_id":202,"name":"NavyDinosaur","steam_id":76561198088459962,"connected_time":1096000000000,"state":"active","ping":87},{"user_id":19,"name":"Oomitch","steam_id":76561198071702759,"connected_time":12895000000000,"state":"active","ping":84},{"user_id":214,"name":"Ballista","steam_id":76561197983182562,"connected_time":133000000000,"state":"active","ping":89},{"user_id":215,"name":"Naviek","steam_id":76561198300362283,"connected_time":87000000000,"state":"active","ping":56},{"user_id":138,"name":"gaming","steam_id":76561198338610196,"connected_time":4959000000000,"state":"active","ping":76},{"user_id":183,"name":"hoOmIN","steam_id":76561198334947079,"connected_time":2389000000000,"state":"active","ping":45},{"user_id":144,"name":"YourWishes","steam_id":76561198154414336,"connected_time":4403000000000,"state":"active","ping":57},{"user_id":211,"name":"asm_ghost","steam_id":76561199205363547,"connected_time":167000000000,"state":"active","ping":88},{"user_id":213,"name":"[DATS‚û°] Sugar Meowth","steam_id":76561197995251793,"connected_time":138000000000,"state":"active","ping":69},{"user_id":113,"name":"master_minion","steam_id":76561198170693990,"connected_time":6154000000000,"state":"active","ping":56},{"user_id":187,"name":"SAMMY THA SLUMP GODD","steam_id":76561198197273625,"connected_time":2150000000000,"state":"active","ping":128},{"user_id":192,"name":"ketsu","steam_id":76561197966171554,"connected_time":1815000000000,"state":"active","ping":160}]},{"server_id":25,"name":"Uncletopia | Los Angeles | 4 | Stopwatch Beta","name_short":"lax-4","host":"lax-1.us.uncletopia.com","port":27045,"enabled":true,"region":"us-west","cc":"us","latitude":33.94279,"longitude":-118.41004,"reserved":0,"last_update":"0001-01-01T00:00:00Z","name_a2s":"Uncletopia | Los Angeles | 4 | Stopwatch Beta","protocol":17,"map":"workshop/pl_summercoast_rc8e.ugc1761528829","folder":"tf","game":"Team Fortress","app_id":440,"player_count":0,"max_players":24,"Bots":0,"server_type":"Dedicated","server_os":"Linux","password":true,"vac":true,"version":"7757534","steam_id":85568392924510199,"keywords":["nocrits","nodmgspread","payload","uncletopia"],"game_id":440,"stv_port":27046,"stv_name":"Uncletopia | Los Angeles | 4 | Stopwatch Beta | STV","players":null},{"server_id":11,"name":"Uncletopia | London | 1 | All Maps","name_short":"lon-1","host":"lon-1.uk.uncletopia.com","port":27015,"enabled":true,"region":"eu","cc":"gb","latitude":51.509865,"longitude":-0.118092,"reserved":0,"last_update":"0001-01-01T00:00:00Z","name_a2s":"Uncletopia | London | 1 | All Maps","protocol":17,"map":"pl_upward","folder":"tf","game":"Team Fortress","app_id":440,"player_count":23,"max_players":24,"Bots":0,"server_type":"Dedicated","server_os":"Linux","password":true,"vac":true,"version":"7757534","steam_id":85568392924367362,"keywords":["nocrits","nodmgspread","payload","uncletopia"],"game_id":440,"stv_port":27016,"stv_name":"Uncletopia | London | 1 | All Maps | STV","players":[{"user_id":137,"name":"Metheus","steam_id":76561198051847106,"connected_time":1625000000000,"state":"active","ping":67},{"user_id":152,"name":"hnz","steam_id":76561198136606222,"connected_time":911000000000,"state":"active","ping":56},{"user_id":162,"name":"Rem","steam_id":76561198867480648,"connected_time":429000000000,"state":"active","ping":44},{"user_id":151,"name":"New","steam_id":76561198402195911,"connected_time":963000000000,"state":"active","ping":107},{"user_id":149,"name":"kiki","steam_id":76561198838277022,"connected_time":1011000000000,"state":"active","ping":72},{"user_id":138,"name":"Johnny Cockroach","steam_id":76561198049648277,"connected_time":1183000000000,"state":"active","ping":103},{"user_id":140,"name":"Lord Maldimort","steam_id":76561198063150039,"connected_time":1180000000000,"state":"active","ping":59},{"user_id":139,"name":"Saturn","steam_id":76561198143972906,"connected_time":1182000000000,"state":"active","ping":76},{"user_id":115,"name":"Gry","steam_id":76561198053961616,"connected_time":3952000000000,"state":"active","ping":55},{"user_id":133,"name":"dootsuit","steam_id":76561198178298931,"connected_time":2307000000000,"state":"active","ping":35},{"user_id":160,"name":"puffy","steam_id":76561198355694436,"connected_time":666000000000,"state":"active","ping":46},{"user_id":143,"name":"spada dell'islam","steam_id":76561198038748489,"connected_time":1166000000000,"state":"active","ping":69},{"user_id":168,"name":"god's drunkest driver","steam_id":76561198212115640,"connected_time":14000000000,"state":"active","ping":196},{"user_id":163,"name":"stun","steam_id":76561198276681691,"connected_time":194000000000,"state":"active","ping":44},{"user_id":18,"name":"Matomatic","steam_id":76561198063013603,"connected_time":13000000000000,"state":"active","ping":59},{"user_id":130,"name":"SuntanPikachu","steam_id":76561198121242476,"connected_time":2841000000000,"state":"active","ping":67},{"user_id":164,"name":"Lord GabeN","steam_id":76561198140862723,"connected_time":174000000000,"state":"active","ping":135},{"user_id":165,"name":"Vezage","steam_id":76561198064916164,"connected_time":46000000000,"state":"active","ping":63},{"user_id":141,"name":"barni","steam_id":76561198170420173,"connected_time":1180000000000,"state":"active","ping":74},{"user_id":166,"name":"BrainLacking","steam_id":76561198965574196,"connected_time":22000000000,"state":"active","ping":52},{"user_id":167,"name":"Kenz","steam_id":76561198067281075,"connected_time":20000000000,"state":"spawning","ping":256},{"user_id":157,"name":"uzzb","steam_id":76561198214375987,"connected_time":749000000000,"state":"active","ping":60},{"user_id":144,"name":"invis","steam_id":76561198120668070,"connected_time":1166000000000,"state":"active","ping":70}]},{"server_id":114,"name":"Uncletopia | London | 2 | All Maps","name_short":"lon-2","host":"lon-1.uk.uncletopia.com","port":27025,"enabled":true,"region":"eu","cc":"gb","latitude":51.509865,"longitude":-0.118092,"reserved":0,"last_update":"0001-01-01T00:00:00Z","name_a2s":"Uncletopia | London | 2 | All Maps","protocol":17,"map":"cp_sunshine","folder":"tf","game":"Team Fortress","app_id":440,"player_count":0,"max_players":24,"Bots":0,"server_type":"Dedicated","server_os":"Linux","password":true,"vac":true,"version":"7757534","steam_id":85568392924470941,"keywords":["cp","nocrits","nodmgspread","uncletopia"],"game_id":440,"stv_port":27026,"stv_name":"Uncletopia | London | 2 | All Maps | STV","players":null},{"server_id":320,"name":"Uncletopia | London | 3 | All Maps","name_short":"lon-3","host":"lon-1.uk.uncletopia.com","port":27035,"enabled":true,"region":"eu","cc":"gb","latitude":51.509865,"longitude":-0.118092,"reserved":0,"last_update":"0001-01-01T00:00:00Z","name_a2s":"Uncletopia | London | 3 | All Maps","protocol":17,"map":"koth_viaduct","folder":"tf","game":"Team Fortress","app_id":440,"player_count":0,"max_players":24,"Bots":0,"server_type":"Dedicated","server_os":"Linux","password":true,"vac":true,"version":"7757534","steam_id":85568392924510192,"keywords":["cp","nocrits","nodmgspread","uncletopia"],"game_id":440,"stv_port":27036,"stv_name":"Uncletopia | London | 3 | All Maps | STV","players":null},{"server_id":321,"name":"Uncletopia | London | 4 | All Maps","name_short":"lon-4","host":"lon-1.uk.uncletopia.com","port":27045,"enabled":true,"region":"eu","cc":"gb","latitude":51.509865,"longitude":-0.118092,"reserved":0,"last_update":"0001-01-01T00:00:00Z","name_a2s":"Uncletopia | London | 4 | All Maps","protocol":17,"map":"koth_viaduct","folder":"tf","game":"Team Fortress","app_id":440,"player_count":0,"max_players":24,"Bots":0,"server_type":"Dedicated","server_os":"Linux","password":true,"vac":true,"version":"7757534","steam_id":85568392924510193,"keywords":["cp","nocrits","nodmgspread","uncletopia"],"game_id":440,"stv_port":27046,"stv_name":"Uncletopia | London | 4 | All Maps | STV","players":null},{"server_id":21,"name":"Uncletopia | London | 5 | All Maps","name_short":"lon-5","host":"lon-1.uk.uncletopia.com","port":27055,"enabled":true,"region":"eu","cc":"gb","latitude":51.509865,"longitude":-0.118092,"reserved":0,"last_update":"0001-01-01T00:00:00Z","name_a2s":"Uncletopia | London | 5 | All Maps","protocol":17,"map":"koth_viaduct","folder":"tf","game":"Team Fortress","app_id":440,"player_count":0,"max_players":24,"Bots":0,"server_type":"Dedicated","server_os":"Linux","password":true,"vac":true,"version":"7757534","steam_id":85568392924742829,"keywords":["cp","nocrits","nodmgspread","uncletopia"],"game_id":440,"stv_port":27056,"stv_name":"Uncletopia | London | 5 | All Maps | STV","players":null},{"server_id":22,"name":"Uncletopia | London | 6 | All Maps","name_short":"lon-6","host":"lon-1.uk.uncletopia.com","port":27065,"enabled":true,"region":"eu","cc":"gb","latitude":51.509865,"longitude":-0.118092,"reserved":0,"last_update":"0001-01-01T00:00:00Z","name_a2s":"Uncletopia | London | 6 | All Maps","protocol":17,"map":"koth_cascade","folder":"tf","game":"Team Fortress","app_id":440,"player_count":0,"max_players":24,"Bots":0,"server_type":"Dedicated","server_os":"Linux","password":true,"vac":true,"version":"7757534","steam_id":85568392924742830,"keywords":["cp","nocrits","nodmgspread","uncletopia"],"game_id":440,"stv_port":27066,"stv_name":"Uncletopia | London | 6 | All Maps | STV","players":null},{"server_id":40,"name":"Uncletopia | London | 7 | No Payload","name_short":"lon-7","host":"lon-1.uk.uncletopia.com","port":27075,"enabled":true,"region":"eu","cc":"gb","latitude":51.509865,"longitude":-0.118092,"reserved":0,"last_update":"0001-01-01T00:00:00Z","name_a2s":"Uncletopia | London | 7 | No Payload","protocol":17,"map":"koth_sawmill","folder":"tf","game":"Team Fortress","app_id":440,"player_count":0,"max_players":24,"Bots":0,"server_type":"Dedicated","server_os":"Linux","password":true,"vac":true,"version":"7757534","steam_id":85568392924964314,"keywords":["cp","nocrits","nodmgspread","uncletopia"],"game_id":440,"stv_port":27076,"stv_name":"Uncletopia | London | 7 | No Payload | STV","players":null},{"server_id":41,"name":"Uncletopia | London | 8 | Community","name_short":"lon-8","host":"lon-1.uk.uncletopia.com","port":27085,"enabled":true,"region":"eu","cc":"gb","latitude":51.509865,"longitude":-0.118092,"reserved":0,"last_update":"0001-01-01T00:00:00Z","name_a2s":"Uncletopia | London | 8 | Community","protocol":17,"map":"workshop/pl_cashworks_final1.ugc2904065412","folder":"tf","game":"Team Fortress","app_id":440,"player_count":17,"max_players":24,"Bots":0,"server_type":"Dedicated","server_os":"Linux","password":true,"vac":true,"version":"7757534","steam_id":85568392924964315,"keywords":["nocrits","nodmgspread","payload","uncletopia"],"game_id":440,"stv_port":27086,"stv_name":"Uncletopia | London | 8 | Community | STV","players":[{"user_id":123,"name":"R0boprod","steam_id":76561198052092018,"connected_time":1301000000000,"state":"active","ping":43},{"user_id":142,"name":"‚ù•Shinru","steam_id":76561198285951918,"connected_time":128000000000,"state":"active","ping":87},{"user_id":106,"name":"JackDegle","steam_id":76561198427027677,"connected_time":2528000000000,"state":"spawning","ping":258},{"user_id":140,"name":"schmick","steam_id":76561198039537958,"connected_time":285000000000,"state":"active","ping":45},{"user_id":133,"name":"Echo of Abyss","steam_id":76561198981841782,"connected_time":742000000000,"state":"spawning","ping":114},{"user_id":110,"name":"true","steam_id":76561198031145243,"connected_time":2192000000000,"state":"active","ping":76},{"user_id":89,"name":"WeArMature","steam_id":76561198046116420,"connected_time":6506000000000,"state":"active","ping":68},{"user_id":90,"name":"Jumpin over your head","steam_id":76561198140517330,"connected_time":6488000000000,"state":"active","ping":182},{"user_id":117,"name":"The Tomfooler","steam_id":76561198167986695,"connected_time":1598000000000,"state":"active","ping":53},{"user_id":119,"name":"Life Is Strangle","steam_id":76561198111462976,"connected_time":1486000000000,"state":"active","ping":45},{"user_id":135,"name":"smOOk","steam_id":76561198383788967,"connected_time":611000000000,"state":"active","ping":86},{"user_id":136,"name":"Spectre","steam_id":76561198025652246,"connected_time":564000000000,"state":"active","ping":129},{"user_id":128,"name":"Baspla","steam_id":76561198066260876,"connected_time":1175000000000,"state":"active","ping":56},{"user_id":137,"name":"Sickunt","steam_id":76561198032138958,"connected_time":506000000000,"state":"active","ping":86},{"user_id":130,"name":"Nikola","steam_id":76561197993300020,"connected_time":1076000000000,"state":"active","ping":76},{"user_id":138,"name":"Hiran Shray","steam_id":76561198145022809,"connected_time":485000000000,"state":"active","ping":86},{"user_id":141,"name":"In the flesh","steam_id":76561198061248547,"connected_time":209000000000,"state":"active","ping":60}]},{"server_id":300,"name":"Uncletopia | Montr√©al | 1 | All Maps","name_short":"mtl-1","host":"mtl-1.ca.uncletopia.com","port":27015,"enabled":true,"region":"us-east","cc":"ca","latitude":45.50889,"longitude":-73.56167,"reserved":0,"last_update":"0001-01-01T00:00:00Z","name_a2s":"Uncletopia | Montr√©al | 1 | All Maps","protocol":17,"map":"koth_lakeside_final","folder":"tf","game":"Team Fortress","app_id":440,"player_count":0,"max_players":24,"Bots":0,"server_type":"Dedicated","server_os":"Linux","password":true,"vac":true,"version":"7757534","steam_id":85568392924500087,"keywords":["cp","nocrits","nodmgspread","uncletopia"],"game_id":440,"stv_port":27016,"stv_name":"Uncletopia | Montr√©al | 1 | All Maps | STV","players":null},{"server_id":301,"name":"Uncletopia | Montr√©al | 2 | All Maps","name_short":"mtl-2","host":"mtl-1.ca.uncletopia.com","port":27025,"enabled":true,"region":"us-east","cc":"ca","latitude":45.50889,"longitude":-73.56167,"reserved":0,"last_update":"0001-01-01T00:00:00Z","name_a2s":"Uncletopia | Montr√©al | 2 | All Maps","protocol":17,"map":"pl_snowycoast","folder":"tf","game":"Team Fortress","app_id":440,"player_count":0,"max_players":24,"Bots":0,"server_type":"Dedicated","server_os":"Linux","password":true,"vac":true,"version":"7757534","steam_id":85568392924500088,"keywords":["nocrits","nodmgspread","payload","uncletopia"],"game_id":440,"stv_port":27026,"stv_name":"Uncletopia | Montr√©al | 2 | All Maps | STV","players":null},{"server_id":302,"name":"Uncletopia | Montr√©al | 3 | All Maps","name_short":"mtl-3","host":"mtl-1.ca.uncletopia.com","port":27035,"enabled":true,"region":"us-east","cc":"ca","latitude":45.50889,"longitude":-73.56167,"reserved":0,"last_update":"0001-01-01T00:00:00Z","name_a2s":"Uncletopia | Montr√©al | 3 | All Maps","protocol":17,"map":"pl_upward","folder":"tf","game":"Team Fortress","app_id":440,"player_count":2,"max_players":24,"Bots":0,"server_type":"Dedicated","server_os":"Linux","password":true,"vac":true,"version":"7757534","steam_id":85568392924500089,"keywords":["nocrits","nodmgspread","payload","uncletopia"],"game_id":440,"stv_port":27036,"stv_name":"Uncletopia | Montr√©al | 3 | All Maps | STV","players":[{"user_id":10,"name":"onionbagel4","steam_id":76561199134895220,"connected_time":1944000000000,"state":"active","ping":58},{"user_id":14,"name":"battlebot40","steam_id":76561198439930958,"connected_time":918000000000,"state":"active","ping":78}]},{"server_id":303,"name":"Uncletopia | Montr√©al | 4 | No Payload","name_short":"mtl-4","host":"mtl-1.ca.uncletopia.com","port":27045,"enabled":true,"region":"us-east","cc":"ca","latitude":45.50889,"longitude":-73.56167,"reserved":0,"last_update":"0001-01-01T00:00:00Z","name_a2s":"Uncletopia | Montr√©al | 4 | No Payload","protocol":17,"map":"pl_borneo","folder":"tf","game":"Team Fortress","app_id":440,"player_count":0,"max_players":24,"Bots":0,"server_type":"Dedicated","server_os":"Linux","password":true,"vac":true,"version":"7757534","steam_id":85568392924500090,"keywords":["nocrits","nodmgspread","payload","uncletopia"],"game_id":440,"stv_port":27046,"stv_name":"Uncletopia | Montr√©al | 4 | No Payload | STV","players":null},{"server_id":13,"name":"Uncletopia | New York City | 1 | All Maps","name_short":"nyc-1","host":"nyc-1.us.uncletopia.com","port":27015,"enabled":true,"region":"us-east","cc":"us","latitude":40.73061,"longitude":-73.93524,"reserved":0,"last_update":"0001-01-01T00:00:00Z","name_a2s":"Uncletopia | New York City | 1 | All Maps","protocol":17,"map":"pl_swiftwater_final1","folder":"tf","game":"Team Fortress","app_id":440,"player_count":24,"max_players":24,"Bots":0,"server_type":"Dedicated","server_os":"Linux","password":true,"vac":true,"version":"7757534","steam_id":85568392924469993,"keywords":["nocrits","nodmgspread","payload","uncletopia"],"game_id":440,"stv_port":27016,"stv_name":"Uncletopia | New York City | 1 | All Maps | STV","players":[{"user_id":128,"name":"tator171 (‚åê‚ñ†_‚ñ†)","steam_id":76561198047446121,"connected_time":6029000000000,"state":"active","ping":89},{"user_id":279,"name":"Gaia The Fierce Knight","steam_id":76561199044162625,"connected_time":2255000000000,"state":"active","ping":63},{"user_id":106,"name":"JPMockMan","steam_id":76561198071370876,"connected_time":8127000000000,"state":"active","ping":94},{"user_id":298,"name":"scrapheap","steam_id":76561198202407087,"connected_time":65000000000,"state":"active","ping":184},{"user_id":290,"name":"qiulongtao","steam_id":76561198977558717,"connected_time":699000000000,"state":"active","ping":81},{"user_id":297,"name":"malarkeyman","steam_id":76561198844473584,"connected_time":76000000000,"state":"active","ping":62},{"user_id":291,"name":"TrIcKiNgX3","steam_id":76561198243231748,"connected_time":696000000000,"state":"active","ping":89},{"user_id":295,"name":"ndvr","steam_id":76561199379200102,"connected_time":281000000000,"state":"active","ping":54},{"user_id":293,"name":"smugleafthesmug","steam_id":76561198844190634,"connected_time":455000000000,"state":"active","ping":57},{"user_id":271,"name":"-W3E- Tanner Jarring","steam_id":76561198172024365,"connected_time":2940000000000,"state":"active","ping":67},{"user_id":285,"name":"Frajer","steam_id":76561198059129680,"connected_time":1605000000000,"state":"active","ping":71},{"user_id":286,"name":"ash monte","steam_id":76561198382343820,"connected_time":1471000000000,"state":"active","ping":42},{"user_id":288,"name":"roman","steam_id":76561198170066797,"connected_time":782000000000,"state":"active","ping":53},{"user_id":276,"name":"saucypignut","steam_id":76561198358280276,"connected_time":2488000000000,"state":"active","ping":59},{"user_id":256,"name":"EvilCoopz","steam_id":76561198080014161,"connected_time":3662000000000,"state":"active","ping":92},{"user_id":296,"name":"GiraffeMan","steam_id":76561198042104084,"connected_time":196000000000,"state":"active","ping":63},{"user_id":192,"name":"Ballin \u0026 Can't Get Up","steam_id":76561198047394013,"connected_time":4227000000000,"state":"active","ping":61},{"user_id":294,"name":"my race is tortellinian","steam_id":76561198094425158,"connected_time":348000000000,"state":"active","ping":44},{"user_id":280,"name":"Evan","steam_id":76561198081165364,"connected_time":2236000000000,"state":"active","ping":66},{"user_id":300,"name":"breadtangle of pizza","steam_id":76561198045832398,"connected_time":4000000000,"state":"spawning","ping":84},{"user_id":289,"name":"Applesauce","steam_id":76561198252487758,"connected_time":759000000000,"state":"active","ping":61},{"user_id":281,"name":"-W3E- grim10465","steam_id":76561198045698581,"connected_time":2218000000000,"state":"active","ping":42},{"user_id":274,"name":"GummybearKillr","steam_id":76561198031235750,"connected_time":2664000000000,"state":"active","ping":57},{"user_id":283,"name":"Turtle","steam_id":76561198262110064,"connected_time":2191000000000,"state":"active","ping":114}]},{"server_id":14,"name":"Uncletopia | New York City | 2 | All Maps","name_short":"nyc-2","host":"nyc-1.us.uncletopia.com","port":27025,"enabled":true,"region":"us-east","cc":"us","latitude":40.73061,"longitude":-73.93524,"reserved":0,"last_update":"0001-01-01T00:00:00Z","name_a2s":"Uncletopia | New York City | 2 | All Maps","protocol":17,"map":"pl_swiftwater_final1","folder":"tf","game":"Team Fortress","app_id":440,"player_count":23,"max_players":24,"Bots":0,"server_type":"Dedicated","server_os":"Linux","password":true,"vac":true,"version":"7757534","steam_id":85568392924469994,"keywords":["nocrits","nodmgspread","payload","uncletopia"],"game_id":440,"stv_port":27026,"stv_name":"Uncletopia | New York City | 2 | All Maps | STV","players":[{"user_id":71,"name":"D9","steam_id":76561197999151357,"connected_time":1492000000000,"state":"active","ping":89},{"user_id":87,"name":"BrnzWhenIPee","steam_id":76561198308525650,"connected_time":139000000000,"state":"active","ping":135},{"user_id":77,"name":"Waterzuka","steam_id":76561198254454489,"connected_time":1442000000000,"state":"active","ping":107},{"user_id":53,"name":"Munchyjr","steam_id":76561198041498014,"connected_time":3466000000000,"state":"active","ping":42},{"user_id":89,"name":"A_Malebolgia","steam_id":76561198097722818,"connected_time":52000000000,"state":"active","ping":82},{"user_id":31,"name":"coms","steam_id":76561198359456881,"connected_time":4075000000000,"state":"active","ping":59},{"user_id":79,"name":"The Gamer Chicken","steam_id":76561198058256094,"connected_time":1106000000000,"state":"active","ping":44},{"user_id":82,"name":"Svegilicious","steam_id":76561199058676428,"connected_time":640000000000,"state":"active","ping":161},{"user_id":83,"name":"Redbows22","steam_id":76561199452479390,"connected_time":633000000000,"state":"active","ping":84},{"user_id":69,"name":"adios.","steam_id":76561198091381384,"connected_time":1695000000000,"state":"active","ping":56},{"user_id":85,"name":"≈†ajke","steam_id":76561198162695930,"connected_time":437000000000,"state":"active","ping":171},{"user_id":48,"name":"CRAZY engineer","steam_id":76561198887937902,"connected_time":3522000000000,"state":"active","ping":56},{"user_id":75,"name":"FlawlessNika","steam_id":76561198067229526,"connected_time":1469000000000,"state":"active","ping":80},{"user_id":43,"name":"Futo","steam_id":76561198023185653,"connected_time":3655000000000,"state":"active","ping":72},{"user_id":66,"name":"IMPACT CPU","steam_id":76561198001344879,"connected_time":2442000000000,"state":"active","ping":60},{"user_id":63,"name":"MrrPamplemousse","steam_id":76561198072241333,"connected_time":2792000000000,"state":"active","ping":72},{"user_id":86,"name":"begolds8","steam_id":76561198841069098,"connected_time":431000000000,"state":"active","ping":107},{"user_id":47,"name":"trippingbull419","steam_id":76561199111639935,"connected_time":3560000000000,"state":"active","ping":78},{"user_id":81,"name":"The Shoveler","steam_id":76561198839907239,"connected_time":792000000000,"state":"active","ping":71},{"user_id":60,"name":"Nave","steam_id":76561198152862549,"connected_time":3403000000000,"state":"active","ping":85},{"user_id":57,"name":"tooth","steam_id":76561197986437643,"connected_time":3443000000000,"state":"active","ping":38},{"user_id":58,"name":"Skelebob","steam_id":76561198880649335,"connected_time":3440000000000,"state":"active","ping":70},{"user_id":88,"name":"Naramon","steam_id":76561198025645021,"connected_time":74000000000,"state":"active","ping":98}]},{"server_id":15,"name":"Uncletopia | New York City | 3 | Stopwatch Beta","name_short":"nyc-3","host":"nyc-1.us.uncletopia.com","port":27035,"enabled":true,"region":"us-east","cc":"us","latitude":40.73061,"longitude":-73.93524,"reserved":0,"last_update":"0001-01-01T00:00:00Z","name_a2s":"Uncletopia | New York City | 3 | Stopwatch Beta","protocol":17,"map":"workshop/koth_ramjam_rc1.ugc459778887","folder":"tf","game":"Team Fortress","app_id":440,"player_count":0,"max_players":24,"Bots":0,"server_type":"Dedicated","server_os":"Linux","password":true,"vac":true,"version":"7757534","steam_id":85568392924742820,"keywords":["cp","nocrits","nodmgspread","uncletopia"],"game_id":440,"stv_port":27036,"stv_name":"Uncletopia | New York City | 3 | Stopwatch Beta | STV","players":null},{"server_id":16,"name":"Uncletopia | New York City | 4 | Community","name_short":"nyc-4","host":"nyc-1.us.uncletopia.com","port":27045,"enabled":true,"region":"us-east","cc":"us","latitude":40.73061,"longitude":-73.93524,"reserved":0,"last_update":"0001-01-01T00:00:00Z","name_a2s":"Uncletopia | New York City | 4 | Community","protocol":17,"map":"workshop/cp_hazyfort_rc6.ugc1365963729","folder":"tf","game":"Team Fortress","app_id":440,"player_count":0,"max_players":24,"Bots":0,"server_type":"Dedicated","server_os":"Linux","password":true,"vac":true,"version":"7757534","steam_id":85568392924742821,"keywords":["cp","nocrits","nodmgspread","uncletopia"],"game_id":440,"stv_port":27046,"stv_name":"Uncletopia | New York City | 4 | Community | STV","players":null},{"server_id":142,"name":"Uncletopia | S√£o Paulo | 1 | All Maps","name_short":"sao-1","host":"sao-1.br.uncletopia.com","port":27015,"enabled":true,"region":"sa","cc":"br","latitude":-23.533773,"longitude":-46.62529,"reserved":0,"last_update":"0001-01-01T00:00:00Z","name_a2s":"Uncletopia | S√£o Paulo | 1 | All Maps","protocol":17,"map":"pl_frontier_final","folder":"tf","game":"Team Fortress","app_id":440,"player_count":0,"max_players":24,"Bots":0,"server_type":"Dedicated","server_os":"Linux","password":true,"vac":true,"version":"7757534","steam_id":85568392924469996,"keywords":["nocrits","nodmgspread","payload","uncletopia"],"game_id":440,"stv_port":27016,"stv_name":"Uncletopia | S√£o Paulo | 1 | All Maps | STV","players":null},{"server_id":143,"name":"Uncletopia | S√£o Paulo | 2 | All Maps","name_short":"sao-2","host":"sao-2.br.uncletopia.com","port":27015,"enabled":true,"region":"sa","cc":"br","latitude":-23.533773,"longitude":-46.62529,"reserved":0,"last_update":"0001-01-01T00:00:00Z","name_a2s":"Uncletopia | S√£o Paulo | 2 | All Maps","protocol":17,"map":"pl_borneo","folder":"tf","game":"Team Fortress","app_id":440,"player_count":0,"max_players":24,"Bots":0,"server_type":"Dedicated","server_os":"Linux","password":true,"vac":true,"version":"7757534","steam_id":85568392924485349,"keywords":["nocrits","nodmgspread","payload","uncletopia"],"game_id":440,"stv_port":27016,"stv_name":"Uncletopia | S√£o Paulo | 2 | All Maps | STV","players":null},{"server_id":7,"name":"Uncletopia | Seattle | 1 | All Maps","name_short":"sea-1","host":"sea-1.us.uncletopia.com","port":27015,"enabled":true,"region":"us-west","cc":"us","latitude":47.608013,"longitude":-122.33517,"reserved":0,"last_update":"0001-01-01T00:00:00Z","name_a2s":"Uncletopia | Seattle | 1 | All Maps","protocol":17,"map":"pl_rumford_event","folder":"tf","game":"Team Fortress","app_id":440,"player_count":23,"max_players":24,"Bots":0,"server_type":"Dedicated","server_os":"Linux","password":true,"vac":true,"version":"7757534","steam_id":85568392924469997,"keywords":["nocrits","nodmgspread","payload","uncletopia"],"game_id":440,"stv_port":27016,"stv_name":"Uncletopia | Seattle | 1 | All Maps | STV","players":[{"user_id":155,"name":"Ôº≥Ôº¨Ôº∂Ôº¥Ôº£Ôº®Ôº°Ôº≠Ôº∞","steam_id":76561198883157736,"connected_time":993000000000,"state":"active","ping":60},{"user_id":170,"name":"Granos","steam_id":76561198355508699,"connected_time":13000000000,"state":"spawning","ping":56},{"user_id":171,"name":"egyptiangodcard","steam_id":76561198855935442,"connected_time":8000000000,"state":"spawning","ping":58},{"user_id":127,"name":"Furious George","steam_id":76561198405111646,"connected_time":4281000000000,"state":"active","ping":90},{"user_id":161,"name":"Zom_Named_Zam","steam_id":76561198328066203,"connected_time":817000000000,"state":"active","ping":95},{"user_id":156,"name":"BBL Sponsor","steam_id":76561199093733603,"connected_time":991000000000,"state":"active","ping":76},{"user_id":157,"name":"Lucerne‚òÖFlower","steam_id":76561198264105406,"connected_time":961000000000,"state":"active","ping":133},{"user_id":162,"name":"The dreaded jar","steam_id":76561199087010656,"connected_time":788000000000,"state":"active","ping":56},{"user_id":82,"name":"Mike's Pimento Cheese Sandwich","steam_id":76561198978499219,"connected_time":8309000000000,"state":"active","ping":74},{"user_id":158,"name":"rat gets the cheese","steam_id":76561198031234032,"connected_time":945000000000,"state":"active","ping":98},{"user_id":153,"name":"Aardappel","steam_id":76561198030894676,"connected_time":1070000000000,"state":"active","ping":70},{"user_id":140,"name":"non menthol newport","steam_id":76561198041907345,"connected_time":2930000000000,"state":"active","ping":86},{"user_id":167,"name":"FANG","steam_id":76561199094739690,"connected_time":181000000000,"state":"active","ping":86},{"user_id":144,"name":"RURU","steam_id":76561198039758987,"connected_time":1887000000000,"state":"active","ping":49},{"user_id":139,"name":"MyMonkeyBaby","steam_id":76561198046896670,"connected_time":3087000000000,"state":"active","ping":53},{"user_id":163,"name":"aon135","steam_id":76561197966931637,"connected_time":696000000000,"state":"active","ping":58},{"user_id":86,"name":"jello","steam_id":76561198149683030,"connected_time":7691000000000,"state":"active","ping":67},{"user_id":164,"name":"PinguEnjoyer6","steam_id":76561199186723516,"connected_time":633000000000,"state":"active","ping":72},{"user_id":142,"name":"AuraBraixen_4412","steam_id":76561198120668769,"connected_time":2224000000000,"state":"active","ping":97},{"user_id":135,"name":"ArchmageF","steam_id":76561197992246851,"connected_time":3599000000000,"state":"active","ping":51},{"user_id":165,"name":"Jones","steam_id":76561198046037216,"connected_time":629000000000,"state":"active","ping":79},{"user_id":169,"name":"flishko","steam_id":76561198326489802,"connected_time":137000000000,"state":"active","ping":58},{"user_id":149,"name":"AmiableNebula","steam_id":76561198094306627,"connected_time":1108000000000,"state":"active","ping":74}]},{"server_id":119,"name":"Uncletopia | Seattle | 2 | All Maps","name_short":"sea-2","host":"sea-1.us.uncletopia.com","port":27025,"enabled":true,"region":"us-west","cc":"us","latitude":47.608013,"longitude":-122.33517,"reserved":0,"last_update":"0001-01-01T00:00:00Z","name_a2s":"Uncletopia | Seattle | 2 | All Maps","protocol":17,"map":"workshop/koth_ravine.ugc2916793297","folder":"tf","game":"Team Fortress","app_id":440,"player_count":24,"max_players":24,"Bots":0,"server_type":"Dedicated","server_os":"Linux","password":true,"vac":true,"version":"7757534","steam_id":85568392924469998,"keywords":["cp","nocrits","nodmgspread","uncletopia"],"game_id":440,"stv_port":27026,"stv_name":"Uncletopia | Seattle | 2 | All Maps | STV","players":[{"user_id":173,"name":"Merach","steam_id":76561197994544587,"connected_time":652000000000,"state":"active","ping":45},{"user_id":175,"name":"Mint Widget","steam_id":76561198036875245,"connected_time":322000000000,"state":"active","ping":64},{"user_id":130,"name":"‡∏∏","steam_id":76561198084134025,"connected_time":3763000000000,"state":"active","ping":60},{"user_id":166,"name":"Matt.hac","steam_id":76561197999235303,"connected_time":1228000000000,"state":"active","ping":41},{"user_id":160,"name":"king piccolo gaming","steam_id":76561198000744865,"connected_time":1430000000000,"state":"active","ping":45},{"user_id":158,"name":"Jface1221","steam_id":76561198188082091,"connected_time":1563000000000,"state":"active","ping":76},{"user_id":174,"name":"Tintin","steam_id":76561198280361925,"connected_time":559000000000,"state":"active","ping":143},{"user_id":144,"name":"Poltergeist","steam_id":76561198080353122,"connected_time":2491000000000,"state":"active","ping":75},{"user_id":176,"name":"twitch.tv/ladyloki_ch","steam_id":76561198280150602,"connected_time":29000000000,"state":"active","ping":55},{"user_id":145,"name":"Byton","steam_id":76561198006393870,"connected_time":2479000000000,"state":"active","ping":102},{"user_id":156,"name":"PoltergussyLordoftheAsstralVoid","steam_id":76561199195004708,"connected_time":2026000000000,"state":"active","ping":83},{"user_id":134,"name":"oo","steam_id":76561198119626492,"connected_time":2914000000000,"state":"active","ping":75},{"user_id":30,"name":"Themasterman75","steam_id":76561199385573293,"connected_time":9369000000000,"state":"active","ping":73},{"user_id":177,"name":"{OTD} Dinger","steam_id":76561197974036252,"connected_time":24000000000,"state":"spawning","ping":283},{"user_id":119,"name":"Banio Kaioie","steam_id":76561198153295874,"connected_time":4676000000000,"state":"active","ping":79},{"user_id":137,"name":"infiniteroman","steam_id":76561199231168620,"connected_time":2745000000000,"state":"active","ping":117},{"user_id":69,"name":"Lawnmower","steam_id":76561198186680197,"connected_time":7310000000000,"state":"active","ping":55},{"user_id":168,"name":"ÔºôÔºôÔºô","steam_id":76561197960319889,"connected_time":974000000000,"state":"active","ping":30},{"user_id":148,"name":"Soull","steam_id":76561199188088471,"connected_time":2340000000000,"state":"active","ping":129},{"user_id":132,"name":"zzrat","steam_id":76561198014925415,"connected_time":3597000000000,"state":"active","ping":55},{"user_id":169,"name":"lamadre07","steam_id":76561198067337453,"connected_time":911000000000,"state":"active","ping":121},{"user_id":171,"name":"bullet man","steam_id":76561198080058079,"connected_time":806000000000,"state":"active","ping":47},{"user_id":154,"name":"Wonder Woman.hac","steam_id":76561198005183961,"connected_time":2129000000000,"state":"active","ping":36},{"user_id":172,"name":"HideOnTate","steam_id":76561198209880837,"connected_time":794000000000,"state":"active","ping":43}]},{"server_id":406,"name":"Uncletopia | Seattle | 3 | Stopwatch Beta","name_short":"sea-3","host":"sea-1.us.uncletopia.com","port":27035,"enabled":true,"region":"us-west","cc":"us","latitude":47.608013,"longitude":-122.33517,"reserved":0,"last_update":"0001-01-01T00:00:00Z","name_a2s":"Uncletopia | Seattle | 3 | Stopwatch Beta","protocol":17,"map":"pl_borneo","folder":"tf","game":"Team Fortress","app_id":440,"player_count":0,"max_players":24,"Bots":0,"server_type":"Dedicated","server_os":"Linux","password":true,"vac":true,"version":"7757534","steam_id":85568392924515217,"keywords":["nocrits","nodmgspread","payload","uncletopia"],"game_id":440,"stv_port":27036,"stv_name":"Uncletopia | Seattle | 3 | Stopwatch Beta | STV","players":null},{"server_id":17,"name":"Uncletopia | San Francisco | 1 | All Maps","name_short":"sfo-1","host":"sfo-1.us.uncletopia.com","port":27015,"enabled":true,"region":"us-west","cc":"us","latitude":37.77397,"longitude":-122.4313,"reserved":0,"last_update":"0001-01-01T00:00:00Z","name_a2s":"Uncletopia | San Francisco | 1 | All Maps","protocol":17,"map":"koth_viaduct","folder":"tf","game":"Team Fortress","app_id":440,"player_count":24,"max_players":24,"Bots":0,"server_type":"Dedicated","server_os":"Linux","password":true,"vac":true,"version":"7757534","steam_id":85568392924469999,"keywords":["cp","nocrits","nodmgspread","uncletopia"],"game_id":440,"stv_port":27016,"stv_name":"Uncletopia | San Francisco | 1 | All Maps | STV","players":[{"user_id":15,"name":"Snety Gun","steam_id":76561198862745731,"connected_time":1388000000000,"state":"active","ping":87},{"user_id":16,"name":"Dotor","steam_id":76561198335794147,"connected_time":1333000000000,"state":"active","ping":91},{"user_id":17,"name":"Laurie","steam_id":76561198837843924,"connected_time":1325000000000,"state":"active","ping":84},{"user_id":18,"name":"gaslight, gate keep, girl boss.","steam_id":76561198271954812,"connected_time":1302000000000,"state":"active","ping":72},{"user_id":19,"name":"Ch3wmanji","steam_id":76561198799746229,"connected_time":1247000000000,"state":"active","ping":116},{"user_id":41,"name":"teh mummy","steam_id":76561198044123636,"connected_time":69000000000,"state":"active","ping":50},{"user_id":21,"name":"soulcantspeech","steam_id":76561198186690945,"connected_time":1137000000000,"state":"active","ping":64},{"user_id":22,"name":"Yeehaw Cousin","steam_id":76561198010819049,"connected_time":1025000000000,"state":"active","ping":126},{"user_id":23,"name":"NatCracken","steam_id":76561198103461530,"connected_time":1020000000000,"state":"active","ping":142},{"user_id":24,"name":"Artemis","steam_id":76561198112921316,"connected_time":803000000000,"state":"active","ping":130},{"user_id":25,"name":"Source Enjoyer","steam_id":76561198105663173,"connected_time":765000000000,"state":"active","ping":91},{"user_id":26,"name":"Holy Dwight","steam_id":76561198012334980,"connected_time":757000000000,"state":"active","ping":126},{"user_id":28,"name":"westward","steam_id":76561198805512350,"connected_time":737000000000,"state":"active","ping":75},{"user_id":29,"name":"ShovelShaman","steam_id":76561198048119461,"connected_time":708000000000,"state":"active","ping":72},{"user_id":30,"name":"MR\u003eP","steam_id":76561198942843544,"connected_time":704000000000,"state":"active","ping":66},{"user_id":31,"name":"beliEAGLE","steam_id":76561198177840314,"connected_time":594000000000,"state":"active","ping":128},{"user_id":32,"name":"Porytal","steam_id":76561198306101889,"connected_time":538000000000,"state":"active","ping":69},{"user_id":33,"name":"girr","steam_id":76561198995114110,"connected_time":525000000000,"state":"active","ping":74},{"user_id":34,"name":"Shoggoth","steam_id":76561198117892299,"connected_time":483000000000,"state":"active","ping":96},{"user_id":35,"name":"eletric_blue","steam_id":76561198821187816,"connected_time":473000000000,"state":"active","ping":77},{"user_id":40,"name":"chanoc","steam_id":76561198026734746,"connected_time":323000000000,"state":"active","ping":53},{"user_id":37,"name":"I Twitch Lego Star Wars...","steam_id":76561198130280060,"connected_time":434000000000,"state":"active","ping":91},{"user_id":38,"name":"mango cafe","steam_id":76561198142328193,"connected_time":393000000000,"state":"active","ping":68},{"user_id":39,"name":"chunkysquare","steam_id":76561199076468383,"connected_time":378000000000,"state":"active","ping":53}]},{"server_id":18,"name":"Uncletopia | San Francisco | 2 | All Maps","name_short":"sfo-2","host":"sfo-1.us.uncletopia.com","port":27025,"enabled":true,"region":"us-west","cc":"us","latitude":37.77397,"longitude":-122.4313,"reserved":0,"last_update":"0001-01-01T00:00:00Z","name_a2s":"Uncletopia | San Francisco | 2 | All Maps","protocol":17,"map":"pl_goldrush","folder":"tf","game":"Team Fortress","app_id":440,"player_count":23,"max_players":24,"Bots":0,"server_type":"Dedicated","server_os":"Linux","password":true,"vac":true,"version":"7757534","steam_id":85568392924470000,"keywords":["nocrits","nodmgspread","payload","uncletopia"],"game_id":440,"stv_port":27026,"stv_name":"Uncletopia | San Francisco | 2 | All Maps | STV","players":[{"user_id":172,"name":"ATTENTION ALL BAJORAN WORKERS","steam_id":76561198033918106,"connected_time":55000000000,"state":"active","ping":53},{"user_id":125,"name":"benjamoney","steam_id":76561199023027047,"connected_time":2278000000000,"state":"active","ping":74},{"user_id":155,"name":"RlyTomato","steam_id":76561198011644876,"connected_time":1072000000000,"state":"active","ping":71},{"user_id":168,"name":"Lactose ‡πëÔ≠•","steam_id":76561198208256987,"connected_time":538000000000,"state":"active","ping":81},{"user_id":119,"name":"lolllipops87","steam_id":76561198821758520,"connected_time":3671000000000,"state":"active","ping":105},{"user_id":156,"name":"Dancing QWeen","steam_id":76561198084220655,"connected_time":1071000000000,"state":"active","ping":124},{"user_id":68,"name":"20 pc mcnugget","steam_id":76561198056330171,"connected_time":7340000000000,"state":"active","ping":85},{"user_id":121,"name":"ChernobylFriend","steam_id":76561198244676730,"connected_time":3012000000000,"state":"active","ping":77},{"user_id":170,"name":"Lord of the Moon","steam_id":76561198014115769,"connected_time":211000000000,"state":"active","ping":111},{"user_id":122,"name":"Cave Dweller","steam_id":76561198374825685,"connected_time":2990000000000,"state":"active","ping":57},{"user_id":167,"name":"RushIn","steam_id":76561199013261240,"connected_time":668000000000,"state":"active","ping":70},{"user_id":165,"name":"Sargeant","steam_id":76561198077066612,"connected_time":794000000000,"state":"active","ping":56},{"user_id":169,"name":"Amogous Supreme","steam_id":76561198025476774,"connected_time":515000000000,"state":"active","ping":57},{"user_id":120,"name":"ducks","steam_id":76561198984199811,"connected_time":3667000000000,"state":"active","ping":70},{"user_id":173,"name":"Gabe","steam_id":76561198081153719,"connected_time":42000000000,"state":"spawning","ping":38},{"user_id":161,"name":"Redd","steam_id":76561198013184655,"connected_time":997000000000,"state":"active","ping":124},{"user_id":136,"name":"NooBHatteR","steam_id":76561198077662703,"connected_time":1759000000000,"state":"active","ping":72},{"user_id":124,"name":"bronk","steam_id":76561198181109553,"connected_time":2439000000000,"state":"active","ping":46},{"user_id":142,"name":"Neoplix","steam_id":76561199012756422,"connected_time":1650000000000,"state":"active","ping":116},{"user_id":143,"name":"Can Of Pepsi","steam_id":76561198799099659,"connected_time":1644000000000,"state":"active","ping":100},{"user_id":100,"name":"Madrox Who?","steam_id":76561197988859134,"connected_time":5280000000000,"state":"active","ping":123},{"user_id":163,"name":"jackeroy","steam_id":76561198132394612,"connected_time":898000000000,"state":"active","ping":110},{"user_id":174,"name":"Hsepirn","steam_id":76561198152395431,"connected_time":42000000000,"state":"spawning","ping":76}]},{"server_id":19,"name":"Uncletopia | San Francisco | 3 | Stopwatch Beta","name_short":"sfo-3","host":"sfo-1.us.uncletopia.com","port":27035,"enabled":true,"region":"us-west","cc":"us","latitude":37.77397,"longitude":-122.4313,"reserved":0,"last_update":"0001-01-01T00:00:00Z","name_a2s":"Uncletopia | San Francisco | 3 | Stopwatch Beta","protocol":17,"map":"pl_borneo","folder":"tf","game":"Team Fortress","app_id":440,"player_count":0,"max_players":24,"Bots":0,"server_type":"Dedicated","server_os":"Linux","password":true,"vac":true,"version":"7757534","steam_id":85568392924742824,"keywords":["nocrits","nodmgspread","payload","uncletopia"],"game_id":440,"stv_port":27036,"stv_name":"Uncletopia | San Francisco | 3 | Stopwatch Beta | STV","players":null},{"server_id":20,"name":"Uncletopia | San Francisco | 4 | Community","name_short":"sfo-4","host":"sfo-1.us.uncletopia.com","port":27045,"enabled":true,"region":"us-west","cc":"us","latitude":37.77397,"longitude":-122.4313,"reserved":0,"last_update":"0001-01-01T00:00:00Z","name_a2s":"Uncletopia | San Francisco | 4 | Community","protocol":17,"map":"workshop/koth_trenchfoot_b1a.ugc731436616","folder":"tf","game":"Team Fortress","app_id":440,"player_count":0,"max_players":24,"Bots":0,"server_type":"Dedicated","server_os":"Linux","password":true,"vac":true,"version":"7757534","steam_id":85568392924742826,"keywords":["cp","nocrits","nodmgspread","uncletopia"],"game_id":440,"stv_port":27046,"stv_name":"Uncletopia | San Francisco | 4 | Community | STV","players":null},{"server_id":141,"name":"Uncletopia | Sydney | 1 | All Maps","name_short":"syd-1","host":"syd-1.au.uncletopia.com","port":27015,"enabled":true,"region":"au","cc":"au","latitude":-33.865143,"longitude":151.2099,"reserved":0,"last_update":"0001-01-01T00:00:00Z","name_a2s":"Uncletopia | Sydney | 1 | All Maps","protocol":17,"map":"pl_upward","folder":"tf","game":"Team Fortress","app_id":440,"player_count":14,"max_players":24,"Bots":0,"server_type":"Dedicated","server_os":"Linux","password":true,"vac":true,"version":"7757534","steam_id":85568392924470001,"keywords":["nocrits","nodmgspread","payload","uncletopia"],"game_id":440,"stv_port":27016,"stv_name":"Uncletopia | Sydney | 1 | All Maps | STV","players":[{"user_id":94,"name":"-Why-","steam_id":76561198129254593,"connected_time":1574000000000,"state":"active","ping":52},{"user_id":84,"name":"Crimson Aurora","steam_id":76561198157492747,"connected_time":2952000000000,"state":"active","ping":100},{"user_id":95,"name":"Tea","steam_id":76561199029851609,"connected_time":1409000000000,"state":"active","ping":56},{"user_id":97,"name":"bread","steam_id":76561199405764106,"connected_time":1137000000000,"state":"active","ping":36},{"user_id":107,"name":"Tofu","steam_id":76561198025637573,"connected_time":189000000000,"state":"active","ping":35},{"user_id":103,"name":"Œªlex","steam_id":76561198181194862,"connected_time":393000000000,"state":"active","ping":62},{"user_id":99,"name":"terrablade_master","steam_id":76561198997249192,"connected_time":815000000000,"state":"active","ping":71},{"user_id":100,"name":"Jett","steam_id":76561198969434128,"connected_time":685000000000,"state":"active","ping":419},{"user_id":108,"name":"skidmark2000","steam_id":76561198446126519,"connected_time":154000000000,"state":"active","ping":42},{"user_id":102,"name":"Squishy","steam_id":76561198985769205,"connected_time":627000000000,"state":"active","ping":55},{"user_id":104,"name":"A Spaceman","steam_id":76561198400378180,"connected_time":303000000000,"state":"active","ping":50},{"user_id":105,"name":"zen","steam_id":76561198302670452,"connected_time":301000000000,"state":"active","ping":54},{"user_id":82,"name":"Glockenspe (She/Her)","steam_id":76561199184115241,"connected_time":3211000000000,"state":"active","ping":55},{"user_id":55,"name":"Finios","steam_id":76561198209013071,"connected_time":5205000000000,"state":"active","ping":55}]},{"server_id":123,"name":"Uncletopia | Sydney | 2 | All Maps","name_short":"syd-2","host":"syd-1.au.uncletopia.com","port":27025,"enabled":true,"region":"au","cc":"au","latitude":-33.865143,"longitude":151.2099,"reserved":0,"last_update":"0001-01-01T00:00:00Z","name_a2s":"Uncletopia | Sydney | 2 | All Maps","protocol":17,"map":"koth_viaduct","folder":"tf","game":"Team Fortress","app_id":440,"player_count":0,"max_players":24,"Bots":0,"server_type":"Dedicated","server_os":"Linux","password":true,"vac":true,"version":"7757534","steam_id":85568392924470002,"keywords":["cp","nocrits","nodmgspread","uncletopia"],"game_id":440,"stv_port":27026,"stv_name":"Uncletopia | Sydney | 2 | All Maps | STV","players":null},{"server_id":395,"name":"Uncletopia | Sydney | 3 | All Maps","name_short":"syd-3","host":"syd-1.au.uncletopia.com","port":27035,"enabled":true,"region":"au","cc":"au","latitude":-33.865143,"longitude":151.2099,"reserved":0,"last_update":"0001-01-01T00:00:00Z","name_a2s":"Uncletopia | Sydney | 3 | All Maps","protocol":17,"map":"pl_barnblitz","folder":"tf","game":"Team Fortress","app_id":440,"player_count":0,"max_players":24,"Bots":0,"server_type":"Dedicated","server_os":"Linux","password":true,"vac":true,"version":"7757534","steam_id":85568392925194467,"keywords":["nocrits","nodmgspread","payload","uncletopia"],"game_id":440,"stv_port":27036,"stv_name":"Uncletopia | Sydney | 3 | All Maps | STV","players":null},{"server_id":396,"name":"Uncletopia | Sydney | 4 | All Maps","name_short":"syd-4","host":"syd-1.au.uncletopia.com","port":27045,"enabled":true,"region":"au","cc":"au","latitude":-33.865143,"longitude":151.2099,"reserved":0,"last_update":"0001-01-01T00:00:00Z","name_a2s":"Uncletopia | Sydney | 4 | All Maps","protocol":17,"map":"koth_lakeside_final","folder":"tf","game":"Team Fortress","app_id":440,"player_count":0,"max_players":24,"Bots":0,"server_type":"Dedicated","server_os":"Linux","password":true,"vac":true,"version":"7757534","steam_id":85568392925397958,"keywords":["cp","nocrits","nodmgspread","uncletopia"],"game_id":440,"stv_port":27046,"stv_name":"Uncletopia | Sydney | 4 | All Maps | STV","players":null},{"server_id":58,"name":"Uncletopia | Sydney | 5 | Stopwatch Beta","name_short":"syd-5","host":"syd-1.au.uncletopia.com","port":27055,"enabled":true,"region":"au","cc":"au","latitude":-33.865143,"longitude":151.2099,"reserved":0,"last_update":"0001-01-01T00:00:00Z","name_a2s":"Uncletopia | Sydney | 5 | Stopwatch Beta","protocol":17,"map":"koth_highpass","folder":"tf","game":"Team Fortress","app_id":440,"player_count":0,"max_players":24,"Bots":0,"server_type":"Dedicated","server_os":"Linux","password":true,"vac":true,"version":"7757534","steam_id":85568392925397959,"keywords":["cp","nocrits","nodmgspread","uncletopia"],"game_id":440,"stv_port":27056,"stv_name":"Uncletopia | Sydney | 5 | Stopwatch Beta | STV","players":null},{"server_id":59,"name":"Uncletopia | Sydney | 6 | Community","name_short":"syd-6","host":"syd-1.au.uncletopia.com","port":27065,"enabled":true,"region":"au","cc":"au","latitude":-33.865143,"longitude":151.2099,"reserved":0,"last_update":"0001-01-01T00:00:00Z","name_a2s":"Uncletopia | Sydney | 6 | Community","protocol":17,"map":"workshop/cp_sulfur_rc2.ugc619869471","folder":"tf","game":"Team Fortress","app_id":440,"player_count":0,"max_players":24,"Bots":0,"server_type":"Dedicated","server_os":"Linux","password":true,"vac":true,"version":"7757534","steam_id":85568392925397960,"keywords":["cp","nocrits","nodmgspread","uncletopia"],"game_id":440,"stv_port":27066,"stv_name":"Uncletopia | Sydney | 6 | Community | STV","players":null},{"server_id":49,"name":"Uncletopia | Warsaw | 1 | All Maps","name_short":"waw-1","host":"waw-1.pl.uncletopia.com","port":27015,"enabled":true,"region":"eu","cc":"pl","latitude":52.2297,"longitude":21.017532,"reserved":0,"last_update":"0001-01-01T00:00:00Z","name_a2s":"","protocol":0,"map":"","folder":"","game":"","app_id":0,"player_count":0,"max_players":0,"Bots":0,"server_type":"","server_os":"","password":false,"vac":false,"version":"","steam_id":0,"keywords":null,"game_id":0,"stv_port":0,"stv_name":"","players":null},{"server_id":50,"name":"Uncletopia | Warsaw | 2 | All Maps","name_short":"waw-2","host":"waw-1.pl.uncletopia.com","port":27025,"enabled":true,"region":"eu","cc":"pl","latitude":52.2297,"longitude":21.017532,"reserved":0,"last_update":"0001-01-01T00:00:00Z","name_a2s":"Uncletopia | Warsaw | 2 | All Maps","protocol":17,"map":"cp_process_final","folder":"tf","game":"Team Fortress","app_id":440,"player_count":0,"max_players":24,"Bots":0,"server_type":"Dedicated","server_os":"Linux","password":true,"vac":true,"version":"7757534","steam_id":85568392925397851,"keywords":["cp","nocrits","nodmgspread","uncletopia"],"game_id":440,"stv_port":27026,"stv_name":"Uncletopia | Warsaw | 2 | All Maps | STV","players":null},{"server_id":51,"name":"Uncletopia | Warsaw | 3 | All Maps","name_short":"waw-3","host":"waw-1.pl.uncletopia.com","port":27035,"enabled":true,"region":"eu","cc":"pl","latitude":52.2297,"longitude":21.017532,"reserved":0,"last_update":"0001-01-01T00:00:00Z","name_a2s":"Uncletopia | Warsaw | 3 | All Maps","protocol":17,"map":"pl_barnblitz","folder":"tf","game":"Team Fortress","app_id":440,"player_count":0,"max_players":24,"Bots":0,"server_type":"Dedicated","server_os":"Linux","password":true,"vac":true,"version":"7757534","steam_id":85568392925397852,"keywords":["nocrits","nodmgspread","payload","uncletopia"],"game_id":440,"stv_port":27036,"stv_name":"Uncletopia | Warsaw | 3 | All Maps | STV","players":null},{"server_id":52,"name":"Uncletopia | Warsaw | 4 | All Maps","name_short":"waw-4","host":"waw-1.pl.uncletopia.com","port":27045,"enabled":true,"region":"eu","cc":"pl","latitude":52.2297,"longitude":21.017532,"reserved":0,"last_update":"0001-01-01T00:00:00Z","name_a2s":"Uncletopia | Warsaw | 4 | All Maps","protocol":17,"map":"koth_lakeside_final","folder":"tf","game":"Team Fortress","app_id":440,"player_count":0,"max_players":24,"Bots":0,"server_type":"Dedicated","server_os":"Linux","password":true,"vac":true,"version":"7757534","steam_id":85568392925397853,"keywords":["cp","nocrits","nodmgspread","uncletopia"],"game_id":440,"stv_port":27046,"stv_name":"Uncletopia | Warsaw | 4 | All Maps | STV","players":null},{"server_id":53,"name":"Uncletopia | Warsaw | 5 | Stopwatch Beta","name_short":"waw-5","host":"waw-1.pl.uncletopia.com","port":27055,"enabled":true,"region":"eu","cc":"pl","latitude":52.2297,"longitude":21.017532,"reserved":0,"last_update":"0001-01-01T00:00:00Z","name_a2s":"Uncletopia | Warsaw | 5 | Stopwatch Beta","protocol":17,"map":"pl_barnblitz","folder":"tf","game":"Team Fortress","app_id":440,"player_count":0,"max_players":24,"Bots":0,"server_type":"Dedicated","server_os":"Linux","password":true,"vac":true,"version":"7757534","steam_id":85568392925397854,"keywords":["nocrits","nodmgspread","payload","uncletopia"],"game_id":440,"stv_port":27056,"stv_name":"Uncletopia | Warsaw | 5 | Stopwatch Beta | STV","players":null},{"server_id":54,"name":"Uncletopia | Warsaw | 6 | Community","name_short":"waw-6","host":"waw-1.pl.uncletopia.com","port":27065,"enabled":true,"region":"eu","cc":"pl","latitude":52.2297,"longitude":21.017532,"reserved":0,"last_update":"0001-01-01T00:00:00Z","name_a2s":"Uncletopia | Warsaw | 6 | Community","protocol":17,"map":"pl_swiftwater_final1","folder":"tf","game":"Team Fortress","app_id":440,"player_count":0,"max_players":24,"Bots":0,"server_type":"Dedicated","server_os":"Linux","password":true,"vac":true,"version":"7757534","steam_id":85568392925397856,"keywords":["nocrits","nodmgspread","payload","uncletopia"],"game_id":440,"stv_port":27066,"stv_name":"Uncletopia | Warsaw | 6 | Community | STV","players":null}]}