{"status":true,"message":"","result":[{"server_id":9,"name":"Uncletopia | Atlanta | 1 | All Maps","name_short":"atl-1","host":"atl-1.us.uncletopia.com","port":27015,"enabled":true,"region":"us-east","cc":"us","latitude":33.753746,"longitude":-84.38633,"reserved":0,"last_update":"0001-01-01T00:00:00Z","name_a2s":"Uncletopia | Atlanta | 1 | All Maps","protocol":17,"map":"pl_barnblitz","folder":"tf","game":"Team Fortress","app_id":440,"player_count":24,"max_players":24,"Bots":0,"server_type":"Dedicated","server_os":"Linux","password":true,"vac":true,"version":"7961495","steam_id":85568392924469982,"keywords":["nocrits","nodmgspread","payload","uncletopia"],"game_id":440,"stv_port":27016,"stv_name":"Uncletopia | Atlanta | 1 | All Maps | STV","players":null},{"server_id":104,"name":"Uncletopia | Atlanta | 2 | All Maps","name_short":"atl-2","host":"atl-1.us.uncletopia.com","port":27025,"enabled":true,"region":"us-east","cc":"us","latitude":33.753746,"longitude":-84.38633,"reserved":0,"last_update":"0001-01-01T00:00:00Z","name_a2s":"Uncletopia | Atlanta | 2 | All Maps","protocol":17,"map":"pl_swiftwater_final1","folder":"tf","game":"Team Fortress","app_id":440,"player_count":24,"max_players":24,"Bots":0,"server_type":"Dedicated","server_os":"Linux","password":true,"vac":true,"version":"7961495","steam_id":85568392924469983,"keywords":["nocrits","nodmgspread","payload","uncletopia"],"game_id":440,"stv_port":27026,"stv_name":"Uncletopia | Atlanta | 2 | All Maps | STV","players":null},{"server_id":400,"name":"Uncletopia | Atlanta | 3 | Stopwatch","name_short":"atl-3","host":"atl-1.us.uncletopia.com","port":27035,"enabled":true,"region":"us-east","cc":"us","latitude":33.753746,"longitude":-84.38633,"reserved":0,"last_update":"0001-01-01T00:00:00Z","name_a2s":"Uncletopia | Atlanta | 3 | Stopwatch","protocol":17,"map":"koth_clearcut_b15","folder":"tf","game":"Team Fortress","app_id":440,"player_count":0,"max_players":24,"Bots":0,"server_type":"Dedicated","server_os":"Linux","password":true,"vac":true,"version":"7961495","steam_id":85568392924515187,"keywords":["cp","nocrits","nodmgspread","uncletopia"],"game_id":440,"stv_port":27036,"stv_name":"Uncletopia | Atlanta | 3 | Stopwatch | STV","players":null},{"server_id":401,"name":"Uncletopia | Atlanta | 4 | Community","name_short":"atl-4","host":"atl-1.us.uncletopia.com","port":27045,"enabled":true,"region":"us-east","cc":"us","latitude":33.753746,"longitude":-84.38633,"reserved":0,"last_update":"0001-01-01T00:00:00Z","name_a2s":"Uncletopia | Atlanta | 4 | Community","protocol":17,"map":"pl_highwood_b13","folder":"tf","game":"Team Fortress","app_id":440,"player_count":16,"max_players":24,"Bots":0,"server_type":"Dedicated","server_os":"Linux","password":true,"vac":true,"version":"7961495","steam_id":85568392924515188,"keywords":["nocrits","nodmgspread","payload","uncletopia"],"game_id":440,"stv_port":27046,"stv_name":"Uncletopia | Atlanta | 4 | Community | STV","players":null},{"server_id":2,"name":"Uncletopia | Chicago | 1 | All Maps","name_short":"chi-1","host":"chi-1.us.uncletopia.com","port":27015,"enabled":true,"region":"us-central","cc":"us","latitude":41.881832,"longitude":-87.62318,"reserved":0,"last_update":"0001-01-01T00:00:00Z","name_a2s":"Uncletopia | Chicago | 1 | All Maps","protocol":17,"map":"cp_sunshine","folder":"tf","game":"Team Fortress","app_id":440,"player_count":23,"max_players":24,"Bots":0,"server_type":"Dedicated","server_os":"Linux","password":true,"vac":true,"version":"7961495","steam_id":85568392924469984,"keywords":["cp","nocrits","nodmgspread","uncletopia"],"game_id":440,"stv_port":27016,"stv_name":"Uncletopia | Chicago | 1 | All Maps | STV","players":[{"user_id":483,"name":"Amari","steam_id":76561198272446730,"connected_time":1008000000000,"state":"active","ping":50},{"user_id":504,"name":"Ms Twig","steam_id":76561198144111736,"connected_time":58000000000,"state":"active","ping":54},{"user_id":458,"name":"hamvangolio","steam_id":76561198139588105,"connected_time":3020000000000,"state":"active","ping":48},{"user_id":469,"name":"Praise_to_the_Flashlight!","steam_id":76561199001728789,"connected_time":2528000000000,"state":"active","ping":62},{"user_id":487,"name":"Shorty","steam_id":76561198044873248,"connected_time":970000000000,"state":"active","ping":45},{"user_id":501,"name":"checkswing","steam_id":76561198999816132,"connected_time":558000000000,"state":"active","ping":75},{"user_id":488,"name":"YOU JUST LOST THE GAME","steam_id":76561198012126625,"connected_time":961000000000,"state":"active","ping":67},{"user_id":489,"name":"Nordie","steam_id":76561198102297774,"connected_time":957000000000,"state":"active","ping":57},{"user_id":443,"name":"goggyrina","steam_id":76561198428033086,"connected_time":4014000000000,"state":"active","ping":39},{"user_id":480,"name":"Snom","steam_id":76561198333827920,"connected_time":1743000000000,"state":"active","ping":96},{"user_id":499,"name":"Madeline","steam_id":76561198002123006,"connected_time":682000000000,"state":"active","ping":81},{"user_id":491,"name":"menk3","steam_id":76561198120888597,"connected_time":946000000000,"state":"active","ping":76},{"user_id":493,"name":"pyrotechnic","steam_id":76561198043558709,"connected_time":876000000000,"state":"active","ping":96},{"user_id":503,"name":"Lunchboxx","steam_id":76561198079735916,"connected_time":399000000000,"state":"active","ping":57},{"user_id":494,"name":"lingulata","steam_id":76561198076208960,"connected_time":853000000000,"state":"active","ping":78},{"user_id":481,"name":"Cdesmondd","steam_id":76561198072774462,"connected_time":1463000000000,"state":"active","ping":59},{"user_id":500,"name":"Jennifer Aniston's Nipples","steam_id":76561198086107548,"connected_time":588000000000,"state":"active","ping":63},{"user_id":495,"name":"Dr.StrangeGlove","steam_id":76561198286114229,"connected_time":852000000000,"state":"active","ping":64},{"user_id":471,"name":"redredgreengreen","steam_id":76561198035660801,"connected_time":2415000000000,"state":"active","ping":115},{"user_id":457,"name":"CommieKurtz","steam_id":76561198061687521,"connected_time":3028000000000,"state":"active","ping":59},{"user_id":452,"name":"Space","steam_id":76561198350489754,"connected_time":3484000000000,"state":"active","ping":48},{"user_id":475,"name":"Delightful MadCat","steam_id":76561198086178426,"connected_time":2107000000000,"state":"active","ping":71},{"user_id":496,"name":"Awenova","steam_id":76561198322928940,"connected_time":847000000000,"state":"active","ping":61}]},{"server_id":106,"name":"Uncletopia | Chicago | 2 | All Maps","name_short":"chi-2","host":"chi-1.us.uncletopia.com","port":27025,"enabled":true,"region":"us-central","cc":"us","latitude":41.881832,"longitude":-87.62318,"reserved":0,"last_update":"0001-01-01T00:00:00Z","name_a2s":"Uncletopia | Chicago | 2 | All Maps","protocol":17,"map":"pl_thundermountain","folder":"tf","game":"Team Fortress","app_id":440,"player_count":24,"max_players":24,"Bots":0,"server_type":"Dedicated","server_os":"Linux","password":true,"vac":true,"version":"7961495","steam_id":85568392924469985,"keywords":["nocrits","nodmgspread","payload","uncletopia"],"game_id":440,"stv_port":27026,"stv_name":"Uncletopia | Chicago | 2 | All Maps | STV","players":[{"user_id":737,"name":"roast pig with apple in mouth","steam_id":76561198051353647,"connected_time":1738000000000,"state":"active","ping":62},{"user_id":752,"name":"pim","steam_id":76561198095163441,"connected_time":935000000000,"state":"active","ping":64},{"user_id":634,"name":"King's Disease","steam_id":76561198076639682,"connected_time":10047000000000,"state":"active","ping":75},{"user_id":730,"name":"Raccoon Wizard","steam_id":76561198072562591,"connected_time":2070000000000,"state":"active","ping":83},{"user_id":721,"name":"Sock","steam_id":76561198315420000,"connected_time":2401000000000,"state":"active","ping":53},{"user_id":760,"name":"Schwartzy","steam_id":76561198098576795,"connected_time":160000000000,"state":"active","ping":73},{"user_id":756,"name":"Dr. Pleasant","steam_id":76561198111945101,"connected_time":526000000000,"state":"active","ping":71},{"user_id":753,"name":"AKA-1NC","steam_id":76561199397330767,"connected_time":916000000000,"state":"active","ping":72},{"user_id":734,"name":"JGatsby","steam_id":76561198023307584,"connected_time":1973000000000,"state":"active","ping":47},{"user_id":754,"name":"Monkey Gaming","steam_id":76561198232461944,"connected_time":807000000000,"state":"active","ping":106},{"user_id":749,"name":"MechaZard","steam_id":76561198985919768,"connected_time":1059000000000,"state":"active","ping":87},{"user_id":719,"name":"that's showbiz, baybee","steam_id":76561197998258233,"connected_time":2491000000000,"state":"active","ping":77},{"user_id":740,"name":"Û†Ä°Û†Ä°","steam_id":76561198348035053,"connected_time":1246000000000,"state":"active","ping":122},{"user_id":720,"name":"SuperSX","steam_id":76561199230865085,"connected_time":2469000000000,"state":"active","ping":83},{"user_id":751,"name":"Dr. Maybe","steam_id":76561198268304564,"connected_time":1022000000000,"state":"active","ping":81},{"user_id":722,"name":"sarcastic_monke","steam_id":76561198918244788,"connected_time":2380000000000,"state":"active","ping":73},{"user_id":758,"name":"Tom","steam_id":76561198139202942,"connected_time":181000000000,"state":"active","ping":83},{"user_id":759,"name":"pocket ranni","steam_id":76561198077366457,"connected_time":169000000000,"state":"active","ping":72},{"user_id":735,"name":"Bluedot","steam_id":76561198019909639,"connected_time":1899000000000,"state":"active","ping":64},{"user_id":723,"name":"Pizza Boy","steam_id":76561198207213173,"connected_time":2350000000000,"state":"active","ping":54},{"user_id":744,"name":"ManicButtonMasher","steam_id":76561198026725131,"connected_time":1162000000000,"state":"active","ping":102},{"user_id":745,"name":"Acehay14","steam_id":76561198052373291,"connected_time":1148000000000,"state":"active","ping":57},{"user_id":747,"name":"whathashit69","steam_id":76561199013105760,"connected_time":1145000000000,"state":"active","ping":127},{"user_id":727,"name":"ethanf","steam_id":76561198103930234,"connected_time":2332000000000,"state":"active","ping":58}]},{"server_id":402,"name":"Uncletopia | Chicago | 3 | All Maps","name_short":"chi-3","host":"chi-1.us.uncletopia.com","port":27035,"enabled":true,"region":"us-central","cc":"us","latitude":41.881832,"longitude":-87.62318,"reserved":0,"last_update":"0001-01-01T00:00:00Z","name_a2s":"Uncletopia | Chicago | 3 | All Maps","protocol":17,"map":"pl_badwater","folder":"tf","game":"Team Fortress","app_id":440,"player_count":24,"max_players":24,"Bots":0,"server_type":"Dedicated","server_os":"Linux","password":true,"vac":true,"version":"7961495","steam_id":85568392924515191,"keywords":["nocrits","nodmgspread","payload","uncletopia"],"game_id":440,"stv_port":27036,"stv_name":"Uncletopia | Chicago | 3 | All Maps | STV","players":[{"user_id":259,"name":"augh","steam_id":76561198131532406,"connected_time":2563000000000,"state":"active","ping":70},{"user_id":275,"name":"Alison \u003c3","steam_id":76561198126211191,"connected_time":1777000000000,"state":"active","ping":106},{"user_id":290,"name":"Metbol","steam_id":76561198001362410,"connected_time":680000000000,"state":"active","ping":83},{"user_id":273,"name":"bobkattbro","steam_id":76561199009438984,"connected_time":1810000000000,"state":"active","ping":98},{"user_id":254,"name":"dudeer733","steam_id":76561198030319392,"connected_time":2853000000000,"state":"active","ping":72},{"user_id":289,"name":"Playful Nun","steam_id":76561198920209000,"connected_time":708000000000,"state":"active","ping":86},{"user_id":269,"name":"marley star7","steam_id":76561198295452087,"connected_time":2451000000000,"state":"active","ping":60},{"user_id":299,"name":"viagra addict","steam_id":76561198017705248,"connected_time":63000000000,"state":"active","ping":48},{"user_id":291,"name":"vv","steam_id":76561198134813102,"connected_time":552000000000,"state":"active","ping":53},{"user_id":300,"name":"winning","steam_id":76561198003206947,"connected_time":51000000000,"state":"active","ping":142},{"user_id":301,"name":"iCarly Lore Expert","steam_id":76561198111902910,"connected_time":25000000000,"state":"active","ping":60},{"user_id":224,"name":"Mr. Tickle","steam_id":76561198126684647,"connected_time":5332000000000,"state":"active","ping":54},{"user_id":255,"name":"Nessie is my Waifu","steam_id":76561198076021620,"connected_time":2838000000000,"state":"active","ping":68},{"user_id":302,"name":"leumas","steam_id":76561198240408540,"connected_time":13000000000,"state":"active","ping":77},{"user_id":202,"name":"[MRY] Sk-iLite","steam_id":76561198041797350,"connected_time":6977000000000,"state":"active","ping":64},{"user_id":293,"name":"chok","steam_id":76561198242016100,"connected_time":490000000000,"state":"active","ping":70},{"user_id":294,"name":"crotuslovershanks","steam_id":76561199091300223,"connected_time":457000000000,"state":"active","ping":64},{"user_id":295,"name":"THICCBEEF GRANDPA","steam_id":76561197993550572,"connected_time":457000000000,"state":"active","ping":60},{"user_id":266,"name":"Skiddy","steam_id":76561198125942665,"connected_time":2511000000000,"state":"active","ping":74},{"user_id":296,"name":"THE SHERIFF INDEED","steam_id":76561197972628051,"connected_time":443000000000,"state":"active","ping":67},{"user_id":303,"name":"Rodgedan","steam_id":76561198226236524,"connected_time":11000000000,"state":"active","ping":52},{"user_id":286,"name":"[`420`] FADED THAN A HOE x5","steam_id":76561198058540459,"connected_time":1580000000000,"state":"active","ping":66},{"user_id":298,"name":"„ÄåDazed and Confused„Äç","steam_id":76561198070996375,"connected_time":409000000000,"state":"active","ping":65},{"user_id":288,"name":"salad","steam_id":76561198246701796,"connected_time":1502000000000,"state":"active","ping":76}]},{"server_id":403,"name":"Uncletopia | Chicago | 4 | All Maps","name_short":"chi-4","host":"chi-1.us.uncletopia.com","port":27045,"enabled":true,"region":"us-central","cc":"us","latitude":41.881832,"longitude":-87.62318,"reserved":0,"last_update":"0001-01-01T00:00:00Z","name_a2s":"Uncletopia | Chicago | 4 | All Maps","protocol":17,"map":"pl_snowycoast","folder":"tf","game":"Team Fortress","app_id":440,"player_count":24,"max_players":24,"Bots":0,"server_type":"Dedicated","server_os":"Linux","password":true,"vac":true,"version":"7961495","steam_id":85568392924515193,"keywords":["nocrits","nodmgspread","payload","uncletopia"],"game_id":440,"stv_port":27046,"stv_name":"Uncletopia | Chicago | 4 | All Maps | STV","players":[{"user_id":286,"name":"captain red","steam_id":76561198191587983,"connected_time":458000000000,"state":"active","ping":75},{"user_id":232,"name":"totally not a pile of beans","steam_id":76561198119851931,"connected_time":4445000000000,"state":"active","ping":80},{"user_id":179,"name":"Ace Chromatica","steam_id":76561198042211131,"connected_time":8393000000000,"state":"active","ping":64},{"user_id":231,"name":"Female Gamer","steam_id":76561199366482682,"connected_time":4458000000000,"state":"active","ping":107},{"user_id":248,"name":"ApertureCity","steam_id":76561198004153607,"connected_time":2901000000000,"state":"active","ping":82},{"user_id":266,"name":"zpalmtree","steam_id":76561198134307620,"connected_time":1905000000000,"state":"active","ping":69},{"user_id":281,"name":"Tommy Pickles (Very Cool)","steam_id":76561198391261463,"connected_time":1069000000000,"state":"active","ping":71},{"user_id":267,"name":"Provocator","steam_id":76561197961830410,"connected_time":1897000000000,"state":"active","ping":74},{"user_id":288,"name":"Rambly Dambly","steam_id":76561198844496567,"connected_time":390000000000,"state":"active","ping":59},{"user_id":278,"name":"Fever Dreams","steam_id":76561198116614620,"connected_time":1402000000000,"state":"active","ping":76},{"user_id":235,"name":"Bones0010","steam_id":76561198096186958,"connected_time":4424000000000,"state":"active","ping":89},{"user_id":274,"name":"Remy the rat","steam_id":76561198080519558,"connected_time":1591000000000,"state":"active","ping":77},{"user_id":250,"name":"sloth (be nice im cringe)","steam_id":76561198047098172,"connected_time":2821000000000,"state":"active","ping":66},{"user_id":279,"name":"sunglasses","steam_id":76561198173747227,"connected_time":1322000000000,"state":"active","ping":59},{"user_id":289,"name":"A Shiny Meat Bicycle","steam_id":76561198358757709,"connected_time":19000000000,"state":"active","ping":96},{"user_id":268,"name":"mcdonalds creatura","steam_id":76561198204641019,"connected_time":1882000000000,"state":"active","ping":72},{"user_id":265,"name":"Dexidus","steam_id":76561198021840495,"connected_time":1922000000000,"state":"active","ping":63},{"user_id":276,"name":"GreekGoat_Coffee","steam_id":76561198129331088,"connected_time":1415000000000,"state":"active","ping":45},{"user_id":275,"name":"BigBubble42","steam_id":76561198136286123,"connected_time":1574000000000,"state":"active","ping":59},{"user_id":285,"name":"ultralisk52","steam_id":76561198051666604,"connected_time":549000000000,"state":"active","ping":61},{"user_id":238,"name":"Sir.TopHats","steam_id":76561198267326839,"connected_time":4382000000000,"state":"active","ping":95},{"user_id":254,"name":"Crisp","steam_id":76561198132644084,"connected_time":2396000000000,"state":"active","ping":72},{"user_id":252,"name":"HemoTox","steam_id":76561197999713466,"connected_time":2719000000000,"state":"active","ping":69},{"user_id":283,"name":"reis","steam_id":76561199232952016,"connected_time":857000000000,"state":"active","ping":177}]},{"server_id":36,"name":"Uncletopia | Chicago | 5 | All Maps","name_short":"chi-5","host":"chi-2.us.uncletopia.com","port":27015,"enabled":true,"region":"us-central","cc":"us","latitude":41.881832,"longitude":-87.62318,"reserved":0,"last_update":"0001-01-01T00:00:00Z","name_a2s":"Uncletopia | Chicago | 5 | All Maps","protocol":17,"map":"pl_snowycoast","folder":"tf","game":"Team Fortress","app_id":440,"player_count":24,"max_players":24,"Bots":0,"server_type":"Dedicated","server_os":"Linux","password":true,"vac":true,"version":"7961495","steam_id":85568392924866362,"keywords":["nocrits","nodmgspread","payload","uncletopia"],"game_id":440,"stv_port":27016,"stv_name":"Uncletopia | Chicago | 5 | All Maps | STV","players":[{"user_id":245,"name":"Robot Rocker","steam_id":76561198050718267,"connected_time":941000000000,"state":"active","ping":63},{"user_id":207,"name":"flappyflap2","steam_id":76561198285048973,"connected_time":3850000000000,"state":"active","ping":60},{"user_id":261,"name":"SkeletonMeat","steam_id":76561198880490366,"connected_time":139000000000,"state":"active","ping":75},{"user_id":246,"name":"Engiknight","steam_id":76561198161885201,"connected_time":937000000000,"state":"active","ping":103},{"user_id":134,"name":"Piyono","steam_id":76561197962188504,"connected_time":10623000000000,"state":"active","ping":71},{"user_id":247,"name":"ThiccyBoi","steam_id":76561198836540230,"connected_time":924000000000,"state":"active","ping":49},{"user_id":262,"name":"ùíÜùíóùíäùíçArnoldGamingÔæ†","steam_id":76561198040140247,"connected_time":116000000000,"state":"active","ping":96},{"user_id":172,"name":"MR SKELTAL","steam_id":76561198031089598,"connected_time":7113000000000,"state":"active","ping":73},{"user_id":237,"name":"calico","steam_id":76561198296286887,"connected_time":1178000000000,"state":"active","ping":69},{"user_id":263,"name":"Thequirka","steam_id":76561198968058652,"connected_time":98000000000,"state":"active","ping":92},{"user_id":220,"name":"Jousty","steam_id":76561199162677853,"connected_time":2520000000000,"state":"active","ping":94},{"user_id":223,"name":"Madeline (She/Her)","steam_id":76561198336551859,"connected_time":2402000000000,"state":"active","ping":93},{"user_id":259,"name":"Grand Piano Tuna","steam_id":76561198135137213,"connected_time":334000000000,"state":"active","ping":48},{"user_id":266,"name":"[12V] Marv","steam_id":76561198158638384,"connected_time":46000000000,"state":"active","ping":74},{"user_id":239,"name":"SlayingCube","steam_id":76561198359619383,"connected_time":1166000000000,"state":"active","ping":92},{"user_id":264,"name":"Kazul","steam_id":76561198014925555,"connected_time":96000000000,"state":"active","ping":55},{"user_id":244,"name":"OrangeSodaMachine","steam_id":76561198079230156,"connected_time":965000000000,"state":"active","ping":80},{"user_id":229,"name":"Rex","steam_id":76561198138365053,"connected_time":2150000000000,"state":"active","ping":145},{"user_id":228,"name":"Cspans","steam_id":76561198290316405,"connected_time":2256000000000,"state":"active","ping":103},{"user_id":257,"name":"Renegade","steam_id":76561198066847055,"connected_time":579000000000,"state":"active","ping":62},{"user_id":251,"name":"Free Form Jazz","steam_id":76561198185658191,"connected_time":844000000000,"state":"active","ping":49},{"user_id":265,"name":"S.N.A.F.U.","steam_id":76561197980128424,"connected_time":93000000000,"state":"active","ping":55},{"user_id":252,"name":"Refreshments, anyone?","steam_id":76561198011675372,"connected_time":836000000000,"state":"active","ping":114},{"user_id":260,"name":"Hasbug","steam_id":76561198306085208,"connected_time":292000000000,"state":"active","ping":86}]},{"server_id":37,"name":"Uncletopia | Chicago | 6 | All Maps","name_short":"chi-6","host":"chi-2.us.uncletopia.com","port":27025,"enabled":true,"region":"us-central","cc":"us","latitude":41.881832,"longitude":-87.62318,"reserved":0,"last_update":"0001-01-01T00:00:00Z","name_a2s":"Uncletopia | Chicago | 6 | All Maps","protocol":17,"map":"pl_barnblitz","folder":"tf","game":"Team Fortress","app_id":440,"player_count":24,"max_players":24,"Bots":0,"server_type":"Dedicated","server_os":"Linux","password":true,"vac":true,"version":"7961495","steam_id":85568392924866363,"keywords":["nocrits","nodmgspread","payload","uncletopia"],"game_id":440,"stv_port":27026,"stv_name":"Uncletopia | Chicago | 6 | All Maps | STV","players":[{"user_id":377,"name":"Fried Water?!","steam_id":76561198053164815,"connected_time":7785000000000,"state":"active","ping":63},{"user_id":449,"name":"Yung Settings","steam_id":76561198233126064,"connected_time":963000000000,"state":"active","ping":72},{"user_id":456,"name":"Goat","steam_id":76561198068447650,"connected_time":349000000000,"state":"active","ping":62},{"user_id":457,"name":"mxgic","steam_id":76561198354656195,"connected_time":326000000000,"state":"active","ping":123},{"user_id":433,"name":"SHADOW","steam_id":76561198207768148,"connected_time":3003000000000,"state":"active","ping":108},{"user_id":450,"name":"BlazingWaters","steam_id":76561198136322660,"connected_time":804000000000,"state":"active","ping":87},{"user_id":408,"name":"Ringo x Seiran","steam_id":76561198357437908,"connected_time":5414000000000,"state":"active","ping":74},{"user_id":451,"name":"Career","steam_id":76561198028542212,"connected_time":794000000000,"state":"active","ping":74},{"user_id":406,"name":"TransPuppygirlUp4Adoption","steam_id":76561198085813708,"connected_time":5432000000000,"state":"active","ping":69},{"user_id":458,"name":"Mischievous44","steam_id":76561198106532712,"connected_time":313000000000,"state":"active","ping":53},{"user_id":469,"name":"Fargo","steam_id":76561198044703931,"connected_time":9000000000,"state":"active","ping":73},{"user_id":460,"name":"Minmit__","steam_id":76561198218417512,"connected_time":285000000000,"state":"active","ping":92},{"user_id":463,"name":"a little guy","steam_id":76561198085888959,"connected_time":160000000000,"state":"active","ping":59},{"user_id":464,"name":"ExplosiveGamer21","steam_id":76561198132370955,"connected_time":90000000000,"state":"active","ping":105},{"user_id":429,"name":"deathgaming69","steam_id":76561198452547649,"connected_time":3945000000000,"state":"active","ping":60},{"user_id":465,"name":"KATSURB","steam_id":76561199172118456,"connected_time":46000000000,"state":"active","ping":60},{"user_id":378,"name":"Goldfire","steam_id":76561198061999410,"connected_time":7774000000000,"state":"active","ping":104},{"user_id":466,"name":"Gaymer God","steam_id":76561199170208946,"connected_time":43000000000,"state":"spawning","ping":135},{"user_id":467,"name":"Herr M√ºller","steam_id":76561198064876829,"connected_time":40000000000,"state":"active","ping":98},{"user_id":454,"name":"Mortal Flame","steam_id":76561198130698418,"connected_time":678000000000,"state":"active","ping":83},{"user_id":447,"name":"Worst Scenario","steam_id":76561199052130229,"connected_time":1371000000000,"state":"active","ping":61},{"user_id":452,"name":"Cordial_Lump","steam_id":76561198027777950,"connected_time":779000000000,"state":"active","ping":85},{"user_id":398,"name":"Egg","steam_id":76561198028157625,"connected_time":5845000000000,"state":"active","ping":86},{"user_id":468,"name":"when the","steam_id":76561198091875604,"connected_time":12000000000,"state":"spawning","ping":91}]},{"server_id":38,"name":"Uncletopia | Chicago | 7 | Stopwatch","name_short":"chi-7","host":"chi-2.us.uncletopia.com","port":27035,"enabled":true,"region":"us-central","cc":"us","latitude":41.881832,"longitude":-87.62318,"reserved":0,"last_update":"0001-01-01T00:00:00Z","name_a2s":"Uncletopia | Chicago | 7 | Stopwatch","protocol":17,"map":"workshop/koth_bagel_rc6.ugc2514036946","folder":"tf","game":"Team Fortress","app_id":440,"player_count":20,"max_players":24,"Bots":0,"server_type":"Dedicated","server_os":"Linux","password":true,"vac":true,"version":"7961495","steam_id":85568392924866364,"keywords":["nocrits","nodmgspread","payload","uncletopia"],"game_id":440,"stv_port":27036,"stv_name":"Uncletopia | Chicago | 7 | Stopwatch | STV","players":[{"user_id":328,"name":"Monsterjessy","steam_id":76561198035630985,"connected_time":3888000000000,"state":"connecting","ping":79},{"user_id":337,"name":"kicks","steam_id":76561199228854923,"connected_time":3515000000000,"state":"connecting","ping":64},{"user_id":314,"name":"Squid","steam_id":76561198142873471,"connected_time":4653000000000,"state":"connecting","ping":87},{"user_id":370,"name":"Robert","steam_id":76561198133200895,"connected_time":249000000000,"state":"connecting","ping":62},{"user_id":354,"name":"Exetior","steam_id":76561198978688451,"connected_time":2313000000000,"state":"connecting","ping":94},{"user_id":369,"name":"NOBODY","steam_id":76561198094578887,"connected_time":344000000000,"state":"connecting","ping":65},{"user_id":355,"name":"Maxini_","steam_id":76561198041077011,"connected_time":2222000000000,"state":"connecting","ping":76},{"user_id":315,"name":"A Good Boy","steam_id":76561198066998594,"connected_time":4633000000000,"state":"connecting","ping":96},{"user_id":378,"name":"zed","steam_id":76561199497336208,"connected_time":17000000000,"state":"connecting","ping":65},{"user_id":367,"name":"Fireman","steam_id":76561198822436433,"connected_time":543000000000,"state":"connecting","ping":73},{"user_id":375,"name":"Jaguar -ringme","steam_id":76561197971152439,"connected_time":140000000000,"state":"connecting","ping":90},{"user_id":330,"name":"PabloDukie64","steam_id":76561198274893147,"connected_time":3847000000000,"state":"connecting","ping":85},{"user_id":374,"name":"Diplodocus","steam_id":76561198023323121,"connected_time":194000000000,"state":"connecting","ping":119},{"user_id":365,"name":"Vince_Fiction","steam_id":76561198038929456,"connected_time":1096000000000,"state":"connecting","ping":76},{"user_id":356,"name":"BL√òRG","steam_id":76561198036126673,"connected_time":2119000000000,"state":"connecting","ping":91},{"user_id":345,"name":"tavvy","steam_id":76561198266284864,"connected_time":3062000000000,"state":"connecting","ping":147},{"user_id":364,"name":"Xenoblade Chronicles 3 DLC","steam_id":76561198003897012,"connected_time":1116000000000,"state":"connecting","ping":90},{"user_id":366,"name":"Nespreco","steam_id":76561198252035336,"connected_time":627000000000,"state":"connecting","ping":58},{"user_id":320,"name":"Eustace \"CA$H MONEY\" Bagge","steam_id":76561198154022811,"connected_time":4531000000000,"state":"connecting","ping":76}]},{"server_id":39,"name":"Uncletopia | Chicago | 8 | Community","name_short":"chi-8","host":"chi-2.us.uncletopia.com","port":27045,"enabled":true,"region":"us-central","cc":"us","latitude":41.881832,"longitude":-87.62318,"reserved":0,"last_update":"0001-01-01T00:00:00Z","name_a2s":"Uncletopia | Chicago | 8 | Community","protocol":17,"map":"workshop/koth_ashville_final.ugc2130459942","folder":"tf","game":"Team Fortress","app_id":440,"player_count":0,"max_players":24,"Bots":0,"server_type":"Dedicated","server_os":"Linux","password":true,"vac":true,"version":"7961495","steam_id":85568392924866365,"keywords":["cp","nocrits","nodmgspread","uncletopia"],"game_id":440,"stv_port":27046,"stv_name":"Uncletopia | Chicago | 8 | Community | STV","players":null},{"server_id":8,"name":"Uncletopia | Dallas | 1 | All Maps","name_short":"dal-1","host":"dal-1.us.uncletopia.com","port":27015,"enabled":true,"region":"us-central","cc":"us","latitude":32.779167,"longitude":-96.80889,"reserved":0,"last_update":"0001-01-01T00:00:00Z","name_a2s":"Uncletopia | Dallas | 1 | All Maps","protocol":17,"map":"koth_highpass","folder":"tf","game":"Team Fortress","app_id":440,"player_count":24,"max_players":24,"Bots":0,"server_type":"Dedicated","server_os":"Linux","password":true,"vac":true,"version":"7961495","steam_id":85568392924469986,"keywords":["cp","nocrits","nodmgspread","uncletopia"],"game_id":440,"stv_port":27016,"stv_name":"Uncletopia | Dallas | 1 | All Maps | STV","players":[{"user_id":482,"name":"FiddyFoMike","steam_id":76561198057072581,"connected_time":1515000000000,"state":"active","ping":90},{"user_id":502,"name":"Meiji","steam_id":76561198971753591,"connected_time":58000000000,"state":"active","ping":93},{"user_id":488,"name":"Bigfoot ate my ass","steam_id":76561198071605190,"connected_time":874000000000,"state":"active","ping":71},{"user_id":396,"name":"sapphoroth","steam_id":76561198062263639,"connected_time":8854000000000,"state":"active","ping":54},{"user_id":484,"name":"TheGFG","steam_id":76561198166150556,"connected_time":1486000000000,"state":"active","ping":67},{"user_id":479,"name":"ronny","steam_id":76561197994180230,"connected_time":1707000000000,"state":"active","ping":51},{"user_id":465,"name":"Rob","steam_id":76561199187786660,"connected_time":2992000000000,"state":"active","ping":53},{"user_id":501,"name":"corviraptor (bison sweep)","steam_id":76561198058284392,"connected_time":116000000000,"state":"active","ping":48},{"user_id":459,"name":"GLG.Liz","steam_id":76561198021957956,"connected_time":3176000000000,"state":"active","ping":46},{"user_id":495,"name":"Caught a Thundah","steam_id":76561198054495572,"connected_time":451000000000,"state":"active","ping":53},{"user_id":489,"name":"PiolaCat","steam_id":76561199100535345,"connected_time":856000000000,"state":"active","ping":103},{"user_id":483,"name":"HalfDead","steam_id":76561198049700226,"connected_time":1515000000000,"state":"active","ping":100},{"user_id":497,"name":"mel","steam_id":76561198019820977,"connected_time":391000000000,"state":"active","ping":46},{"user_id":434,"name":"LampMan","steam_id":76561198079857527,"connected_time":5276000000000,"state":"active","ping":58},{"user_id":397,"name":"Imrgrim","steam_id":76561198135866481,"connected_time":8656000000000,"state":"active","ping":63},{"user_id":498,"name":"DragonHunter994","steam_id":76561199076203907,"connected_time":317000000000,"state":"active","ping":64},{"user_id":472,"name":"mushrom","steam_id":76561198026563351,"connected_time":2093000000000,"state":"active","ping":78},{"user_id":467,"name":"ICBMonkey","steam_id":76561198033351821,"connected_time":2876000000000,"state":"active","ping":68},{"user_id":499,"name":"Keegs","steam_id":76561198346917831,"connected_time":287000000000,"state":"active","ping":72},{"user_id":477,"name":"ZILICON","steam_id":76561199044705592,"connected_time":1822000000000,"state":"active","ping":112},{"user_id":490,"name":"fried rice","steam_id":76561198928939100,"connected_time":843000000000,"state":"active","ping":76},{"user_id":500,"name":"Kdash","steam_id":76561198043829155,"connected_time":284000000000,"state":"active","ping":58},{"user_id":492,"name":"Lutz","steam_id":76561198319233787,"connected_time":787000000000,"state":"active","ping":98},{"user_id":485,"name":"TheFunnySauce","steam_id":76561198174336057,"connected_time":1480000000000,"state":"active","ping":99}]},{"server_id":108,"name":"Uncletopia | Dallas | 2 | All Maps","name_short":"dal-2","host":"dal-1.us.uncletopia.com","port":27025,"enabled":true,"region":"us-central","cc":"us","latitude":32.779167,"longitude":-96.80889,"reserved":0,"last_update":"0001-01-01T00:00:00Z","name_a2s":"Uncletopia | Dallas | 2 | All Maps","protocol":17,"map":"cp_dustbowl","folder":"tf","game":"Team Fortress","app_id":440,"player_count":24,"max_players":24,"Bots":0,"server_type":"Dedicated","server_os":"Linux","password":true,"vac":true,"version":"7961495","steam_id":85568392924469988,"keywords":["cp","nocrits","nodmgspread","uncletopia"],"game_id":440,"stv_port":27026,"stv_name":"Uncletopia | Dallas | 2 | All Maps | STV","players":[{"user_id":865,"name":"„Äå E A S Y  G A M E ! ! ! „Äç","steam_id":76561198014847059,"connected_time":173000000000,"state":"active","ping":119},{"user_id":850,"name":"Limitless","steam_id":76561198057139998,"connected_time":1429000000000,"state":"active","ping":55},{"user_id":823,"name":"Yapple Dapple","steam_id":76561198082422815,"connected_time":2958000000000,"state":"active","ping":61},{"user_id":836,"name":"StudioMania (#SAVETF2)","steam_id":76561198211315795,"connected_time":2226000000000,"state":"active","ping":75},{"user_id":754,"name":"Major Woody","steam_id":76561198835541533,"connected_time":5949000000000,"state":"active","ping":63},{"user_id":853,"name":"EvilPi99let","steam_id":76561197987243470,"connected_time":1248000000000,"state":"active","ping":75},{"user_id":826,"name":"tiernan330","steam_id":76561198271912722,"connected_time":2724000000000,"state":"active","ping":96},{"user_id":855,"name":"the pest","steam_id":76561198826298849,"connected_time":892000000000,"state":"active","ping":91},{"user_id":814,"name":"Caboose","steam_id":76561198215451935,"connected_time":3489000000000,"state":"active","ping":53},{"user_id":807,"name":"TwinkGaming(Jerma)","steam_id":76561197972835907,"connected_time":3845000000000,"state":"active","ping":84},{"user_id":856,"name":"mellowhype","steam_id":76561198040675606,"connected_time":787000000000,"state":"active","ping":47},{"user_id":862,"name":"meggie","steam_id":76561198038291026,"connected_time":361000000000,"state":"active","ping":33},{"user_id":760,"name":"Ominous Whir","steam_id":76561198002851724,"connected_time":5758000000000,"state":"active","ping":44},{"user_id":831,"name":"firesaiyan12","steam_id":76561199224724490,"connected_time":2438000000000,"state":"active","ping":108},{"user_id":852,"name":"SkoranShogun","steam_id":76561198091811218,"connected_time":1260000000000,"state":"active","ping":82},{"user_id":860,"name":"◊ú◊°◊ë◊ï◊ú ◊õ◊û◊ï ◊©◊ê◊†◊ô ◊°◊ë","steam_id":76561198021308963,"connected_time":596000000000,"state":"active","ping":62},{"user_id":827,"name":"-RŒª“âinyCloudCore","steam_id":76561198028799685,"connected_time":2649000000000,"state":"active","ping":116},{"user_id":847,"name":"Timur","steam_id":76561197989552257,"connected_time":1977000000000,"state":"active","ping":67},{"user_id":861,"name":"Inflation Jumpscare","steam_id":76561198137862444,"connected_time":580000000000,"state":"active","ping":47},{"user_id":858,"name":"spunch bub","steam_id":76561198326658210,"connected_time":744000000000,"state":"active","ping":73},{"user_id":812,"name":"StoicalSynz","steam_id":76561198355290984,"connected_time":3730000000000,"state":"active","ping":95},{"user_id":845,"name":"Beefboss_plays","steam_id":76561199454237265,"connected_time":2137000000000,"state":"active","ping":90},{"user_id":863,"name":"Doper","steam_id":76561198880448336,"connected_time":360000000000,"state":"active","ping":65},{"user_id":817,"name":"Soviet Potato","steam_id":76561198068546113,"connected_time":3320000000000,"state":"active","ping":83}]},{"server_id":404,"name":"Uncletopia | Dallas | 3 | All Maps","name_short":"dal-3","host":"dal-1.us.uncletopia.com","port":27035,"enabled":true,"region":"us-central","cc":"us","latitude":32.779167,"longitude":-96.80889,"reserved":0,"last_update":"0001-01-01T00:00:00Z","name_a2s":"Uncletopia | Dallas | 3 | All Maps","protocol":17,"map":"koth_harvest_final","folder":"tf","game":"Team Fortress","app_id":440,"player_count":22,"max_players":24,"Bots":0,"server_type":"Dedicated","server_os":"Linux","password":true,"vac":true,"version":"7961495","steam_id":85568392924515219,"keywords":["cp","nocrits","nodmgspread","uncletopia"],"game_id":440,"stv_port":27036,"stv_name":"Uncletopia | Dallas | 3 | All Maps | STV","players":[{"user_id":250,"name":"dicksnip","steam_id":76561198356515396,"connected_time":875000000000,"state":"active","ping":55},{"user_id":249,"name":"jasus","steam_id":76561198088035919,"connected_time":1444000000000,"state":"active","ping":98},{"user_id":200,"name":"Luky","steam_id":76561198970778850,"connected_time":6693000000000,"state":"active","ping":72},{"user_id":251,"name":"Iron Argus","steam_id":76561198181088245,"connected_time":740000000000,"state":"active","ping":88},{"user_id":262,"name":"Kamin","steam_id":76561198255299559,"connected_time":73000000000,"state":"active","ping":59},{"user_id":255,"name":"Casuallyanidiot","steam_id":76561199119545568,"connected_time":617000000000,"state":"active","ping":98},{"user_id":201,"name":"Starlotte","steam_id":76561198204734477,"connected_time":6692000000000,"state":"active","ping":98},{"user_id":234,"name":"RoseaVenefica","steam_id":76561198020660560,"connected_time":2807000000000,"state":"active","ping":45},{"user_id":237,"name":"meat.","steam_id":76561198256154493,"connected_time":2395000000000,"state":"active","ping":86},{"user_id":246,"name":"Ulysses  a.D.","steam_id":76561198070493483,"connected_time":1664000000000,"state":"active","ping":80},{"user_id":222,"name":"Emberformula","steam_id":76561198171526119,"connected_time":4769000000000,"state":"active","ping":60},{"user_id":254,"name":"merlin","steam_id":76561198334511480,"connected_time":679000000000,"state":"active","ping":71},{"user_id":220,"name":"An Engineer","steam_id":76561198110381643,"connected_time":5270000000000,"state":"active","ping":48},{"user_id":181,"name":"HundchenTanque","steam_id":76561198122692754,"connected_time":8236000000000,"state":"active","ping":85},{"user_id":256,"name":"Asanez3","steam_id":76561198037381436,"connected_time":533000000000,"state":"active","ping":102},{"user_id":258,"name":"captengreen789","steam_id":76561199210416968,"connected_time":401000000000,"state":"active","ping":71},{"user_id":230,"name":"Orca?","steam_id":76561198164341099,"connected_time":3900000000000,"state":"active","ping":73},{"user_id":260,"name":"grey","steam_id":76561198067910800,"connected_time":189000000000,"state":"active","ping":74},{"user_id":241,"name":"Coffeemelon","steam_id":76561198285891257,"connected_time":2219000000000,"state":"active","ping":107},{"user_id":152,"name":"High Tier Mortal","steam_id":76561198138347045,"connected_time":8740000000000,"state":"active","ping":75},{"user_id":232,"name":"Si1entSn1pa","steam_id":76561198170095479,"connected_time":2958000000000,"state":"active","ping":85},{"user_id":261,"name":"Got Hat?","steam_id":76561197998486431,"connected_time":188000000000,"state":"active","ping":80}]},{"server_id":405,"name":"Uncletopia | Dallas | 4 | Community","name_short":"dal-4","host":"dal-1.us.uncletopia.com","port":27045,"enabled":true,"region":"us-central","cc":"us","latitude":32.779167,"longitude":-96.80889,"reserved":0,"last_update":"0001-01-01T00:00:00Z","name_a2s":"Uncletopia | Dallas | 4 | Community","protocol":17,"map":"workshop/pl_corrode_rc2.ugc546577989","folder":"tf","game":"Team Fortress","app_id":440,"player_count":22,"max_players":24,"Bots":0,"server_type":"Dedicated","server_os":"Linux","password":true,"vac":true,"version":"7961495","steam_id":85568392924515220,"keywords":["nocrits","nodmgspread","payload","uncletopia"],"game_id":440,"stv_port":27046,"stv_name":"Uncletopia | Dallas | 4 | Community | STV","players":[{"user_id":92,"name":"piss gaming","steam_id":76561198002280184,"connected_time":881000000000,"state":"active","ping":94},{"user_id":69,"name":"Splunk","steam_id":76561198967046704,"connected_time":3043000000000,"state":"active","ping":97},{"user_id":86,"name":"webaline  =Ôºæ‚óè ‚ãè ‚óèÔºæ=","steam_id":76561199052450127,"connected_time":1658000000000,"state":"active","ping":78},{"user_id":40,"name":"David Hasseloof","steam_id":76561198070864553,"connected_time":4645000000000,"state":"active","ping":101},{"user_id":88,"name":"Starkiller","steam_id":76561198101643120,"connected_time":1297000000000,"state":"active","ping":101},{"user_id":42,"name":"Sailor Galaxy Planet Man","steam_id":76561198039569373,"connected_time":4575000000000,"state":"active","ping":75},{"user_id":43,"name":"Silly Shark","steam_id":76561198130714378,"connected_time":4423000000000,"state":"active","ping":116},{"user_id":77,"name":"No. 1 Crate","steam_id":76561198232539068,"connected_time":2089000000000,"state":"active","ping":80},{"user_id":41,"name":"Tylorde","steam_id":76561198044086991,"connected_time":4641000000000,"state":"active","ping":80},{"user_id":93,"name":"framp down","steam_id":76561198006316527,"connected_time":843000000000,"state":"active","ping":78},{"user_id":81,"name":"bumperdo09","steam_id":76561198413648425,"connected_time":1894000000000,"state":"active","ping":68},{"user_id":94,"name":"Auxientios","steam_id":76561198232952908,"connected_time":782000000000,"state":"active","ping":65},{"user_id":38,"name":"womthedom","steam_id":76561198088768287,"connected_time":4682000000000,"state":"active","ping":71},{"user_id":68,"name":"Everlongsword","steam_id":76561198843311945,"connected_time":3071000000000,"state":"active","ping":100},{"user_id":96,"name":"Hatsune Miku IRL","steam_id":76561198023770512,"connected_time":639000000000,"state":"active","ping":67},{"user_id":74,"name":"RC","steam_id":76561198048127881,"connected_time":2317000000000,"state":"active","ping":60},{"user_id":100,"name":"Die-Sas","steam_id":76561198987794008,"connected_time":73000000000,"state":"active","ping":81},{"user_id":98,"name":"green bean","steam_id":76561198113099204,"connected_time":513000000000,"state":"active","ping":75},{"user_id":82,"name":"TreyR9","steam_id":76561198371945057,"connected_time":1888000000000,"state":"active","ping":67},{"user_id":91,"name":"PENIRP","steam_id":76561198282416087,"connected_time":1026000000000,"state":"active","ping":81},{"user_id":99,"name":"skegeton","steam_id":76561198095581099,"connected_time":492000000000,"state":"active","ping":62},{"user_id":85,"name":"[EASY] Necie","steam_id":76561198193908728,"connected_time":1725000000000,"state":"active","ping":90}]},{"server_id":5,"name":"Uncletopia | Frankfurt | 1 | All Maps","name_short":"frk-1","host":"frk-1.de.uncletopia.com","port":27015,"enabled":true,"region":"eu","cc":"de","latitude":50.110924,"longitude":8.682127,"reserved":0,"last_update":"0001-01-01T00:00:00Z","name_a2s":"Uncletopia | Frankfurt | 1 | All Maps","protocol":17,"map":"koth_highpass","folder":"tf","game":"Team Fortress","app_id":440,"player_count":0,"max_players":24,"Bots":0,"server_type":"Dedicated","server_os":"Linux","password":true,"vac":true,"version":"7961495","steam_id":85568392924469989,"keywords":["cp","nocrits","nodmgspread","uncletopia"],"game_id":440,"stv_port":27016,"stv_name":"Uncletopia | Frankfurt | 1 | All Maps | STV","players":null},{"server_id":110,"name":"Uncletopia | Frankfurt | 2 | All Maps","name_short":"frk-2","host":"frk-1.de.uncletopia.com","port":27025,"enabled":true,"region":"eu","cc":"de","latitude":50.110924,"longitude":8.682127,"reserved":0,"last_update":"0001-01-01T00:00:00Z","name_a2s":"Uncletopia | Frankfurt | 2 | All Maps","protocol":17,"map":"cp_sunshine","folder":"tf","game":"Team Fortress","app_id":440,"player_count":0,"max_players":24,"Bots":0,"server_type":"Dedicated","server_os":"Linux","password":true,"vac":true,"version":"7961495","steam_id":85568392924469990,"keywords":["cp","nocrits","nodmgspread","uncletopia"],"game_id":440,"stv_port":27026,"stv_name":"Uncletopia | Frankfurt | 2 | All Maps | STV","players":null},{"server_id":308,"name":"Uncletopia | Frankfurt | 3 | All Maps","name_short":"frk-3","host":"frk-1.de.uncletopia.com","port":27035,"enabled":true,"region":"eu","cc":"de","latitude":50.110924,"longitude":8.682127,"reserved":0,"last_update":"0001-01-01T00:00:00Z","name_a2s":"Uncletopia | Frankfurt | 3 | All Maps","protocol":17,"map":"koth_cascade","folder":"tf","game":"Team Fortress","app_id":440,"player_count":0,"max_players":24,"Bots":0,"server_type":"Dedicated","server_os":"Linux","password":true,"vac":true,"version":"7961495","steam_id":85568392924504274,"keywords":["cp","nocrits","nodmgspread","uncletopia"],"game_id":440,"stv_port":27036,"stv_name":"Uncletopia | Frankfurt | 3 | All Maps | STV","players":null},{"server_id":309,"name":"Uncletopia | Frankfurt | 4 | All Maps","name_short":"frk-4","host":"frk-1.de.uncletopia.com","port":27045,"enabled":true,"region":"eu","cc":"de","latitude":50.110924,"longitude":8.682127,"reserved":0,"last_update":"0001-01-01T00:00:00Z","name_a2s":"Uncletopia | Frankfurt | 4 | All Maps","protocol":17,"map":"pl_frontier_final","folder":"tf","game":"Team Fortress","app_id":440,"player_count":0,"max_players":24,"Bots":0,"server_type":"Dedicated","server_os":"Linux","password":true,"vac":true,"version":"7961495","steam_id":85568392924504275,"keywords":["nocrits","nodmgspread","payload","uncletopia"],"game_id":440,"stv_port":27046,"stv_name":"Uncletopia | Frankfurt | 4 | All Maps | STV","players":null},{"server_id":310,"name":"Uncletopia | Frankfurt | 5 | All Maps","name_short":"frk-5","host":"frk-1.de.uncletopia.com","port":27055,"enabled":true,"region":"eu","cc":"de","latitude":50.110924,"longitude":8.682127,"reserved":0,"last_update":"0001-01-01T00:00:00Z","name_a2s":"Uncletopia | Frankfurt | 5 | All Maps","protocol":17,"map":"cp_altitude","folder":"tf","game":"Team Fortress","app_id":440,"player_count":0,"max_players":24,"Bots":0,"server_type":"Dedicated","server_os":"Linux","password":true,"vac":true,"version":"7961495","steam_id":85568392924504277,"keywords":["cp","nocrits","nodmgspread","uncletopia"],"game_id":440,"stv_port":27056,"stv_name":"Uncletopia | Frankfurt | 5 | All Maps | STV","players":null},{"server_id":311,"name":"Uncletopia | Frankfurt | 6 | All Maps","name_short":"frk-6","host":"frk-1.de.uncletopia.com","port":27065,"enabled":true,"region":"eu","cc":"de","latitude":50.110924,"longitude":8.682127,"reserved":0,"last_update":"0001-01-01T00:00:00Z","name_a2s":"Uncletopia | Frankfurt | 6 | All Maps","protocol":17,"map":"plr_bananabay","folder":"tf","game":"Team Fortress","app_id":440,"player_count":0,"max_players":24,"Bots":0,"server_type":"Dedicated","server_os":"Linux","password":true,"vac":true,"version":"7961495","steam_id":85568392924504278,"keywords":["nocrits","nodmgspread","payload","uncletopia"],"game_id":440,"stv_port":27066,"stv_name":"Uncletopia | Frankfurt | 6 | All Maps | STV","players":null},{"server_id":23,"name":"Uncletopia | Frankfurt | 7 | Stopwatch","name_short":"frk-7","host":"frk-1.de.uncletopia.com","port":27075,"enabled":true,"region":"eu","cc":"de","latitude":50.110924,"longitude":8.682127,"reserved":0,"last_update":"0001-01-01T00:00:00Z","name_a2s":"Uncletopia | Frankfurt | 7 | Stopwatch","protocol":17,"map":"workshop/pl_barnblitz_pro7.ugc582280235","folder":"tf","game":"Team Fortress","app_id":440,"player_count":0,"max_players":24,"Bots":0,"server_type":"Dedicated","server_os":"Linux","password":true,"vac":true,"version":"7961495","steam_id":85568392924742827,"keywords":["nocrits","nodmgspread","payload","uncletopia"],"game_id":440,"stv_port":27076,"stv_name":"Uncletopia | Frankfurt | 7 | Stopwatch | STV","players":null},{"server_id":24,"name":"Uncletopia | Frankfurt | 8 | Community","name_short":"frk-8","host":"frk-1.de.uncletopia.com","port":27085,"enabled":true,"region":"eu","cc":"de","latitude":50.110924,"longitude":8.682127,"reserved":0,"last_update":"0001-01-01T00:00:00Z","name_a2s":"Uncletopia | Frankfurt | 8 | Community","protocol":17,"map":"workshop/koth_ramjam_rc1.ugc459778887","folder":"tf","game":"Team Fortress","app_id":440,"player_count":0,"max_players":24,"Bots":0,"server_type":"Dedicated","server_os":"Linux","password":true,"vac":true,"version":"7961495","steam_id":85568392924742828,"keywords":["cp","nocrits","nodmgspread","uncletopia"],"game_id":440,"stv_port":27086,"stv_name":"Uncletopia | Frankfurt | 8 | Community | STV","players":null},{"server_id":202,"name":"Uncletopia | Hong Kong | 1 | All Maps","name_short":"hgk-1","host":"hgk-1.hk.uncletopia.com","port":27015,"enabled":true,"region":"asia","cc":"hk","latitude":22.302711,"longitude":114.177216,"reserved":0,"last_update":"0001-01-01T00:00:00Z","name_a2s":"Uncletopia | Hong Kong | 1 | All Maps","protocol":17,"map":"pl_borneo","folder":"tf","game":"Team Fortress","app_id":440,"player_count":0,"max_players":24,"Bots":0,"server_type":"Dedicated","server_os":"Linux","password":true,"vac":true,"version":"7961495","steam_id":85568392924494504,"keywords":["nocrits","nodmgspread","payload","uncletopia"],"game_id":440,"stv_port":27016,"stv_name":"Uncletopia | Hong Kong | 1 | All Maps | STV","players":null},{"server_id":1,"name":"Uncletopia | Los Angeles | 1 | All Maps","name_short":"lax-1","host":"lax-1.us.uncletopia.com","port":27015,"enabled":true,"region":"us-west","cc":"us","latitude":33.94279,"longitude":-118.41004,"reserved":0,"last_update":"0001-01-01T00:00:00Z","name_a2s":"Uncletopia | Los Angeles | 1 | All Maps","protocol":17,"map":"koth_highpass","folder":"tf","game":"Team Fortress","app_id":440,"player_count":24,"max_players":24,"Bots":0,"server_type":"Dedicated","server_os":"Linux","password":true,"vac":true,"version":"7961495","steam_id":85568392924469991,"keywords":["cp","nocrits","nodmgspread","uncletopia"],"game_id":440,"stv_port":27016,"stv_name":"Uncletopia | Los Angeles | 1 | All Maps | STV","players":[{"user_id":164,"name":"Seshreb","steam_id":76561198846614634,"connected_time":1978000000000,"state":"active","ping":59},{"user_id":142,"name":"DerpyNate","steam_id":76561198100249037,"connected_time":4397000000000,"state":"active","ping":78},{"user_id":176,"name":"R3S0LVE_","steam_id":76561198389201130,"connected_time":1263000000000,"state":"active","ping":54},{"user_id":177,"name":"Starmind","steam_id":76561198112444568,"connected_time":1232000000000,"state":"active","ping":138},{"user_id":116,"name":"Captain Underbelly","steam_id":76561198811270935,"connected_time":4850000000000,"state":"active","ping":123},{"user_id":183,"name":"Whapper","steam_id":76561198044029606,"connected_time":1107000000000,"state":"active","ping":68},{"user_id":162,"name":"fertile moist and well drained","steam_id":76561198031409921,"connected_time":2166000000000,"state":"active","ping":53},{"user_id":186,"name":"Bloodgoat","steam_id":76561198047407295,"connected_time":658000000000,"state":"active","ping":70},{"user_id":187,"name":"Part-Time Pybro","steam_id":76561198079508595,"connected_time":617000000000,"state":"active","ping":75},{"user_id":195,"name":"Droozlex","steam_id":76561198157221366,"connected_time":301000000000,"state":"active","ping":70},{"user_id":185,"name":"Zobozo","steam_id":76561198028954297,"connected_time":683000000000,"state":"active","ping":45},{"user_id":179,"name":"Ice","steam_id":76561198045076794,"connected_time":1199000000000,"state":"active","ping":101},{"user_id":140,"name":"Maximum Flame","steam_id":76561198073682529,"connected_time":4506000000000,"state":"active","ping":98},{"user_id":121,"name":"Hazeyboi","steam_id":76561198130687838,"connected_time":4777000000000,"state":"active","ping":91},{"user_id":188,"name":"Beepo","steam_id":76561198000692261,"connected_time":606000000000,"state":"active","ping":110},{"user_id":148,"name":"snail2646","steam_id":76561198061411251,"connected_time":4090000000000,"state":"active","ping":90},{"user_id":180,"name":"small meth pouch","steam_id":76561198130412963,"connected_time":1168000000000,"state":"active","ping":73},{"user_id":189,"name":"brotalium","steam_id":76561198055439054,"connected_time":604000000000,"state":"active","ping":114},{"user_id":190,"name":"Captain Frank","steam_id":76561198802143478,"connected_time":593000000000,"state":"active","ping":104},{"user_id":196,"name":"Mr. Noodle","steam_id":76561198025280658,"connected_time":208000000000,"state":"active","ping":54},{"user_id":193,"name":"NEBULA","steam_id":76561198086878595,"connected_time":533000000000,"state":"active","ping":64},{"user_id":155,"name":"duncaidan","steam_id":76561199013510313,"connected_time":2589000000000,"state":"active","ping":57},{"user_id":194,"name":"thunderous prophet","steam_id":76561198131166135,"connected_time":524000000000,"state":"active","ping":60},{"user_id":182,"name":"mrthugpug1732","steam_id":76561198881200768,"connected_time":1152000000000,"state":"active","ping":114}]},{"server_id":112,"name":"Uncletopia | Los Angeles | 2 | All Maps","name_short":"lax-2","host":"lax-1.us.uncletopia.com","port":27025,"enabled":true,"region":"us-west","cc":"us","latitude":33.94279,"longitude":-118.41004,"reserved":0,"last_update":"0001-01-01T00:00:00Z","name_a2s":"Uncletopia | Los Angeles | 2 | All Maps","protocol":17,"map":"pl_upward","folder":"tf","game":"Team Fortress","app_id":440,"player_count":18,"max_players":24,"Bots":0,"server_type":"Dedicated","server_os":"Linux","password":true,"vac":true,"version":"7961495","steam_id":85568392924469992,"keywords":["nocrits","nodmgspread","payload","uncletopia"],"game_id":440,"stv_port":27026,"stv_name":"Uncletopia | Los Angeles | 2 | All Maps | STV","players":[{"user_id":294,"name":"Vaccine Eater","steam_id":76561198026301425,"connected_time":3894000000000,"state":"active","ping":51},{"user_id":338,"name":"Pile of Spinach","steam_id":76561198043068841,"connected_time":540000000000,"state":"active","ping":60},{"user_id":315,"name":"Fred McFrizzle","steam_id":76561198085117424,"connected_time":1846000000000,"state":"active","ping":76},{"user_id":331,"name":"American freedom bird","steam_id":76561198366142388,"connected_time":1168000000000,"state":"active","ping":58},{"user_id":344,"name":"FezRequiem","steam_id":76561198070066667,"connected_time":7000000000,"state":"spawning","ping":52},{"user_id":313,"name":"Nameplate55","steam_id":76561199072581803,"connected_time":2285000000000,"state":"active","ping":90},{"user_id":343,"name":"Atrix","steam_id":76561198084930312,"connected_time":58000000000,"state":"active","ping":54},{"user_id":332,"name":"Beavyboi","steam_id":76561199123604469,"connected_time":1135000000000,"state":"active","ping":106},{"user_id":329,"name":"moth","steam_id":76561199214894158,"connected_time":1248000000000,"state":"active","ping":60},{"user_id":275,"name":"Ralph Kramden (Slim Charles)","steam_id":76561197981687895,"connected_time":5038000000000,"state":"active","ping":59},{"user_id":334,"name":"tum","steam_id":76561198084712019,"connected_time":1036000000000,"state":"active","ping":52},{"user_id":341,"name":"Carne Asada?","steam_id":76561198157252638,"connected_time":68000000000,"state":"connecting","ping":47},{"user_id":283,"name":"I GOT LAID AT SHEN YUN 2023","steam_id":76561198844003641,"connected_time":4574000000000,"state":"active","ping":55},{"user_id":326,"name":"nobody","steam_id":76561198294634769,"connected_time":1458000000000,"state":"active","ping":61},{"user_id":335,"name":"Altruisticailuridae","steam_id":76561198335295596,"connected_time":1030000000000,"state":"active","ping":50},{"user_id":342,"name":"Steejans","steam_id":76561198053211279,"connected_time":65000000000,"state":"active","ping":75},{"user_id":340,"name":"heck","steam_id":76561198315694520,"connected_time":245000000000,"state":"active","ping":52},{"user_id":337,"name":"Ice cream sandwich","steam_id":76561198172748357,"connected_time":911000000000,"state":"active","ping":58}]},{"server_id":324,"name":"Uncletopia | Los Angeles | 3 | All Maps","name_short":"lax-3","host":"lax-1.us.uncletopia.com","port":27035,"enabled":true,"region":"us-west","cc":"us","latitude":33.94279,"longitude":-118.41004,"reserved":0,"last_update":"0001-01-01T00:00:00Z","name_a2s":"Uncletopia | Los Angeles | 3 | All Maps","protocol":17,"map":"pl_badwater","folder":"tf","game":"Team Fortress","app_id":440,"player_count":24,"max_players":24,"Bots":0,"server_type":"Dedicated","server_os":"Linux","password":true,"vac":true,"version":"7961495","steam_id":85568392924510198,"keywords":["nocrits","nodmgspread","payload","uncletopia"],"game_id":440,"stv_port":27036,"stv_name":"Uncletopia | Los Angeles | 3 | All Maps | STV","players":[{"user_id":161,"name":"HeroOfTime","steam_id":76561199096218001,"connected_time":139000000000,"state":"active","ping":50},{"user_id":142,"name":"\u003cM\u003e","steam_id":76561198028068603,"connected_time":1115000000000,"state":"active","ping":55},{"user_id":141,"name":"jus a lil dude","steam_id":76561198013326889,"connected_time":1205000000000,"state":"active","ping":111},{"user_id":163,"name":"AriLeFisch","steam_id":76561199050440570,"connected_time":19000000000,"state":"active","ping":272},{"user_id":131,"name":"Armpit!","steam_id":76561197978095727,"connected_time":1919000000000,"state":"active","ping":89},{"user_id":137,"name":"\u003e:3 Muiramme Œµ—ó–∑","steam_id":76561197994458543,"connected_time":1630000000000,"state":"active","ping":76},{"user_id":120,"name":"Frank Accardi","steam_id":76561198017275707,"connected_time":2655000000000,"state":"active","ping":59},{"user_id":158,"name":"'Oddo","steam_id":76561198090866900,"connected_time":220000000000,"state":"active","ping":90},{"user_id":157,"name":"XxDragon4321xX","steam_id":76561198046705735,"connected_time":265000000000,"state":"active","ping":71},{"user_id":152,"name":"[Bandit]","steam_id":76561197986919852,"connected_time":665000000000,"state":"active","ping":61},{"user_id":74,"name":"cielael","steam_id":76561198043971956,"connected_time":6848000000000,"state":"active","ping":46},{"user_id":159,"name":"Bisque","steam_id":76561198327661850,"connected_time":217000000000,"state":"active","ping":39},{"user_id":162,"name":"FI LO","steam_id":76561198976530881,"connected_time":27000000000,"state":"active","ping":31},{"user_id":118,"name":"Mocha Josie","steam_id":76561198066452726,"connected_time":2819000000000,"state":"active","ping":67},{"user_id":121,"name":"S-Video","steam_id":76561198002821513,"connected_time":2639000000000,"state":"active","ping":111},{"user_id":122,"name":"A UsedNom","steam_id":76561198402832756,"connected_time":2621000000000,"state":"active","ping":51},{"user_id":132,"name":"Munky","steam_id":76561197993491054,"connected_time":1887000000000,"state":"active","ping":46},{"user_id":134,"name":"Alf Creepypasta","steam_id":76561198841844093,"connected_time":1784000000000,"state":"active","ping":46},{"user_id":135,"name":"Delta","steam_id":76561198062028965,"connected_time":1768000000000,"state":"active","ping":110},{"user_id":148,"name":"Human Resources Manager","steam_id":76561198066386411,"connected_time":866000000000,"state":"active","ping":60},{"user_id":160,"name":"vvitch","steam_id":76561198279661941,"connected_time":203000000000,"state":"active","ping":46},{"user_id":147,"name":"AirCanada #1","steam_id":76561198150212442,"connected_time":935000000000,"state":"active","ping":103},{"user_id":119,"name":"Taco+Taco=Burrito","steam_id":76561198063128663,"connected_time":2709000000000,"state":"active","ping":49},{"user_id":124,"name":"oxy","steam_id":76561198089770351,"connected_time":2591000000000,"state":"active","ping":108}]},{"server_id":25,"name":"Uncletopia | Los Angeles | 4 | Stopwatch","name_short":"lax-4","host":"lax-1.us.uncletopia.com","port":27045,"enabled":true,"region":"us-west","cc":"us","latitude":33.94279,"longitude":-118.41004,"reserved":0,"last_update":"0001-01-01T00:00:00Z","name_a2s":"Uncletopia | Los Angeles | 4 | Stopwatch","protocol":17,"map":"workshop/koth_ashville_final.ugc2130459942","folder":"tf","game":"Team Fortress","app_id":440,"player_count":0,"max_players":24,"Bots":0,"server_type":"Dedicated","server_os":"Linux","password":true,"vac":true,"version":"7961495","steam_id":85568392924510199,"keywords":["cp","nocrits","nodmgspread","uncletopia"],"game_id":440,"stv_port":27046,"stv_name":"Uncletopia | Los Angeles | 4 | Stopwatch | STV","players":null},{"server_id":11,"name":"Uncletopia | London | 1 | All Maps","name_short":"lon-1","host":"lon-1.uk.uncletopia.com","port":27015,"enabled":true,"region":"eu","cc":"gb","latitude":51.509865,"longitude":-0.118092,"reserved":0,"last_update":"0001-01-01T00:00:00Z","name_a2s":"Uncletopia | London | 1 | All Maps","protocol":17,"map":"koth_highpass","folder":"tf","game":"Team Fortress","app_id":440,"player_count":5,"max_players":24,"Bots":0,"server_type":"Dedicated","server_os":"Linux","password":true,"vac":true,"version":"7961495","steam_id":85568392924367362,"keywords":["cp","nocrits","nodmgspread","uncletopia"],"game_id":440,"stv_port":27016,"stv_name":"Uncletopia | London | 1 | All Maps | STV","players":[{"user_id":891,"name":"Touchy Tommy","steam_id":76561198194847049,"connected_time":723000000000,"state":"active","ping":46},{"user_id":892,"name":"DIErector of death","steam_id":76561199217741639,"connected_time":538000000000,"state":"active","ping":104},{"user_id":893,"name":"saskberrypie","steam_id":76561199213965613,"connected_time":44000000000,"state":"spawning","ping":159},{"user_id":887,"name":"Simply Autism!","steam_id":76561198223603960,"connected_time":2176000000000,"state":"active","ping":41},{"user_id":827,"name":"MATLAB R2021b","steam_id":76561198053440695,"connected_time":6342000000000,"state":"active","ping":41}]},{"server_id":114,"name":"Uncletopia | London | 2 | All Maps","name_short":"lon-2","host":"lon-1.uk.uncletopia.com","port":27025,"enabled":true,"region":"eu","cc":"gb","latitude":51.509865,"longitude":-0.118092,"reserved":0,"last_update":"0001-01-01T00:00:00Z","name_a2s":"Uncletopia | London | 2 | All Maps","protocol":17,"map":"pl_borneo","folder":"tf","game":"Team Fortress","app_id":440,"player_count":0,"max_players":24,"Bots":0,"server_type":"Dedicated","server_os":"Linux","password":true,"vac":true,"version":"7961495","steam_id":85568392924470941,"keywords":["nocrits","nodmgspread","payload","uncletopia"],"game_id":440,"stv_port":27026,"stv_name":"Uncletopia | London | 2 | All Maps | STV","players":null},{"server_id":320,"name":"Uncletopia | London | 3 | All Maps","name_short":"lon-3","host":"lon-1.uk.uncletopia.com","port":27035,"enabled":true,"region":"eu","cc":"gb","latitude":51.509865,"longitude":-0.118092,"reserved":0,"last_update":"0001-01-01T00:00:00Z","name_a2s":"Uncletopia | London | 3 | All Maps","protocol":17,"map":"pl_borneo","folder":"tf","game":"Team Fortress","app_id":440,"player_count":0,"max_players":24,"Bots":0,"server_type":"Dedicated","server_os":"Linux","password":true,"vac":true,"version":"7961495","steam_id":85568392924510192,"keywords":["nocrits","nodmgspread","payload","uncletopia"],"game_id":440,"stv_port":27036,"stv_name":"Uncletopia | London | 3 | All Maps | STV","players":null},{"server_id":321,"name":"Uncletopia | London | 4 | All Maps","name_short":"lon-4","host":"lon-1.uk.uncletopia.com","port":27045,"enabled":true,"region":"eu","cc":"gb","latitude":51.509865,"longitude":-0.118092,"reserved":0,"last_update":"0001-01-01T00:00:00Z","name_a2s":"Uncletopia | London | 4 | All Maps","protocol":17,"map":"pl_borneo","folder":"tf","game":"Team Fortress","app_id":440,"player_count":0,"max_players":24,"Bots":0,"server_type":"Dedicated","server_os":"Linux","password":true,"vac":true,"version":"7961495","steam_id":85568392924510193,"keywords":["nocrits","nodmgspread","payload","uncletopia"],"game_id":440,"stv_port":27046,"stv_name":"Uncletopia | London | 4 | All Maps | STV","players":null},{"server_id":21,"name":"Uncletopia | London | 5 | All Maps","name_short":"lon-5","host":"lon-1.uk.uncletopia.com","port":27055,"enabled":true,"region":"eu","cc":"gb","latitude":51.509865,"longitude":-0.118092,"reserved":0,"last_update":"0001-01-01T00:00:00Z","name_a2s":"Uncletopia | London | 5 | All Maps","protocol":17,"map":"pl_barnblitz","folder":"tf","game":"Team Fortress","app_id":440,"player_count":24,"max_players":24,"Bots":0,"server_type":"Dedicated","server_os":"Linux","password":true,"vac":true,"version":"7961495","steam_id":85568392924742829,"keywords":["nocrits","nodmgspread","payload","uncletopia"],"game_id":440,"stv_port":27056,"stv_name":"Uncletopia | London | 5 | All Maps | STV","players":[{"user_id":515,"name":"Mana","steam_id":76561199165581401,"connected_time":1431000000000,"state":"active","ping":106},{"user_id":432,"name":"yuck","steam_id":76561197987249568,"connected_time":6339000000000,"state":"active","ping":104},{"user_id":530,"name":"Ran33","steam_id":76561197991474499,"connected_time":599000000000,"state":"active","ping":90},{"user_id":511,"name":"Bobirulez","steam_id":76561198009125458,"connected_time":1575000000000,"state":"active","ping":61},{"user_id":520,"name":"Deer ‚ù§","steam_id":76561198325775413,"connected_time":1151000000000,"state":"active","ping":58},{"user_id":500,"name":"moeb","steam_id":76561197989281781,"connected_time":1864000000000,"state":"active","ping":56},{"user_id":524,"name":"Visphiric","steam_id":76561198071938027,"connected_time":895000000000,"state":"active","ping":43},{"user_id":531,"name":"Toby Flynt","steam_id":76561198099140763,"connected_time":508000000000,"state":"active","ping":51},{"user_id":478,"name":"–ú–ï–î–ò–ö!","steam_id":76561198803488036,"connected_time":2787000000000,"state":"active","ping":470},{"user_id":462,"name":"Borat","steam_id":76561198122226417,"connected_time":3747000000000,"state":"active","ping":41},{"user_id":513,"name":"Sputnik","steam_id":76561198138660241,"connected_time":1531000000000,"state":"active","ping":57},{"user_id":518,"name":"Biscuit","steam_id":76561198034318885,"connected_time":1283000000000,"state":"active","ping":44},{"user_id":470,"name":"sqomboashous snickerdoodle","steam_id":76561198346001637,"connected_time":3251000000000,"state":"active","ping":156},{"user_id":457,"name":"Luyn","steam_id":76561198043829667,"connected_time":4691000000000,"state":"active","ping":64},{"user_id":509,"name":"Niyaah","steam_id":76561198110209191,"connected_time":1660000000000,"state":"active","ping":74},{"user_id":526,"name":"El Duderino","steam_id":76561198084404539,"connected_time":851000000000,"state":"active","ping":172},{"user_id":522,"name":"pootis sentry","steam_id":76561199225363633,"connected_time":1041000000000,"state":"active","ping":102},{"user_id":510,"name":"Arkainiel Silver","steam_id":76561198188302519,"connected_time":1658000000000,"state":"active","ping":61},{"user_id":527,"name":"sirefluffy","steam_id":76561198119605775,"connected_time":842000000000,"state":"active","ping":154},{"user_id":532,"name":"Mindly Attractive Sausage Balls","steam_id":76561199041438326,"connected_time":192000000000,"state":"active","ping":144},{"user_id":529,"name":"Mourning","steam_id":76561198156343940,"connected_time":713000000000,"state":"active","ping":46},{"user_id":484,"name":"Talent","steam_id":76561198153880354,"connected_time":2631000000000,"state":"active","ping":56},{"user_id":461,"name":"frosty","steam_id":76561198094560834,"connected_time":4041000000000,"state":"active","ping":51},{"user_id":497,"name":"GoatLord1","steam_id":76561198157964544,"connected_time":2093000000000,"state":"active","ping":52}]},{"server_id":22,"name":"Uncletopia | London | 6 | All Maps","name_short":"lon-6","host":"lon-1.uk.uncletopia.com","port":27065,"enabled":true,"region":"eu","cc":"gb","latitude":51.509865,"longitude":-0.118092,"reserved":0,"last_update":"0001-01-01T00:00:00Z","name_a2s":"Uncletopia | London | 6 | All Maps","protocol":17,"map":"koth_highpass","folder":"tf","game":"Team Fortress","app_id":440,"player_count":0,"max_players":24,"Bots":0,"server_type":"Dedicated","server_os":"Linux","password":true,"vac":true,"version":"7961495","steam_id":85568392924742830,"keywords":["cp","nocrits","nodmgspread","uncletopia"],"game_id":440,"stv_port":27066,"stv_name":"Uncletopia | London | 6 | All Maps | STV","players":null},{"server_id":40,"name":"Uncletopia | London | 7 | Stopwatch","name_short":"lon-7","host":"lon-1.uk.uncletopia.com","port":27075,"enabled":true,"region":"eu","cc":"gb","latitude":51.509865,"longitude":-0.118092,"reserved":0,"last_update":"0001-01-01T00:00:00Z","name_a2s":"Uncletopia | London | 7 | Stopwatch","protocol":17,"map":"cp_gullywash_final1","folder":"tf","game":"Team Fortress","app_id":440,"player_count":0,"max_players":24,"Bots":0,"server_type":"Dedicated","server_os":"Linux","password":true,"vac":true,"version":"7961495","steam_id":85568392924964314,"keywords":["cp","nocrits","nodmgspread","uncletopia"],"game_id":440,"stv_port":27076,"stv_name":"Uncletopia | London | 7 | Stopwatch | STV","players":null},{"server_id":41,"name":"Uncletopia | London | 8 | Community","name_short":"lon-8","host":"lon-1.uk.uncletopia.com","port":27085,"enabled":true,"region":"eu","cc":"gb","latitude":51.509865,"longitude":-0.118092,"reserved":0,"last_update":"0001-01-01T00:00:00Z","name_a2s":"Uncletopia | London | 8 | Community","protocol":17,"map":"workshop/koth_ashville_final.ugc2130459942","folder":"tf","game":"Team Fortress","app_id":440,"player_count":0,"max_players":24,"Bots":0,"server_type":"Dedicated","server_os":"Linux","password":true,"vac":true,"version":"7961495","steam_id":85568392924964315,"keywords":["cp","nocrits","nodmgspread","uncletopia"],"game_id":440,"stv_port":27086,"stv_name":"Uncletopia | London | 8 | Community | STV","players":null},{"server_id":300,"name":"Uncletopia | Montr√©al | 1 | One Thousand Uncles","name_short":"mtl-1","host":"mtl-1.ca.uncletopia.com","port":27015,"enabled":true,"region":"us-east","cc":"ca","latitude":45.50889,"longitude":-73.56167,"reserved":0,"last_update":"0001-01-01T00:00:00Z","name_a2s":"","protocol":0,"map":"","folder":"","game":"","app_id":0,"player_count":11,"max_players":0,"Bots":0,"server_type":"","server_os":"","password":false,"vac":false,"version":"","steam_id":0,"keywords":null,"game_id":0,"stv_port":0,"stv_name":"","players":[{"user_id":494,"name":"Fungus","steam_id":76561198111940278,"connected_time":70000000000,"state":"active","ping":63},{"user_id":463,"name":"concrete_car","steam_id":76561198388207363,"connected_time":5200000000000,"state":"active","ping":60},{"user_id":470,"name":"manbearswineflu","steam_id":76561198083945137,"connected_time":3448000000000,"state":"active","ping":65},{"user_id":361,"name":"schnedwob","steam_id":76561197999146588,"connected_time":12034000000000,"state":"active","ping":75},{"user_id":469,"name":"Pox4Dinner","steam_id":76561198036958101,"connected_time":3663000000000,"state":"active","ping":55},{"user_id":483,"name":"GanZ","steam_id":76561199378883538,"connected_time":1224000000000,"state":"active","ping":45},{"user_id":477,"name":"Hexy Witch","steam_id":76561198034515581,"connected_time":1712000000000,"state":"active","ping":47},{"user_id":511,"name":"kermit","steam_id":76561198099928281,"connected_time":11000000000,"state":"active","ping":88},{"user_id":486,"name":"Nebula Core","steam_id":76561198424878809,"connected_time":1036000000000,"state":"active","ping":125},{"user_id":484,"name":"coolfalcon168","steam_id":76561198948665710,"connected_time":1199000000000,"state":"active","ping":56},{"user_id":378,"name":"PieSpie","steam_id":76561198054531169,"connected_time":10476000000000,"state":"active","ping":86}]},{"server_id":301,"name":"Uncletopia | Montr√©al | 2 | One Thousand Uncles","name_short":"mtl-2","host":"mtl-1.ca.uncletopia.com","port":27025,"enabled":true,"region":"us-east","cc":"ca","latitude":45.50889,"longitude":-73.56167,"reserved":0,"last_update":"0001-01-01T00:00:00Z","name_a2s":"","protocol":0,"map":"","folder":"","game":"","app_id":0,"player_count":0,"max_players":0,"Bots":0,"server_type":"","server_os":"","password":false,"vac":false,"version":"","steam_id":0,"keywords":null,"game_id":0,"stv_port":0,"stv_name":"","players":null},{"server_id":302,"name":"Uncletopia | Montr√©al | 3 | One Thousand Uncles","name_short":"mtl-3","host":"mtl-1.ca.uncletopia.com","port":27035,"enabled":true,"region":"us-east","cc":"ca","latitude":45.50889,"longitude":-73.56167,"reserved":0,"last_update":"0001-01-01T00:00:00Z","name_a2s":"","protocol":0,"map":"","folder":"","game":"","app_id":0,"player_count":5,"max_players":0,"Bots":0,"server_type":"","server_os":"","password":false,"vac":false,"version":"","steam_id":0,"keywords":null,"game_id":0,"stv_port":0,"stv_name":"","players":[{"user_id":150,"name":"squoing","steam_id":76561199259430159,"connected_time":531000000000,"state":"active","ping":126},{"user_id":151,"name":"cognitiveAfflatus","steam_id":76561198295181426,"connected_time":243000000000,"state":"active","ping":60},{"user_id":63,"name":"Swash","steam_id":76561197969421355,"connected_time":9505000000000,"state":"active","ping":54},{"user_id":117,"name":"Lots0","steam_id":76561198043143145,"connected_time":4661000000000,"state":"active","ping":91},{"user_id":122,"name":"Dennis Reynolds","steam_id":76561197960371259,"connected_time":4536000000000,"state":"active","ping":82}]},{"server_id":13,"name":"Uncletopia | New York City | 1 | All Maps","name_short":"nyc-1","host":"nyc-1.us.uncletopia.com","port":27015,"enabled":true,"region":"us-east","cc":"us","latitude":40.73061,"longitude":-73.93524,"reserved":0,"last_update":"0001-01-01T00:00:00Z","name_a2s":"Uncletopia | New York City | 1 | All Maps","protocol":17,"map":"pl_snowycoast","folder":"tf","game":"Team Fortress","app_id":440,"player_count":24,"max_players":24,"Bots":0,"server_type":"Dedicated","server_os":"Linux","password":true,"vac":true,"version":"7961495","steam_id":85568392924469993,"keywords":["nocrits","nodmgspread","payload","uncletopia"],"game_id":440,"stv_port":27016,"stv_name":"Uncletopia | New York City | 1 | All Maps | STV","players":[{"user_id":550,"name":"Open Mailbox","steam_id":76561198051933580,"connected_time":893000000000,"state":"active","ping":79},{"user_id":551,"name":"Johnny B. Goode","steam_id":76561199196343799,"connected_time":887000000000,"state":"active","ping":73},{"user_id":552,"name":"ExtraSoap","steam_id":76561198008712409,"connected_time":860000000000,"state":"active","ping":45},{"user_id":477,"name":"Yuzu","steam_id":76561198417913035,"connected_time":5878000000000,"state":"active","ping":74},{"user_id":563,"name":"Perpul","steam_id":76561198075458738,"connected_time":287000000000,"state":"active","ping":71},{"user_id":554,"name":"Oing Juice","steam_id":76561198160554016,"connected_time":811000000000,"state":"active","ping":70},{"user_id":512,"name":"Glitchy stick","steam_id":76561199013429386,"connected_time":4551000000000,"state":"active","ping":58},{"user_id":555,"name":"Psychosis","steam_id":76561198078659070,"connected_time":770000000000,"state":"active","ping":75},{"user_id":565,"name":"hello","steam_id":76561199241533014,"connected_time":229000000000,"state":"active","ping":49},{"user_id":564,"name":"DankMemes4EV3R","steam_id":76561199012294783,"connected_time":269000000000,"state":"active","ping":71},{"user_id":504,"name":"lfty","steam_id":76561198283841707,"connected_time":4750000000000,"state":"active","ping":55},{"user_id":558,"name":"The ranked man","steam_id":76561198035622767,"connected_time":717000000000,"state":"active","ping":45},{"user_id":538,"name":"BreadFish","steam_id":76561198834556559,"connected_time":2508000000000,"state":"active","ping":70},{"user_id":549,"name":"Psionara","steam_id":76561198211684263,"connected_time":1058000000000,"state":"active","ping":98},{"user_id":540,"name":"ndvr","steam_id":76561199379200102,"connected_time":2446000000000,"state":"active","ping":56},{"user_id":544,"name":"Lore","steam_id":76561198098407538,"connected_time":2046000000000,"state":"active","ping":66},{"user_id":566,"name":"Dillo","steam_id":76561198131497687,"connected_time":220000000000,"state":"active","ping":62},{"user_id":542,"name":"Bee_Pirate","steam_id":76561199000599111,"connected_time":2092000000000,"state":"active","ping":62},{"user_id":528,"name":"batheman63","steam_id":76561198881818552,"connected_time":3670000000000,"state":"active","ping":56},{"user_id":523,"name":"Porcupine's Revenge!","steam_id":76561199121615234,"connected_time":3919000000000,"state":"active","ping":45},{"user_id":493,"name":"The Colonel","steam_id":76561198081280583,"connected_time":5195000000000,"state":"active","ping":55},{"user_id":567,"name":"Two-Teste Tommy","steam_id":76561198064308936,"connected_time":69000000000,"state":"active","ping":60},{"user_id":547,"name":"coob","steam_id":76561198171047087,"connected_time":1813000000000,"state":"active","ping":55},{"user_id":561,"name":"Demonica","steam_id":76561198841858340,"connected_time":638000000000,"state":"active","ping":101}]},{"server_id":14,"name":"Uncletopia | New York City | 2 | All Maps","name_short":"nyc-2","host":"nyc-1.us.uncletopia.com","port":27025,"enabled":true,"region":"us-east","cc":"us","latitude":40.73061,"longitude":-73.93524,"reserved":0,"last_update":"0001-01-01T00:00:00Z","name_a2s":"Uncletopia | New York City | 2 | All Maps","protocol":17,"map":"pl_barnblitz","folder":"tf","game":"Team Fortress","app_id":440,"player_count":24,"max_players":24,"Bots":0,"server_type":"Dedicated","server_os":"Linux","password":true,"vac":true,"version":"7961495","steam_id":85568392924469994,"keywords":["nocrits","nodmgspread","payload","uncletopia"],"game_id":440,"stv_port":27026,"stv_name":"Uncletopia | New York City | 2 | All Maps | STV","players":[{"user_id":461,"name":"MegaXCK","steam_id":76561199166444957,"connected_time":1937000000000,"state":"active","ping":61},{"user_id":460,"name":"Timothy Grunclebottoms","steam_id":76561198871450477,"connected_time":2019000000000,"state":"active","ping":65},{"user_id":462,"name":"Lumi","steam_id":76561198089978036,"connected_time":1881000000000,"state":"active","ping":55},{"user_id":480,"name":"PoopieStank","steam_id":76561197977099076,"connected_time":1476000000000,"state":"active","ping":73},{"user_id":463,"name":"scrotemeal","steam_id":76561198127470991,"connected_time":1813000000000,"state":"active","ping":58},{"user_id":483,"name":"CHIPS","steam_id":76561199085414584,"connected_time":1169000000000,"state":"active","ping":52},{"user_id":489,"name":"THE STINK","steam_id":76561199226110975,"connected_time":746000000000,"state":"active","ping":102},{"user_id":485,"name":"Wilma","steam_id":76561198138420251,"connected_time":1118000000000,"state":"active","ping":88},{"user_id":467,"name":"richrgamr","steam_id":76561198203064259,"connected_time":1744000000000,"state":"active","ping":81},{"user_id":495,"name":"Fart Huffer","steam_id":76561198094125834,"connected_time":494000000000,"state":"active","ping":73},{"user_id":470,"name":"Jilber7","steam_id":76561198080131616,"connected_time":1646000000000,"state":"active","ping":138},{"user_id":481,"name":"Danny Earl","steam_id":76561198134439614,"connected_time":1436000000000,"state":"active","ping":64},{"user_id":430,"name":"FAKE TAXI PRANKS","steam_id":76561198136746987,"connected_time":4666000000000,"state":"active","ping":84},{"user_id":491,"name":"Vordt","steam_id":76561198040942866,"connected_time":676000000000,"state":"active","ping":47},{"user_id":490,"name":"L to the OG","steam_id":76561199215811448,"connected_time":711000000000,"state":"active","ping":61},{"user_id":497,"name":"Turbulence","steam_id":76561198173172369,"connected_time":204000000000,"state":"active","ping":164},{"user_id":493,"name":"rattlin' bog","steam_id":76561198224551028,"connected_time":585000000000,"state":"active","ping":55},{"user_id":496,"name":"Herdez Hot Salsa","steam_id":76561197991740906,"connected_time":348000000000,"state":"active","ping":70},{"user_id":475,"name":"swagmaster12","steam_id":76561198003593070,"connected_time":1564000000000,"state":"active","ping":67},{"user_id":453,"name":"Artemisia (She/They)","steam_id":76561198265616793,"connected_time":2657000000000,"state":"active","ping":103},{"user_id":452,"name":"Junipyre","steam_id":76561198044819364,"connected_time":2996000000000,"state":"active","ping":93},{"user_id":476,"name":"Minin","steam_id":76561198018819047,"connected_time":1562000000000,"state":"active","ping":114},{"user_id":486,"name":"EscotheUltima","steam_id":76561198244048194,"connected_time":892000000000,"state":"active","ping":72},{"user_id":478,"name":"I \u003c3 ASIAN WOMEN","steam_id":76561198326845396,"connected_time":1535000000000,"state":"active","ping":96}]},{"server_id":15,"name":"Uncletopia | New York City | 3 | Stopwatch","name_short":"nyc-3","host":"nyc-1.us.uncletopia.com","port":27035,"enabled":true,"region":"us-east","cc":"us","latitude":40.73061,"longitude":-73.93524,"reserved":0,"last_update":"0001-01-01T00:00:00Z","name_a2s":"Uncletopia | New York City | 3 | Stopwatch","protocol":17,"map":"workshop/koth_ramjam_rc1.ugc459778887","folder":"tf","game":"Team Fortress","app_id":440,"player_count":0,"max_players":24,"Bots":0,"server_type":"Dedicated","server_os":"Linux","password":true,"vac":true,"version":"7961495","steam_id":85568392924742820,"keywords":["cp","nocrits","nodmgspread","uncletopia"],"game_id":440,"stv_port":27036,"stv_name":"Uncletopia | New York City | 3 | Stopwatch | STV","players":null},{"server_id":16,"name":"Uncletopia | New York City | 4 | Community","name_short":"nyc-4","host":"nyc-1.us.uncletopia.com","port":27045,"enabled":true,"region":"us-east","cc":"us","latitude":40.73061,"longitude":-73.93524,"reserved":0,"last_update":"0001-01-01T00:00:00Z","name_a2s":"Uncletopia | New York City | 4 | Community","protocol":17,"map":"workshop/koth_trenchfoot_b1a.ugc731436616","folder":"tf","game":"Team Fortress","app_id":440,"player_count":0,"max_players":24,"Bots":0,"server_type":"Dedicated","server_os":"Linux","password":true,"vac":true,"version":"7961495","steam_id":85568392924742821,"keywords":["cp","nocrits","nodmgspread","uncletopia"],"game_id":440,"stv_port":27046,"stv_name":"Uncletopia | New York City | 4 | Community | STV","players":null},{"server_id":142,"name":"Uncletopia | S√£o Paulo | 1 | All Maps","name_short":"sao-1","host":"sao-1.br.uncletopia.com","port":27015,"enabled":true,"region":"sa","cc":"br","latitude":-23.533773,"longitude":-46.62529,"reserved":0,"last_update":"0001-01-01T00:00:00Z","name_a2s":"Uncletopia | S√£o Paulo | 1 | All Maps","protocol":17,"map":"pl_barnblitz","folder":"tf","game":"Team Fortress","app_id":440,"player_count":0,"max_players":24,"Bots":0,"server_type":"Dedicated","server_os":"Linux","password":true,"vac":true,"version":"7961495","steam_id":85568392924469996,"keywords":["nocrits","nodmgspread","payload","uncletopia"],"game_id":440,"stv_port":27016,"stv_name":"Uncletopia | S√£o Paulo | 1 | All Maps | STV","players":null},{"server_id":143,"name":"Uncletopia | S√£o Paulo | 2 | Community","name_short":"sao-2","host":"sao-2.br.uncletopia.com","port":27015,"enabled":true,"region":"sa","cc":"br","latitude":-23.533773,"longitude":-46.62529,"reserved":0,"last_update":"0001-01-01T00:00:00Z","name_a2s":"Uncletopia | S√£o Paulo | 2 | Community","protocol":17,"map":"workshop/koth_ashville_final.ugc2130459942","folder":"tf","game":"Team Fortress","app_id":440,"player_count":0,"max_players":24,"Bots":0,"server_type":"Dedicated","server_os":"Linux","password":true,"vac":true,"version":"7961495","steam_id":85568392924485349,"keywords":["cp","nocrits","nodmgspread","uncletopia"],"game_id":440,"stv_port":27016,"stv_name":"Uncletopia | S√£o Paulo | 2 | Community | STV","players":null},{"server_id":7,"name":"Uncletopia | Seattle | 1 | All Maps","name_short":"sea-1","host":"sea-1.us.uncletopia.com","port":27015,"enabled":true,"region":"us-west","cc":"us","latitude":47.608013,"longitude":-122.33517,"reserved":0,"last_update":"0001-01-01T00:00:00Z","name_a2s":"Uncletopia | Seattle | 1 | All Maps","protocol":17,"map":"koth_highpass","folder":"tf","game":"Team Fortress","app_id":440,"player_count":24,"max_players":24,"Bots":0,"server_type":"Dedicated","server_os":"Linux","password":true,"vac":true,"version":"7961495","steam_id":85568392924469997,"keywords":["cp","nocrits","nodmgspread","uncletopia"],"game_id":440,"stv_port":27016,"stv_name":"Uncletopia | Seattle | 1 | All Maps | STV","players":[{"user_id":504,"name":"Ayayayayayahuasca","steam_id":76561199002906056,"connected_time":526000000000,"state":"active","ping":50},{"user_id":467,"name":"ed","steam_id":76561198080475712,"connected_time":4723000000000,"state":"active","ping":72},{"user_id":475,"name":"GRONT","steam_id":76561198040464533,"connected_time":4449000000000,"state":"active","ping":115},{"user_id":488,"name":"DevourerofGlass","steam_id":76561199443647976,"connected_time":2447000000000,"state":"active","ping":98},{"user_id":430,"name":"Legionnaire man","steam_id":76561199338313228,"connected_time":8934000000000,"state":"active","ping":75},{"user_id":495,"name":"Eraser cat","steam_id":76561199045570463,"connected_time":1242000000000,"state":"active","ping":62},{"user_id":505,"name":"The Senate","steam_id":76561198143882626,"connected_time":214000000000,"state":"active","ping":54},{"user_id":493,"name":"Sniff","steam_id":76561198010270922,"connected_time":1411000000000,"state":"active","ping":52},{"user_id":499,"name":"DubiousDodo","steam_id":76561198828172686,"connected_time":709000000000,"state":"active","ping":105},{"user_id":494,"name":"Goose","steam_id":76561198036774894,"connected_time":1279000000000,"state":"active","ping":56},{"user_id":496,"name":"chocky","steam_id":76561198057491296,"connected_time":737000000000,"state":"active","ping":45},{"user_id":500,"name":"Nom Skirrett","steam_id":76561198014600788,"connected_time":698000000000,"state":"active","ping":65},{"user_id":473,"name":"MantisToboggan","steam_id":76561197969447887,"connected_time":4551000000000,"state":"active","ping":77},{"user_id":447,"name":"Lili","steam_id":76561199488457138,"connected_time":7262000000000,"state":"active","ping":53},{"user_id":456,"name":"Cheezbeargur","steam_id":76561198164702899,"connected_time":6058000000000,"state":"active","ping":70},{"user_id":503,"name":"a great chinese monkey","steam_id":76561199059310006,"connected_time":552000000000,"state":"active","ping":100},{"user_id":464,"name":"a cat plushie","steam_id":76561198080046542,"connected_time":5026000000000,"state":"active","ping":46},{"user_id":450,"name":"ilun","steam_id":76561198042913843,"connected_time":6848000000000,"state":"active","ping":59},{"user_id":474,"name":"2cats_2curious","steam_id":76561198027143149,"connected_time":4519000000000,"state":"active","ping":76},{"user_id":501,"name":"Can of Oranges","steam_id":76561199121813529,"connected_time":698000000000,"state":"active","ping":44},{"user_id":482,"name":"mrow","steam_id":76561198171840525,"connected_time":2667000000000,"state":"active","ping":52},{"user_id":479,"name":"Level 3 hotdog enjoyer","steam_id":76561198870649125,"connected_time":3031000000000,"state":"active","ping":85},{"user_id":492,"name":"Skabbety","steam_id":76561198168044257,"connected_time":2298000000000,"state":"active","ping":46},{"user_id":466,"name":"sleePI","steam_id":76561198450073779,"connected_time":4973000000000,"state":"active","ping":45}]},{"server_id":119,"name":"Uncletopia | Seattle | 2 | All Maps","name_short":"sea-2","host":"sea-1.us.uncletopia.com","port":27025,"enabled":true,"region":"us-west","cc":"us","latitude":47.608013,"longitude":-122.33517,"reserved":0,"last_update":"0001-01-01T00:00:00Z","name_a2s":"Uncletopia | Seattle | 2 | All Maps","protocol":17,"map":"pl_swiftwater_final1","folder":"tf","game":"Team Fortress","app_id":440,"player_count":24,"max_players":24,"Bots":0,"server_type":"Dedicated","server_os":"Linux","password":true,"vac":true,"version":"7961495","steam_id":85568392924469998,"keywords":["nocrits","nodmgspread","payload","uncletopia"],"game_id":440,"stv_port":27026,"stv_name":"Uncletopia | Seattle | 2 | All Maps | STV","players":[{"user_id":593,"name":"ShiningForce","steam_id":76561198026039048,"connected_time":428000000000,"state":"active","ping":74},{"user_id":594,"name":"blest!","steam_id":76561198966232220,"connected_time":399000000000,"state":"active","ping":58},{"user_id":573,"name":"Haydob13","steam_id":76561198110378191,"connected_time":2304000000000,"state":"active","ping":62},{"user_id":585,"name":"KellyKapoor","steam_id":76561198040828123,"connected_time":1116000000000,"state":"active","ping":47},{"user_id":504,"name":"Jshoe","steam_id":76561198128252048,"connected_time":7038000000000,"state":"active","ping":64},{"user_id":559,"name":"Glanderson booper","steam_id":76561198021223747,"connected_time":3602000000000,"state":"active","ping":49},{"user_id":580,"name":"SkobeBeef","steam_id":76561198078638948,"connected_time":1724000000000,"state":"active","ping":59},{"user_id":516,"name":"SadFapping","steam_id":76561198076651049,"connected_time":5920000000000,"state":"active","ping":47},{"user_id":489,"name":"Diesel","steam_id":76561198448815852,"connected_time":8511000000000,"state":"active","ping":53},{"user_id":581,"name":"self sufficient kitten","steam_id":76561197960592612,"connected_time":1707000000000,"state":"active","ping":45},{"user_id":582,"name":"wmjledger","steam_id":76561198443046861,"connected_time":1441000000000,"state":"active","ping":49},{"user_id":595,"name":"Preston","steam_id":76561198255721392,"connected_time":368000000000,"state":"active","ping":114},{"user_id":596,"name":"imasheep","steam_id":76561198210322871,"connected_time":338000000000,"state":"active","ping":87},{"user_id":591,"name":"Dimple","steam_id":76561198980324190,"connected_time":668000000000,"state":"active","ping":59},{"user_id":589,"name":"toilet master","steam_id":76561198844273999,"connected_time":739000000000,"state":"active","ping":44},{"user_id":592,"name":"RockMuncher","steam_id":76561198269218386,"connected_time":578000000000,"state":"active","ping":59},{"user_id":597,"name":"Orf","steam_id":76561198043285557,"connected_time":336000000000,"state":"active","ping":48},{"user_id":570,"name":"Qas","steam_id":76561198067564482,"connected_time":2588000000000,"state":"active","ping":96},{"user_id":577,"name":"Spread Joy, Not Hate","steam_id":76561198053117503,"connected_time":2079000000000,"state":"active","ping":62},{"user_id":584,"name":"t","steam_id":76561198175988929,"connected_time":1264000000000,"state":"active","ping":85},{"user_id":598,"name":"Poundcake","steam_id":76561198042196918,"connected_time":326000000000,"state":"active","ping":53},{"user_id":575,"name":"riSygneD","steam_id":76561198331618687,"connected_time":2257000000000,"state":"active","ping":70},{"user_id":571,"name":"Bendidy","steam_id":76561198041964300,"connected_time":2311000000000,"state":"active","ping":61},{"user_id":576,"name":"‚ù§ Ashley ‚ù§","steam_id":76561198056428303,"connected_time":2251000000000,"state":"active","ping":75}]},{"server_id":406,"name":"Uncletopia | Seattle | 3 | Stopwatch","name_short":"sea-3","host":"sea-1.us.uncletopia.com","port":27035,"enabled":true,"region":"us-west","cc":"us","latitude":47.608013,"longitude":-122.33517,"reserved":0,"last_update":"0001-01-01T00:00:00Z","name_a2s":"Uncletopia | Seattle | 3 | Stopwatch","protocol":17,"map":"workshop/koth_clearcut_b15.ugc2107050255","folder":"tf","game":"Team Fortress","app_id":440,"player_count":0,"max_players":24,"Bots":0,"server_type":"Dedicated","server_os":"Linux","password":true,"vac":true,"version":"7961495","steam_id":85568392924515217,"keywords":["cp","nocrits","nodmgspread","uncletopia"],"game_id":440,"stv_port":27036,"stv_name":"Uncletopia | Seattle | 3 | Stopwatch | STV","players":null},{"server_id":17,"name":"Uncletopia | San Francisco | 1 | All Maps","name_short":"sfo-1","host":"sfo-1.us.uncletopia.com","port":27015,"enabled":true,"region":"us-west","cc":"us","latitude":37.77397,"longitude":-122.4313,"reserved":0,"last_update":"0001-01-01T00:00:00Z","name_a2s":"Uncletopia | San Francisco | 1 | All Maps","protocol":17,"map":"koth_viaduct","folder":"tf","game":"Team Fortress","app_id":440,"player_count":0,"max_players":24,"Bots":0,"server_type":"Dedicated","server_os":"Linux","password":true,"vac":true,"version":"7961495","steam_id":85568392924469999,"keywords":["cp","nocrits","nodmgspread","uncletopia"],"game_id":440,"stv_port":27016,"stv_name":"Uncletopia | San Francisco | 1 | All Maps | STV","players":null},{"server_id":18,"name":"Uncletopia | San Francisco | 2 | All Maps","name_short":"sfo-2","host":"sfo-1.us.uncletopia.com","port":27025,"enabled":true,"region":"us-west","cc":"us","latitude":37.77397,"longitude":-122.4313,"reserved":0,"last_update":"0001-01-01T00:00:00Z","name_a2s":"Uncletopia | San Francisco | 2 | All Maps","protocol":17,"map":"cp_mountainlab","folder":"tf","game":"Team Fortress","app_id":440,"player_count":24,"max_players":24,"Bots":0,"server_type":"Dedicated","server_os":"Linux","password":true,"vac":true,"version":"7961495","steam_id":85568392924470000,"keywords":["cp","nocrits","nodmgspread","uncletopia"],"game_id":440,"stv_port":27026,"stv_name":"Uncletopia | San Francisco | 2 | All Maps | STV","players":[{"user_id":201,"name":"i need to see your balls","steam_id":76561198168492250,"connected_time":215000000000,"state":"active","ping":59},{"user_id":181,"name":"Thunder","steam_id":76561198097721532,"connected_time":1926000000000,"state":"active","ping":62},{"user_id":193,"name":"big daddy","steam_id":76561199091168956,"connected_time":499000000000,"state":"active","ping":74},{"user_id":172,"name":"Thermo","steam_id":76561198978967412,"connected_time":2493000000000,"state":"active","ping":53},{"user_id":191,"name":"Petrivus","steam_id":76561198202152453,"connected_time":548000000000,"state":"active","ping":74},{"user_id":194,"name":"Whiskey","steam_id":76561198858154667,"connected_time":486000000000,"state":"active","ping":60},{"user_id":142,"name":"Phos","steam_id":76561198122339506,"connected_time":4500000000000,"state":"active","ping":77},{"user_id":126,"name":"LiMa","steam_id":76561198872798792,"connected_time":6240000000000,"state":"active","ping":82},{"user_id":156,"name":"jerma watcher to femboy pipelin","steam_id":76561198065662025,"connected_time":3774000000000,"state":"active","ping":51},{"user_id":176,"name":"Hatchitis","steam_id":76561198320346037,"connected_time":2082000000000,"state":"active","ping":60},{"user_id":195,"name":"Big Yoshi","steam_id":76561199160576376,"connected_time":474000000000,"state":"active","ping":65},{"user_id":139,"name":"Lambchop","steam_id":76561198043900363,"connected_time":5061000000000,"state":"active","ping":60},{"user_id":160,"name":"Grassman (Cc)","steam_id":76561198026488532,"connected_time":3616000000000,"state":"active","ping":42},{"user_id":177,"name":"Kinetic Warlord","steam_id":76561198007900244,"connected_time":2053000000000,"state":"active","ping":101},{"user_id":196,"name":"Gerbias","steam_id":76561198001002427,"connected_time":453000000000,"state":"active","ping":65},{"user_id":198,"name":"asm_ghost","steam_id":76561199205363547,"connected_time":301000000000,"state":"active","ping":84},{"user_id":171,"name":"Red-Raven","steam_id":76561197971130794,"connected_time":2533000000000,"state":"active","ping":74},{"user_id":199,"name":"Firedust19","steam_id":76561198153238631,"connected_time":297000000000,"state":"active","ping":77},{"user_id":182,"name":"npc energy","steam_id":76561198035342207,"connected_time":1897000000000,"state":"active","ping":90},{"user_id":183,"name":"George Washington","steam_id":76561198033828615,"connected_time":1877000000000,"state":"active","ping":46},{"user_id":137,"name":"Hydroxianchaos","steam_id":76561198043786828,"connected_time":5319000000000,"state":"active","ping":111},{"user_id":188,"name":"SpeedEagle","steam_id":76561198092623489,"connected_time":1328000000000,"state":"active","ping":76},{"user_id":204,"name":"Igrium","steam_id":76561198119549811,"connected_time":33000000000,"state":"active","ping":75},{"user_id":152,"name":"Paint Huffing Yoshi Player","steam_id":76561198028969023,"connected_time":3970000000000,"state":"active","ping":80}]},{"server_id":19,"name":"Uncletopia | San Francisco | 3 | Stopwatch","name_short":"sfo-3","host":"sfo-1.us.uncletopia.com","port":27035,"enabled":true,"region":"us-west","cc":"us","latitude":37.77397,"longitude":-122.4313,"reserved":0,"last_update":"0001-01-01T00:00:00Z","name_a2s":"Uncletopia | San Francisco | 3 | Stopwatch","protocol":17,"map":"workshop/koth_clearcut_b15.ugc2107050255","folder":"tf","game":"Team Fortress","app_id":440,"player_count":0,"max_players":24,"Bots":0,"server_type":"Dedicated","server_os":"Linux","password":true,"vac":true,"version":"7961495","steam_id":85568392924742824,"keywords":["cp","nocrits","nodmgspread","uncletopia"],"game_id":440,"stv_port":27036,"stv_name":"Uncletopia | San Francisco | 3 | Stopwatch | STV","players":null},{"server_id":20,"name":"Uncletopia | San Francisco | 4 | Community","name_short":"sfo-4","host":"sfo-1.us.uncletopia.com","port":27045,"enabled":true,"region":"us-west","cc":"us","latitude":37.77397,"longitude":-122.4313,"reserved":0,"last_update":"0001-01-01T00:00:00Z","name_a2s":"Uncletopia | San Francisco | 4 | Community","protocol":17,"map":"workshop/pl_boundary_final1.ugc456799153","folder":"tf","game":"Team Fortress","app_id":440,"player_count":0,"max_players":24,"Bots":0,"server_type":"Dedicated","server_os":"Linux","password":true,"vac":true,"version":"7961495","steam_id":85568392924742826,"keywords":["nocrits","nodmgspread","payload","uncletopia"],"game_id":440,"stv_port":27046,"stv_name":"Uncletopia | San Francisco | 4 | Community | STV","players":null},{"server_id":141,"name":"Uncletopia | Sydney | 1 | All Maps","name_short":"syd-1","host":"syd-1.au.uncletopia.com","port":27015,"enabled":true,"region":"au","cc":"au","latitude":-33.865143,"longitude":151.2099,"reserved":0,"last_update":"0001-01-01T00:00:00Z","name_a2s":"Uncletopia | Sydney | 1 | All Maps","protocol":17,"map":"pl_badwater","folder":"tf","game":"Team Fortress","app_id":440,"player_count":22,"max_players":24,"Bots":0,"server_type":"Dedicated","server_os":"Linux","password":true,"vac":true,"version":"7961495","steam_id":85568392924470001,"keywords":["nocrits","nodmgspread","payload","uncletopia"],"game_id":440,"stv_port":27016,"stv_name":"Uncletopia | Sydney | 1 | All Maps | STV","players":[{"user_id":178,"name":"8MILLION (del david)","steam_id":76561198140339181,"connected_time":3509000000000,"state":"active","ping":52},{"user_id":177,"name":"Really(Del Davis)","steam_id":76561198153397177,"connected_time":3623000000000,"state":"active","ping":55},{"user_id":180,"name":"Daniel Chong (Del Davis)","steam_id":76561199009189725,"connected_time":3482000000000,"state":"active","ping":71},{"user_id":212,"name":"Medieval Cucumber Sorcerer","steam_id":76561198972095766,"connected_time":1789000000000,"state":"active","ping":41},{"user_id":231,"name":"DIY Miracle","steam_id":76561198046228152,"connected_time":391000000000,"state":"active","ping":157},{"user_id":234,"name":"maximind123","steam_id":76561199237473824,"connected_time":29000000000,"state":"active","ping":60},{"user_id":224,"name":"Snuky","steam_id":76561198117902338,"connected_time":716000000000,"state":"active","ping":45},{"user_id":235,"name":"austinsmith","steam_id":76561198167838540,"connected_time":11000000000,"state":"spawning","ping":377},{"user_id":226,"name":"Sexy_sloth","steam_id":76561198428305130,"connected_time":655000000000,"state":"active","ping":134},{"user_id":194,"name":"human696982","steam_id":76561199496222946,"connected_time":2746000000000,"state":"active","ping":173},{"user_id":227,"name":"adammagee","steam_id":76561197972653972,"connected_time":602000000000,"state":"active","ping":52},{"user_id":211,"name":"Beangodhiann","steam_id":76561198189663681,"connected_time":1918000000000,"state":"active","ping":55},{"user_id":172,"name":"P. Ness","steam_id":76561198037664265,"connected_time":4072000000000,"state":"active","ping":60},{"user_id":225,"name":"Nevron","steam_id":76561198128049036,"connected_time":700000000000,"state":"active","ping":68},{"user_id":223,"name":"Psychohazard","steam_id":76561198128150349,"connected_time":747000000000,"state":"active","ping":70},{"user_id":214,"name":"i scuk","steam_id":76561198064581289,"connected_time":1676000000000,"state":"active","ping":75},{"user_id":207,"name":"Victor","steam_id":76561198324441442,"connected_time":2160000000000,"state":"active","ping":74},{"user_id":232,"name":"Dangerous DPad","steam_id":76561198452829128,"connected_time":221000000000,"state":"active","ping":72},{"user_id":198,"name":"grandpa","steam_id":76561198054265152,"connected_time":2627000000000,"state":"active","ping":99},{"user_id":171,"name":"fun haver","steam_id":76561197996866578,"connected_time":4139000000000,"state":"active","ping":59},{"user_id":222,"name":"Batering","steam_id":76561198039849442,"connected_time":837000000000,"state":"active","ping":53},{"user_id":220,"name":"Pompadouraus","steam_id":76561198327530525,"connected_time":957000000000,"state":"active","ping":75}]},{"server_id":123,"name":"Uncletopia | Sydney | 2 | All Maps","name_short":"syd-2","host":"syd-1.au.uncletopia.com","port":27025,"enabled":true,"region":"au","cc":"au","latitude":-33.865143,"longitude":151.2099,"reserved":0,"last_update":"0001-01-01T00:00:00Z","name_a2s":"Uncletopia | Sydney | 2 | All Maps","protocol":17,"map":"koth_lakeside_final","folder":"tf","game":"Team Fortress","app_id":440,"player_count":0,"max_players":24,"Bots":0,"server_type":"Dedicated","server_os":"Linux","password":true,"vac":true,"version":"7961495","steam_id":85568392924470002,"keywords":["cp","nocrits","nodmgspread","uncletopia"],"game_id":440,"stv_port":27026,"stv_name":"Uncletopia | Sydney | 2 | All Maps | STV","players":null},{"server_id":395,"name":"Uncletopia | Sydney | 3 | All Maps","name_short":"syd-3","host":"syd-1.au.uncletopia.com","port":27035,"enabled":true,"region":"au","cc":"au","latitude":-33.865143,"longitude":151.2099,"reserved":0,"last_update":"0001-01-01T00:00:00Z","name_a2s":"Uncletopia | Sydney | 3 | All Maps","protocol":17,"map":"koth_cascade","folder":"tf","game":"Team Fortress","app_id":440,"player_count":0,"max_players":24,"Bots":0,"server_type":"Dedicated","server_os":"Linux","password":true,"vac":true,"version":"7961495","steam_id":85568392925194467,"keywords":["cp","nocrits","nodmgspread","uncletopia"],"game_id":440,"stv_port":27036,"stv_name":"Uncletopia | Sydney | 3 | All Maps | STV","players":null},{"server_id":396,"name":"Uncletopia | Sydney | 4 | All Maps","name_short":"syd-4","host":"syd-1.au.uncletopia.com","port":27045,"enabled":true,"region":"au","cc":"au","latitude":-33.865143,"longitude":151.2099,"reserved":0,"last_update":"0001-01-01T00:00:00Z","name_a2s":"Uncletopia | Sydney | 4 | All Maps","protocol":17,"map":"cp_process_final","folder":"tf","game":"Team Fortress","app_id":440,"player_count":0,"max_players":24,"Bots":0,"server_type":"Dedicated","server_os":"Linux","password":true,"vac":true,"version":"7961495","steam_id":85568392925397958,"keywords":["cp","nocrits","nodmgspread","uncletopia"],"game_id":440,"stv_port":27046,"stv_name":"Uncletopia | Sydney | 4 | All Maps | STV","players":null},{"server_id":58,"name":"Uncletopia | Sydney | 5 | Stopwatch","name_short":"syd-5","host":"syd-1.au.uncletopia.com","port":27055,"enabled":true,"region":"au","cc":"au","latitude":-33.865143,"longitude":151.2099,"reserved":0,"last_update":"0001-01-01T00:00:00Z","name_a2s":"Uncletopia | Sydney | 5 | Stopwatch","protocol":17,"map":"workshop/koth_bagel_rc6.ugc2514036946","folder":"tf","game":"Team Fortress","app_id":440,"player_count":0,"max_players":24,"Bots":0,"server_type":"Dedicated","server_os":"Linux","password":true,"vac":true,"version":"7961495","steam_id":85568392925397959,"keywords":["cp","nocrits","nodmgspread","uncletopia"],"game_id":440,"stv_port":27056,"stv_name":"Uncletopia | Sydney | 5 | Stopwatch | STV","players":null},{"server_id":59,"name":"Uncletopia | Sydney | 6 | Community","name_short":"syd-6","host":"syd-1.au.uncletopia.com","port":27065,"enabled":true,"region":"au","cc":"au","latitude":-33.865143,"longitude":151.2099,"reserved":0,"last_update":"0001-01-01T00:00:00Z","name_a2s":"Uncletopia | Sydney | 6 | Community","protocol":17,"map":"workshop/koth_kemptown_rc1.ugc767410655","folder":"tf","game":"Team Fortress","app_id":440,"player_count":0,"max_players":24,"Bots":0,"server_type":"Dedicated","server_os":"Linux","password":true,"vac":true,"version":"7961495","steam_id":85568392925397960,"keywords":["cp","nocrits","nodmgspread","uncletopia"],"game_id":440,"stv_port":27066,"stv_name":"Uncletopia | Sydney | 6 | Community | STV","players":null},{"server_id":49,"name":"Uncletopia | Warsaw | 1 | One Thousand Uncles","name_short":"waw-1","host":"waw-1.pl.uncletopia.com","port":27015,"enabled":true,"region":"eu","cc":"pl","latitude":52.2297,"longitude":21.017532,"reserved":0,"last_update":"0001-01-01T00:00:00Z","name_a2s":"Uncletopia | Warsaw | 1 | One Thousand Uncles","protocol":17,"map":"pl_badwater","folder":"tf","game":"Team Fortress","app_id":440,"player_count":0,"max_players":32,"Bots":0,"server_type":"Dedicated","server_os":"Linux","password":true,"vac":true,"version":"7961495","steam_id":85568392925397850,"keywords":["alltalk","danepve","increased_maxplayers","nocrits","norespawntime","payload","uncletopia"],"game_id":440,"stv_port":0,"stv_name":"","players":null},{"server_id":50,"name":"Uncletopia | Warsaw | 2 | One Thousand Uncles","name_short":"waw-2","host":"waw-1.pl.uncletopia.com","port":27025,"enabled":true,"region":"eu","cc":"pl","latitude":52.2297,"longitude":21.017532,"reserved":0,"last_update":"0001-01-01T00:00:00Z","name_a2s":"Uncletopia | Warsaw | 2 | One Thousand Uncles","protocol":17,"map":"pl_barnblitz","folder":"tf","game":"Team Fortress","app_id":440,"player_count":0,"max_players":32,"Bots":0,"server_type":"Dedicated","server_os":"Linux","password":true,"vac":true,"version":"7961495","steam_id":85568392925397851,"keywords":["alltalk","danepve","increased_maxplayers","nocrits","norespawntime","payload","uncletopia"],"game_id":440,"stv_port":0,"stv_name":"","players":null},{"server_id":51,"name":"Uncletopia | Warsaw | 3 | All Maps","name_short":"waw-3","host":"waw-1.pl.uncletopia.com","port":27035,"enabled":true,"region":"eu","cc":"pl","latitude":52.2297,"longitude":21.017532,"reserved":0,"last_update":"0001-01-01T00:00:00Z","name_a2s":"Uncletopia | Warsaw | 3 | All Maps","protocol":17,"map":"koth_cascade","folder":"tf","game":"Team Fortress","app_id":440,"player_count":0,"max_players":24,"Bots":0,"server_type":"Dedicated","server_os":"Linux","password":true,"vac":true,"version":"7961495","steam_id":85568392925397852,"keywords":["cp","nocrits","nodmgspread","uncletopia"],"game_id":440,"stv_port":27036,"stv_name":"Uncletopia | Warsaw | 3 | All Maps | STV","players":null},{"server_id":52,"name":"Uncletopia | Warsaw | 4 | All Maps","name_short":"waw-4","host":"waw-1.pl.uncletopia.com","port":27045,"enabled":true,"region":"eu","cc":"pl","latitude":52.2297,"longitude":21.017532,"reserved":0,"last_update":"0001-01-01T00:00:00Z","name_a2s":"Uncletopia | Warsaw | 4 | All Maps","protocol":17,"map":"pl_pier","folder":"tf","game":"Team Fortress","app_id":440,"player_count":0,"max_players":24,"Bots":0,"server_type":"Dedicated","server_os":"Linux","password":true,"vac":true,"version":"7961495","steam_id":85568392925397853,"keywords":["nocrits","nodmgspread","payload","uncletopia"],"game_id":440,"stv_port":27046,"stv_name":"Uncletopia | Warsaw | 4 | All Maps | STV","players":null},{"server_id":53,"name":"Uncletopia | Warsaw | 5 | Stopwatch","name_short":"waw-5","host":"waw-1.pl.uncletopia.com","port":27055,"enabled":true,"region":"eu","cc":"pl","latitude":52.2297,"longitude":21.017532,"reserved":0,"last_update":"0001-01-01T00:00:00Z","name_a2s":"Uncletopia | Warsaw | 5 | Stopwatch","protocol":17,"map":"koth_lakeside_final","folder":"tf","game":"Team Fortress","app_id":440,"player_count":0,"max_players":24,"Bots":0,"server_type":"Dedicated","server_os":"Linux","password":true,"vac":true,"version":"7961495","steam_id":85568392925397854,"keywords":["cp","nocrits","nodmgspread","uncletopia"],"game_id":440,"stv_port":27056,"stv_name":"Uncletopia | Warsaw | 5 | Stopwatch | STV","players":null},{"server_id":54,"name":"Uncletopia | Warsaw | 6 | Community","name_short":"waw-6","host":"waw-1.pl.uncletopia.com","port":27065,"enabled":true,"region":"eu","cc":"pl","latitude":52.2297,"longitude":21.017532,"reserved":0,"last_update":"0001-01-01T00:00:00Z","name_a2s":"Uncletopia | Warsaw | 6 | Community","protocol":17,"map":"workshop/cp_indulge.ugc528106646","folder":"tf","game":"Team Fortress","app_id":440,"player_count":0,"max_players":24,"Bots":0,"server_type":"Dedicated","server_os":"Linux","password":true,"vac":true,"version":"7961495","steam_id":85568392925397856,"keywords":["cp","nocrits","nodmgspread","uncletopia"],"game_id":440,"stv_port":27066,"stv_name":"Uncletopia | Warsaw | 6 | Community | STV","players":null}]}