{"status":true,"message":"","result":[{"server_id":9,"name":"Uncletopia | Atlanta | 1 | All Maps","name_short":"atl-1","host":"atl-1.us.uncletopia.com","port":27015,"enabled":true,"region":"us-east","cc":"us","latitude":33.753746,"longitude":-84.38633,"reserved":0,"last_update":"0001-01-01T00:00:00Z","name_a2s":"Uncletopia | Atlanta | 1 | All Maps","protocol":17,"map":"koth_highpass","folder":"tf","game":"Team Fortress","app_id":440,"player_count":0,"max_players":24,"Bots":0,"server_type":"Dedicated","server_os":"Linux","password":false,"vac":true,"version":"7961495","steam_id":85568392924469982,"keywords":["cp","nocrits","nodmgspread","uncletopia"],"game_id":440,"stv_port":27016,"stv_name":"Uncletopia | Atlanta | 1 | All Maps | STV","players":null},{"server_id":104,"name":"Uncletopia | Atlanta | 2 | All Maps","name_short":"atl-2","host":"atl-1.us.uncletopia.com","port":27025,"enabled":true,"region":"us-east","cc":"us","latitude":33.753746,"longitude":-84.38633,"reserved":0,"last_update":"0001-01-01T00:00:00Z","name_a2s":"Uncletopia | Atlanta | 2 | All Maps","protocol":17,"map":"cp_mountainlab","folder":"tf","game":"Team Fortress","app_id":440,"player_count":0,"max_players":24,"Bots":0,"server_type":"Dedicated","server_os":"Linux","password":false,"vac":true,"version":"7961495","steam_id":85568392924469983,"keywords":["cp","nocrits","nodmgspread","uncletopia"],"game_id":440,"stv_port":27026,"stv_name":"Uncletopia | Atlanta | 2 | All Maps | STV","players":null},{"server_id":400,"name":"Uncletopia | Atlanta | 3 | All Maps","name_short":"atl-3","host":"atl-1.us.uncletopia.com","port":27035,"enabled":true,"region":"us-east","cc":"us","latitude":33.753746,"longitude":-84.38633,"reserved":0,"last_update":"0001-01-01T00:00:00Z","name_a2s":"Uncletopia | Atlanta | 3 | All Maps","protocol":17,"map":"cp_process_final","folder":"tf","game":"Team Fortress","app_id":440,"player_count":0,"max_players":24,"Bots":0,"server_type":"Dedicated","server_os":"Linux","password":false,"vac":true,"version":"7961495","steam_id":85568392924515187,"keywords":["cp","nocrits","nodmgspread","uncletopia"],"game_id":440,"stv_port":27036,"stv_name":"Uncletopia | Atlanta | 3 | All Maps | STV","players":null},{"server_id":401,"name":"Uncletopia | Atlanta | 4 | Community","name_short":"atl-4","host":"atl-1.us.uncletopia.com","port":27045,"enabled":true,"region":"us-east","cc":"us","latitude":33.753746,"longitude":-84.38633,"reserved":0,"last_update":"0001-01-01T00:00:00Z","name_a2s":"Uncletopia | Atlanta | 4 | Community","protocol":17,"map":"koth_lakeside_final","folder":"tf","game":"Team Fortress","app_id":440,"player_count":0,"max_players":24,"Bots":0,"server_type":"Dedicated","server_os":"Linux","password":false,"vac":true,"version":"7961495","steam_id":85568392924515188,"keywords":["cp","nocrits","nodmgspread","uncletopia"],"game_id":440,"stv_port":27046,"stv_name":"Uncletopia | Atlanta | 4 | Community | STV","players":null},{"server_id":2,"name":"Uncletopia | Chicago | 1 | All Maps","name_short":"chi-1","host":"chi-1.us.uncletopia.com","port":27015,"enabled":true,"region":"us-central","cc":"us","latitude":41.881832,"longitude":-87.62318,"reserved":0,"last_update":"0001-01-01T00:00:00Z","name_a2s":"Uncletopia | Chicago | 1 | All Maps","protocol":17,"map":"koth_highpass","folder":"tf","game":"Team Fortress","app_id":440,"player_count":0,"max_players":24,"Bots":0,"server_type":"Dedicated","server_os":"Linux","password":true,"vac":true,"version":"7961495","steam_id":85568392924469984,"keywords":["cp","nocrits","nodmgspread","uncletopia"],"game_id":440,"stv_port":27016,"stv_name":"Uncletopia | Chicago | 1 | All Maps | STV","players":null},{"server_id":106,"name":"Uncletopia | Chicago | 2 | All Maps","name_short":"chi-2","host":"chi-1.us.uncletopia.com","port":27025,"enabled":true,"region":"us-central","cc":"us","latitude":41.881832,"longitude":-87.62318,"reserved":0,"last_update":"0001-01-01T00:00:00Z","name_a2s":"Uncletopia | Chicago | 2 | All Maps","protocol":17,"map":"pl_badwater","folder":"tf","game":"Team Fortress","app_id":440,"player_count":24,"max_players":24,"Bots":0,"server_type":"Dedicated","server_os":"Linux","password":true,"vac":true,"version":"7961495","steam_id":85568392924469985,"keywords":["nocrits","nodmgspread","payload","uncletopia"],"game_id":440,"stv_port":27026,"stv_name":"Uncletopia | Chicago | 2 | All Maps | STV","players":[{"user_id":746,"name":"Yongle","steam_id":76561198068591156,"connected_time":651000000000,"state":"active","ping":54},{"user_id":747,"name":"Tony hawks pro skater 2 dlc","steam_id":76561198243387974,"connected_time":584000000000,"state":"active","ping":72},{"user_id":741,"name":"GoldtoothFour","steam_id":76561198055529332,"connected_time":779000000000,"state":"active","ping":53},{"user_id":763,"name":"tydogzilla","steam_id":76561198054254518,"connected_time":252000000000,"state":"active","ping":59},{"user_id":707,"name":"Am da Best","steam_id":76561198163825955,"connected_time":5521000000000,"state":"active","ping":115},{"user_id":589,"name":"eish","steam_id":76561198089463603,"connected_time":14557000000000,"state":"active","ping":128},{"user_id":729,"name":"The Collective(Hypnotist)","steam_id":76561198170423483,"connected_time":2049000000000,"state":"active","ping":70},{"user_id":767,"name":"Monochrome | Cashmoney","steam_id":76561198377320040,"connected_time":17000000000,"state":"active","ping":84},{"user_id":670,"name":"DragonFalcon™","steam_id":76561198044559930,"connected_time":8638000000000,"state":"active","ping":76},{"user_id":679,"name":"Allegro","steam_id":76561198084599587,"connected_time":7963000000000,"state":"active","ping":74},{"user_id":758,"name":"Ġ1 ♦ Synth","steam_id":76561198058660228,"connected_time":358000000000,"state":"active","ping":59},{"user_id":756,"name":"panda0726","steam_id":76561198281948574,"connected_time":408000000000,"state":"active","ping":55},{"user_id":750,"name":"Nightmare","steam_id":76561198409907417,"connected_time":516000000000,"state":"active","ping":104},{"user_id":754,"name":"Actually Reb","steam_id":76561198087307468,"connected_time":444000000000,"state":"active","ping":102},{"user_id":755,"name":"Neo Kojiro","steam_id":76561198000967076,"connected_time":434000000000,"state":"active","ping":87},{"user_id":721,"name":"codeine demon","steam_id":76561198051015496,"connected_time":3325000000000,"state":"active","ping":99},{"user_id":716,"name":"spoon","steam_id":76561198927517471,"connected_time":3902000000000,"state":"active","ping":71},{"user_id":759,"name":"GuyGoom","steam_id":76561198254522178,"connected_time":305000000000,"state":"active","ping":55},{"user_id":760,"name":"BuncusBeffer","steam_id":76561198285936616,"connected_time":292000000000,"state":"active","ping":106},{"user_id":761,"name":"God's Drunkest Driver","steam_id":76561199174579733,"connected_time":286000000000,"state":"active","ping":66},{"user_id":732,"name":"Crack Enjoyer","steam_id":76561198139413277,"connected_time":1873000000000,"state":"active","ping":72},{"user_id":768,"name":"Acolyte of Goatse","steam_id":76561198046526036,"connected_time":13000000000,"state":"active","ping":109},{"user_id":737,"name":"StealthyZeroTwo","steam_id":76561198942692649,"connected_time":1770000000000,"state":"active","ping":75}]},{"server_id":402,"name":"Uncletopia | Chicago | 3 | All Maps","name_short":"chi-3","host":"chi-1.us.uncletopia.com","port":27035,"enabled":true,"region":"us-central","cc":"us","latitude":41.881832,"longitude":-87.62318,"reserved":0,"last_update":"0001-01-01T00:00:00Z","name_a2s":"Uncletopia | Chicago | 3 | All Maps","protocol":17,"map":"cp_5gorge","folder":"tf","game":"Team Fortress","app_id":440,"player_count":0,"max_players":24,"Bots":0,"server_type":"Dedicated","server_os":"Linux","password":true,"vac":true,"version":"7961495","steam_id":85568392924515191,"keywords":["cp","nocrits","nodmgspread","uncletopia"],"game_id":440,"stv_port":27036,"stv_name":"Uncletopia | Chicago | 3 | All Maps | STV","players":null},{"server_id":403,"name":"Uncletopia | Chicago | 4 | All Maps","name_short":"chi-4","host":"chi-1.us.uncletopia.com","port":27045,"enabled":true,"region":"us-central","cc":"us","latitude":41.881832,"longitude":-87.62318,"reserved":0,"last_update":"0001-01-01T00:00:00Z","name_a2s":"Uncletopia | Chicago | 4 | All Maps","protocol":17,"map":"pl_upward","folder":"tf","game":"Team Fortress","app_id":440,"player_count":24,"max_players":24,"Bots":0,"server_type":"Dedicated","server_os":"Linux","password":true,"vac":true,"version":"7961495","steam_id":85568392924515193,"keywords":["nocrits","nodmgspread","payload","uncletopia"],"game_id":440,"stv_port":27046,"stv_name":"Uncletopia | Chicago | 4 | All Maps | STV","players":[{"user_id":1092,"name":"?","steam_id":76561198153511890,"connected_time":164000000000,"state":"active","ping":74},{"user_id":1090,"name":"Wire","steam_id":76561198075740993,"connected_time":466000000000,"state":"active","ping":78},{"user_id":1076,"name":"Magik","steam_id":76561198200169706,"connected_time":2029000000000,"state":"active","ping":54},{"user_id":1037,"name":"gaslight, gatekeep, girlboss","steam_id":76561198123287268,"connected_time":5625000000000,"state":"active","ping":47},{"user_id":1053,"name":"roast pig with apple in mouth","steam_id":76561198051353647,"connected_time":4760000000000,"state":"active","ping":62},{"user_id":1091,"name":"-.^","steam_id":76561198881665250,"connected_time":326000000000,"state":"active","ping":96},{"user_id":1041,"name":"Mitchell","steam_id":76561198072641336,"connected_time":5569000000000,"state":"active","ping":76},{"user_id":1061,"name":"SiphonFIre","steam_id":76561198305327992,"connected_time":3313000000000,"state":"active","ping":87},{"user_id":1077,"name":"Pat","steam_id":76561198283767547,"connected_time":1872000000000,"state":"active","ping":89},{"user_id":1086,"name":"PabloGonzalez2007","steam_id":76561198238664158,"connected_time":1120000000000,"state":"active","ping":72},{"user_id":1067,"name":"huh","steam_id":76561199112281124,"connected_time":2844000000000,"state":"active","ping":96},{"user_id":1093,"name":"Vampire","steam_id":76561198162559558,"connected_time":46000000000,"state":"active","ping":59},{"user_id":1074,"name":"FluorescentDome","steam_id":76561198046897504,"connected_time":2481000000000,"state":"active","ping":60},{"user_id":1052,"name":"Hell's Reindeer","steam_id":76561198065310364,"connected_time":4771000000000,"state":"active","ping":55},{"user_id":1069,"name":"rustlover773","steam_id":76561198146366698,"connected_time":2811000000000,"state":"active","ping":71},{"user_id":1024,"name":"Michaelpc1","steam_id":76561198088365519,"connected_time":6901000000000,"state":"active","ping":75},{"user_id":1080,"name":"Alli","steam_id":76561198075134582,"connected_time":1300000000000,"state":"active","ping":60},{"user_id":1094,"name":"LaunchpadMcQuack","steam_id":76561198022302377,"connected_time":14000000000,"state":"spawning","ping":58},{"user_id":1071,"name":"Evil little man","steam_id":76561198311053471,"connected_time":2740000000000,"state":"active","ping":75},{"user_id":1085,"name":"ColdTooth","steam_id":76561197994963901,"connected_time":1187000000000,"state":"active","ping":77},{"user_id":1095,"name":"day","steam_id":76561198194939617,"connected_time":2000000000,"state":"spawning","ping":54},{"user_id":1063,"name":"Malevolo Cucaracho","steam_id":76561198055822497,"connected_time":3254000000000,"state":"active","ping":141},{"user_id":1075,"name":"yomommasabitch","steam_id":76561198323217150,"connected_time":2348000000000,"state":"active","ping":60},{"user_id":1060,"name":"Nagasakii","steam_id":76561198110013221,"connected_time":3597000000000,"state":"active","ping":95}]},{"server_id":36,"name":"Uncletopia | Chicago | 5 | All Maps","name_short":"chi-5","host":"chi-2.us.uncletopia.com","port":27015,"enabled":true,"region":"us-central","cc":"us","latitude":41.881832,"longitude":-87.62318,"reserved":0,"last_update":"0001-01-01T00:00:00Z","name_a2s":"Uncletopia | Chicago | 5 | All Maps","protocol":17,"map":"koth_viaduct","folder":"tf","game":"Team Fortress","app_id":440,"player_count":0,"max_players":24,"Bots":0,"server_type":"Dedicated","server_os":"Linux","password":true,"vac":true,"version":"7961495","steam_id":85568392924866362,"keywords":["cp","nocrits","nodmgspread","uncletopia"],"game_id":440,"stv_port":27016,"stv_name":"Uncletopia | Chicago | 5 | All Maps | STV","players":null},{"server_id":37,"name":"Uncletopia | Chicago | 6 | All Maps","name_short":"chi-6","host":"chi-2.us.uncletopia.com","port":27025,"enabled":true,"region":"us-central","cc":"us","latitude":41.881832,"longitude":-87.62318,"reserved":0,"last_update":"0001-01-01T00:00:00Z","name_a2s":"Uncletopia | Chicago | 6 | All Maps","protocol":17,"map":"pl_borneo","folder":"tf","game":"Team Fortress","app_id":440,"player_count":0,"max_players":24,"Bots":0,"server_type":"Dedicated","server_os":"Linux","password":true,"vac":true,"version":"7961495","steam_id":85568392924866363,"keywords":["nocrits","nodmgspread","payload","uncletopia"],"game_id":440,"stv_port":27026,"stv_name":"Uncletopia | Chicago | 6 | All Maps | STV","players":null},{"server_id":38,"name":"Uncletopia | Chicago | 7 | Stopwatch Beta","name_short":"chi-7","host":"chi-2.us.uncletopia.com","port":27035,"enabled":true,"region":"us-central","cc":"us","latitude":41.881832,"longitude":-87.62318,"reserved":0,"last_update":"0001-01-01T00:00:00Z","name_a2s":"Uncletopia | Chicago | 7 | Stopwatch Beta","protocol":17,"map":"pl_badwater","folder":"tf","game":"Team Fortress","app_id":440,"player_count":0,"max_players":24,"Bots":0,"server_type":"Dedicated","server_os":"Linux","password":true,"vac":true,"version":"7961495","steam_id":85568392924866364,"keywords":["nocrits","nodmgspread","payload","uncletopia"],"game_id":440,"stv_port":27036,"stv_name":"Uncletopia | Chicago | 7 | Stopwatch Beta | STV","players":null},{"server_id":39,"name":"Uncletopia | Chicago | 8 | Community","name_short":"chi-8","host":"chi-2.us.uncletopia.com","port":27045,"enabled":true,"region":"us-central","cc":"us","latitude":41.881832,"longitude":-87.62318,"reserved":0,"last_update":"0001-01-01T00:00:00Z","name_a2s":"Uncletopia | Chicago | 8 | Community","protocol":17,"map":"workshop/koth_slaughter_rc1.ugc1712845210","folder":"tf","game":"Team Fortress","app_id":440,"player_count":0,"max_players":24,"Bots":0,"server_type":"Dedicated","server_os":"Linux","password":true,"vac":true,"version":"7961495","steam_id":85568392924866365,"keywords":["cp","nocrits","nodmgspread","uncletopia"],"game_id":440,"stv_port":27046,"stv_name":"Uncletopia | Chicago | 8 | Community | STV","players":null},{"server_id":8,"name":"Uncletopia | Dallas | 1 | All Maps","name_short":"dal-1","host":"dal-1.us.uncletopia.com","port":27015,"enabled":true,"region":"us-central","cc":"us","latitude":32.779167,"longitude":-96.80889,"reserved":0,"last_update":"0001-01-01T00:00:00Z","name_a2s":"Uncletopia | Dallas | 1 | All Maps","protocol":17,"map":"pl_upward","folder":"tf","game":"Team Fortress","app_id":440,"player_count":24,"max_players":24,"Bots":0,"server_type":"Dedicated","server_os":"Linux","password":true,"vac":true,"version":"7961495","steam_id":85568392924469986,"keywords":["nocrits","nodmgspread","payload","uncletopia"],"game_id":440,"stv_port":27016,"stv_name":"Uncletopia | Dallas | 1 | All Maps | STV","players":[{"user_id":1067,"name":"Galalendon","steam_id":76561198055771198,"connected_time":1124000000000,"state":"active","ping":124},{"user_id":1073,"name":"Rovsson","steam_id":76561198274949596,"connected_time":1059000000000,"state":"active","ping":80},{"user_id":1064,"name":"Galactamarx","steam_id":76561198028065755,"connected_time":1268000000000,"state":"active","ping":70},{"user_id":1083,"name":"Rodgedan","steam_id":76561198226236524,"connected_time":593000000000,"state":"active","ping":99},{"user_id":1077,"name":"tooru_hagakure, exhibitionism","steam_id":76561198097330521,"connected_time":869000000000,"state":"active","ping":132},{"user_id":1078,"name":"_Ati","steam_id":76561198339777801,"connected_time":861000000000,"state":"active","ping":82},{"user_id":1089,"name":"2010 Honda Civic Si Sedan","steam_id":76561198926416886,"connected_time":106000000000,"state":"active","ping":67},{"user_id":1069,"name":"MarioManz | troutsupply.net","steam_id":76561198123454475,"connected_time":1089000000000,"state":"active","ping":51},{"user_id":1087,"name":"gromit","steam_id":76561198037746805,"connected_time":321000000000,"state":"active","ping":91},{"user_id":1082,"name":"Cyberwulph","steam_id":76561198297412789,"connected_time":663000000000,"state":"active","ping":104},{"user_id":1059,"name":"zacharylynch0","steam_id":76561198328295107,"connected_time":2412000000000,"state":"active","ping":84},{"user_id":1035,"name":"Nox(She/They)Very eepy","steam_id":76561198141950842,"connected_time":4327000000000,"state":"active","ping":67},{"user_id":1088,"name":"marty","steam_id":76561198032782746,"connected_time":310000000000,"state":"active","ping":89},{"user_id":1037,"name":"More Gay Than U","steam_id":76561198043431819,"connected_time":4090000000000,"state":"active","ping":89},{"user_id":1054,"name":"Mr. DeLarge","steam_id":76561198336820066,"connected_time":2627000000000,"state":"active","ping":110},{"user_id":1055,"name":"Deadline","steam_id":76561199079078845,"connected_time":2603000000000,"state":"active","ping":101},{"user_id":1084,"name":"Eden Hazard","steam_id":76561198089241053,"connected_time":460000000000,"state":"active","ping":78},{"user_id":1056,"name":"brae","steam_id":76561198047126327,"connected_time":2577000000000,"state":"active","ping":105},{"user_id":1057,"name":"{ST} Oxythemoron","steam_id":76561198060089965,"connected_time":2487000000000,"state":"active","ping":60},{"user_id":1075,"name":"mel","steam_id":76561198215559840,"connected_time":976000000000,"state":"active","ping":69},{"user_id":1061,"name":"SkyFlyWhite","steam_id":76561198241383126,"connected_time":1681000000000,"state":"active","ping":90},{"user_id":1085,"name":"JKEMEISTR","steam_id":76561198082146326,"connected_time":344000000000,"state":"active","ping":98},{"user_id":1086,"name":"Team Fartpiss Poo","steam_id":76561199163591880,"connected_time":335000000000,"state":"active","ping":94},{"user_id":1039,"name":"Clubs","steam_id":76561198271133942,"connected_time":4074000000000,"state":"active","ping":58}]},{"server_id":108,"name":"Uncletopia | Dallas | 2 | All Maps","name_short":"dal-2","host":"dal-1.us.uncletopia.com","port":27025,"enabled":true,"region":"us-central","cc":"us","latitude":32.779167,"longitude":-96.80889,"reserved":0,"last_update":"0001-01-01T00:00:00Z","name_a2s":"Uncletopia | Dallas | 2 | All Maps","protocol":17,"map":"koth_viaduct","folder":"tf","game":"Team Fortress","app_id":440,"player_count":13,"max_players":24,"Bots":0,"server_type":"Dedicated","server_os":"Linux","password":true,"vac":true,"version":"7961495","steam_id":85568392924469988,"keywords":["cp","nocrits","nodmgspread","uncletopia"],"game_id":440,"stv_port":27026,"stv_name":"Uncletopia | Dallas | 2 | All Maps | STV","players":[{"user_id":780,"name":"N00SE","steam_id":76561198211473307,"connected_time":2779000000000,"state":"active","ping":77},{"user_id":806,"name":"Das Anchor","steam_id":76561198060173151,"connected_time":286000000000,"state":"active","ping":80},{"user_id":807,"name":"rainbow","steam_id":76561198371781994,"connected_time":200000000000,"state":"active","ping":230},{"user_id":802,"name":"RIP_RUBEN","steam_id":76561199311833937,"connected_time":842000000000,"state":"active","ping":261},{"user_id":803,"name":"PILLO1_3","steam_id":76561199474911135,"connected_time":841000000000,"state":"active","ping":264},{"user_id":709,"name":"Snoopy","steam_id":76561198273735974,"connected_time":7982000000000,"state":"active","ping":69},{"user_id":801,"name":"ChizeledBoy","steam_id":76561199369558089,"connected_time":899000000000,"state":"active","ping":105},{"user_id":804,"name":"get some bitches","steam_id":76561198087439612,"connected_time":666000000000,"state":"active","ping":88},{"user_id":809,"name":"Lucil3 on Bandcamp","steam_id":76561198149063013,"connected_time":51000000000,"state":"active","ping":55},{"user_id":785,"name":"Nortel Network Telephone T7316","steam_id":76561198399261089,"connected_time":2222000000000,"state":"active","ping":75},{"user_id":778,"name":"Whip_the_Rabbit","steam_id":76561198049896057,"connected_time":2953000000000,"state":"active","ping":92},{"user_id":797,"name":"Rearranging furniture","steam_id":76561199054971009,"connected_time":1451000000000,"state":"active","ping":46},{"user_id":729,"name":"DeckofDragons","steam_id":76561198057398213,"connected_time":6696000000000,"state":"active","ping":67}]},{"server_id":404,"name":"Uncletopia | Dallas | 3 | All Maps","name_short":"dal-3","host":"dal-1.us.uncletopia.com","port":27035,"enabled":true,"region":"us-central","cc":"us","latitude":32.779167,"longitude":-96.80889,"reserved":0,"last_update":"0001-01-01T00:00:00Z","name_a2s":"Uncletopia | Dallas | 3 | All Maps","protocol":17,"map":"cp_sunshine","folder":"tf","game":"Team Fortress","app_id":440,"player_count":0,"max_players":24,"Bots":0,"server_type":"Dedicated","server_os":"Linux","password":true,"vac":true,"version":"7961495","steam_id":85568392924515219,"keywords":["cp","nocrits","nodmgspread","uncletopia"],"game_id":440,"stv_port":27036,"stv_name":"Uncletopia | Dallas | 3 | All Maps | STV","players":null},{"server_id":405,"name":"Uncletopia | Dallas | 4 | Community","name_short":"dal-4","host":"dal-1.us.uncletopia.com","port":27045,"enabled":true,"region":"us-central","cc":"us","latitude":32.779167,"longitude":-96.80889,"reserved":0,"last_update":"0001-01-01T00:00:00Z","name_a2s":"Uncletopia | Dallas | 4 | Community","protocol":17,"map":"workshop/cp_kalinka_rc6a.ugc1272700588","folder":"tf","game":"Team Fortress","app_id":440,"player_count":0,"max_players":24,"Bots":0,"server_type":"Dedicated","server_os":"Linux","password":true,"vac":true,"version":"7961495","steam_id":85568392924515220,"keywords":["cp","nocrits","nodmgspread","uncletopia"],"game_id":440,"stv_port":27046,"stv_name":"Uncletopia | Dallas | 4 | Community | STV","players":null},{"server_id":5,"name":"Uncletopia | Frankfurt | 1 | All Maps","name_short":"frk-1","host":"frk-1.de.uncletopia.com","port":27015,"enabled":true,"region":"eu","cc":"de","latitude":50.110924,"longitude":8.682127,"reserved":0,"last_update":"0001-01-01T00:00:00Z","name_a2s":"Uncletopia | Frankfurt | 1 | All Maps","protocol":17,"map":"pl_snowycoast","folder":"tf","game":"Team Fortress","app_id":440,"player_count":0,"max_players":24,"Bots":0,"server_type":"Dedicated","server_os":"Linux","password":true,"vac":true,"version":"7961495","steam_id":85568392924469989,"keywords":["nocrits","nodmgspread","payload","uncletopia"],"game_id":440,"stv_port":27016,"stv_name":"Uncletopia | Frankfurt | 1 | All Maps | STV","players":null},{"server_id":110,"name":"Uncletopia | Frankfurt | 2 | All Maps","name_short":"frk-2","host":"frk-1.de.uncletopia.com","port":27025,"enabled":true,"region":"eu","cc":"de","latitude":50.110924,"longitude":8.682127,"reserved":0,"last_update":"0001-01-01T00:00:00Z","name_a2s":"Uncletopia | Frankfurt | 2 | All Maps","protocol":17,"map":"koth_lakeside_final","folder":"tf","game":"Team Fortress","app_id":440,"player_count":2,"max_players":24,"Bots":0,"server_type":"Dedicated","server_os":"Linux","password":true,"vac":true,"version":"7961495","steam_id":85568392924469990,"keywords":["cp","nocrits","nodmgspread","uncletopia"],"game_id":440,"stv_port":27026,"stv_name":"Uncletopia | Frankfurt | 2 | All Maps | STV","players":[{"user_id":8,"name":"Barry Bee Benson","steam_id":76561198115199225,"connected_time":280000000000,"state":"active","ping":49},{"user_id":10,"name":"он","steam_id":76561198172046813,"connected_time":130000000000,"state":"active","ping":61}]},{"server_id":308,"name":"Uncletopia | Frankfurt | 3 | All Maps","name_short":"frk-3","host":"frk-1.de.uncletopia.com","port":27035,"enabled":true,"region":"eu","cc":"de","latitude":50.110924,"longitude":8.682127,"reserved":0,"last_update":"0001-01-01T00:00:00Z","name_a2s":"Uncletopia | Frankfurt | 3 | All Maps","protocol":17,"map":"cp_sunshine","folder":"tf","game":"Team Fortress","app_id":440,"player_count":0,"max_players":24,"Bots":0,"server_type":"Dedicated","server_os":"Linux","password":true,"vac":true,"version":"7961495","steam_id":85568392924504274,"keywords":["cp","nocrits","nodmgspread","uncletopia"],"game_id":440,"stv_port":27036,"stv_name":"Uncletopia | Frankfurt | 3 | All Maps | STV","players":null},{"server_id":309,"name":"Uncletopia | Frankfurt | 4 | All Maps","name_short":"frk-4","host":"frk-1.de.uncletopia.com","port":27045,"enabled":true,"region":"eu","cc":"de","latitude":50.110924,"longitude":8.682127,"reserved":0,"last_update":"0001-01-01T00:00:00Z","name_a2s":"Uncletopia | Frankfurt | 4 | All Maps","protocol":17,"map":"cp_altitude","folder":"tf","game":"Team Fortress","app_id":440,"player_count":0,"max_players":24,"Bots":0,"server_type":"Dedicated","server_os":"Linux","password":true,"vac":true,"version":"7961495","steam_id":85568392924504275,"keywords":["cp","nocrits","nodmgspread","uncletopia"],"game_id":440,"stv_port":27046,"stv_name":"Uncletopia | Frankfurt | 4 | All Maps | STV","players":null},{"server_id":310,"name":"Uncletopia | Frankfurt | 5 | All Maps","name_short":"frk-5","host":"frk-1.de.uncletopia.com","port":27055,"enabled":true,"region":"eu","cc":"de","latitude":50.110924,"longitude":8.682127,"reserved":0,"last_update":"0001-01-01T00:00:00Z","name_a2s":"Uncletopia | Frankfurt | 5 | All Maps","protocol":17,"map":"cp_process_final","folder":"tf","game":"Team Fortress","app_id":440,"player_count":0,"max_players":24,"Bots":0,"server_type":"Dedicated","server_os":"Linux","password":true,"vac":true,"version":"7961495","steam_id":85568392924504277,"keywords":["cp","nocrits","nodmgspread","uncletopia"],"game_id":440,"stv_port":27056,"stv_name":"Uncletopia | Frankfurt | 5 | All Maps | STV","players":null},{"server_id":311,"name":"Uncletopia | Frankfurt | 6 | All Maps","name_short":"frk-6","host":"frk-1.de.uncletopia.com","port":27065,"enabled":true,"region":"eu","cc":"de","latitude":50.110924,"longitude":8.682127,"reserved":0,"last_update":"0001-01-01T00:00:00Z","name_a2s":"Uncletopia | Frankfurt | 6 | All Maps","protocol":17,"map":"pl_barnblitz","folder":"tf","game":"Team Fortress","app_id":440,"player_count":0,"max_players":24,"Bots":0,"server_type":"Dedicated","server_os":"Linux","password":true,"vac":true,"version":"7961495","steam_id":85568392924504278,"keywords":["nocrits","nodmgspread","payload","uncletopia"],"game_id":440,"stv_port":27066,"stv_name":"Uncletopia | Frankfurt | 6 | All Maps | STV","players":null},{"server_id":23,"name":"Uncletopia | Frankfurt | 7 | Stopwatch Beta","name_short":"frk-7","host":"frk-1.de.uncletopia.com","port":27075,"enabled":true,"region":"eu","cc":"de","latitude":50.110924,"longitude":8.682127,"reserved":0,"last_update":"0001-01-01T00:00:00Z","name_a2s":"Uncletopia | Frankfurt | 7 | Stopwatch Beta","protocol":17,"map":"koth_cascade","folder":"tf","game":"Team Fortress","app_id":440,"player_count":0,"max_players":24,"Bots":0,"server_type":"Dedicated","server_os":"Linux","password":true,"vac":true,"version":"7961495","steam_id":85568392924742827,"keywords":["cp","nocrits","nodmgspread","uncletopia"],"game_id":440,"stv_port":27076,"stv_name":"Uncletopia | Frankfurt | 7 | Stopwatch Beta | STV","players":null},{"server_id":24,"name":"Uncletopia | Frankfurt | 8 | Community","name_short":"frk-8","host":"frk-1.de.uncletopia.com","port":27085,"enabled":true,"region":"eu","cc":"de","latitude":50.110924,"longitude":8.682127,"reserved":0,"last_update":"0001-01-01T00:00:00Z","name_a2s":"Uncletopia | Frankfurt | 8 | Community","protocol":17,"map":"cp_dustbowl","folder":"tf","game":"Team Fortress","app_id":440,"player_count":0,"max_players":24,"Bots":0,"server_type":"Dedicated","server_os":"Linux","password":true,"vac":true,"version":"7961495","steam_id":85568392924742828,"keywords":["cp","nocrits","nodmgspread","uncletopia"],"game_id":440,"stv_port":27086,"stv_name":"Uncletopia | Frankfurt | 8 | Community | STV","players":null},{"server_id":202,"name":"Uncletopia | Hong Kong | 1 | All Maps","name_short":"hgk-1","host":"hgk-1.hk.uncletopia.com","port":27015,"enabled":true,"region":"asia","cc":"hk","latitude":22.302711,"longitude":114.177216,"reserved":0,"last_update":"0001-01-01T00:00:00Z","name_a2s":"Uncletopia | Hong Kong | 1 | All Maps","protocol":17,"map":"pl_frontier_final","folder":"tf","game":"Team Fortress","app_id":440,"player_count":24,"max_players":24,"Bots":0,"server_type":"Dedicated","server_os":"Linux","password":true,"vac":true,"version":"7961495","steam_id":85568392924494504,"keywords":["nocrits","nodmgspread","payload","uncletopia"],"game_id":440,"stv_port":27016,"stv_name":"Uncletopia | Hong Kong | 1 | All Maps | STV","players":[{"user_id":62,"name":"Sheena","steam_id":76561198412391539,"connected_time":6953000000000,"state":"active","ping":69},{"user_id":95,"name":"P","steam_id":76561198304514505,"connected_time":3027000000000,"state":"active","ping":78},{"user_id":99,"name":"NekTant","steam_id":76561198414071172,"connected_time":2458000000000,"state":"active","ping":113},{"user_id":87,"name":"meowdy","steam_id":76561198337154745,"connected_time":4506000000000,"state":"active","ping":85},{"user_id":115,"name":"Zero-Zen Trade.tf","steam_id":76561199126374315,"connected_time":700000000000,"state":"active","ping":133},{"user_id":110,"name":"PROFILE NAME#savetf2","steam_id":76561199080833813,"connected_time":1382000000000,"state":"active","ping":73},{"user_id":98,"name":"Hor4ngi","steam_id":76561198989168133,"connected_time":2660000000000,"state":"active","ping":89},{"user_id":53,"name":"vintage 2","steam_id":76561198230213828,"connected_time":7577000000000,"state":"active","ping":60},{"user_id":96,"name":"ObscuroLucem","steam_id":76561198875037943,"connected_time":2777000000000,"state":"active","ping":84},{"user_id":92,"name":"The Estate Sale","steam_id":76561198074339034,"connected_time":3040000000000,"state":"active","ping":76},{"user_id":112,"name":"porngamer","steam_id":76561198204620491,"connected_time":1136000000000,"state":"active","ping":39},{"user_id":86,"name":"Samoyed","steam_id":76561198299150410,"connected_time":4527000000000,"state":"active","ping":76},{"user_id":100,"name":"nyakky","steam_id":76561198927779787,"connected_time":2423000000000,"state":"active","ping":92},{"user_id":113,"name":"im_0ff","steam_id":76561198339346695,"connected_time":1063000000000,"state":"active","ping":122},{"user_id":105,"name":"eekynetwo(F2P Piss Sniper)","steam_id":76561198990017441,"connected_time":1978000000000,"state":"active","ping":82},{"user_id":73,"name":"emesis green","steam_id":76561198320532821,"connected_time":5923000000000,"state":"active","ping":67},{"user_id":116,"name":"Serafim327","steam_id":76561198850138782,"connected_time":633000000000,"state":"active","ping":136},{"user_id":107,"name":":weed:","steam_id":76561198386626651,"connected_time":1930000000000,"state":"active","ping":57},{"user_id":104,"name":"Kyo","steam_id":76561198088550274,"connected_time":2044000000000,"state":"active","ping":43},{"user_id":80,"name":"MS PowerPoint","steam_id":76561198369523192,"connected_time":5640000000000,"state":"active","ping":69},{"user_id":109,"name":"engineer","steam_id":76561199146847474,"connected_time":1411000000000,"state":"active","ping":45},{"user_id":108,"name":"잉여생활","steam_id":76561198197428167,"connected_time":1881000000000,"state":"active","ping":87},{"user_id":83,"name":"....","steam_id":76561198064846352,"connected_time":5557000000000,"state":"active","ping":71},{"user_id":118,"name":"Pillboi","steam_id":76561198011172886,"connected_time":570000000000,"state":"active","ping":42}]},{"server_id":1,"name":"Uncletopia | Los Angeles | 1 | All Maps","name_short":"lax-1","host":"lax-1.us.uncletopia.com","port":27015,"enabled":true,"region":"us-west","cc":"us","latitude":33.94279,"longitude":-118.41004,"reserved":0,"last_update":"0001-01-01T00:00:00Z","name_a2s":"Uncletopia | Los Angeles | 1 | All Maps","protocol":17,"map":"koth_harvest_final","folder":"tf","game":"Team Fortress","app_id":440,"player_count":23,"max_players":24,"Bots":0,"server_type":"Dedicated","server_os":"Linux","password":true,"vac":true,"version":"7961495","steam_id":85568392924469991,"keywords":["cp","nocrits","nodmgspread","uncletopia"],"game_id":440,"stv_port":27016,"stv_name":"Uncletopia | Los Angeles | 1 | All Maps | STV","players":[{"user_id":501,"name":"zaza addict","steam_id":76561198202982780,"connected_time":152000000000,"state":"active","ping":100},{"user_id":482,"name":"Trips","steam_id":76561198054581597,"connected_time":2125000000000,"state":"active","ping":46},{"user_id":494,"name":"Jest","steam_id":76561198170173062,"connected_time":942000000000,"state":"active","ping":45},{"user_id":463,"name":"Your Favorite Fearless Hero","steam_id":76561199127590316,"connected_time":3157000000000,"state":"active","ping":61},{"user_id":495,"name":"Koyota","steam_id":76561198069878114,"connected_time":934000000000,"state":"active","ping":65},{"user_id":461,"name":"♥Midnight Panda♥","steam_id":76561198272487373,"connected_time":3777000000000,"state":"active","ping":74},{"user_id":478,"name":"Fish Lambert","steam_id":76561198098279668,"connected_time":2652000000000,"state":"active","ping":53},{"user_id":446,"name":"Big Boy Beni","steam_id":76561197995469460,"connected_time":5131000000000,"state":"active","ping":36},{"user_id":489,"name":"Arrythmia","steam_id":76561198093748123,"connected_time":1197000000000,"state":"active","ping":72},{"user_id":499,"name":"KlassicLoL","steam_id":76561198081815303,"connected_time":832000000000,"state":"active","ping":50},{"user_id":485,"name":"RailRunner66","steam_id":76561198053779091,"connected_time":1608000000000,"state":"active","ping":97},{"user_id":490,"name":"euphoricfilth","steam_id":76561198100160865,"connected_time":1089000000000,"state":"active","ping":98},{"user_id":483,"name":"Tony Tony Choppa","steam_id":76561198926443232,"connected_time":2011000000000,"state":"active","ping":79},{"user_id":462,"name":"SuperRPGgamer","steam_id":76561198288017834,"connected_time":3678000000000,"state":"active","ping":66},{"user_id":452,"name":"Gundam Guy","steam_id":76561198178453993,"connected_time":4710000000000,"state":"active","ping":67},{"user_id":453,"name":"Brook","steam_id":76561198066617702,"connected_time":4693000000000,"state":"active","ping":69},{"user_id":487,"name":"Big Jack","steam_id":76561198132755619,"connected_time":1577000000000,"state":"active","ping":40},{"user_id":484,"name":"mrpickl1824","steam_id":76561198165948814,"connected_time":1658000000000,"state":"active","ping":118},{"user_id":498,"name":"Lt Lushen","steam_id":76561198124083273,"connected_time":903000000000,"state":"active","ping":66},{"user_id":500,"name":"fvck","steam_id":76561199096263556,"connected_time":696000000000,"state":"active","ping":96},{"user_id":497,"name":"korkskrou","steam_id":76561198422156430,"connected_time":916000000000,"state":"active","ping":75},{"user_id":492,"name":"Saggle","steam_id":76561198056075147,"connected_time":1062000000000,"state":"active","ping":169},{"user_id":480,"name":"Shnakes","steam_id":76561198201649518,"connected_time":2528000000000,"state":"active","ping":56}]},{"server_id":112,"name":"Uncletopia | Los Angeles | 2 | All Maps","name_short":"lax-2","host":"lax-1.us.uncletopia.com","port":27025,"enabled":true,"region":"us-west","cc":"us","latitude":33.94279,"longitude":-118.41004,"reserved":0,"last_update":"0001-01-01T00:00:00Z","name_a2s":"Uncletopia | Los Angeles | 2 | All Maps","protocol":17,"map":"cp_dustbowl","folder":"tf","game":"Team Fortress","app_id":440,"player_count":0,"max_players":24,"Bots":0,"server_type":"Dedicated","server_os":"Linux","password":true,"vac":true,"version":"7961495","steam_id":85568392924469992,"keywords":["cp","nocrits","nodmgspread","uncletopia"],"game_id":440,"stv_port":27026,"stv_name":"Uncletopia | Los Angeles | 2 | All Maps | STV","players":null},{"server_id":324,"name":"Uncletopia | Los Angeles | 3 | All Maps","name_short":"lax-3","host":"lax-1.us.uncletopia.com","port":27035,"enabled":true,"region":"us-west","cc":"us","latitude":33.94279,"longitude":-118.41004,"reserved":0,"last_update":"0001-01-01T00:00:00Z","name_a2s":"Uncletopia | Los Angeles | 3 | All Maps","protocol":17,"map":"cp_snakewater_final1","folder":"tf","game":"Team Fortress","app_id":440,"player_count":24,"max_players":24,"Bots":0,"server_type":"Dedicated","server_os":"Linux","password":true,"vac":true,"version":"7961495","steam_id":85568392924510198,"keywords":["cp","nocrits","nodmgspread","uncletopia"],"game_id":440,"stv_port":27036,"stv_name":"Uncletopia | Los Angeles | 3 | All Maps | STV","players":[{"user_id":463,"name":"thighmeat","steam_id":76561198971285292,"connected_time":1448000000000,"state":"active","ping":85},{"user_id":488,"name":"Chimi The Bard","steam_id":76561198067800540,"connected_time":252000000000,"state":"active","ping":77},{"user_id":476,"name":"vulcan nightclub pon farr night","steam_id":76561197974283797,"connected_time":900000000000,"state":"active","ping":92},{"user_id":451,"name":"GIGAHAXX","steam_id":76561197993714726,"connected_time":2974000000000,"state":"active","ping":58},{"user_id":474,"name":"moxxie","steam_id":76561198893111808,"connected_time":1022000000000,"state":"active","ping":45},{"user_id":492,"name":"nella","steam_id":76561198079349621,"connected_time":49000000000,"state":"active","ping":52},{"user_id":459,"name":"SleepyScotoplanesTTV","steam_id":76561198968140914,"connected_time":2238000000000,"state":"active","ping":55},{"user_id":454,"name":"Sakura Futaba","steam_id":76561198017153764,"connected_time":2934000000000,"state":"active","ping":51},{"user_id":460,"name":"frog on the floor","steam_id":76561198042706568,"connected_time":2011000000000,"state":"active","ping":61},{"user_id":480,"name":"Irritated Duck","steam_id":76561198247792076,"connected_time":662000000000,"state":"active","ping":166},{"user_id":452,"name":"Weakforanimebitches","steam_id":76561198217663016,"connected_time":2973000000000,"state":"active","ping":49},{"user_id":453,"name":"Cypress [ +/- ] ✔","steam_id":76561198067164431,"connected_time":2971000000000,"state":"active","ping":37},{"user_id":475,"name":"mcstabby492","steam_id":76561198301041074,"connected_time":949000000000,"state":"active","ping":64},{"user_id":478,"name":"Smells","steam_id":76561197985297402,"connected_time":813000000000,"state":"active","ping":69},{"user_id":489,"name":"Slippin' Jimmy","steam_id":76561198324749126,"connected_time":210000000000,"state":"active","ping":142},{"user_id":466,"name":"The Ultimate Pomson Warrior","steam_id":76561198016168993,"connected_time":1379000000000,"state":"active","ping":78},{"user_id":440,"name":"LeftNut","steam_id":76561198035500934,"connected_time":4050000000000,"state":"active","ping":60},{"user_id":467,"name":"Doctor Sex","steam_id":76561198136205032,"connected_time":1376000000000,"state":"active","ping":71},{"user_id":483,"name":"HOG RIDER","steam_id":76561198298589502,"connected_time":562000000000,"state":"active","ping":51},{"user_id":469,"name":"Whatsapp Spy","steam_id":76561198085410969,"connected_time":1307000000000,"state":"active","ping":99},{"user_id":490,"name":"hardfork","steam_id":76561197960958019,"connected_time":207000000000,"state":"active","ping":74},{"user_id":491,"name":"ShadyKirbo","steam_id":76561199013354091,"connected_time":130000000000,"state":"spawning","ping":52},{"user_id":472,"name":"Dragoninventor (He/Him)","steam_id":76561198956224948,"connected_time":1243000000000,"state":"active","ping":76}]},{"server_id":25,"name":"Uncletopia | Los Angeles | 4 | Stopwatch Beta","name_short":"lax-4","host":"lax-1.us.uncletopia.com","port":27045,"enabled":true,"region":"us-west","cc":"us","latitude":33.94279,"longitude":-118.41004,"reserved":0,"last_update":"0001-01-01T00:00:00Z","name_a2s":"Uncletopia | Los Angeles | 4 | Stopwatch Beta","protocol":17,"map":"pl_upward","folder":"tf","game":"Team Fortress","app_id":440,"player_count":0,"max_players":24,"Bots":0,"server_type":"Dedicated","server_os":"Linux","password":true,"vac":true,"version":"7961495","steam_id":85568392924510199,"keywords":["nocrits","nodmgspread","payload","uncletopia"],"game_id":440,"stv_port":27046,"stv_name":"Uncletopia | Los Angeles | 4 | Stopwatch Beta | STV","players":null},{"server_id":11,"name":"Uncletopia | London | 1 | All Maps","name_short":"lon-1","host":"lon-1.uk.uncletopia.com","port":27015,"enabled":true,"region":"eu","cc":"gb","latitude":51.509865,"longitude":-0.118092,"reserved":0,"last_update":"0001-01-01T00:00:00Z","name_a2s":"Uncletopia | London | 1 | All Maps","protocol":17,"map":"koth_highpass","folder":"tf","game":"Team Fortress","app_id":440,"player_count":24,"max_players":24,"Bots":0,"server_type":"Dedicated","server_os":"Linux","password":true,"vac":true,"version":"7961495","steam_id":85568392924367362,"keywords":["cp","nocrits","nodmgspread","uncletopia"],"game_id":440,"stv_port":27016,"stv_name":"Uncletopia | London | 1 | All Maps | STV","players":[{"user_id":3,"name":"lorislk989","steam_id":76561199224251630,"connected_time":5579000000000,"state":"active","ping":67},{"user_id":65,"name":"Cookies and Bakies","steam_id":76561198017442928,"connected_time":484000000000,"state":"active","ping":66},{"user_id":56,"name":"microwaved tea is a crime","steam_id":76561198257158275,"connected_time":1323000000000,"state":"active","ping":148},{"user_id":8,"name":"thog","steam_id":76561198219901556,"connected_time":4376000000000,"state":"active","ping":105},{"user_id":61,"name":"iuh(jerf)","steam_id":76561199213901239,"connected_time":959000000000,"state":"active","ping":45},{"user_id":47,"name":"MrXtr","steam_id":76561198966247397,"connected_time":2017000000000,"state":"active","ping":73},{"user_id":15,"name":"yuno appreciator","steam_id":76561198083286511,"connected_time":3855000000000,"state":"active","ping":42},{"user_id":62,"name":"coffee","steam_id":76561198382387303,"connected_time":691000000000,"state":"active","ping":83},{"user_id":57,"name":"Rengii76","steam_id":76561198869802076,"connected_time":1002000000000,"state":"active","ping":87},{"user_id":21,"name":"Purple Soup :D","steam_id":76561198985100366,"connected_time":3350000000000,"state":"active","ping":90},{"user_id":24,"name":"Asmodeus","steam_id":76561198283156425,"connected_time":3150000000000,"state":"active","ping":83},{"user_id":25,"name":"protoss gravy boat","steam_id":76561198105978107,"connected_time":3134000000000,"state":"active","ping":74},{"user_id":58,"name":"FourTimesM","steam_id":76561198156837721,"connected_time":999000000000,"state":"active","ping":74},{"user_id":28,"name":"Mc Cheezy","steam_id":76561198834780242,"connected_time":2938000000000,"state":"active","ping":110},{"user_id":66,"name":"unpronounceable","steam_id":76561198271860748,"connected_time":232000000000,"state":"active","ping":45},{"user_id":31,"name":"Neimon","steam_id":76561198343485710,"connected_time":2925000000000,"state":"active","ping":126},{"user_id":69,"name":"Shlyk","steam_id":76561198333387103,"connected_time":198000000000,"state":"active","ping":101},{"user_id":44,"name":"Basinox","steam_id":76561198019628384,"connected_time":2291000000000,"state":"active","ping":66},{"user_id":42,"name":"Dokorama","steam_id":76561198039056041,"connected_time":2408000000000,"state":"active","ping":68},{"user_id":67,"name":"Qdarks","steam_id":76561198013391340,"connected_time":231000000000,"state":"active","ping":131},{"user_id":48,"name":"369","steam_id":76561198149967445,"connected_time":1759000000000,"state":"active","ping":31},{"user_id":39,"name":"$t@lker_Tim","steam_id":76561198963658042,"connected_time":2537000000000,"state":"active","ping":118},{"user_id":60,"name":"The Builder","steam_id":76561198403959663,"connected_time":983000000000,"state":"active","ping":98},{"user_id":64,"name":"alien","steam_id":76561197968892194,"connected_time":567000000000,"state":"active","ping":58}]},{"server_id":114,"name":"Uncletopia | London | 2 | All Maps","name_short":"lon-2","host":"lon-1.uk.uncletopia.com","port":27025,"enabled":true,"region":"eu","cc":"gb","latitude":51.509865,"longitude":-0.118092,"reserved":0,"last_update":"0001-01-01T00:00:00Z","name_a2s":"Uncletopia | London | 2 | All Maps","protocol":17,"map":"koth_viaduct","folder":"tf","game":"Team Fortress","app_id":440,"player_count":0,"max_players":24,"Bots":0,"server_type":"Dedicated","server_os":"Linux","password":true,"vac":true,"version":"7961495","steam_id":85568392924470941,"keywords":["cp","nocrits","nodmgspread","uncletopia"],"game_id":440,"stv_port":27026,"stv_name":"Uncletopia | London | 2 | All Maps | STV","players":null},{"server_id":320,"name":"Uncletopia | London | 3 | All Maps","name_short":"lon-3","host":"lon-1.uk.uncletopia.com","port":27035,"enabled":true,"region":"eu","cc":"gb","latitude":51.509865,"longitude":-0.118092,"reserved":0,"last_update":"0001-01-01T00:00:00Z","name_a2s":"Uncletopia | London | 3 | All Maps","protocol":17,"map":"pl_pier","folder":"tf","game":"Team Fortress","app_id":440,"player_count":0,"max_players":24,"Bots":0,"server_type":"Dedicated","server_os":"Linux","password":true,"vac":true,"version":"7961495","steam_id":85568392924510192,"keywords":["nocrits","nodmgspread","payload","uncletopia"],"game_id":440,"stv_port":27036,"stv_name":"Uncletopia | London | 3 | All Maps | STV","players":null},{"server_id":321,"name":"Uncletopia | London | 4 | All Maps","name_short":"lon-4","host":"lon-1.uk.uncletopia.com","port":27045,"enabled":true,"region":"eu","cc":"gb","latitude":51.509865,"longitude":-0.118092,"reserved":0,"last_update":"0001-01-01T00:00:00Z","name_a2s":"Uncletopia | London | 4 | All Maps","protocol":17,"map":"koth_viaduct","folder":"tf","game":"Team Fortress","app_id":440,"player_count":0,"max_players":24,"Bots":0,"server_type":"Dedicated","server_os":"Linux","password":true,"vac":true,"version":"7961495","steam_id":85568392924510193,"keywords":["cp","nocrits","nodmgspread","uncletopia"],"game_id":440,"stv_port":27046,"stv_name":"Uncletopia | London | 4 | All Maps | STV","players":null},{"server_id":21,"name":"Uncletopia | London | 5 | All Maps","name_short":"lon-5","host":"lon-1.uk.uncletopia.com","port":27055,"enabled":true,"region":"eu","cc":"gb","latitude":51.509865,"longitude":-0.118092,"reserved":0,"last_update":"0001-01-01T00:00:00Z","name_a2s":"Uncletopia | London | 5 | All Maps","protocol":17,"map":"pl_barnblitz","folder":"tf","game":"Team Fortress","app_id":440,"player_count":0,"max_players":24,"Bots":0,"server_type":"Dedicated","server_os":"Linux","password":true,"vac":true,"version":"7961495","steam_id":85568392924742829,"keywords":["nocrits","nodmgspread","payload","uncletopia"],"game_id":440,"stv_port":27056,"stv_name":"Uncletopia | London | 5 | All Maps | STV","players":null},{"server_id":22,"name":"Uncletopia | London | 6 | All Maps","name_short":"lon-6","host":"lon-1.uk.uncletopia.com","port":27065,"enabled":true,"region":"eu","cc":"gb","latitude":51.509865,"longitude":-0.118092,"reserved":0,"last_update":"0001-01-01T00:00:00Z","name_a2s":"Uncletopia | London | 6 | All Maps","protocol":17,"map":"pl_borneo","folder":"tf","game":"Team Fortress","app_id":440,"player_count":0,"max_players":24,"Bots":0,"server_type":"Dedicated","server_os":"Linux","password":true,"vac":true,"version":"7961495","steam_id":85568392924742830,"keywords":["nocrits","nodmgspread","payload","uncletopia"],"game_id":440,"stv_port":27066,"stv_name":"Uncletopia | London | 6 | All Maps | STV","players":null},{"server_id":40,"name":"Uncletopia | London | 7 | No Payload","name_short":"lon-7","host":"lon-1.uk.uncletopia.com","port":27075,"enabled":true,"region":"eu","cc":"gb","latitude":51.509865,"longitude":-0.118092,"reserved":0,"last_update":"0001-01-01T00:00:00Z","name_a2s":"Uncletopia | London | 7 | No Payload","protocol":17,"map":"pl_pier","folder":"tf","game":"Team Fortress","app_id":440,"player_count":0,"max_players":24,"Bots":0,"server_type":"Dedicated","server_os":"Linux","password":true,"vac":true,"version":"7961495","steam_id":85568392924964314,"keywords":["nocrits","nodmgspread","payload","uncletopia"],"game_id":440,"stv_port":27076,"stv_name":"Uncletopia | London | 7 | No Payload | STV","players":null},{"server_id":41,"name":"Uncletopia | London | 8 | Community","name_short":"lon-8","host":"lon-1.uk.uncletopia.com","port":27085,"enabled":true,"region":"eu","cc":"gb","latitude":51.509865,"longitude":-0.118092,"reserved":0,"last_update":"0001-01-01T00:00:00Z","name_a2s":"Uncletopia | London | 8 | Community","protocol":17,"map":"pl_borneo","folder":"tf","game":"Team Fortress","app_id":440,"player_count":0,"max_players":24,"Bots":0,"server_type":"Dedicated","server_os":"Linux","password":true,"vac":true,"version":"7961495","steam_id":85568392924964315,"keywords":["nocrits","nodmgspread","payload","uncletopia"],"game_id":440,"stv_port":27086,"stv_name":"Uncletopia | London | 8 | Community | STV","players":null},{"server_id":300,"name":"Uncletopia | Montréal | 1 | All Maps","name_short":"mtl-1","host":"mtl-1.ca.uncletopia.com","port":27015,"enabled":true,"region":"us-east","cc":"ca","latitude":45.50889,"longitude":-73.56167,"reserved":0,"last_update":"0001-01-01T00:00:00Z","name_a2s":"","protocol":0,"map":"","folder":"","game":"","app_id":0,"player_count":0,"max_players":0,"Bots":0,"server_type":"","server_os":"","password":false,"vac":false,"version":"","steam_id":0,"keywords":null,"game_id":0,"stv_port":0,"stv_name":"","players":null},{"server_id":301,"name":"Uncletopia | Montréal | 2 | All Maps","name_short":"mtl-2","host":"mtl-1.ca.uncletopia.com","port":27025,"enabled":true,"region":"us-east","cc":"ca","latitude":45.50889,"longitude":-73.56167,"reserved":0,"last_update":"0001-01-01T00:00:00Z","name_a2s":"","protocol":0,"map":"","folder":"","game":"","app_id":0,"player_count":0,"max_players":0,"Bots":0,"server_type":"","server_os":"","password":false,"vac":false,"version":"","steam_id":0,"keywords":null,"game_id":0,"stv_port":0,"stv_name":"","players":null},{"server_id":302,"name":"Uncletopia | Montréal | 3 | All Maps","name_short":"mtl-3","host":"mtl-1.ca.uncletopia.com","port":27035,"enabled":true,"region":"us-east","cc":"ca","latitude":45.50889,"longitude":-73.56167,"reserved":0,"last_update":"0001-01-01T00:00:00Z","name_a2s":"","protocol":0,"map":"","folder":"","game":"","app_id":0,"player_count":0,"max_players":0,"Bots":0,"server_type":"","server_os":"","password":false,"vac":false,"version":"","steam_id":0,"keywords":null,"game_id":0,"stv_port":0,"stv_name":"","players":null},{"server_id":303,"name":"Uncletopia | Montréal | 4 | No Payload","name_short":"mtl-4","host":"mtl-1.ca.uncletopia.com","port":27045,"enabled":true,"region":"us-east","cc":"ca","latitude":45.50889,"longitude":-73.56167,"reserved":0,"last_update":"0001-01-01T00:00:00Z","name_a2s":"","protocol":0,"map":"","folder":"","game":"","app_id":0,"player_count":0,"max_players":0,"Bots":0,"server_type":"","server_os":"","password":false,"vac":false,"version":"","steam_id":0,"keywords":null,"game_id":0,"stv_port":0,"stv_name":"","players":null},{"server_id":13,"name":"Uncletopia | New York City | 1 | All Maps","name_short":"nyc-1","host":"nyc-1.us.uncletopia.com","port":27015,"enabled":true,"region":"us-east","cc":"us","latitude":40.73061,"longitude":-73.93524,"reserved":0,"last_update":"0001-01-01T00:00:00Z","name_a2s":"Uncletopia | New York City | 1 | All Maps","protocol":17,"map":"koth_viaduct","folder":"tf","game":"Team Fortress","app_id":440,"player_count":0,"max_players":24,"Bots":0,"server_type":"Dedicated","server_os":"Linux","password":true,"vac":true,"version":"7961495","steam_id":85568392924469993,"keywords":["cp","nocrits","nodmgspread","uncletopia"],"game_id":440,"stv_port":27016,"stv_name":"Uncletopia | New York City | 1 | All Maps | STV","players":null},{"server_id":14,"name":"Uncletopia | New York City | 2 | All Maps","name_short":"nyc-2","host":"nyc-1.us.uncletopia.com","port":27025,"enabled":true,"region":"us-east","cc":"us","latitude":40.73061,"longitude":-73.93524,"reserved":0,"last_update":"0001-01-01T00:00:00Z","name_a2s":"Uncletopia | New York City | 2 | All Maps","protocol":17,"map":"cp_snakewater_final1","folder":"tf","game":"Team Fortress","app_id":440,"player_count":0,"max_players":24,"Bots":0,"server_type":"Dedicated","server_os":"Linux","password":true,"vac":true,"version":"7961495","steam_id":85568392924469994,"keywords":["cp","nocrits","nodmgspread","uncletopia"],"game_id":440,"stv_port":27026,"stv_name":"Uncletopia | New York City | 2 | All Maps | STV","players":null},{"server_id":15,"name":"Uncletopia | New York City | 3 | Stopwatch Beta","name_short":"nyc-3","host":"nyc-1.us.uncletopia.com","port":27035,"enabled":true,"region":"us-east","cc":"us","latitude":40.73061,"longitude":-73.93524,"reserved":0,"last_update":"0001-01-01T00:00:00Z","name_a2s":"Uncletopia | New York City | 3 | Stopwatch Beta","protocol":17,"map":"workshop/pl_barnblitz_pro7.ugc582280235","folder":"tf","game":"Team Fortress","app_id":440,"player_count":0,"max_players":24,"Bots":0,"server_type":"Dedicated","server_os":"Linux","password":true,"vac":true,"version":"7961495","steam_id":85568392924742820,"keywords":["nocrits","nodmgspread","payload","uncletopia"],"game_id":440,"stv_port":27036,"stv_name":"Uncletopia | New York City | 3 | Stopwatch Beta | STV","players":null},{"server_id":16,"name":"Uncletopia | New York City | 4 | Community","name_short":"nyc-4","host":"nyc-1.us.uncletopia.com","port":27045,"enabled":true,"region":"us-east","cc":"us","latitude":40.73061,"longitude":-73.93524,"reserved":0,"last_update":"0001-01-01T00:00:00Z","name_a2s":"Uncletopia | New York City | 4 | Community","protocol":17,"map":"workshop/cp_alloy_rc3.ugc592805587","folder":"tf","game":"Team Fortress","app_id":440,"player_count":0,"max_players":24,"Bots":0,"server_type":"Dedicated","server_os":"Linux","password":true,"vac":true,"version":"7961495","steam_id":85568392924742821,"keywords":["cp","nocrits","nodmgspread","uncletopia"],"game_id":440,"stv_port":27046,"stv_name":"Uncletopia | New York City | 4 | Community | STV","players":null},{"server_id":142,"name":"Uncletopia | São Paulo | 1 | All Maps","name_short":"sao-1","host":"sao-1.br.uncletopia.com","port":27015,"enabled":true,"region":"sa","cc":"br","latitude":-23.533773,"longitude":-46.62529,"reserved":0,"last_update":"0001-01-01T00:00:00Z","name_a2s":"Uncletopia | São Paulo | 1 | All Maps","protocol":17,"map":"cp_sunshine","folder":"tf","game":"Team Fortress","app_id":440,"player_count":0,"max_players":24,"Bots":0,"server_type":"Dedicated","server_os":"Linux","password":true,"vac":true,"version":"7961495","steam_id":85568392924469996,"keywords":["cp","nocrits","nodmgspread","uncletopia"],"game_id":440,"stv_port":27016,"stv_name":"Uncletopia | São Paulo | 1 | All Maps | STV","players":null},{"server_id":143,"name":"Uncletopia | São Paulo | 2 | Community","name_short":"sao-2","host":"sao-2.br.uncletopia.com","port":27015,"enabled":true,"region":"sa","cc":"br","latitude":-23.533773,"longitude":-46.62529,"reserved":0,"last_update":"0001-01-01T00:00:00Z","name_a2s":"Uncletopia | São Paulo | 2 | Community","protocol":17,"map":"workshop/koth_trenchfoot_b1a.ugc731436616","folder":"tf","game":"Team Fortress","app_id":440,"player_count":0,"max_players":24,"Bots":0,"server_type":"Dedicated","server_os":"Linux","password":true,"vac":true,"version":"7961495","steam_id":85568392924485349,"keywords":["cp","nocrits","nodmgspread","uncletopia"],"game_id":440,"stv_port":27016,"stv_name":"Uncletopia | São Paulo | 2 | Community | STV","players":null},{"server_id":7,"name":"Uncletopia | Seattle | 1 | All Maps","name_short":"sea-1","host":"sea-1.us.uncletopia.com","port":27015,"enabled":true,"region":"us-west","cc":"us","latitude":47.608013,"longitude":-122.33517,"reserved":0,"last_update":"0001-01-01T00:00:00Z","name_a2s":"Uncletopia | Seattle | 1 | All Maps","protocol":17,"map":"cp_process_final","folder":"tf","game":"Team Fortress","app_id":440,"player_count":24,"max_players":24,"Bots":0,"server_type":"Dedicated","server_os":"Linux","password":true,"vac":true,"version":"7961495","steam_id":85568392924469997,"keywords":["cp","nocrits","nodmgspread","uncletopia"],"game_id":440,"stv_port":27016,"stv_name":"Uncletopia | Seattle | 1 | All Maps | STV","players":[{"user_id":693,"name":"The Super Mario Bros. Movie","steam_id":76561198871692156,"connected_time":3449000000000,"state":"active","ping":50},{"user_id":717,"name":"Yammie","steam_id":76561197987304489,"connected_time":603000000000,"state":"active","ping":45},{"user_id":714,"name":"liam","steam_id":76561198046239819,"connected_time":941000000000,"state":"active","ping":52},{"user_id":718,"name":"Big Cat","steam_id":76561198115695203,"connected_time":211000000000,"state":"active","ping":93},{"user_id":703,"name":"XxX_B1G_B33F1N_D0NG_XxX","steam_id":76561198145440269,"connected_time":2384000000000,"state":"active","ping":81},{"user_id":719,"name":"marlow","steam_id":76561198094408360,"connected_time":116000000000,"state":"active","ping":126},{"user_id":707,"name":"lilypad\u003c/3","steam_id":76561198094140669,"connected_time":1987000000000,"state":"active","ping":74},{"user_id":708,"name":"hosewater","steam_id":76561198023383126,"connected_time":1864000000000,"state":"active","ping":48},{"user_id":653,"name":"Blood Angels Fan","steam_id":76561198217261328,"connected_time":7993000000000,"state":"active","ping":75},{"user_id":673,"name":"mega","steam_id":76561198089520959,"connected_time":6257000000000,"state":"active","ping":96},{"user_id":720,"name":"viciousbeatmaker","steam_id":76561198086876652,"connected_time":63000000000,"state":"active","ping":75},{"user_id":684,"name":"smeasly","steam_id":76561198028718812,"connected_time":4568000000000,"state":"active","ping":41},{"user_id":698,"name":"yay splatoon","steam_id":76561198035698704,"connected_time":3040000000000,"state":"active","ping":72},{"user_id":682,"name":"Toaster","steam_id":76561198039891934,"connected_time":5133000000000,"state":"active","ping":76},{"user_id":688,"name":"Toast","steam_id":76561198259512586,"connected_time":3655000000000,"state":"active","ping":62},{"user_id":700,"name":"porksoda","steam_id":76561198021451377,"connected_time":2687000000000,"state":"active","ping":49},{"user_id":712,"name":"Finkly","steam_id":76561198049828110,"connected_time":1079000000000,"state":"active","ping":45},{"user_id":676,"name":"gorlab","steam_id":76561198025089694,"connected_time":5922000000000,"state":"active","ping":56},{"user_id":686,"name":"Arsonist Goose","steam_id":76561198147441830,"connected_time":4376000000000,"state":"active","ping":71},{"user_id":711,"name":"slushy :))","steam_id":76561198135281802,"connected_time":1670000000000,"state":"active","ping":52},{"user_id":702,"name":"ibu","steam_id":76561197968084065,"connected_time":2405000000000,"state":"active","ping":59},{"user_id":710,"name":"s420","steam_id":76561198065339248,"connected_time":1781000000000,"state":"active","ping":63},{"user_id":716,"name":"RaixaR","steam_id":76561198025289430,"connected_time":939000000000,"state":"active","ping":108},{"user_id":672,"name":"Strength!!","steam_id":76561198001241984,"connected_time":6303000000000,"state":"active","ping":53}]},{"server_id":119,"name":"Uncletopia | Seattle | 2 | All Maps","name_short":"sea-2","host":"sea-1.us.uncletopia.com","port":27025,"enabled":true,"region":"us-west","cc":"us","latitude":47.608013,"longitude":-122.33517,"reserved":0,"last_update":"0001-01-01T00:00:00Z","name_a2s":"Uncletopia | Seattle | 2 | All Maps","protocol":17,"map":"cp_dustbowl","folder":"tf","game":"Team Fortress","app_id":440,"player_count":0,"max_players":24,"Bots":0,"server_type":"Dedicated","server_os":"Linux","password":true,"vac":true,"version":"7961495","steam_id":85568392924469998,"keywords":["cp","nocrits","nodmgspread","uncletopia"],"game_id":440,"stv_port":27026,"stv_name":"Uncletopia | Seattle | 2 | All Maps | STV","players":null},{"server_id":406,"name":"Uncletopia | Seattle | 3 | Stopwatch Beta","name_short":"sea-3","host":"sea-1.us.uncletopia.com","port":27035,"enabled":true,"region":"us-west","cc":"us","latitude":47.608013,"longitude":-122.33517,"reserved":0,"last_update":"0001-01-01T00:00:00Z","name_a2s":"Uncletopia | Seattle | 3 | Stopwatch Beta","protocol":17,"map":"pl_upward","folder":"tf","game":"Team Fortress","app_id":440,"player_count":0,"max_players":24,"Bots":0,"server_type":"Dedicated","server_os":"Linux","password":true,"vac":true,"version":"7961495","steam_id":85568392924515217,"keywords":["nocrits","nodmgspread","payload","uncletopia"],"game_id":440,"stv_port":27036,"stv_name":"Uncletopia | Seattle | 3 | Stopwatch Beta | STV","players":null},{"server_id":17,"name":"Uncletopia | San Francisco | 1 | All Maps","name_short":"sfo-1","host":"sfo-1.us.uncletopia.com","port":27015,"enabled":true,"region":"us-west","cc":"us","latitude":37.77397,"longitude":-122.4313,"reserved":0,"last_update":"0001-01-01T00:00:00Z","name_a2s":"Uncletopia | San Francisco | 1 | All Maps","protocol":17,"map":"pl_badwater","folder":"tf","game":"Team Fortress","app_id":440,"player_count":19,"max_players":24,"Bots":0,"server_type":"Dedicated","server_os":"Linux","password":true,"vac":true,"version":"7961495","steam_id":85568392924469999,"keywords":["nocrits","nodmgspread","payload","uncletopia"],"game_id":440,"stv_port":27016,"stv_name":"Uncletopia | San Francisco | 1 | All Maps | STV","players":[{"user_id":241,"name":"Wacks","steam_id":76561198079476100,"connected_time":1998000000000,"state":"active","ping":46},{"user_id":260,"name":"Breadzzy!","steam_id":76561198275074299,"connected_time":122000000000,"state":"active","ping":94},{"user_id":235,"name":"Mr. Carfox","steam_id":76561198041664428,"connected_time":2186000000000,"state":"active","ping":46},{"user_id":187,"name":"Howard","steam_id":76561198198900365,"connected_time":5647000000000,"state":"active","ping":60},{"user_id":236,"name":"10HourNaps","steam_id":76561199082304859,"connected_time":2153000000000,"state":"active","ping":80},{"user_id":254,"name":"hash","steam_id":76561198058516339,"connected_time":1372000000000,"state":"active","ping":57},{"user_id":225,"name":"DrPringles","steam_id":76561198808743062,"connected_time":2549000000000,"state":"active","ping":69},{"user_id":245,"name":"Deliqene","steam_id":76561198227901308,"connected_time":1684000000000,"state":"active","ping":94},{"user_id":227,"name":"MegaJz","steam_id":76561198391971563,"connected_time":2542000000000,"state":"active","ping":70},{"user_id":238,"name":"Cartman","steam_id":76561198264777865,"connected_time":2108000000000,"state":"active","ping":72},{"user_id":244,"name":"Cave Dweller","steam_id":76561198374825685,"connected_time":1732000000000,"state":"active","ping":51},{"user_id":246,"name":"Wolfie","steam_id":76561198971938881,"connected_time":1670000000000,"state":"active","ping":70},{"user_id":231,"name":"Elite_Friendly","steam_id":76561198819972127,"connected_time":2443000000000,"state":"active","ping":75},{"user_id":233,"name":"Kyle","steam_id":76561198281323645,"connected_time":2258000000000,"state":"active","ping":72},{"user_id":234,"name":"Stan","steam_id":76561198272621601,"connected_time":2238000000000,"state":"active","ping":64},{"user_id":256,"name":"blue duck the 2nd","steam_id":76561198263142765,"connected_time":1292000000000,"state":"active","ping":99},{"user_id":248,"name":"Buncake","steam_id":76561198072541212,"connected_time":1654000000000,"state":"active","ping":74},{"user_id":252,"name":"Chris","steam_id":76561198361826368,"connected_time":1478000000000,"state":"active","ping":51},{"user_id":253,"name":"(TPT) Ghost","steam_id":76561198123262873,"connected_time":1453000000000,"state":"active","ping":70}]},{"server_id":18,"name":"Uncletopia | San Francisco | 2 | All Maps","name_short":"sfo-2","host":"sfo-1.us.uncletopia.com","port":27025,"enabled":true,"region":"us-west","cc":"us","latitude":37.77397,"longitude":-122.4313,"reserved":0,"last_update":"0001-01-01T00:00:00Z","name_a2s":"Uncletopia | San Francisco | 2 | All Maps","protocol":17,"map":"pl_borneo","folder":"tf","game":"Team Fortress","app_id":440,"player_count":0,"max_players":24,"Bots":0,"server_type":"Dedicated","server_os":"Linux","password":true,"vac":true,"version":"7961495","steam_id":85568392924470000,"keywords":["nocrits","nodmgspread","payload","uncletopia"],"game_id":440,"stv_port":27026,"stv_name":"Uncletopia | San Francisco | 2 | All Maps | STV","players":null},{"server_id":19,"name":"Uncletopia | San Francisco | 3 | Stopwatch Beta","name_short":"sfo-3","host":"sfo-1.us.uncletopia.com","port":27035,"enabled":true,"region":"us-west","cc":"us","latitude":37.77397,"longitude":-122.4313,"reserved":0,"last_update":"0001-01-01T00:00:00Z","name_a2s":"Uncletopia | San Francisco | 3 | Stopwatch Beta","protocol":17,"map":"pl_borneo","folder":"tf","game":"Team Fortress","app_id":440,"player_count":0,"max_players":24,"Bots":0,"server_type":"Dedicated","server_os":"Linux","password":true,"vac":true,"version":"7961495","steam_id":85568392924742824,"keywords":["nocrits","nodmgspread","payload","uncletopia"],"game_id":440,"stv_port":27036,"stv_name":"Uncletopia | San Francisco | 3 | Stopwatch Beta | STV","players":null},{"server_id":20,"name":"Uncletopia | San Francisco | 4 | Community","name_short":"sfo-4","host":"sfo-1.us.uncletopia.com","port":27045,"enabled":true,"region":"us-west","cc":"us","latitude":37.77397,"longitude":-122.4313,"reserved":0,"last_update":"0001-01-01T00:00:00Z","name_a2s":"Uncletopia | San Francisco | 4 | Community","protocol":17,"map":"workshop/koth_synthetic_rc6a.ugc1549817316","folder":"tf","game":"Team Fortress","app_id":440,"player_count":0,"max_players":24,"Bots":0,"server_type":"Dedicated","server_os":"Linux","password":true,"vac":true,"version":"7961495","steam_id":85568392924742826,"keywords":["cp","nocrits","nodmgspread","uncletopia"],"game_id":440,"stv_port":27046,"stv_name":"Uncletopia | San Francisco | 4 | Community | STV","players":null},{"server_id":141,"name":"Uncletopia | Sydney | 1 | All Maps","name_short":"syd-1","host":"syd-1.au.uncletopia.com","port":27015,"enabled":true,"region":"au","cc":"au","latitude":-33.865143,"longitude":151.2099,"reserved":0,"last_update":"0001-01-01T00:00:00Z","name_a2s":"Uncletopia | Sydney | 1 | All Maps","protocol":17,"map":"pl_thundermountain","folder":"tf","game":"Team Fortress","app_id":440,"player_count":24,"max_players":24,"Bots":0,"server_type":"Dedicated","server_os":"Linux","password":true,"vac":true,"version":"7961495","steam_id":85568392924470001,"keywords":["nocrits","nodmgspread","payload","uncletopia"],"game_id":440,"stv_port":27016,"stv_name":"Uncletopia | Sydney | 1 | All Maps | STV","players":[{"user_id":37,"name":"viirv","steam_id":76561198190097862,"connected_time":7578000000000,"state":"active","ping":69},{"user_id":113,"name":"soupy","steam_id":76561198073734936,"connected_time":1292000000000,"state":"active","ping":89},{"user_id":118,"name":"ree boy","steam_id":76561199024189820,"connected_time":1026000000000,"state":"active","ping":88},{"user_id":119,"name":"Owlenstein™","steam_id":76561198093983826,"connected_time":981000000000,"state":"active","ping":125},{"user_id":116,"name":"schnitzel","steam_id":76561198040881217,"connected_time":1086000000000,"state":"active","ping":43},{"user_id":39,"name":"JP","steam_id":76561198026221737,"connected_time":7543000000000,"state":"active","ping":46},{"user_id":25,"name":"goblin smoking a huge blunt","steam_id":76561198079345240,"connected_time":8932000000000,"state":"active","ping":60},{"user_id":98,"name":"Dupiter","steam_id":76561198108820767,"connected_time":3153000000000,"state":"active","ping":54},{"user_id":105,"name":"Jacob","steam_id":76561198059341907,"connected_time":1631000000000,"state":"active","ping":42},{"user_id":124,"name":"Atlas","steam_id":76561198069332870,"connected_time":645000000000,"state":"active","ping":49},{"user_id":86,"name":"Golfing with Joel","steam_id":76561199161637215,"connected_time":3919000000000,"state":"active","ping":101},{"user_id":75,"name":"Zoey","steam_id":76561198126153554,"connected_time":4471000000000,"state":"active","ping":109},{"user_id":114,"name":"zorgloopy glorfmorpus","steam_id":76561198063481761,"connected_time":1104000000000,"state":"active","ping":45},{"user_id":70,"name":"michael","steam_id":76561198052848358,"connected_time":5078000000000,"state":"active","ping":67},{"user_id":125,"name":"รђг๏๏๓ฬเՇςђ","steam_id":76561199422901400,"connected_time":637000000000,"state":"active","ping":84},{"user_id":127,"name":"perturb (feed/seed)","steam_id":76561198085124297,"connected_time":224000000000,"state":"active","ping":60},{"user_id":126,"name":"ibus","steam_id":76561199026701614,"connected_time":432000000000,"state":"active","ping":61},{"user_id":89,"name":"Skidallion","steam_id":76561198083922206,"connected_time":3504000000000,"state":"active","ping":69},{"user_id":117,"name":"Fleetfoot","steam_id":76561198072845816,"connected_time":1071000000000,"state":"active","ping":53},{"user_id":102,"name":"Soru","steam_id":76561198010844786,"connected_time":2894000000000,"state":"active","ping":69},{"user_id":52,"name":"Chez","steam_id":76561198089925051,"connected_time":6791000000000,"state":"active","ping":94},{"user_id":121,"name":"modus","steam_id":76561198025099660,"connected_time":697000000000,"state":"active","ping":149},{"user_id":58,"name":"xbox2070","steam_id":76561198452767008,"connected_time":6376000000000,"state":"active","ping":57},{"user_id":112,"name":"no teles 4 u","steam_id":76561198018478297,"connected_time":1298000000000,"state":"active","ping":78}]},{"server_id":123,"name":"Uncletopia | Sydney | 2 | All Maps","name_short":"syd-2","host":"syd-1.au.uncletopia.com","port":27025,"enabled":true,"region":"au","cc":"au","latitude":-33.865143,"longitude":151.2099,"reserved":0,"last_update":"0001-01-01T00:00:00Z","name_a2s":"Uncletopia | Sydney | 2 | All Maps","protocol":17,"map":"cp_process_final","folder":"tf","game":"Team Fortress","app_id":440,"player_count":0,"max_players":24,"Bots":0,"server_type":"Dedicated","server_os":"Linux","password":true,"vac":true,"version":"7961495","steam_id":85568392924470002,"keywords":["cp","nocrits","nodmgspread","uncletopia"],"game_id":440,"stv_port":27026,"stv_name":"Uncletopia | Sydney | 2 | All Maps | STV","players":null},{"server_id":395,"name":"Uncletopia | Sydney | 3 | All Maps","name_short":"syd-3","host":"syd-1.au.uncletopia.com","port":27035,"enabled":true,"region":"au","cc":"au","latitude":-33.865143,"longitude":151.2099,"reserved":0,"last_update":"0001-01-01T00:00:00Z","name_a2s":"Uncletopia | Sydney | 3 | All Maps","protocol":17,"map":"koth_highpass","folder":"tf","game":"Team Fortress","app_id":440,"player_count":0,"max_players":24,"Bots":0,"server_type":"Dedicated","server_os":"Linux","password":true,"vac":true,"version":"7961495","steam_id":85568392925194467,"keywords":["cp","nocrits","nodmgspread","uncletopia"],"game_id":440,"stv_port":27036,"stv_name":"Uncletopia | Sydney | 3 | All Maps | STV","players":null},{"server_id":396,"name":"Uncletopia | Sydney | 4 | All Maps","name_short":"syd-4","host":"syd-1.au.uncletopia.com","port":27045,"enabled":true,"region":"au","cc":"au","latitude":-33.865143,"longitude":151.2099,"reserved":0,"last_update":"0001-01-01T00:00:00Z","name_a2s":"Uncletopia | Sydney | 4 | All Maps","protocol":17,"map":"cp_snakewater_final1","folder":"tf","game":"Team Fortress","app_id":440,"player_count":0,"max_players":24,"Bots":0,"server_type":"Dedicated","server_os":"Linux","password":true,"vac":true,"version":"7961495","steam_id":85568392925397958,"keywords":["cp","nocrits","nodmgspread","uncletopia"],"game_id":440,"stv_port":27046,"stv_name":"Uncletopia | Sydney | 4 | All Maps | STV","players":null},{"server_id":58,"name":"Uncletopia | Sydney | 5 | Stopwatch Beta","name_short":"syd-5","host":"syd-1.au.uncletopia.com","port":27055,"enabled":true,"region":"au","cc":"au","latitude":-33.865143,"longitude":151.2099,"reserved":0,"last_update":"0001-01-01T00:00:00Z","name_a2s":"Uncletopia | Sydney | 5 | Stopwatch Beta","protocol":17,"map":"koth_viaduct","folder":"tf","game":"Team Fortress","app_id":440,"player_count":0,"max_players":24,"Bots":0,"server_type":"Dedicated","server_os":"Linux","password":true,"vac":true,"version":"7961495","steam_id":85568392925397959,"keywords":["cp","nocrits","nodmgspread","uncletopia"],"game_id":440,"stv_port":27056,"stv_name":"Uncletopia | Sydney | 5 | Stopwatch Beta | STV","players":null},{"server_id":59,"name":"Uncletopia | Sydney | 6 | Community","name_short":"syd-6","host":"syd-1.au.uncletopia.com","port":27065,"enabled":true,"region":"au","cc":"au","latitude":-33.865143,"longitude":151.2099,"reserved":0,"last_update":"0001-01-01T00:00:00Z","name_a2s":"Uncletopia | Sydney | 6 | Community","protocol":17,"map":"koth_cascade","folder":"tf","game":"Team Fortress","app_id":440,"player_count":0,"max_players":24,"Bots":0,"server_type":"Dedicated","server_os":"Linux","password":true,"vac":true,"version":"7961495","steam_id":85568392925397960,"keywords":["cp","nocrits","nodmgspread","uncletopia"],"game_id":440,"stv_port":27066,"stv_name":"Uncletopia | Sydney | 6 | Community | STV","players":null},{"server_id":49,"name":"Uncletopia | Warsaw | 1 | All Maps","name_short":"waw-1","host":"waw-1.pl.uncletopia.com","port":27015,"enabled":true,"region":"eu","cc":"pl","latitude":52.2297,"longitude":21.017532,"reserved":0,"last_update":"0001-01-01T00:00:00Z","name_a2s":"Uncletopia | Warsaw | 1 | All Maps","protocol":17,"map":"pl_swiftwater_final1","folder":"tf","game":"Team Fortress","app_id":440,"player_count":8,"max_players":24,"Bots":0,"server_type":"Dedicated","server_os":"Linux","password":true,"vac":true,"version":"7961495","steam_id":85568392925397850,"keywords":["nocrits","nodmgspread","payload","uncletopia"],"game_id":440,"stv_port":27016,"stv_name":"Uncletopia | Warsaw | 1 | All Maps | STV","players":[{"user_id":8,"name":"Barry Benson","steam_id":76561198357548845,"connected_time":1408000000000,"state":"active","ping":93},{"user_id":4,"name":"joojeh tiqi","steam_id":76561199350323521,"connected_time":1820000000000,"state":"active","ping":190},{"user_id":10,"name":"Videomaniac","steam_id":76561199238019761,"connected_time":821000000000,"state":"active","ping":123},{"user_id":16,"name":"Amon Gus","steam_id":76561199094540960,"connected_time":408000000000,"state":"active","ping":71},{"user_id":14,"name":"Pascal Darras","steam_id":76561198052136478,"connected_time":570000000000,"state":"active","ping":74},{"user_id":15,"name":"sangth","steam_id":76561198032787233,"connected_time":512000000000,"state":"active","ping":101},{"user_id":18,"name":"Loyde","steam_id":76561198029919524,"connected_time":175000000000,"state":"active","ping":117},{"user_id":19,"name":"Average meme enjoyer","steam_id":76561199087566663,"connected_time":153000000000,"state":"active","ping":55}]},{"server_id":50,"name":"Uncletopia | Warsaw | 2 | All Maps","name_short":"waw-2","host":"waw-1.pl.uncletopia.com","port":27025,"enabled":true,"region":"eu","cc":"pl","latitude":52.2297,"longitude":21.017532,"reserved":0,"last_update":"0001-01-01T00:00:00Z","name_a2s":"Uncletopia | Warsaw | 2 | All Maps","protocol":17,"map":"cp_dustbowl","folder":"tf","game":"Team Fortress","app_id":440,"player_count":0,"max_players":24,"Bots":0,"server_type":"Dedicated","server_os":"Linux","password":true,"vac":true,"version":"7961495","steam_id":85568392925397851,"keywords":["cp","nocrits","nodmgspread","uncletopia"],"game_id":440,"stv_port":27026,"stv_name":"Uncletopia | Warsaw | 2 | All Maps | STV","players":null},{"server_id":51,"name":"Uncletopia | Warsaw | 3 | All Maps","name_short":"waw-3","host":"waw-1.pl.uncletopia.com","port":27035,"enabled":true,"region":"eu","cc":"pl","latitude":52.2297,"longitude":21.017532,"reserved":0,"last_update":"0001-01-01T00:00:00Z","name_a2s":"Uncletopia | Warsaw | 3 | All Maps","protocol":17,"map":"pl_upward","folder":"tf","game":"Team Fortress","app_id":440,"player_count":0,"max_players":24,"Bots":0,"server_type":"Dedicated","server_os":"Linux","password":true,"vac":true,"version":"7961495","steam_id":85568392925397852,"keywords":["nocrits","nodmgspread","payload","uncletopia"],"game_id":440,"stv_port":27036,"stv_name":"Uncletopia | Warsaw | 3 | All Maps | STV","players":null},{"server_id":52,"name":"Uncletopia | Warsaw | 4 | All Maps","name_short":"waw-4","host":"waw-1.pl.uncletopia.com","port":27045,"enabled":true,"region":"eu","cc":"pl","latitude":52.2297,"longitude":21.017532,"reserved":0,"last_update":"0001-01-01T00:00:00Z","name_a2s":"Uncletopia | Warsaw | 4 | All Maps","protocol":17,"map":"koth_viaduct","folder":"tf","game":"Team Fortress","app_id":440,"player_count":0,"max_players":24,"Bots":0,"server_type":"Dedicated","server_os":"Linux","password":true,"vac":true,"version":"7961495","steam_id":85568392925397853,"keywords":["cp","nocrits","nodmgspread","uncletopia"],"game_id":440,"stv_port":27046,"stv_name":"Uncletopia | Warsaw | 4 | All Maps | STV","players":null},{"server_id":53,"name":"Uncletopia | Warsaw | 5 | Stopwatch Beta","name_short":"waw-5","host":"waw-1.pl.uncletopia.com","port":27055,"enabled":true,"region":"eu","cc":"pl","latitude":52.2297,"longitude":21.017532,"reserved":0,"last_update":"0001-01-01T00:00:00Z","name_a2s":"Uncletopia | Warsaw | 5 | Stopwatch Beta","protocol":17,"map":"cp_snakewater_final1","folder":"tf","game":"Team Fortress","app_id":440,"player_count":0,"max_players":24,"Bots":0,"server_type":"Dedicated","server_os":"Linux","password":true,"vac":true,"version":"7961495","steam_id":85568392925397854,"keywords":["cp","nocrits","nodmgspread","uncletopia"],"game_id":440,"stv_port":27056,"stv_name":"Uncletopia | Warsaw | 5 | Stopwatch Beta | STV","players":null},{"server_id":54,"name":"Uncletopia | Warsaw | 6 | Community","name_short":"waw-6","host":"waw-1.pl.uncletopia.com","port":27065,"enabled":true,"region":"eu","cc":"pl","latitude":52.2297,"longitude":21.017532,"reserved":0,"last_update":"0001-01-01T00:00:00Z","name_a2s":"Uncletopia | Warsaw | 6 | Community","protocol":17,"map":"cp_mountainlab","folder":"tf","game":"Team Fortress","app_id":440,"player_count":0,"max_players":24,"Bots":0,"server_type":"Dedicated","server_os":"Linux","password":true,"vac":true,"version":"7961495","steam_id":85568392925397856,"keywords":["cp","nocrits","nodmgspread","uncletopia"],"game_id":440,"stv_port":27066,"stv_name":"Uncletopia | Warsaw | 6 | Community | STV","players":null}]}