{"status":true,"message":"","result":[{"server_id":9,"name":"Uncletopia | Atlanta | 1 | All Maps","name_short":"atl-1","host":"atl-1.us.uncletopia.com","port":27015,"enabled":true,"region":"us-east","cc":"us","latitude":33.753746,"longitude":-84.38633,"reserved":0,"last_update":"0001-01-01T00:00:00Z","name_a2s":"Uncletopia | Atlanta | 1 | All Maps","protocol":17,"map":"cp_junction_final","folder":"tf","game":"Team Fortress","app_id":440,"player_count":24,"max_players":24,"Bots":0,"server_type":"Dedicated","server_os":"Linux","password":true,"vac":true,"version":"7961495","steam_id":85568392924469982,"keywords":["cp","nocrits","nodmgspread","uncletopia"],"game_id":440,"stv_port":27016,"stv_name":"Uncletopia | Atlanta | 1 | All Maps | STV","players":[{"user_id":519,"name":"com lag","steam_id":76561198019019392,"connected_time":1772000000000,"state":"active","ping":68},{"user_id":383,"name":"JunThePanda","steam_id":76561198144029002,"connected_time":13690000000000,"state":"active","ping":87},{"user_id":528,"name":"ash","steam_id":76561198127890645,"connected_time":568000000000,"state":"active","ping":61},{"user_id":520,"name":"Effie","steam_id":76561198261842068,"connected_time":1757000000000,"state":"active","ping":66},{"user_id":530,"name":"Five","steam_id":76561198026640473,"connected_time":554000000000,"state":"active","ping":98},{"user_id":486,"name":"Fever Dreams","steam_id":76561198116614620,"connected_time":5517000000000,"state":"active","ping":72},{"user_id":447,"name":"Pango","steam_id":76561198069811545,"connected_time":9068000000000,"state":"active","ping":34},{"user_id":524,"name":"why","steam_id":76561199059732212,"connected_time":1301000000000,"state":"active","ping":55},{"user_id":503,"name":"joe","steam_id":76561198045781320,"connected_time":3545000000000,"state":"active","ping":68},{"user_id":535,"name":"BB Lorexav","steam_id":76561198207565988,"connected_time":36000000000,"state":"active","ping":53},{"user_id":514,"name":"Yam Jazzy Jim","steam_id":76561198000788950,"connected_time":1793000000000,"state":"active","ping":76},{"user_id":507,"name":"ATL1 | cola","steam_id":76561198374390458,"connected_time":3321000000000,"state":"active","ping":63},{"user_id":531,"name":"FEBLUCAXZ","steam_id":76561198355845884,"connected_time":551000000000,"state":"active","ping":113},{"user_id":533,"name":"Moonshine Man","steam_id":76561198088010073,"connected_time":313000000000,"state":"active","ping":66},{"user_id":521,"name":"Aggressive Menace","steam_id":76561198249138216,"connected_time":1754000000000,"state":"active","ping":72},{"user_id":532,"name":"feed the gator, coward","steam_id":76561198018508494,"connected_time":539000000000,"state":"active","ping":75},{"user_id":527,"name":"Krissy","steam_id":76561197960848174,"connected_time":577000000000,"state":"active","ping":63},{"user_id":502,"name":"bkiller","steam_id":76561198029265697,"connected_time":3598000000000,"state":"active","ping":63},{"user_id":510,"name":"Professional Femboy","steam_id":76561198162303472,"connected_time":2338000000000,"state":"active","ping":56},{"user_id":445,"name":"Jeane","steam_id":76561198151019322,"connected_time":9092000000000,"state":"active","ping":60},{"user_id":492,"name":"Harbor Seal","steam_id":76561198162631724,"connected_time":4972000000000,"state":"active","ping":74},{"user_id":497,"name":"tgirl frothing","steam_id":76561198249206656,"connected_time":4411000000000,"state":"active","ping":79},{"user_id":525,"name":"tgirl swag","steam_id":76561198128164970,"connected_time":695000000000,"state":"active","ping":101},{"user_id":529,"name":"NovaSc6ut","steam_id":76561198277163301,"connected_time":565000000000,"state":"active","ping":83}]},{"server_id":104,"name":"Uncletopia | Atlanta | 2 | All Maps","name_short":"atl-2","host":"atl-1.us.uncletopia.com","port":27025,"enabled":true,"region":"us-east","cc":"us","latitude":33.753746,"longitude":-84.38633,"reserved":0,"last_update":"0001-01-01T00:00:00Z","name_a2s":"Uncletopia | Atlanta | 2 | All Maps","protocol":17,"map":"cp_mountainlab","folder":"tf","game":"Team Fortress","app_id":440,"player_count":24,"max_players":24,"Bots":0,"server_type":"Dedicated","server_os":"Linux","password":true,"vac":true,"version":"7961495","steam_id":85568392924469983,"keywords":["cp","nocrits","nodmgspread","uncletopia"],"game_id":440,"stv_port":27026,"stv_name":"Uncletopia | Atlanta | 2 | All Maps | STV","players":[{"user_id":351,"name":"shield","steam_id":76561198976876859,"connected_time":1908000000000,"state":"active","ping":68},{"user_id":357,"name":"Dr_Cecil","steam_id":76561198873862113,"connected_time":1726000000000,"state":"active","ping":92},{"user_id":265,"name":"Mythical Lag","steam_id":76561198347031281,"connected_time":5327000000000,"state":"active","ping":83},{"user_id":370,"name":"rattlin' bog","steam_id":76561198224551028,"connected_time":1327000000000,"state":"active","ping":72},{"user_id":371,"name":"Fart Huffer","steam_id":76561198094125834,"connected_time":1318000000000,"state":"active","ping":84},{"user_id":324,"name":"Thotimus Begonimus","steam_id":76561197970275938,"connected_time":3336000000000,"state":"active","ping":64},{"user_id":378,"name":"QuakAtack","steam_id":76561198870770157,"connected_time":239000000000,"state":"active","ping":93},{"user_id":377,"name":"Joe Rogan (real)","steam_id":76561198359511515,"connected_time":251000000000,"state":"active","ping":67},{"user_id":374,"name":"thezranger","steam_id":76561198454086460,"connected_time":740000000000,"state":"active","ping":111},{"user_id":368,"name":"ImmenseWraith","steam_id":76561198963757884,"connected_time":1511000000000,"state":"active","ping":87},{"user_id":248,"name":"the cart is not movin lads","steam_id":76561199184578185,"connected_time":6412000000000,"state":"active","ping":161},{"user_id":340,"name":"He rolls his own","steam_id":76561198058162684,"connected_time":2965000000000,"state":"active","ping":70},{"user_id":379,"name":"G_Bob","steam_id":76561198098133233,"connected_time":215000000000,"state":"active","ping":56},{"user_id":380,"name":"DarkenedPolarity","steam_id":76561199073099596,"connected_time":193000000000,"state":"active","ping":58},{"user_id":264,"name":"Monkey Mode","steam_id":76561197961267543,"connected_time":5399000000000,"state":"active","ping":54},{"user_id":360,"name":"hapa demon punk","steam_id":76561198308883028,"connected_time":1633000000000,"state":"active","ping":113},{"user_id":382,"name":"Azazellotl","steam_id":76561198824814392,"connected_time":161000000000,"state":"active","ping":66},{"user_id":376,"name":"The Foolish Samurai","steam_id":76561198094494945,"connected_time":384000000000,"state":"active","ping":103},{"user_id":385,"name":"Volkan, Pervert Extraordinaire","steam_id":76561198004569575,"connected_time":72000000000,"state":"active","ping":73},{"user_id":372,"name":"centermass321","steam_id":76561198090552970,"connected_time":1060000000000,"state":"active","ping":58},{"user_id":383,"name":"hey","steam_id":76561198302747172,"connected_time":159000000000,"state":"active","ping":82},{"user_id":365,"name":"NerdyEnforcement","steam_id":76561198437710820,"connected_time":1580000000000,"state":"active","ping":86},{"user_id":367,"name":"FlameEmerald","steam_id":76561198407696514,"connected_time":1556000000000,"state":"active","ping":85},{"user_id":384,"name":"AMistake","steam_id":76561199379196708,"connected_time":120000000000,"state":"active","ping":59}]},{"server_id":400,"name":"Uncletopia | Atlanta | 3 | Stopwatch","name_short":"atl-3","host":"atl-1.us.uncletopia.com","port":27035,"enabled":true,"region":"us-east","cc":"us","latitude":33.753746,"longitude":-84.38633,"reserved":0,"last_update":"0001-01-01T00:00:00Z","name_a2s":"Uncletopia | Atlanta | 3 | Stopwatch","protocol":17,"map":"workshop/koth_clearcut_b15.ugc2107050255","folder":"tf","game":"Team Fortress","app_id":440,"player_count":0,"max_players":24,"Bots":0,"server_type":"Dedicated","server_os":"Linux","password":true,"vac":true,"version":"7961495","steam_id":85568392924515187,"keywords":["cp","nocrits","nodmgspread","uncletopia"],"game_id":440,"stv_port":27036,"stv_name":"Uncletopia | Atlanta | 3 | Stopwatch | STV","players":null},{"server_id":401,"name":"Uncletopia | Atlanta | 4 | Community","name_short":"atl-4","host":"atl-1.us.uncletopia.com","port":27045,"enabled":true,"region":"us-east","cc":"us","latitude":33.753746,"longitude":-84.38633,"reserved":0,"last_update":"0001-01-01T00:00:00Z","name_a2s":"Uncletopia | Atlanta | 4 | Community","protocol":17,"map":"cp_sunshine","folder":"tf","game":"Team Fortress","app_id":440,"player_count":0,"max_players":24,"Bots":0,"server_type":"Dedicated","server_os":"Linux","password":true,"vac":true,"version":"7961495","steam_id":85568392924515188,"keywords":["cp","nocrits","nodmgspread","uncletopia"],"game_id":440,"stv_port":27046,"stv_name":"Uncletopia | Atlanta | 4 | Community | STV","players":null},{"server_id":2,"name":"Uncletopia | Chicago | 1 | All Maps","name_short":"chi-1","host":"chi-1.us.uncletopia.com","port":27015,"enabled":true,"region":"us-central","cc":"us","latitude":41.881832,"longitude":-87.62318,"reserved":0,"last_update":"0001-01-01T00:00:00Z","name_a2s":"Uncletopia | Chicago | 1 | All Maps","protocol":17,"map":"pl_barnblitz","folder":"tf","game":"Team Fortress","app_id":440,"player_count":22,"max_players":24,"Bots":0,"server_type":"Dedicated","server_os":"Linux","password":true,"vac":true,"version":"7961495","steam_id":85568392924469984,"keywords":["nocrits","nodmgspread","payload","uncletopia"],"game_id":440,"stv_port":27016,"stv_name":"Uncletopia | Chicago | 1 | All Maps | STV","players":[{"user_id":852,"name":"KYLE KYLESON","steam_id":76561198021920887,"connected_time":1257000000000,"state":"active","ping":29},{"user_id":814,"name":"LULW WHAT IS HE DOING?","steam_id":76561198031675881,"connected_time":4163000000000,"state":"active","ping":34},{"user_id":866,"name":"Barn","steam_id":76561198037219525,"connected_time":527000000000,"state":"active","ping":73},{"user_id":856,"name":"Big Chungus","steam_id":76561198010019214,"connected_time":930000000000,"state":"active","ping":64},{"user_id":840,"name":"agless","steam_id":76561198045248344,"connected_time":2197000000000,"state":"active","ping":60},{"user_id":853,"name":"üçíbutaüçí","steam_id":76561198135538212,"connected_time":1141000000000,"state":"active","ping":57},{"user_id":740,"name":"TheGreythreat","steam_id":76561198021995538,"connected_time":8407000000000,"state":"active","ping":58},{"user_id":851,"name":"Siz","steam_id":76561198072962154,"connected_time":1334000000000,"state":"active","ping":64},{"user_id":847,"name":"Raz","steam_id":76561198002426150,"connected_time":1519000000000,"state":"active","ping":63},{"user_id":841,"name":"tack","steam_id":76561198408477421,"connected_time":2191000000000,"state":"active","ping":77},{"user_id":855,"name":"StudioMania (#SAVETF2)","steam_id":76561198211315795,"connected_time":961000000000,"state":"active","ping":69},{"user_id":865,"name":"lanoc","steam_id":76561198055415367,"connected_time":541000000000,"state":"active","ping":54},{"user_id":867,"name":"The King","steam_id":76561198117344758,"connected_time":344000000000,"state":"active","ping":72},{"user_id":830,"name":"BradB.","steam_id":76561199163905036,"connected_time":2705000000000,"state":"active","ping":75},{"user_id":819,"name":"Thatoneguybunchanumbers","steam_id":76561198028039160,"connected_time":3704000000000,"state":"active","ping":82},{"user_id":860,"name":"on that zaza?","steam_id":76561198038713198,"connected_time":877000000000,"state":"active","ping":62},{"user_id":837,"name":"Sunflower","steam_id":76561198081223793,"connected_time":2572000000000,"state":"active","ping":56},{"user_id":817,"name":"Robo Boss","steam_id":76561199067098696,"connected_time":3715000000000,"state":"active","ping":78},{"user_id":861,"name":"sithreis","steam_id":76561198000564263,"connected_time":781000000000,"state":"active","ping":70},{"user_id":838,"name":"Always Here for You","steam_id":76561198219252313,"connected_time":2569000000000,"state":"active","ping":65},{"user_id":831,"name":"RiceRiceDesu","steam_id":76561198018568723,"connected_time":2658000000000,"state":"active","ping":56},{"user_id":863,"name":"Majestic-A","steam_id":76561198988062101,"connected_time":629000000000,"state":"active","ping":98}]},{"server_id":106,"name":"Uncletopia | Chicago | 2 | All Maps","name_short":"chi-2","host":"chi-1.us.uncletopia.com","port":27025,"enabled":true,"region":"us-central","cc":"us","latitude":41.881832,"longitude":-87.62318,"reserved":0,"last_update":"0001-01-01T00:00:00Z","name_a2s":"Uncletopia | Chicago | 2 | All Maps","protocol":17,"map":"pl_upward","folder":"tf","game":"Team Fortress","app_id":440,"player_count":21,"max_players":24,"Bots":0,"server_type":"Dedicated","server_os":"Linux","password":true,"vac":true,"version":"7961495","steam_id":85568392924469985,"keywords":["nocrits","nodmgspread","payload","uncletopia"],"game_id":440,"stv_port":27026,"stv_name":"Uncletopia | Chicago | 2 | All Maps | STV","players":[{"user_id":511,"name":"El G√ºey","steam_id":76561197970450546,"connected_time":56000000000,"state":"active","ping":94},{"user_id":474,"name":"Grundle Thunder","steam_id":76561197960790338,"connected_time":2065000000000,"state":"active","ping":74},{"user_id":479,"name":"Kek","steam_id":76561198067689989,"connected_time":1586000000000,"state":"active","ping":56},{"user_id":505,"name":"ThatOneKnight","steam_id":76561198388583650,"connected_time":610000000000,"state":"active","ping":52},{"user_id":506,"name":"Gay Balls","steam_id":76561198392112347,"connected_time":362000000000,"state":"active","ping":59},{"user_id":512,"name":"GKumo","steam_id":76561198023175868,"connected_time":31000000000,"state":"active","ping":121},{"user_id":459,"name":"MedRed‚Ñ¢ #IATAH","steam_id":76561198002962970,"connected_time":3636000000000,"state":"active","ping":90},{"user_id":493,"name":"Confused Rock","steam_id":76561198051763034,"connected_time":1041000000000,"state":"active","ping":67},{"user_id":513,"name":"Dullahan","steam_id":76561198119668908,"connected_time":6000000000,"state":"spawning","ping":93},{"user_id":451,"name":"Penis Man Balls Funny","steam_id":76561198207718944,"connected_time":4123000000000,"state":"active","ping":59},{"user_id":501,"name":"Trash","steam_id":76561198358471281,"connected_time":850000000000,"state":"active","ping":61},{"user_id":498,"name":"Chicken Joe","steam_id":76561198125993888,"connected_time":863000000000,"state":"active","ping":100},{"user_id":509,"name":"I Am Alpharius","steam_id":76561198033100226,"connected_time":92000000000,"state":"active","ping":64},{"user_id":483,"name":"bath","steam_id":76561197969993352,"connected_time":1556000000000,"state":"active","ping":66},{"user_id":495,"name":"The Announcer's Feet","steam_id":76561199501227879,"connected_time":977000000000,"state":"active","ping":86},{"user_id":504,"name":"iceetee","steam_id":76561198156275931,"connected_time":648000000000,"state":"active","ping":64},{"user_id":487,"name":"Fraglin","steam_id":76561198124964000,"connected_time":1546000000000,"state":"active","ping":69},{"user_id":471,"name":"Barmy","steam_id":76561198111626352,"connected_time":2484000000000,"state":"active","ping":88},{"user_id":472,"name":"Swash","steam_id":76561197969421355,"connected_time":2291000000000,"state":"active","ping":45},{"user_id":478,"name":"cheesebooger","steam_id":76561198041770884,"connected_time":1758000000000,"state":"active","ping":98},{"user_id":488,"name":"Natsuki the Scunt","steam_id":76561199175922684,"connected_time":1541000000000,"state":"active","ping":105}]},{"server_id":402,"name":"Uncletopia | Chicago | 3 | All Maps","name_short":"chi-3","host":"chi-1.us.uncletopia.com","port":27035,"enabled":true,"region":"us-central","cc":"us","latitude":41.881832,"longitude":-87.62318,"reserved":0,"last_update":"0001-01-01T00:00:00Z","name_a2s":"Uncletopia | Chicago | 3 | All Maps","protocol":17,"map":"cp_dustbowl","folder":"tf","game":"Team Fortress","app_id":440,"player_count":24,"max_players":24,"Bots":0,"server_type":"Dedicated","server_os":"Linux","password":true,"vac":true,"version":"7961495","steam_id":85568392924515191,"keywords":["cp","nocrits","nodmgspread","uncletopia"],"game_id":440,"stv_port":27036,"stv_name":"Uncletopia | Chicago | 3 | All Maps | STV","players":[{"user_id":465,"name":"Bandoleon","steam_id":76561199075155791,"connected_time":1676000000000,"state":"active","ping":63},{"user_id":462,"name":"Spartan Hoplite","steam_id":76561198036087732,"connected_time":1729000000000,"state":"active","ping":64},{"user_id":453,"name":"NinjaboySC","steam_id":76561198157305426,"connected_time":3130000000000,"state":"active","ping":64},{"user_id":470,"name":"GoGo is a Drunk Slut","steam_id":76561198023080645,"connected_time":886000000000,"state":"active","ping":87},{"user_id":448,"name":"Gunden","steam_id":76561198124380112,"connected_time":3375000000000,"state":"active","ping":60},{"user_id":478,"name":"butterthoughts","steam_id":76561198025120284,"connected_time":146000000000,"state":"active","ping":77},{"user_id":481,"name":"Muffin","steam_id":76561198111403028,"connected_time":66000000000,"state":"active","ping":50},{"user_id":475,"name":"I'm not a rapper","steam_id":76561198307516731,"connected_time":178000000000,"state":"active","ping":72},{"user_id":479,"name":"Violinja","steam_id":76561198324875899,"connected_time":146000000000,"state":"active","ping":60},{"user_id":476,"name":"SpockASD","steam_id":76561198830243167,"connected_time":157000000000,"state":"active","ping":72},{"user_id":444,"name":"dulg","steam_id":76561198127640309,"connected_time":3818000000000,"state":"active","ping":87},{"user_id":463,"name":"Californian (Derogatory)","steam_id":76561198077272494,"connected_time":1716000000000,"state":"active","ping":49},{"user_id":480,"name":"Smartie","steam_id":76561198123182319,"connected_time":66000000000,"state":"active","ping":66},{"user_id":467,"name":"NoireThings","steam_id":76561199041728231,"connected_time":1602000000000,"state":"active","ping":68},{"user_id":435,"name":"37 septillion tapeworms","steam_id":76561198186128723,"connected_time":3983000000000,"state":"active","ping":68},{"user_id":469,"name":"Addy \u003c3","steam_id":76561198045819723,"connected_time":1016000000000,"state":"active","ping":69},{"user_id":474,"name":"Socialist Warrior","steam_id":76561198085664421,"connected_time":307000000000,"state":"active","ping":60},{"user_id":473,"name":"Coms","steam_id":76561198204995668,"connected_time":466000000000,"state":"active","ping":84},{"user_id":482,"name":"wetto makaveli","steam_id":76561198224811504,"connected_time":21000000000,"state":"active","ping":64},{"user_id":406,"name":"Deeply","steam_id":76561199000786530,"connected_time":5916000000000,"state":"active","ping":81},{"user_id":447,"name":"twinblock","steam_id":76561198157414556,"connected_time":3458000000000,"state":"active","ping":80},{"user_id":464,"name":"2cats_2curious","steam_id":76561198027143149,"connected_time":1704000000000,"state":"active","ping":43},{"user_id":445,"name":"Kim Wexler","steam_id":76561198964107245,"connected_time":3480000000000,"state":"active","ping":93},{"user_id":477,"name":"Tom","steam_id":76561198070630154,"connected_time":156000000000,"state":"active","ping":97}]},{"server_id":403,"name":"Uncletopia | Chicago | 4 | All Maps","name_short":"chi-4","host":"chi-1.us.uncletopia.com","port":27045,"enabled":true,"region":"us-central","cc":"us","latitude":41.881832,"longitude":-87.62318,"reserved":0,"last_update":"0001-01-01T00:00:00Z","name_a2s":"Uncletopia | Chicago | 4 | All Maps","protocol":17,"map":"pl_thundermountain","folder":"tf","game":"Team Fortress","app_id":440,"player_count":24,"max_players":24,"Bots":0,"server_type":"Dedicated","server_os":"Linux","password":true,"vac":true,"version":"7961495","steam_id":85568392924515193,"keywords":["nocrits","nodmgspread","payload","uncletopia"],"game_id":440,"stv_port":27046,"stv_name":"Uncletopia | Chicago | 4 | All Maps | STV","players":[{"user_id":588,"name":"roddy ricch - ballin","steam_id":76561198111290441,"connected_time":315000000000,"state":"active","ping":58},{"user_id":586,"name":"Meiji","steam_id":76561198971753591,"connected_time":506000000000,"state":"active","ping":59},{"user_id":582,"name":"Captain Buggy","steam_id":76561198024444448,"connected_time":803000000000,"state":"active","ping":98},{"user_id":587,"name":"Blehnder","steam_id":76561198172097526,"connected_time":345000000000,"state":"active","ping":73},{"user_id":575,"name":"widepeepoHappy","steam_id":76561198802398070,"connected_time":1462000000000,"state":"active","ping":98},{"user_id":561,"name":"A Good Boy","steam_id":76561198066998594,"connected_time":2685000000000,"state":"active","ping":83},{"user_id":571,"name":"Pyroshark","steam_id":76561198133599422,"connected_time":1538000000000,"state":"active","ping":75},{"user_id":566,"name":"SD","steam_id":76561198217410988,"connected_time":2641000000000,"state":"active","ping":105},{"user_id":591,"name":"St. Michael","steam_id":76561198037611052,"connected_time":135000000000,"state":"active","ping":68},{"user_id":559,"name":"t","steam_id":76561198175988929,"connected_time":2692000000000,"state":"active","ping":65},{"user_id":577,"name":"Grand Piano Tuna","steam_id":76561198135137213,"connected_time":1442000000000,"state":"active","ping":49},{"user_id":543,"name":"corntent","steam_id":76561198824847948,"connected_time":4123000000000,"state":"active","ping":62},{"user_id":589,"name":"BMoney","steam_id":76561198799389030,"connected_time":277000000000,"state":"active","ping":162},{"user_id":558,"name":"Neopyth","steam_id":76561198031868427,"connected_time":2695000000000,"state":"active","ping":67},{"user_id":560,"name":"Squid","steam_id":76561198142873471,"connected_time":2692000000000,"state":"active","ping":85},{"user_id":539,"name":"ErenJenga54","steam_id":76561199066185761,"connected_time":4305000000000,"state":"active","ping":130},{"user_id":585,"name":"Master Of Whales","steam_id":76561198349104889,"connected_time":635000000000,"state":"active","ping":121},{"user_id":593,"name":"WaluigiThyme","steam_id":76561198347579460,"connected_time":123000000000,"state":"active","ping":133},{"user_id":584,"name":"Beef Wellington","steam_id":76561198049837377,"connected_time":713000000000,"state":"active","ping":49},{"user_id":583,"name":"[eniGma] Tiger_ksc","steam_id":76561197995189577,"connected_time":786000000000,"state":"active","ping":82},{"user_id":579,"name":"kim wexler","steam_id":76561199199795741,"connected_time":1421000000000,"state":"active","ping":79},{"user_id":564,"name":"Jeremy","steam_id":76561198286240347,"connected_time":2676000000000,"state":"active","ping":65},{"user_id":580,"name":"30 fps gaming","steam_id":76561199216756079,"connected_time":1420000000000,"state":"active","ping":73},{"user_id":594,"name":"Illegal Mayo","steam_id":76561198107807617,"connected_time":113000000000,"state":"active","ping":95}]},{"server_id":36,"name":"Uncletopia | Chicago | 5 | All Maps","name_short":"chi-5","host":"chi-2.us.uncletopia.com","port":27015,"enabled":true,"region":"us-central","cc":"us","latitude":41.881832,"longitude":-87.62318,"reserved":0,"last_update":"0001-01-01T00:00:00Z","name_a2s":"Uncletopia | Chicago | 5 | All Maps","protocol":17,"map":"pl_pier","folder":"tf","game":"Team Fortress","app_id":440,"player_count":24,"max_players":24,"Bots":0,"server_type":"Dedicated","server_os":"Linux","password":true,"vac":true,"version":"7961495","steam_id":85568392924866362,"keywords":["nocrits","nodmgspread","payload","uncletopia"],"game_id":440,"stv_port":27016,"stv_name":"Uncletopia | Chicago | 5 | All Maps | STV","players":[{"user_id":308,"name":"Bones0010","steam_id":76561198096186958,"connected_time":2644000000000,"state":"active","ping":88},{"user_id":324,"name":"Mossssssssss","steam_id":76561199122200727,"connected_time":1142000000000,"state":"active","ping":71},{"user_id":328,"name":"chunk","steam_id":76561198134775401,"connected_time":1098000000000,"state":"active","ping":54},{"user_id":295,"name":"Dieu-Sama","steam_id":76561198002075862,"connected_time":4058000000000,"state":"active","ping":79},{"user_id":331,"name":"Snoop Loops","steam_id":76561198048055109,"connected_time":1068000000000,"state":"active","ping":72},{"user_id":337,"name":"garfield","steam_id":76561198114119308,"connected_time":722000000000,"state":"active","ping":62},{"user_id":327,"name":"‰∏≠ÂõΩÈªëÂÆ¢Áî∑‰∫∫","steam_id":76561198209641323,"connected_time":1121000000000,"state":"active","ping":66},{"user_id":322,"name":"Plunderphonic","steam_id":76561198062565784,"connected_time":1570000000000,"state":"active","ping":67},{"user_id":318,"name":"STS-51-L","steam_id":76561198069735882,"connected_time":1714000000000,"state":"active","ping":73},{"user_id":287,"name":"Giggles‚Ñ¢","steam_id":76561198058708019,"connected_time":4514000000000,"state":"active","ping":56},{"user_id":332,"name":"y0","steam_id":76561198143894333,"connected_time":1065000000000,"state":"active","ping":51},{"user_id":338,"name":"Sir.TopHats","steam_id":76561198267326839,"connected_time":567000000000,"state":"active","ping":85},{"user_id":234,"name":"Tobo","steam_id":76561198085846393,"connected_time":8359000000000,"state":"active","ping":91},{"user_id":321,"name":"Freddy fatbear","steam_id":76561199077997794,"connected_time":1667000000000,"state":"active","ping":87},{"user_id":313,"name":"AWGER","steam_id":76561198284683624,"connected_time":2623000000000,"state":"active","ping":76},{"user_id":325,"name":"FaXe Frog LEGS","steam_id":76561199175321250,"connected_time":1136000000000,"state":"active","ping":77},{"user_id":341,"name":"wckid","steam_id":76561198044856349,"connected_time":130000000000,"state":"active","ping":59},{"user_id":340,"name":"Calvin?","steam_id":76561198034069587,"connected_time":540000000000,"state":"active","ping":77},{"user_id":334,"name":"vomitlust","steam_id":76561197994492154,"connected_time":1007000000000,"state":"active","ping":168},{"user_id":229,"name":"Howard Hamlin","steam_id":76561198881039861,"connected_time":9083000000000,"state":"active","ping":41},{"user_id":335,"name":"Asanez3","steam_id":76561198037381436,"connected_time":991000000000,"state":"active","ping":83},{"user_id":336,"name":"Leonardo DiCaprio","steam_id":76561198121886765,"connected_time":986000000000,"state":"active","ping":63},{"user_id":283,"name":"beats!","steam_id":76561199245717718,"connected_time":4706000000000,"state":"active","ping":52},{"user_id":323,"name":"eis","steam_id":76561198830293087,"connected_time":1492000000000,"state":"active","ping":43}]},{"server_id":37,"name":"Uncletopia | Chicago | 6 | All Maps","name_short":"chi-6","host":"chi-2.us.uncletopia.com","port":27025,"enabled":true,"region":"us-central","cc":"us","latitude":41.881832,"longitude":-87.62318,"reserved":0,"last_update":"0001-01-01T00:00:00Z","name_a2s":"Uncletopia | Chicago | 6 | All Maps","protocol":17,"map":"pl_swiftwater_final1","folder":"tf","game":"Team Fortress","app_id":440,"player_count":24,"max_players":24,"Bots":0,"server_type":"Dedicated","server_os":"Linux","password":true,"vac":true,"version":"7961495","steam_id":85568392924866363,"keywords":["nocrits","nodmgspread","payload","uncletopia"],"game_id":440,"stv_port":27026,"stv_name":"Uncletopia | Chicago | 6 | All Maps | STV","players":[{"user_id":371,"name":"Phos","steam_id":76561198122339506,"connected_time":3242000000000,"state":"active","ping":73},{"user_id":365,"name":"‚±≠Õû Ã∂Õû Ã∂Õû ÔªùÔÆû dumpy[CO","steam_id":76561198056103422,"connected_time":3323000000000,"state":"active","ping":59},{"user_id":386,"name":"OldRavensFan","steam_id":76561198043919562,"connected_time":2566000000000,"state":"active","ping":71},{"user_id":410,"name":"NUt","steam_id":76561198031007966,"connected_time":459000000000,"state":"active","ping":61},{"user_id":396,"name":"trobin120","steam_id":76561199122420273,"connected_time":2189000000000,"state":"active","ping":74},{"user_id":382,"name":"1989 Mazda RX-7 FC3S","steam_id":76561198436383373,"connected_time":2741000000000,"state":"active","ping":105},{"user_id":366,"name":"LivinInTheMyst","steam_id":76561199109119765,"connected_time":3316000000000,"state":"active","ping":72},{"user_id":404,"name":"C4K3","steam_id":76561197996963285,"connected_time":873000000000,"state":"active","ping":75},{"user_id":393,"name":"MR SKELTAL","steam_id":76561198031089598,"connected_time":2340000000000,"state":"active","ping":71},{"user_id":403,"name":"Burks„ÄåÁ©∫ÈñìÂâµÈÄ†ËÄÖ„Äç","steam_id":76561198134813531,"connected_time":969000000000,"state":"active","ping":92},{"user_id":401,"name":"checkswing","steam_id":76561198999816132,"connected_time":1056000000000,"state":"active","ping":82},{"user_id":348,"name":"Paupy","steam_id":76561198059952321,"connected_time":4903000000000,"state":"active","ping":92},{"user_id":389,"name":"DomesticAvocado","steam_id":76561199036492206,"connected_time":2508000000000,"state":"active","ping":67},{"user_id":352,"name":"A Puppy","steam_id":76561198828184456,"connected_time":4267000000000,"state":"active","ping":61},{"user_id":378,"name":"duckyLoPan","steam_id":76561198000385832,"connected_time":3090000000000,"state":"active","ping":69},{"user_id":406,"name":"Gup Shittem","steam_id":76561198390093401,"connected_time":702000000000,"state":"active","ping":70},{"user_id":409,"name":"Doughbouy","steam_id":76561198033321318,"connected_time":638000000000,"state":"active","ping":70},{"user_id":392,"name":"Fly Man","steam_id":76561198201036790,"connected_time":2503000000000,"state":"active","ping":89},{"user_id":408,"name":"Tlord","steam_id":76561198086967416,"connected_time":669000000000,"state":"active","ping":56},{"user_id":374,"name":"Portizz","steam_id":76561198095732366,"connected_time":3239000000000,"state":"active","ping":84},{"user_id":411,"name":"-Avh-","steam_id":76561198087593160,"connected_time":448000000000,"state":"active","ping":70},{"user_id":402,"name":"Izzie Brunel","steam_id":76561197996565961,"connected_time":1032000000000,"state":"active","ping":71},{"user_id":383,"name":"Docc","steam_id":76561198085598022,"connected_time":2637000000000,"state":"active","ping":54},{"user_id":364,"name":"Morthis","steam_id":76561198021483291,"connected_time":3329000000000,"state":"active","ping":67}]},{"server_id":38,"name":"Uncletopia | Chicago | 7 | Stopwatch","name_short":"chi-7","host":"chi-2.us.uncletopia.com","port":27035,"enabled":true,"region":"us-central","cc":"us","latitude":41.881832,"longitude":-87.62318,"reserved":0,"last_update":"0001-01-01T00:00:00Z","name_a2s":"Uncletopia | Chicago | 7 | Stopwatch","protocol":17,"map":"workshop/pl_barnblitz_pro7.ugc582280235","folder":"tf","game":"Team Fortress","app_id":440,"player_count":0,"max_players":24,"Bots":0,"server_type":"Dedicated","server_os":"Linux","password":true,"vac":true,"version":"7961495","steam_id":85568392924866364,"keywords":["nocrits","nodmgspread","payload","uncletopia"],"game_id":440,"stv_port":27036,"stv_name":"Uncletopia | Chicago | 7 | Stopwatch | STV","players":null},{"server_id":39,"name":"Uncletopia | Chicago | 8 | Community","name_short":"chi-8","host":"chi-2.us.uncletopia.com","port":27045,"enabled":true,"region":"us-central","cc":"us","latitude":41.881832,"longitude":-87.62318,"reserved":0,"last_update":"0001-01-01T00:00:00Z","name_a2s":"Uncletopia | Chicago | 8 | Community","protocol":17,"map":"workshop/pl_cactuscanyon_redux_final2.ugc2579644293","folder":"tf","game":"Team Fortress","app_id":440,"player_count":0,"max_players":24,"Bots":0,"server_type":"Dedicated","server_os":"Linux","password":true,"vac":true,"version":"7961495","steam_id":85568392924866365,"keywords":["nocrits","nodmgspread","payload","uncletopia"],"game_id":440,"stv_port":27046,"stv_name":"Uncletopia | Chicago | 8 | Community | STV","players":null},{"server_id":8,"name":"Uncletopia | Dallas | 1 | All Maps","name_short":"dal-1","host":"dal-1.us.uncletopia.com","port":27015,"enabled":true,"region":"us-central","cc":"us","latitude":32.779167,"longitude":-96.80889,"reserved":0,"last_update":"0001-01-01T00:00:00Z","name_a2s":"Uncletopia | Dallas | 1 | All Maps","protocol":17,"map":"pl_barnblitz","folder":"tf","game":"Team Fortress","app_id":440,"player_count":24,"max_players":24,"Bots":0,"server_type":"Dedicated","server_os":"Linux","password":true,"vac":true,"version":"7961495","steam_id":85568392924469986,"keywords":["nocrits","nodmgspread","payload","uncletopia"],"game_id":440,"stv_port":27016,"stv_name":"Uncletopia | Dallas | 1 | All Maps | STV","players":[{"user_id":384,"name":"Imabee","steam_id":76561198032523749,"connected_time":2847000000000,"state":"active","ping":87},{"user_id":378,"name":"‚ù§ Ashley ‚ù§","steam_id":76561198056428303,"connected_time":3403000000000,"state":"active","ping":86},{"user_id":406,"name":"CrŒªf227","steam_id":76561198196211121,"connected_time":951000000000,"state":"active","ping":80},{"user_id":398,"name":"Anor","steam_id":76561198356139775,"connected_time":1400000000000,"state":"active","ping":82},{"user_id":281,"name":"shellaa","steam_id":76561198044124102,"connected_time":10833000000000,"state":"active","ping":45},{"user_id":422,"name":"snake eyes","steam_id":76561198099285010,"connected_time":71000000000,"state":"active","ping":90},{"user_id":337,"name":"LOVEDRAGON","steam_id":76561198089908485,"connected_time":6597000000000,"state":"active","ping":87},{"user_id":410,"name":"SpiderPyro [COMM OPEN]","steam_id":76561198041100592,"connected_time":890000000000,"state":"active","ping":70},{"user_id":413,"name":"[TRR/IO] Tangerine Baker","steam_id":76561199004774964,"connected_time":702000000000,"state":"active","ping":101},{"user_id":421,"name":"penzfan","steam_id":76561198230422640,"connected_time":227000000000,"state":"active","ping":70},{"user_id":388,"name":"rizzard of oz","steam_id":76561198040907214,"connected_time":2032000000000,"state":"active","ping":67},{"user_id":403,"name":"BADWOLF42","steam_id":76561198055447523,"connected_time":1127000000000,"state":"active","ping":56},{"user_id":380,"name":"self sufficient kitten","steam_id":76561197960592612,"connected_time":3343000000000,"state":"active","ping":100},{"user_id":393,"name":"Kirbothebrony","steam_id":76561198971911330,"connected_time":1682000000000,"state":"active","ping":71},{"user_id":342,"name":"KillSwitch","steam_id":76561198271909107,"connected_time":6204000000000,"state":"active","ping":92},{"user_id":407,"name":"Jennifer Aniston's Nipples","steam_id":76561198086107548,"connected_time":945000000000,"state":"active","ping":47},{"user_id":395,"name":"Imrgrim","steam_id":76561198135866481,"connected_time":1640000000000,"state":"active","ping":65},{"user_id":357,"name":"Jack \"Hee Ho\" Frost","steam_id":76561198353395198,"connected_time":4892000000000,"state":"active","ping":84},{"user_id":371,"name":"Muffin","steam_id":76561198209987299,"connected_time":3558000000000,"state":"active","ping":135},{"user_id":420,"name":"Dqzz","steam_id":76561199440761155,"connected_time":332000000000,"state":"active","ping":94},{"user_id":374,"name":"Real_Jakepaul","steam_id":76561198170243578,"connected_time":3462000000000,"state":"active","ping":114},{"user_id":419,"name":"crazyguy","steam_id":76561198069215275,"connected_time":436000000000,"state":"active","ping":94},{"user_id":417,"name":"dobo","steam_id":76561197998785704,"connected_time":556000000000,"state":"active","ping":95},{"user_id":396,"name":"tf2 -\u003e :3 pipeline","steam_id":76561198132803810,"connected_time":1451000000000,"state":"active","ping":62}]},{"server_id":108,"name":"Uncletopia | Dallas | 2 | All Maps","name_short":"dal-2","host":"dal-1.us.uncletopia.com","port":27025,"enabled":true,"region":"us-central","cc":"us","latitude":32.779167,"longitude":-96.80889,"reserved":0,"last_update":"0001-01-01T00:00:00Z","name_a2s":"Uncletopia | Dallas | 2 | All Maps","protocol":17,"map":"cp_dustbowl","folder":"tf","game":"Team Fortress","app_id":440,"player_count":14,"max_players":24,"Bots":0,"server_type":"Dedicated","server_os":"Linux","password":true,"vac":true,"version":"7961495","steam_id":85568392924469988,"keywords":["cp","nocrits","nodmgspread","uncletopia"],"game_id":440,"stv_port":27026,"stv_name":"Uncletopia | Dallas | 2 | All Maps | STV","players":[{"user_id":529,"name":"Tang","steam_id":76561198121340574,"connected_time":528000000000,"state":"active","ping":77},{"user_id":537,"name":"(TTV) The_Astrum_Guardian","steam_id":76561198130134103,"connected_time":94000000000,"state":"active","ping":60},{"user_id":531,"name":"Argon","steam_id":76561199254804349,"connected_time":348000000000,"state":"active","ping":84},{"user_id":532,"name":"The Collective(Hypnotist)","steam_id":76561198170423483,"connected_time":341000000000,"state":"active","ping":75},{"user_id":463,"name":"Importality","steam_id":76561198049943127,"connected_time":4634000000000,"state":"active","ping":100},{"user_id":533,"name":"marx","steam_id":76561198253336546,"connected_time":335000000000,"state":"active","ping":98},{"user_id":534,"name":"Rainbeon","steam_id":76561198046150531,"connected_time":334000000000,"state":"active","ping":61},{"user_id":535,"name":"arse77","steam_id":76561198169613105,"connected_time":291000000000,"state":"active","ping":94},{"user_id":536,"name":"menonamed","steam_id":76561198199564382,"connected_time":270000000000,"state":"active","ping":82},{"user_id":539,"name":"Silvermanic","steam_id":76561199077506294,"connected_time":10000000000,"state":"active","ping":109},{"user_id":492,"name":"Light-Work","steam_id":76561198084263001,"connected_time":2731000000000,"state":"active","ping":46},{"user_id":458,"name":"UNIT 220","steam_id":76561198042243497,"connected_time":4973000000000,"state":"active","ping":68},{"user_id":514,"name":"Gainsdalf the Egg White","steam_id":76561198018213050,"connected_time":1353000000000,"state":"active","ping":50},{"user_id":460,"name":"Alchemist","steam_id":76561198094238189,"connected_time":4954000000000,"state":"active","ping":61}]},{"server_id":404,"name":"Uncletopia | Dallas | 3 | All Maps","name_short":"dal-3","host":"dal-1.us.uncletopia.com","port":27035,"enabled":true,"region":"us-central","cc":"us","latitude":32.779167,"longitude":-96.80889,"reserved":0,"last_update":"0001-01-01T00:00:00Z","name_a2s":"Uncletopia | Dallas | 3 | All Maps","protocol":17,"map":"pl_borneo","folder":"tf","game":"Team Fortress","app_id":440,"player_count":24,"max_players":24,"Bots":0,"server_type":"Dedicated","server_os":"Linux","password":true,"vac":true,"version":"7961495","steam_id":85568392924515219,"keywords":["nocrits","nodmgspread","payload","uncletopia"],"game_id":440,"stv_port":27036,"stv_name":"Uncletopia | Dallas | 3 | All Maps | STV","players":[{"user_id":246,"name":"John16Mark","steam_id":76561198119445407,"connected_time":1069000000000,"state":"active","ping":63},{"user_id":247,"name":"Rafl","steam_id":76561198055222756,"connected_time":1061000000000,"state":"active","ping":44},{"user_id":234,"name":"crotuslovershanks","steam_id":76561199091300223,"connected_time":2108000000000,"state":"active","ping":90},{"user_id":223,"name":"Shabooyaroll-call","steam_id":76561198112306237,"connected_time":2442000000000,"state":"active","ping":88},{"user_id":233,"name":"Hamuktakali","steam_id":76561198039625579,"connected_time":2238000000000,"state":"active","ping":59},{"user_id":235,"name":"THICCBEEF GRANDPA","steam_id":76561197993550572,"connected_time":2107000000000,"state":"active","ping":94},{"user_id":221,"name":"tek lintowe fan","steam_id":76561198206177593,"connected_time":2504000000000,"state":"active","ping":73},{"user_id":212,"name":"wajanta","steam_id":76561199040280852,"connected_time":3387000000000,"state":"active","ping":60},{"user_id":248,"name":"ICBMonkey","steam_id":76561198033351821,"connected_time":1040000000000,"state":"active","ping":60},{"user_id":255,"name":"cheetaz","steam_id":76561198224614084,"connected_time":124000000000,"state":"active","ping":89},{"user_id":215,"name":"R8 Me M8 8/8","steam_id":76561198025280917,"connected_time":2914000000000,"state":"active","ping":85},{"user_id":183,"name":"Lord_Dabbatron","steam_id":76561199058480985,"connected_time":4850000000000,"state":"active","ping":45},{"user_id":251,"name":"Lock'd","steam_id":76561198170108230,"connected_time":853000000000,"state":"active","ping":60},{"user_id":237,"name":"BronzeLeagueHero","steam_id":76561198088309711,"connected_time":1994000000000,"state":"active","ping":67},{"user_id":245,"name":"krebex","steam_id":76561198004660630,"connected_time":1255000000000,"state":"active","ping":57},{"user_id":226,"name":"Mr. Luggy","steam_id":76561198072723392,"connected_time":2408000000000,"state":"active","ping":75},{"user_id":239,"name":"BigHeadBurden","steam_id":76561198023545378,"connected_time":1893000000000,"state":"active","ping":55},{"user_id":217,"name":"GangstaPuddin","steam_id":76561198045414782,"connected_time":2627000000000,"state":"active","ping":79},{"user_id":243,"name":"Gavil√°n","steam_id":76561198285212453,"connected_time":1476000000000,"state":"active","ping":80},{"user_id":252,"name":"L to the OG","steam_id":76561199215811448,"connected_time":833000000000,"state":"active","ping":93},{"user_id":253,"name":"badasscoolboy57","steam_id":76561198795412055,"connected_time":820000000000,"state":"active","ping":104},{"user_id":238,"name":"Bullet Proof Best","steam_id":76561198019871151,"connected_time":1916000000000,"state":"active","ping":47},{"user_id":242,"name":"participant","steam_id":76561198820716379,"connected_time":1543000000000,"state":"active","ping":54},{"user_id":254,"name":"HalfDead","steam_id":76561198049700226,"connected_time":793000000000,"state":"active","ping":99}]},{"server_id":405,"name":"Uncletopia | Dallas | 4 | Community","name_short":"dal-4","host":"dal-1.us.uncletopia.com","port":27045,"enabled":true,"region":"us-central","cc":"us","latitude":32.779167,"longitude":-96.80889,"reserved":0,"last_update":"0001-01-01T00:00:00Z","name_a2s":"Uncletopia | Dallas | 4 | Community","protocol":17,"map":"workshop/koth_bagel_rc6.ugc2514036946","folder":"tf","game":"Team Fortress","app_id":440,"player_count":0,"max_players":24,"Bots":0,"server_type":"Dedicated","server_os":"Linux","password":true,"vac":true,"version":"7961495","steam_id":85568392924515220,"keywords":["cp","nocrits","nodmgspread","uncletopia"],"game_id":440,"stv_port":27046,"stv_name":"Uncletopia | Dallas | 4 | Community | STV","players":null},{"server_id":5,"name":"Uncletopia | Frankfurt | 1 | All Maps","name_short":"frk-1","host":"frk-1.de.uncletopia.com","port":27015,"enabled":true,"region":"eu","cc":"de","latitude":50.110924,"longitude":8.682127,"reserved":0,"last_update":"0001-01-01T00:00:00Z","name_a2s":"Uncletopia | Frankfurt | 1 | All Maps","protocol":17,"map":"cp_sunshine","folder":"tf","game":"Team Fortress","app_id":440,"player_count":0,"max_players":24,"Bots":0,"server_type":"Dedicated","server_os":"Linux","password":true,"vac":true,"version":"7961495","steam_id":85568392924469989,"keywords":["cp","nocrits","nodmgspread","uncletopia"],"game_id":440,"stv_port":27016,"stv_name":"Uncletopia | Frankfurt | 1 | All Maps | STV","players":null},{"server_id":110,"name":"Uncletopia | Frankfurt | 2 | All Maps","name_short":"frk-2","host":"frk-1.de.uncletopia.com","port":27025,"enabled":true,"region":"eu","cc":"de","latitude":50.110924,"longitude":8.682127,"reserved":0,"last_update":"0001-01-01T00:00:00Z","name_a2s":"Uncletopia | Frankfurt | 2 | All Maps","protocol":17,"map":"plr_pipeline","folder":"tf","game":"Team Fortress","app_id":440,"player_count":0,"max_players":24,"Bots":0,"server_type":"Dedicated","server_os":"Linux","password":true,"vac":true,"version":"7961495","steam_id":85568392924469990,"keywords":["nocrits","nodmgspread","payload","uncletopia"],"game_id":440,"stv_port":27026,"stv_name":"Uncletopia | Frankfurt | 2 | All Maps | STV","players":null},{"server_id":308,"name":"Uncletopia | Frankfurt | 3 | All Maps","name_short":"frk-3","host":"frk-1.de.uncletopia.com","port":27035,"enabled":true,"region":"eu","cc":"de","latitude":50.110924,"longitude":8.682127,"reserved":0,"last_update":"0001-01-01T00:00:00Z","name_a2s":"Uncletopia | Frankfurt | 3 | All Maps","protocol":17,"map":"koth_nucleus","folder":"tf","game":"Team Fortress","app_id":440,"player_count":0,"max_players":24,"Bots":0,"server_type":"Dedicated","server_os":"Linux","password":true,"vac":true,"version":"7961495","steam_id":85568392924504274,"keywords":["cp","nocrits","nodmgspread","uncletopia"],"game_id":440,"stv_port":27036,"stv_name":"Uncletopia | Frankfurt | 3 | All Maps | STV","players":null},{"server_id":309,"name":"Uncletopia | Frankfurt | 4 | All Maps","name_short":"frk-4","host":"frk-1.de.uncletopia.com","port":27045,"enabled":true,"region":"eu","cc":"de","latitude":50.110924,"longitude":8.682127,"reserved":0,"last_update":"0001-01-01T00:00:00Z","name_a2s":"Uncletopia | Frankfurt | 4 | All Maps","protocol":17,"map":"koth_viaduct","folder":"tf","game":"Team Fortress","app_id":440,"player_count":0,"max_players":24,"Bots":0,"server_type":"Dedicated","server_os":"Linux","password":true,"vac":true,"version":"7961495","steam_id":85568392924504275,"keywords":["cp","nocrits","nodmgspread","uncletopia"],"game_id":440,"stv_port":27046,"stv_name":"Uncletopia | Frankfurt | 4 | All Maps | STV","players":null},{"server_id":310,"name":"Uncletopia | Frankfurt | 5 | All Maps","name_short":"frk-5","host":"frk-1.de.uncletopia.com","port":27055,"enabled":true,"region":"eu","cc":"de","latitude":50.110924,"longitude":8.682127,"reserved":0,"last_update":"0001-01-01T00:00:00Z","name_a2s":"Uncletopia | Frankfurt | 5 | All Maps","protocol":17,"map":"pl_upward","folder":"tf","game":"Team Fortress","app_id":440,"player_count":0,"max_players":24,"Bots":0,"server_type":"Dedicated","server_os":"Linux","password":true,"vac":true,"version":"7961495","steam_id":85568392924504277,"keywords":["nocrits","nodmgspread","payload","uncletopia"],"game_id":440,"stv_port":27056,"stv_name":"Uncletopia | Frankfurt | 5 | All Maps | STV","players":null},{"server_id":311,"name":"Uncletopia | Frankfurt | 6 | All Maps","name_short":"frk-6","host":"frk-1.de.uncletopia.com","port":27065,"enabled":true,"region":"eu","cc":"de","latitude":50.110924,"longitude":8.682127,"reserved":0,"last_update":"0001-01-01T00:00:00Z","name_a2s":"Uncletopia | Frankfurt | 6 | All Maps","protocol":17,"map":"koth_lakeside_final","folder":"tf","game":"Team Fortress","app_id":440,"player_count":0,"max_players":24,"Bots":0,"server_type":"Dedicated","server_os":"Linux","password":true,"vac":true,"version":"7961495","steam_id":85568392924504278,"keywords":["cp","nocrits","nodmgspread","uncletopia"],"game_id":440,"stv_port":27066,"stv_name":"Uncletopia | Frankfurt | 6 | All Maps | STV","players":null},{"server_id":23,"name":"Uncletopia | Frankfurt | 7 | Stopwatch","name_short":"frk-7","host":"frk-1.de.uncletopia.com","port":27075,"enabled":true,"region":"eu","cc":"de","latitude":50.110924,"longitude":8.682127,"reserved":0,"last_update":"0001-01-01T00:00:00Z","name_a2s":"Uncletopia | Frankfurt | 7 | Stopwatch","protocol":17,"map":"workshop/koth_ashville_final.ugc2130459942","folder":"tf","game":"Team Fortress","app_id":440,"player_count":0,"max_players":24,"Bots":0,"server_type":"Dedicated","server_os":"Linux","password":true,"vac":true,"version":"7961495","steam_id":85568392924742827,"keywords":["cp","nocrits","nodmgspread","uncletopia"],"game_id":440,"stv_port":27076,"stv_name":"Uncletopia | Frankfurt | 7 | Stopwatch | STV","players":null},{"server_id":24,"name":"Uncletopia | Frankfurt | 8 | Community","name_short":"frk-8","host":"frk-1.de.uncletopia.com","port":27085,"enabled":true,"region":"eu","cc":"de","latitude":50.110924,"longitude":8.682127,"reserved":0,"last_update":"0001-01-01T00:00:00Z","name_a2s":"Uncletopia | Frankfurt | 8 | Community","protocol":17,"map":"workshop/pl_barnblitz_pro7.ugc582280235","folder":"tf","game":"Team Fortress","app_id":440,"player_count":0,"max_players":24,"Bots":0,"server_type":"Dedicated","server_os":"Linux","password":true,"vac":true,"version":"7961495","steam_id":85568392924742828,"keywords":["nocrits","nodmgspread","payload","uncletopia"],"game_id":440,"stv_port":27086,"stv_name":"Uncletopia | Frankfurt | 8 | Community | STV","players":null},{"server_id":202,"name":"Uncletopia | Hong Kong | 1 | All Maps","name_short":"hgk-1","host":"hgk-1.hk.uncletopia.com","port":27015,"enabled":true,"region":"asia","cc":"hk","latitude":22.302711,"longitude":114.177216,"reserved":0,"last_update":"0001-01-01T00:00:00Z","name_a2s":"Uncletopia | Hong Kong | 1 | All Maps","protocol":17,"map":"koth_highpass","folder":"tf","game":"Team Fortress","app_id":440,"player_count":0,"max_players":24,"Bots":0,"server_type":"Dedicated","server_os":"Linux","password":true,"vac":true,"version":"7961495","steam_id":85568392924494504,"keywords":["cp","nocrits","nodmgspread","uncletopia"],"game_id":440,"stv_port":27016,"stv_name":"Uncletopia | Hong Kong | 1 | All Maps | STV","players":null},{"server_id":1,"name":"Uncletopia | Los Angeles | 1 | All Maps","name_short":"lax-1","host":"lax-1.us.uncletopia.com","port":27015,"enabled":true,"region":"us-west","cc":"us","latitude":33.94279,"longitude":-118.41004,"reserved":0,"last_update":"0001-01-01T00:00:00Z","name_a2s":"Uncletopia | Los Angeles | 1 | All Maps","protocol":17,"map":"pl_borneo","folder":"tf","game":"Team Fortress","app_id":440,"player_count":24,"max_players":24,"Bots":0,"server_type":"Dedicated","server_os":"Linux","password":true,"vac":true,"version":"7961495","steam_id":85568392924469991,"keywords":["nocrits","nodmgspread","payload","uncletopia"],"game_id":440,"stv_port":27016,"stv_name":"Uncletopia | Los Angeles | 1 | All Maps | STV","players":[{"user_id":188,"name":"Dr. Sax","steam_id":76561198197695699,"connected_time":1140000000000,"state":"active","ping":113},{"user_id":187,"name":"Skribbles","steam_id":76561198373073766,"connected_time":1168000000000,"state":"active","ping":54},{"user_id":189,"name":"My Five Nights at Freddys Movie","steam_id":76561198256886614,"connected_time":1134000000000,"state":"active","ping":87},{"user_id":169,"name":"Angelmaster","steam_id":76561198815474379,"connected_time":2892000000000,"state":"active","ping":46},{"user_id":185,"name":"Evelyn!","steam_id":76561198881145760,"connected_time":1492000000000,"state":"active","ping":50},{"user_id":186,"name":"ZeroEmpires","steam_id":76561198044112464,"connected_time":1446000000000,"state":"active","ping":70},{"user_id":167,"name":"exx","steam_id":76561198090552145,"connected_time":3087000000000,"state":"active","ping":47},{"user_id":190,"name":"skittle ducks jr.","steam_id":76561198309823950,"connected_time":1122000000000,"state":"active","ping":68},{"user_id":175,"name":"Violet The Derg","steam_id":76561198002525691,"connected_time":2213000000000,"state":"active","ping":79},{"user_id":157,"name":"ACK","steam_id":76561198130390689,"connected_time":3873000000000,"state":"active","ping":68},{"user_id":154,"name":"HopeTheNeko","steam_id":76561199159285465,"connected_time":4638000000000,"state":"active","ping":58},{"user_id":196,"name":"TacoMan4Life","steam_id":76561198832562728,"connected_time":827000000000,"state":"active","ping":63},{"user_id":200,"name":"PrinterLights","steam_id":76561198145909722,"connected_time":131000000000,"state":"active","ping":43},{"user_id":177,"name":"killadelphia mixtape","steam_id":76561199001918194,"connected_time":2200000000000,"state":"active","ping":64},{"user_id":197,"name":"canakblasteran","steam_id":76561199472518822,"connected_time":800000000000,"state":"active","ping":68},{"user_id":117,"name":"Casey","steam_id":76561198068810896,"connected_time":7186000000000,"state":"active","ping":95},{"user_id":201,"name":"KickButtNess","steam_id":76561198093986236,"connected_time":131000000000,"state":"active","ping":48},{"user_id":204,"name":"TimeForHype","steam_id":76561197996714494,"connected_time":7000000000,"state":"spawning","ping":81},{"user_id":155,"name":"Jovi Boy","steam_id":76561198046605691,"connected_time":4366000000000,"state":"active","ping":62},{"user_id":194,"name":"filtered by cp_steel","steam_id":76561198031409921,"connected_time":1062000000000,"state":"active","ping":56},{"user_id":199,"name":"cielael","steam_id":76561198043971956,"connected_time":144000000000,"state":"active","ping":47},{"user_id":147,"name":"Therapy Goth","steam_id":76561198048448497,"connected_time":5338000000000,"state":"active","ping":115},{"user_id":183,"name":"rat","steam_id":76561198130412963,"connected_time":1852000000000,"state":"active","ping":85},{"user_id":195,"name":"JOHN WICK","steam_id":76561198091877422,"connected_time":978000000000,"state":"active","ping":99}]},{"server_id":112,"name":"Uncletopia | Los Angeles | 2 | All Maps","name_short":"lax-2","host":"lax-1.us.uncletopia.com","port":27025,"enabled":true,"region":"us-west","cc":"us","latitude":33.94279,"longitude":-118.41004,"reserved":0,"last_update":"0001-01-01T00:00:00Z","name_a2s":"Uncletopia | Los Angeles | 2 | All Maps","protocol":17,"map":"pl_barnblitz","folder":"tf","game":"Team Fortress","app_id":440,"player_count":23,"max_players":24,"Bots":0,"server_type":"Dedicated","server_os":"Linux","password":true,"vac":true,"version":"7961495","steam_id":85568392924469992,"keywords":["nocrits","nodmgspread","payload","uncletopia"],"game_id":440,"stv_port":27026,"stv_name":"Uncletopia | Los Angeles | 2 | All Maps | STV","players":[{"user_id":177,"name":"blast a hoe","steam_id":76561198294281809,"connected_time":1152000000000,"state":"active","ping":59},{"user_id":182,"name":"waggyaggy","steam_id":76561197998241407,"connected_time":825000000000,"state":"active","ping":47},{"user_id":172,"name":"Creature","steam_id":76561198194585781,"connected_time":1339000000000,"state":"active","ping":57},{"user_id":166,"name":"boosh","steam_id":76561198034218020,"connected_time":1525000000000,"state":"active","ping":75},{"user_id":188,"name":"GriDLocK; T0T4113D","steam_id":76561197999816631,"connected_time":97000000000,"state":"active","ping":98},{"user_id":119,"name":"celestia ludenberg","steam_id":76561199196437823,"connected_time":5753000000000,"state":"active","ping":78},{"user_id":189,"name":"nella","steam_id":76561198079349621,"connected_time":96000000000,"state":"active","ping":52},{"user_id":156,"name":"Lemonade Juice","steam_id":76561198402892608,"connected_time":2050000000000,"state":"active","ping":44},{"user_id":159,"name":"Lecko","steam_id":76561199196626333,"connected_time":1625000000000,"state":"active","ping":53},{"user_id":169,"name":"Copy","steam_id":76561198025031590,"connected_time":1498000000000,"state":"active","ping":78},{"user_id":180,"name":"JACK BRUNO","steam_id":76561198027957690,"connected_time":858000000000,"state":"active","ping":67},{"user_id":171,"name":"Xtar","steam_id":76561198301774048,"connected_time":1463000000000,"state":"active","ping":87},{"user_id":174,"name":"Weed Dealer","steam_id":76561198418604400,"connected_time":1334000000000,"state":"active","ping":78},{"user_id":176,"name":"Shmegal20","steam_id":76561198063477556,"connected_time":1235000000000,"state":"active","ping":111},{"user_id":184,"name":"Antonpirulero10","steam_id":76561198253036781,"connected_time":812000000000,"state":"active","ping":69},{"user_id":175,"name":"Dinosaur","steam_id":76561199079626189,"connected_time":1268000000000,"state":"active","ping":101},{"user_id":161,"name":"Chicago Shoplifter","steam_id":76561197986530028,"connected_time":1594000000000,"state":"active","ping":110},{"user_id":134,"name":"Sterling Nano","steam_id":76561198048580088,"connected_time":4554000000000,"state":"active","ping":67},{"user_id":178,"name":"·≤º·≤º·≤º","steam_id":76561198845246815,"connected_time":950000000000,"state":"active","ping":49},{"user_id":45,"name":"The Comedian","steam_id":76561198037780226,"connected_time":10631000000000,"state":"active","ping":45},{"user_id":187,"name":"plutonium isotope","steam_id":76561198319442494,"connected_time":139000000000,"state":"active","ping":77},{"user_id":185,"name":"Skier","steam_id":76561198119447181,"connected_time":794000000000,"state":"active","ping":98},{"user_id":132,"name":"Schmupp","steam_id":76561198150928115,"connected_time":4570000000000,"state":"active","ping":51}]},{"server_id":324,"name":"Uncletopia | Los Angeles | 3 | All Maps","name_short":"lax-3","host":"lax-1.us.uncletopia.com","port":27035,"enabled":true,"region":"us-west","cc":"us","latitude":33.94279,"longitude":-118.41004,"reserved":0,"last_update":"0001-01-01T00:00:00Z","name_a2s":"Uncletopia | Los Angeles | 3 | All Maps","protocol":17,"map":"koth_viaduct","folder":"tf","game":"Team Fortress","app_id":440,"player_count":0,"max_players":24,"Bots":0,"server_type":"Dedicated","server_os":"Linux","password":true,"vac":true,"version":"7961495","steam_id":85568392924510198,"keywords":["cp","nocrits","nodmgspread","uncletopia"],"game_id":440,"stv_port":27036,"stv_name":"Uncletopia | Los Angeles | 3 | All Maps | STV","players":null},{"server_id":25,"name":"Uncletopia | Los Angeles | 4 | Stopwatch","name_short":"lax-4","host":"lax-1.us.uncletopia.com","port":27045,"enabled":true,"region":"us-west","cc":"us","latitude":33.94279,"longitude":-118.41004,"reserved":0,"last_update":"0001-01-01T00:00:00Z","name_a2s":"Uncletopia | Los Angeles | 4 | Stopwatch","protocol":17,"map":"cp_process_final","folder":"tf","game":"Team Fortress","app_id":440,"player_count":0,"max_players":24,"Bots":0,"server_type":"Dedicated","server_os":"Linux","password":true,"vac":true,"version":"7961495","steam_id":85568392924510199,"keywords":["cp","nocrits","nodmgspread","uncletopia"],"game_id":440,"stv_port":27046,"stv_name":"Uncletopia | Los Angeles | 4 | Stopwatch | STV","players":null},{"server_id":11,"name":"Uncletopia | London | 1 | All Maps","name_short":"lon-1","host":"lon-1.uk.uncletopia.com","port":27015,"enabled":true,"region":"eu","cc":"gb","latitude":51.509865,"longitude":-0.118092,"reserved":0,"last_update":"0001-01-01T00:00:00Z","name_a2s":"Uncletopia | London | 1 | All Maps","protocol":17,"map":"cp_dustbowl","folder":"tf","game":"Team Fortress","app_id":440,"player_count":24,"max_players":24,"Bots":0,"server_type":"Dedicated","server_os":"Linux","password":true,"vac":true,"version":"7961495","steam_id":85568392924367362,"keywords":["cp","nocrits","nodmgspread","uncletopia"],"game_id":440,"stv_port":27016,"stv_name":"Uncletopia | London | 1 | All Maps | STV","players":[{"user_id":941,"name":"is it your crocodile?","steam_id":76561198346638308,"connected_time":3831000000000,"state":"active","ping":54},{"user_id":942,"name":"Ace","steam_id":76561198412734572,"connected_time":3688000000000,"state":"active","ping":146},{"user_id":985,"name":"Big Fevs","steam_id":76561198195457721,"connected_time":1501000000000,"state":"active","ping":54},{"user_id":944,"name":"Coke Zero","steam_id":76561198158562873,"connected_time":3563000000000,"state":"active","ping":67},{"user_id":966,"name":"TheRatKing","steam_id":76561198022661341,"connected_time":2629000000000,"state":"active","ping":138},{"user_id":969,"name":"¬£blz","steam_id":76561198084804183,"connected_time":2572000000000,"state":"active","ping":38},{"user_id":983,"name":"omni","steam_id":76561199086141807,"connected_time":1785000000000,"state":"active","ping":132},{"user_id":988,"name":"Gaming4Jesus","steam_id":76561198261235160,"connected_time":1425000000000,"state":"active","ping":58},{"user_id":995,"name":"Black Tom","steam_id":76561198335730273,"connected_time":419000000000,"state":"active","ping":60},{"user_id":968,"name":"Goob-A-Bue","steam_id":76561198050535135,"connected_time":2610000000000,"state":"active","ping":149},{"user_id":987,"name":"Robotnik gaming","steam_id":76561198070536845,"connected_time":1499000000000,"state":"active","ping":88},{"user_id":996,"name":"jneubauer1620","steam_id":76561199228634006,"connected_time":287000000000,"state":"active","ping":142},{"user_id":972,"name":"ZeroxyZXE","steam_id":76561198113710681,"connected_time":2266000000000,"state":"active","ping":106},{"user_id":957,"name":"SirDirtbag","steam_id":76561198091890855,"connected_time":2928000000000,"state":"active","ping":77},{"user_id":961,"name":"Panchol√≠n","steam_id":76561198262777640,"connected_time":2770000000000,"state":"active","ping":71},{"user_id":963,"name":"Storebrand Vegeta","steam_id":76561197999105221,"connected_time":2666000000000,"state":"active","ping":132},{"user_id":964,"name":"Brendet-Gilch","steam_id":76561198045339049,"connected_time":2632000000000,"state":"active","ping":140},{"user_id":994,"name":"Yip","steam_id":76561198946540436,"connected_time":559000000000,"state":"active","ping":48},{"user_id":984,"name":"Doldrum","steam_id":76561198061196517,"connected_time":1667000000000,"state":"active","ping":161},{"user_id":997,"name":"...","steam_id":76561199043420118,"connected_time":258000000000,"state":"active","ping":117},{"user_id":974,"name":"Alpaca","steam_id":76561198029839079,"connected_time":2217000000000,"state":"active","ping":45},{"user_id":975,"name":"Remilia Scarlet","steam_id":76561198202540751,"connected_time":2209000000000,"state":"active","ping":143},{"user_id":1000,"name":"yuno appreciator","steam_id":76561198083286511,"connected_time":148000000000,"state":"active","ping":44},{"user_id":992,"name":"Scrooge Mc Clunk","steam_id":76561198885945084,"connected_time":1237000000000,"state":"active","ping":65}]},{"server_id":114,"name":"Uncletopia | London | 2 | All Maps","name_short":"lon-2","host":"lon-1.uk.uncletopia.com","port":27025,"enabled":true,"region":"eu","cc":"gb","latitude":51.509865,"longitude":-0.118092,"reserved":0,"last_update":"0001-01-01T00:00:00Z","name_a2s":"Uncletopia | London | 2 | All Maps","protocol":17,"map":"cp_dustbowl","folder":"tf","game":"Team Fortress","app_id":440,"player_count":0,"max_players":24,"Bots":0,"server_type":"Dedicated","server_os":"Linux","password":true,"vac":true,"version":"7961495","steam_id":85568392924470941,"keywords":["cp","nocrits","nodmgspread","uncletopia"],"game_id":440,"stv_port":27026,"stv_name":"Uncletopia | London | 2 | All Maps | STV","players":null},{"server_id":320,"name":"Uncletopia | London | 3 | All Maps","name_short":"lon-3","host":"lon-1.uk.uncletopia.com","port":27035,"enabled":true,"region":"eu","cc":"gb","latitude":51.509865,"longitude":-0.118092,"reserved":0,"last_update":"0001-01-01T00:00:00Z","name_a2s":"Uncletopia | London | 3 | All Maps","protocol":17,"map":"cp_process_final","folder":"tf","game":"Team Fortress","app_id":440,"player_count":0,"max_players":24,"Bots":0,"server_type":"Dedicated","server_os":"Linux","password":true,"vac":true,"version":"7961495","steam_id":85568392924510192,"keywords":["cp","nocrits","nodmgspread","uncletopia"],"game_id":440,"stv_port":27036,"stv_name":"Uncletopia | London | 3 | All Maps | STV","players":null},{"server_id":321,"name":"Uncletopia | London | 4 | All Maps","name_short":"lon-4","host":"lon-1.uk.uncletopia.com","port":27045,"enabled":true,"region":"eu","cc":"gb","latitude":51.509865,"longitude":-0.118092,"reserved":0,"last_update":"0001-01-01T00:00:00Z","name_a2s":"Uncletopia | London | 4 | All Maps","protocol":17,"map":"cp_mountainlab","folder":"tf","game":"Team Fortress","app_id":440,"player_count":0,"max_players":24,"Bots":0,"server_type":"Dedicated","server_os":"Linux","password":true,"vac":true,"version":"7961495","steam_id":85568392924510193,"keywords":["cp","nocrits","nodmgspread","uncletopia"],"game_id":440,"stv_port":27046,"stv_name":"Uncletopia | London | 4 | All Maps | STV","players":null},{"server_id":21,"name":"Uncletopia | London | 5 | All Maps","name_short":"lon-5","host":"lon-1.uk.uncletopia.com","port":27055,"enabled":true,"region":"eu","cc":"gb","latitude":51.509865,"longitude":-0.118092,"reserved":0,"last_update":"0001-01-01T00:00:00Z","name_a2s":"Uncletopia | London | 5 | All Maps","protocol":17,"map":"plr_pipeline","folder":"tf","game":"Team Fortress","app_id":440,"player_count":0,"max_players":24,"Bots":0,"server_type":"Dedicated","server_os":"Linux","password":true,"vac":true,"version":"7961495","steam_id":85568392924742829,"keywords":["nocrits","nodmgspread","payload","uncletopia"],"game_id":440,"stv_port":27056,"stv_name":"Uncletopia | London | 5 | All Maps | STV","players":null},{"server_id":22,"name":"Uncletopia | London | 6 | All Maps","name_short":"lon-6","host":"lon-1.uk.uncletopia.com","port":27065,"enabled":true,"region":"eu","cc":"gb","latitude":51.509865,"longitude":-0.118092,"reserved":0,"last_update":"0001-01-01T00:00:00Z","name_a2s":"Uncletopia | London | 6 | All Maps","protocol":17,"map":"pl_pier","folder":"tf","game":"Team Fortress","app_id":440,"player_count":0,"max_players":24,"Bots":0,"server_type":"Dedicated","server_os":"Linux","password":true,"vac":true,"version":"7961495","steam_id":85568392924742830,"keywords":["nocrits","nodmgspread","payload","uncletopia"],"game_id":440,"stv_port":27066,"stv_name":"Uncletopia | London | 6 | All Maps | STV","players":null},{"server_id":40,"name":"Uncletopia | London | 7 | Stopwatch","name_short":"lon-7","host":"lon-1.uk.uncletopia.com","port":27075,"enabled":true,"region":"eu","cc":"gb","latitude":51.509865,"longitude":-0.118092,"reserved":0,"last_update":"0001-01-01T00:00:00Z","name_a2s":"Uncletopia | London | 7 | Stopwatch","protocol":17,"map":"koth_lakeside_final","folder":"tf","game":"Team Fortress","app_id":440,"player_count":0,"max_players":24,"Bots":0,"server_type":"Dedicated","server_os":"Linux","password":true,"vac":true,"version":"7961495","steam_id":85568392924964314,"keywords":["cp","nocrits","nodmgspread","uncletopia"],"game_id":440,"stv_port":27076,"stv_name":"Uncletopia | London | 7 | Stopwatch | STV","players":null},{"server_id":41,"name":"Uncletopia | London | 8 | Community","name_short":"lon-8","host":"lon-1.uk.uncletopia.com","port":27085,"enabled":true,"region":"eu","cc":"gb","latitude":51.509865,"longitude":-0.118092,"reserved":0,"last_update":"0001-01-01T00:00:00Z","name_a2s":"Uncletopia | London | 8 | Community","protocol":17,"map":"workshop/pl_corrode_rc2.ugc546577989","folder":"tf","game":"Team Fortress","app_id":440,"player_count":0,"max_players":24,"Bots":0,"server_type":"Dedicated","server_os":"Linux","password":true,"vac":true,"version":"7961495","steam_id":85568392924964315,"keywords":["nocrits","nodmgspread","payload","uncletopia"],"game_id":440,"stv_port":27086,"stv_name":"Uncletopia | London | 8 | Community | STV","players":null},{"server_id":300,"name":"Uncletopia | Montr√©al | 1 | One Thousand Uncles","name_short":"mtl-1","host":"mtl-1.ca.uncletopia.com","port":27015,"enabled":true,"region":"us-east","cc":"ca","latitude":45.50889,"longitude":-73.56167,"reserved":0,"last_update":"0001-01-01T00:00:00Z","name_a2s":"","protocol":0,"map":"","folder":"","game":"","app_id":0,"player_count":2,"max_players":0,"Bots":0,"server_type":"","server_os":"","password":false,"vac":false,"version":"","steam_id":0,"keywords":null,"game_id":0,"stv_port":0,"stv_name":"","players":[{"user_id":457,"name":"[domm.]","steam_id":76561198215243841,"connected_time":2033000000000,"state":"active","ping":116},{"user_id":451,"name":"1-800-GHOST-DANCE","steam_id":76561198835430429,"connected_time":5062000000000,"state":"active","ping":76}]},{"server_id":301,"name":"Uncletopia | Montr√©al | 2 | One Thousand Uncles","name_short":"mtl-2","host":"mtl-1.ca.uncletopia.com","port":27025,"enabled":true,"region":"us-east","cc":"ca","latitude":45.50889,"longitude":-73.56167,"reserved":0,"last_update":"0001-01-01T00:00:00Z","name_a2s":"","protocol":0,"map":"","folder":"","game":"","app_id":0,"player_count":0,"max_players":0,"Bots":0,"server_type":"","server_os":"","password":false,"vac":false,"version":"","steam_id":0,"keywords":null,"game_id":0,"stv_port":0,"stv_name":"","players":null},{"server_id":302,"name":"Uncletopia | Montr√©al | 3 | One Thousand Uncles","name_short":"mtl-3","host":"mtl-1.ca.uncletopia.com","port":27035,"enabled":true,"region":"us-east","cc":"ca","latitude":45.50889,"longitude":-73.56167,"reserved":0,"last_update":"0001-01-01T00:00:00Z","name_a2s":"","protocol":0,"map":"","folder":"","game":"","app_id":0,"player_count":0,"max_players":0,"Bots":0,"server_type":"","server_os":"","password":false,"vac":false,"version":"","steam_id":0,"keywords":null,"game_id":0,"stv_port":0,"stv_name":"","players":null},{"server_id":13,"name":"Uncletopia | New York City | 1 | All Maps","name_short":"nyc-1","host":"nyc-1.us.uncletopia.com","port":27015,"enabled":true,"region":"us-east","cc":"us","latitude":40.73061,"longitude":-73.93524,"reserved":0,"last_update":"0001-01-01T00:00:00Z","name_a2s":"Uncletopia | New York City | 1 | All Maps","protocol":17,"map":"koth_nucleus","folder":"tf","game":"Team Fortress","app_id":440,"player_count":24,"max_players":24,"Bots":0,"server_type":"Dedicated","server_os":"Linux","password":true,"vac":true,"version":"7961495","steam_id":85568392924469993,"keywords":["cp","nocrits","nodmgspread","uncletopia"],"game_id":440,"stv_port":27016,"stv_name":"Uncletopia | New York City | 1 | All Maps | STV","players":[{"user_id":339,"name":"Tokyo_Timeshift_","steam_id":76561198048677523,"connected_time":4439000000000,"state":"active","ping":60},{"user_id":372,"name":"Yuri935x","steam_id":76561198069898314,"connected_time":549000000000,"state":"active","ping":69},{"user_id":370,"name":"joyeuxnoelle","steam_id":76561198062423120,"connected_time":591000000000,"state":"active","ping":58},{"user_id":382,"name":"Mixed Up","steam_id":76561198042570322,"connected_time":214000000000,"state":"active","ping":76},{"user_id":362,"name":"Queso2469","steam_id":76561197993024580,"connected_time":1546000000000,"state":"active","ping":41},{"user_id":354,"name":"space man","steam_id":76561198066333670,"connected_time":2875000000000,"state":"active","ping":70},{"user_id":371,"name":"Nova","steam_id":76561198049410145,"connected_time":579000000000,"state":"active","ping":81},{"user_id":381,"name":"Bob Weaver","steam_id":76561197960450046,"connected_time":250000000000,"state":"active","ping":58},{"user_id":367,"name":"Vibe Check","steam_id":76561198087326826,"connected_time":1084000000000,"state":"active","ping":65},{"user_id":373,"name":"silverspark","steam_id":76561198277421732,"connected_time":497000000000,"state":"active","ping":137},{"user_id":374,"name":"girthmilk","steam_id":76561198054799782,"connected_time":493000000000,"state":"active","ping":91},{"user_id":375,"name":"Rileoli","steam_id":76561198147415130,"connected_time":476000000000,"state":"active","ping":264},{"user_id":363,"name":"GoodleShoes/ttv","steam_id":76561198030993521,"connected_time":1526000000000,"state":"active","ping":73},{"user_id":341,"name":"Naffu","steam_id":76561198036945403,"connected_time":4267000000000,"state":"active","ping":49},{"user_id":376,"name":"quack","steam_id":76561198138783216,"connected_time":471000000000,"state":"active","ping":37},{"user_id":384,"name":"ROGUE-PLANET","steam_id":76561198116023052,"connected_time":19000000000,"state":"spawning","ping":134},{"user_id":378,"name":"DodoBird","steam_id":76561198136880364,"connected_time":454000000000,"state":"active","ping":78},{"user_id":385,"name":"Cloudkin","steam_id":76561198261676318,"connected_time":17000000000,"state":"spawning","ping":160},{"user_id":383,"name":"Nine-Tails Delsin","steam_id":76561198149825187,"connected_time":209000000000,"state":"active","ping":148},{"user_id":365,"name":"roman","steam_id":76561198170066797,"connected_time":1504000000000,"state":"active","ping":70},{"user_id":379,"name":"CDBeans","steam_id":76561198046990367,"connected_time":415000000000,"state":"active","ping":85},{"user_id":380,"name":"basilberry","steam_id":76561198145275937,"connected_time":412000000000,"state":"active","ping":97},{"user_id":333,"name":"Fudgely","steam_id":76561198039425862,"connected_time":4913000000000,"state":"active","ping":68},{"user_id":366,"name":"jorjor wells","steam_id":76561199073429082,"connected_time":1493000000000,"state":"active","ping":60}]},{"server_id":14,"name":"Uncletopia | New York City | 2 | All Maps","name_short":"nyc-2","host":"nyc-1.us.uncletopia.com","port":27025,"enabled":true,"region":"us-east","cc":"us","latitude":40.73061,"longitude":-73.93524,"reserved":0,"last_update":"0001-01-01T00:00:00Z","name_a2s":"Uncletopia | New York City | 2 | All Maps","protocol":17,"map":"pl_swiftwater_final1","folder":"tf","game":"Team Fortress","app_id":440,"player_count":24,"max_players":24,"Bots":0,"server_type":"Dedicated","server_os":"Linux","password":true,"vac":true,"version":"7961495","steam_id":85568392924469994,"keywords":["nocrits","nodmgspread","payload","uncletopia"],"game_id":440,"stv_port":27026,"stv_name":"Uncletopia | New York City | 2 | All Maps | STV","players":[{"user_id":687,"name":"gagobears","steam_id":76561198086008437,"connected_time":1125000000000,"state":"active","ping":89},{"user_id":602,"name":"Jimmy","steam_id":76561198059948196,"connected_time":5401000000000,"state":"active","ping":109},{"user_id":686,"name":"black tar estrogen","steam_id":76561198043911582,"connected_time":1141000000000,"state":"active","ping":43},{"user_id":688,"name":"sadako","steam_id":76561198170642407,"connected_time":1100000000000,"state":"active","ping":53},{"user_id":689,"name":"MilesFireStorm","steam_id":76561198078642820,"connected_time":1099000000000,"state":"active","ping":73},{"user_id":604,"name":"Stock Dog","steam_id":76561198070469034,"connected_time":5360000000000,"state":"active","ping":115},{"user_id":648,"name":"dave :3","steam_id":76561198135961731,"connected_time":3219000000000,"state":"active","ping":102},{"user_id":692,"name":"cooldog01","steam_id":76561198121922413,"connected_time":471000000000,"state":"active","ping":114},{"user_id":649,"name":"tae","steam_id":76561198294360662,"connected_time":3178000000000,"state":"active","ping":112},{"user_id":684,"name":"Pepsiman","steam_id":76561198436946165,"connected_time":1325000000000,"state":"active","ping":76},{"user_id":666,"name":"WitheringLeo","steam_id":76561198046722918,"connected_time":2302000000000,"state":"active","ping":75},{"user_id":655,"name":"ndvr","steam_id":76561199379200102,"connected_time":3007000000000,"state":"active","ping":51},{"user_id":683,"name":"rough man","steam_id":76561198007494744,"connected_time":1632000000000,"state":"active","ping":120},{"user_id":697,"name":"AADDAAMM","steam_id":76561198068584852,"connected_time":157000000000,"state":"active","ping":70},{"user_id":669,"name":"GreenHam","steam_id":76561198094319270,"connected_time":2280000000000,"state":"active","ping":56},{"user_id":578,"name":"flip flop man(Lee)","steam_id":76561198374860339,"connected_time":6393000000000,"state":"active","ping":143},{"user_id":670,"name":"Emissary","steam_id":76561198125972367,"connected_time":2268000000000,"state":"active","ping":54},{"user_id":695,"name":"desinn","steam_id":76561198065434191,"connected_time":208000000000,"state":"active","ping":73},{"user_id":699,"name":"OttoVonBisquick","steam_id":76561198077166788,"connected_time":21000000000,"state":"active","ping":68},{"user_id":698,"name":"Almonicus","steam_id":76561198044401351,"connected_time":136000000000,"state":"active","ping":82},{"user_id":693,"name":"YummerBummer","steam_id":76561198094773987,"connected_time":456000000000,"state":"active","ping":56},{"user_id":685,"name":"Piyono","steam_id":76561197962188504,"connected_time":1250000000000,"state":"active","ping":75},{"user_id":680,"name":"ncc_42","steam_id":76561198066377700,"connected_time":1837000000000,"state":"active","ping":61},{"user_id":690,"name":"Fridgidaere","steam_id":76561198131467867,"connected_time":1024000000000,"state":"active","ping":104}]},{"server_id":15,"name":"Uncletopia | New York City | 3 | Stopwatch","name_short":"nyc-3","host":"nyc-1.us.uncletopia.com","port":27035,"enabled":true,"region":"us-east","cc":"us","latitude":40.73061,"longitude":-73.93524,"reserved":0,"last_update":"0001-01-01T00:00:00Z","name_a2s":"Uncletopia | New York City | 3 | Stopwatch","protocol":17,"map":"koth_highpass","folder":"tf","game":"Team Fortress","app_id":440,"player_count":0,"max_players":24,"Bots":0,"server_type":"Dedicated","server_os":"Linux","password":true,"vac":true,"version":"7961495","steam_id":85568392924742820,"keywords":["cp","nocrits","nodmgspread","uncletopia"],"game_id":440,"stv_port":27036,"stv_name":"Uncletopia | New York City | 3 | Stopwatch | STV","players":null},{"server_id":16,"name":"Uncletopia | New York City | 4 | Community","name_short":"nyc-4","host":"nyc-1.us.uncletopia.com","port":27045,"enabled":true,"region":"us-east","cc":"us","latitude":40.73061,"longitude":-73.93524,"reserved":0,"last_update":"0001-01-01T00:00:00Z","name_a2s":"Uncletopia | New York City | 4 | Community","protocol":17,"map":"workshop/koth_product_final.ugc454272353","folder":"tf","game":"Team Fortress","app_id":440,"player_count":1,"max_players":24,"Bots":0,"server_type":"Dedicated","server_os":"Linux","password":true,"vac":true,"version":"7961495","steam_id":85568392924742821,"keywords":["cp","nocrits","nodmgspread","uncletopia"],"game_id":440,"stv_port":27046,"stv_name":"Uncletopia | New York City | 4 | Community | STV","players":[{"user_id":84,"name":"Micc","steam_id":76561199447744486,"connected_time":92000000000,"state":"active","ping":107}]},{"server_id":142,"name":"Uncletopia | S√£o Paulo | 1 | All Maps","name_short":"sao-1","host":"sao-1.br.uncletopia.com","port":27015,"enabled":true,"region":"sa","cc":"br","latitude":-23.533773,"longitude":-46.62529,"reserved":0,"last_update":"0001-01-01T00:00:00Z","name_a2s":"Uncletopia | S√£o Paulo | 1 | All Maps","protocol":17,"map":"koth_cascade","folder":"tf","game":"Team Fortress","app_id":440,"player_count":0,"max_players":24,"Bots":0,"server_type":"Dedicated","server_os":"Linux","password":true,"vac":true,"version":"7961495","steam_id":85568392924469996,"keywords":["cp","nocrits","nodmgspread","uncletopia"],"game_id":440,"stv_port":27016,"stv_name":"Uncletopia | S√£o Paulo | 1 | All Maps | STV","players":null},{"server_id":143,"name":"Uncletopia | S√£o Paulo | 2 | Community","name_short":"sao-2","host":"sao-2.br.uncletopia.com","port":27015,"enabled":true,"region":"sa","cc":"br","latitude":-23.533773,"longitude":-46.62529,"reserved":0,"last_update":"0001-01-01T00:00:00Z","name_a2s":"Uncletopia | S√£o Paulo | 2 | Community","protocol":17,"map":"workshop/koth_slaughter_rc1.ugc1712845210","folder":"tf","game":"Team Fortress","app_id":440,"player_count":0,"max_players":24,"Bots":0,"server_type":"Dedicated","server_os":"Linux","password":true,"vac":true,"version":"7961495","steam_id":85568392924485349,"keywords":["cp","nocrits","nodmgspread","uncletopia"],"game_id":440,"stv_port":27016,"stv_name":"Uncletopia | S√£o Paulo | 2 | Community | STV","players":null},{"server_id":7,"name":"Uncletopia | Seattle | 1 | All Maps","name_short":"sea-1","host":"sea-1.us.uncletopia.com","port":27015,"enabled":true,"region":"us-west","cc":"us","latitude":47.608013,"longitude":-122.33517,"reserved":0,"last_update":"0001-01-01T00:00:00Z","name_a2s":"Uncletopia | Seattle | 1 | All Maps","protocol":17,"map":"pl_borneo","folder":"tf","game":"Team Fortress","app_id":440,"player_count":24,"max_players":24,"Bots":0,"server_type":"Dedicated","server_os":"Linux","password":true,"vac":true,"version":"7961495","steam_id":85568392924469997,"keywords":["nocrits","nodmgspread","payload","uncletopia"],"game_id":440,"stv_port":27016,"stv_name":"Uncletopia | Seattle | 1 | All Maps | STV","players":[{"user_id":561,"name":"The Shaq Attack","steam_id":76561198075285534,"connected_time":3552000000000,"state":"active","ping":42},{"user_id":605,"name":"Skabbety","steam_id":76561198168044257,"connected_time":62000000000,"state":"active","ping":44},{"user_id":572,"name":"Engynier Gaimeang (F2P)","steam_id":76561199013888779,"connected_time":2192000000000,"state":"active","ping":83},{"user_id":571,"name":"lfk thunderous prophet","steam_id":76561198131166135,"connected_time":2344000000000,"state":"active","ping":44},{"user_id":598,"name":"CHARLEMAGNE","steam_id":76561198042455103,"connected_time":204000000000,"state":"active","ping":45},{"user_id":577,"name":"Daz","steam_id":76561198041431938,"connected_time":1802000000000,"state":"active","ping":51},{"user_id":599,"name":"Axolotl Gaming","steam_id":76561198343988802,"connected_time":202000000000,"state":"active","ping":77},{"user_id":601,"name":"ingallsnet","steam_id":76561199369469261,"connected_time":179000000000,"state":"spawning","ping":78},{"user_id":597,"name":"spenca","steam_id":76561198025371154,"connected_time":239000000000,"state":"active","ping":64},{"user_id":582,"name":"sillymoder2005","steam_id":76561198202235495,"connected_time":1599000000000,"state":"active","ping":42},{"user_id":602,"name":"Olitude","steam_id":76561199238964574,"connected_time":161000000000,"state":"active","ping":53},{"user_id":581,"name":"dust | it/she","steam_id":76561198045218909,"connected_time":1619000000000,"state":"active","ping":41},{"user_id":532,"name":"Puskinti","steam_id":76561198032120688,"connected_time":6362000000000,"state":"active","ping":58},{"user_id":606,"name":"Thanks Ants","steam_id":76561197966221018,"connected_time":7000000000,"state":"spawning","ping":29},{"user_id":484,"name":"lker","steam_id":76561197976975075,"connected_time":9935000000000,"state":"active","ping":105},{"user_id":541,"name":"Ayayayayayayayayayayayayahuasca","steam_id":76561199002906056,"connected_time":5754000000000,"state":"active","ping":50},{"user_id":603,"name":"Pyrotek‚Å¥","steam_id":76561198072747672,"connected_time":155000000000,"state":"active","ping":81},{"user_id":593,"name":"Deathkillsme","steam_id":76561198059468746,"connected_time":596000000000,"state":"active","ping":49},{"user_id":594,"name":"The_Man","steam_id":76561199194890696,"connected_time":581000000000,"state":"active","ping":101},{"user_id":604,"name":"Duke","steam_id":76561199498553459,"connected_time":154000000000,"state":"active","ping":105},{"user_id":555,"name":"MrYadaization","steam_id":76561198050770818,"connected_time":3725000000000,"state":"active","ping":58},{"user_id":565,"name":"DaddyGalaxy","steam_id":76561198139697796,"connected_time":3196000000000,"state":"active","ping":55},{"user_id":544,"name":"baedeker","steam_id":76561199081837220,"connected_time":5280000000000,"state":"active","ping":96},{"user_id":587,"name":"Granny from da hood","steam_id":76561199247095754,"connected_time":1217000000000,"state":"active","ping":60}]},{"server_id":119,"name":"Uncletopia | Seattle | 2 | All Maps","name_short":"sea-2","host":"sea-1.us.uncletopia.com","port":27025,"enabled":true,"region":"us-west","cc":"us","latitude":47.608013,"longitude":-122.33517,"reserved":0,"last_update":"0001-01-01T00:00:00Z","name_a2s":"Uncletopia | Seattle | 2 | All Maps","protocol":17,"map":"pl_borneo","folder":"tf","game":"Team Fortress","app_id":440,"player_count":24,"max_players":24,"Bots":0,"server_type":"Dedicated","server_os":"Linux","password":true,"vac":true,"version":"7961495","steam_id":85568392924469998,"keywords":["nocrits","nodmgspread","payload","uncletopia"],"game_id":440,"stv_port":27026,"stv_name":"Uncletopia | Seattle | 2 | All Maps | STV","players":[{"user_id":362,"name":"vacachimuela","steam_id":76561198297332421,"connected_time":760000000000,"state":"active","ping":51},{"user_id":354,"name":"ShadOblivion","steam_id":76561198058667220,"connected_time":1417000000000,"state":"active","ping":97},{"user_id":266,"name":"moe","steam_id":76561198929586245,"connected_time":8233000000000,"state":"active","ping":85},{"user_id":318,"name":"alagon","steam_id":76561198312491066,"connected_time":4497000000000,"state":"active","ping":43},{"user_id":325,"name":"worker","steam_id":76561198039608940,"connected_time":3927000000000,"state":"active","ping":49},{"user_id":251,"name":"Kelladrin","steam_id":76561198040727880,"connected_time":8809000000000,"state":"active","ping":61},{"user_id":339,"name":"SonnyMarsh","steam_id":76561198188103746,"connected_time":2230000000000,"state":"active","ping":61},{"user_id":356,"name":"O","steam_id":76561198450073779,"connected_time":993000000000,"state":"active","ping":45},{"user_id":365,"name":"Robot Kisser","steam_id":76561198081292874,"connected_time":370000000000,"state":"active","ping":55},{"user_id":314,"name":"kaeslark1","steam_id":76561199059460838,"connected_time":4797000000000,"state":"active","ping":45},{"user_id":351,"name":"dodecadron","steam_id":76561198027397222,"connected_time":1644000000000,"state":"active","ping":64},{"user_id":337,"name":"Shrimps","steam_id":76561198983016709,"connected_time":2275000000000,"state":"active","ping":61},{"user_id":334,"name":"jeff_fan","steam_id":76561198086420687,"connected_time":2351000000000,"state":"active","ping":82},{"user_id":357,"name":"bcizzo","steam_id":76561197994399953,"connected_time":943000000000,"state":"active","ping":65},{"user_id":363,"name":"Wyvern","steam_id":76561198392331213,"connected_time":554000000000,"state":"active","ping":93},{"user_id":305,"name":"Owls = Government Drones","steam_id":76561198439793697,"connected_time":5492000000000,"state":"active","ping":93},{"user_id":358,"name":"Keamy","steam_id":76561199471434875,"connected_time":936000000000,"state":"active","ping":43},{"user_id":368,"name":"TheOnlyBrandon","steam_id":76561198133620881,"connected_time":128000000000,"state":"active","ping":116},{"user_id":360,"name":"bengineer","steam_id":76561198171912174,"connected_time":917000000000,"state":"active","ping":38},{"user_id":350,"name":"KingSquirrel","steam_id":76561198074042752,"connected_time":1694000000000,"state":"active","ping":64},{"user_id":315,"name":"Meatball Obsessed Demoman","steam_id":76561198253325844,"connected_time":4795000000000,"state":"active","ping":58},{"user_id":288,"name":"chanoc","steam_id":76561198026734746,"connected_time":6607000000000,"state":"active","ping":60},{"user_id":364,"name":"gamerside","steam_id":76561199103504575,"connected_time":427000000000,"state":"active","ping":87},{"user_id":355,"name":"Norriss","steam_id":76561198920296293,"connected_time":1309000000000,"state":"active","ping":44}]},{"server_id":406,"name":"Uncletopia | Seattle | 3 | Stopwatch","name_short":"sea-3","host":"sea-1.us.uncletopia.com","port":27035,"enabled":true,"region":"us-west","cc":"us","latitude":47.608013,"longitude":-122.33517,"reserved":0,"last_update":"0001-01-01T00:00:00Z","name_a2s":"Uncletopia | Seattle | 3 | Stopwatch","protocol":17,"map":"workshop/koth_ashville_final.ugc2130459942","folder":"tf","game":"Team Fortress","app_id":440,"player_count":0,"max_players":24,"Bots":0,"server_type":"Dedicated","server_os":"Linux","password":true,"vac":true,"version":"7961495","steam_id":85568392924515217,"keywords":["cp","nocrits","nodmgspread","uncletopia"],"game_id":440,"stv_port":27036,"stv_name":"Uncletopia | Seattle | 3 | Stopwatch | STV","players":null},{"server_id":17,"name":"Uncletopia | San Francisco | 1 | All Maps","name_short":"sfo-1","host":"sfo-1.us.uncletopia.com","port":27015,"enabled":true,"region":"us-west","cc":"us","latitude":37.77397,"longitude":-122.4313,"reserved":0,"last_update":"0001-01-01T00:00:00Z","name_a2s":"Uncletopia | San Francisco | 1 | All Maps","protocol":17,"map":"pl_badwater","folder":"tf","game":"Team Fortress","app_id":440,"player_count":24,"max_players":24,"Bots":0,"server_type":"Dedicated","server_os":"Linux","password":true,"vac":true,"version":"7961495","steam_id":85568392924469999,"keywords":["nocrits","nodmgspread","payload","uncletopia"],"game_id":440,"stv_port":27016,"stv_name":"Uncletopia | San Francisco | 1 | All Maps | STV","players":[{"user_id":391,"name":"Thomas Chavira Gaming","steam_id":76561198313671617,"connected_time":258000000000,"state":"active","ping":56},{"user_id":365,"name":"Pyloroid","steam_id":76561199259867180,"connected_time":1814000000000,"state":"active","ping":61},{"user_id":394,"name":"ahazz","steam_id":76561198138161605,"connected_time":68000000000,"state":"active","ping":73},{"user_id":373,"name":"Melody","steam_id":76561198407789232,"connected_time":1596000000000,"state":"active","ping":70},{"user_id":379,"name":"jamassExD","steam_id":76561198454033607,"connected_time":1188000000000,"state":"active","ping":72},{"user_id":384,"name":"donutdagger","steam_id":76561199203048300,"connected_time":864000000000,"state":"active","ping":70},{"user_id":392,"name":"Ono","steam_id":76561198024377986,"connected_time":256000000000,"state":"active","ping":84},{"user_id":385,"name":"DuckyJacob","steam_id":76561199222498634,"connected_time":849000000000,"state":"active","ping":53},{"user_id":393,"name":"Faux Booz","steam_id":76561198083755379,"connected_time":255000000000,"state":"active","ping":73},{"user_id":346,"name":"you just got dyked on","steam_id":76561198018977723,"connected_time":2137000000000,"state":"active","ping":102},{"user_id":376,"name":"Shin","steam_id":76561198149886500,"connected_time":1431000000000,"state":"active","ping":115},{"user_id":377,"name":"Pant Nickle","steam_id":76561198268321810,"connected_time":1423000000000,"state":"active","ping":87},{"user_id":380,"name":"TheGamingJasper","steam_id":76561199054003635,"connected_time":1158000000000,"state":"active","ping":89},{"user_id":366,"name":"Pluto","steam_id":76561198012630802,"connected_time":1760000000000,"state":"active","ping":60},{"user_id":353,"name":"MasterGeek.MX","steam_id":76561198063355220,"connected_time":1936000000000,"state":"active","ping":133},{"user_id":395,"name":"nelly modelo","steam_id":76561198044875206,"connected_time":58000000000,"state":"active","ping":75},{"user_id":355,"name":"Mom","steam_id":76561198207936000,"connected_time":1901000000000,"state":"active","ping":31},{"user_id":387,"name":"Michael Fettuccine","steam_id":76561198056953903,"connected_time":810000000000,"state":"active","ping":59},{"user_id":165,"name":"cwnz2","steam_id":76561198418170535,"connected_time":8373000000000,"state":"active","ping":134},{"user_id":113,"name":"Hero Smasher","steam_id":76561198150681669,"connected_time":12490000000000,"state":"active","ping":48},{"user_id":362,"name":"bottom pride burger","steam_id":76561198322247602,"connected_time":1868000000000,"state":"active","ping":58},{"user_id":335,"name":"Cuno Doesn't Care!","steam_id":76561198007372782,"connected_time":2452000000000,"state":"active","ping":55},{"user_id":388,"name":"Cats pretend they're smart","steam_id":76561197987182097,"connected_time":754000000000,"state":"active","ping":48},{"user_id":193,"name":"Cosmolian","steam_id":76561199178160545,"connected_time":6836000000000,"state":"active","ping":59}]},{"server_id":18,"name":"Uncletopia | San Francisco | 2 | All Maps","name_short":"sfo-2","host":"sfo-1.us.uncletopia.com","port":27025,"enabled":true,"region":"us-west","cc":"us","latitude":37.77397,"longitude":-122.4313,"reserved":0,"last_update":"0001-01-01T00:00:00Z","name_a2s":"Uncletopia | San Francisco | 2 | All Maps","protocol":17,"map":"pl_upward","folder":"tf","game":"Team Fortress","app_id":440,"player_count":0,"max_players":24,"Bots":0,"server_type":"Dedicated","server_os":"Linux","password":true,"vac":true,"version":"7961495","steam_id":85568392924470000,"keywords":["nocrits","nodmgspread","payload","uncletopia"],"game_id":440,"stv_port":27026,"stv_name":"Uncletopia | San Francisco | 2 | All Maps | STV","players":null},{"server_id":19,"name":"Uncletopia | San Francisco | 3 | Stopwatch","name_short":"sfo-3","host":"sfo-1.us.uncletopia.com","port":27035,"enabled":true,"region":"us-west","cc":"us","latitude":37.77397,"longitude":-122.4313,"reserved":0,"last_update":"0001-01-01T00:00:00Z","name_a2s":"Uncletopia | San Francisco | 3 | Stopwatch","protocol":17,"map":"workshop/cp_reckoner_rc6.ugc674719999","folder":"tf","game":"Team Fortress","app_id":440,"player_count":0,"max_players":24,"Bots":0,"server_type":"Dedicated","server_os":"Linux","password":true,"vac":true,"version":"7961495","steam_id":85568392924742824,"keywords":["cp","nocrits","nodmgspread","uncletopia"],"game_id":440,"stv_port":27036,"stv_name":"Uncletopia | San Francisco | 3 | Stopwatch | STV","players":null},{"server_id":20,"name":"Uncletopia | San Francisco | 4 | Community","name_short":"sfo-4","host":"sfo-1.us.uncletopia.com","port":27045,"enabled":true,"region":"us-west","cc":"us","latitude":37.77397,"longitude":-122.4313,"reserved":0,"last_update":"0001-01-01T00:00:00Z","name_a2s":"Uncletopia | San Francisco | 4 | Community","protocol":17,"map":"workshop/pl_highwood_b13.ugc1769496557","folder":"tf","game":"Team Fortress","app_id":440,"player_count":5,"max_players":24,"Bots":0,"server_type":"Dedicated","server_os":"Linux","password":true,"vac":true,"version":"7961495","steam_id":85568392924742826,"keywords":["nocrits","nodmgspread","payload","uncletopia"],"game_id":440,"stv_port":27046,"stv_name":"Uncletopia | San Francisco | 4 | Community | STV","players":[{"user_id":10,"name":"Pancake Lizard","steam_id":76561198057311158,"connected_time":931000000000,"state":"active","ping":72},{"user_id":11,"name":"CurryWeek","steam_id":76561198050890046,"connected_time":674000000000,"state":"active","ping":60},{"user_id":12,"name":"a familiar cat","steam_id":76561198080046542,"connected_time":391000000000,"state":"active","ping":59},{"user_id":13,"name":"ilun","steam_id":76561198042913843,"connected_time":341000000000,"state":"active","ping":64},{"user_id":14,"name":"Wick","steam_id":76561198062996360,"connected_time":337000000000,"state":"active","ping":68}]},{"server_id":141,"name":"Uncletopia | Sydney | 1 | All Maps","name_short":"syd-1","host":"syd-1.au.uncletopia.com","port":27015,"enabled":true,"region":"au","cc":"au","latitude":-33.865143,"longitude":151.2099,"reserved":0,"last_update":"0001-01-01T00:00:00Z","name_a2s":"Uncletopia | Sydney | 1 | All Maps","protocol":17,"map":"koth_viaduct","folder":"tf","game":"Team Fortress","app_id":440,"player_count":0,"max_players":24,"Bots":0,"server_type":"Dedicated","server_os":"Linux","password":true,"vac":true,"version":"7961495","steam_id":85568392924470001,"keywords":["cp","nocrits","nodmgspread","uncletopia"],"game_id":440,"stv_port":27016,"stv_name":"Uncletopia | Sydney | 1 | All Maps | STV","players":null},{"server_id":123,"name":"Uncletopia | Sydney | 2 | All Maps","name_short":"syd-2","host":"syd-1.au.uncletopia.com","port":27025,"enabled":true,"region":"au","cc":"au","latitude":-33.865143,"longitude":151.2099,"reserved":0,"last_update":"0001-01-01T00:00:00Z","name_a2s":"Uncletopia | Sydney | 2 | All Maps","protocol":17,"map":"koth_lakeside_final","folder":"tf","game":"Team Fortress","app_id":440,"player_count":0,"max_players":24,"Bots":0,"server_type":"Dedicated","server_os":"Linux","password":true,"vac":true,"version":"7961495","steam_id":85568392924470002,"keywords":["cp","nocrits","nodmgspread","uncletopia"],"game_id":440,"stv_port":27026,"stv_name":"Uncletopia | Sydney | 2 | All Maps | STV","players":null},{"server_id":395,"name":"Uncletopia | Sydney | 3 | All Maps","name_short":"syd-3","host":"syd-1.au.uncletopia.com","port":27035,"enabled":true,"region":"au","cc":"au","latitude":-33.865143,"longitude":151.2099,"reserved":0,"last_update":"0001-01-01T00:00:00Z","name_a2s":"Uncletopia | Sydney | 3 | All Maps","protocol":17,"map":"pl_frontier_final","folder":"tf","game":"Team Fortress","app_id":440,"player_count":0,"max_players":24,"Bots":0,"server_type":"Dedicated","server_os":"Linux","password":true,"vac":true,"version":"7961495","steam_id":85568392925194467,"keywords":["nocrits","nodmgspread","payload","uncletopia"],"game_id":440,"stv_port":27036,"stv_name":"Uncletopia | Sydney | 3 | All Maps | STV","players":null},{"server_id":396,"name":"Uncletopia | Sydney | 4 | All Maps","name_short":"syd-4","host":"syd-1.au.uncletopia.com","port":27045,"enabled":true,"region":"au","cc":"au","latitude":-33.865143,"longitude":151.2099,"reserved":0,"last_update":"0001-01-01T00:00:00Z","name_a2s":"Uncletopia | Sydney | 4 | All Maps","protocol":17,"map":"cp_process_final","folder":"tf","game":"Team Fortress","app_id":440,"player_count":0,"max_players":24,"Bots":0,"server_type":"Dedicated","server_os":"Linux","password":true,"vac":true,"version":"7961495","steam_id":85568392925397958,"keywords":["cp","nocrits","nodmgspread","uncletopia"],"game_id":440,"stv_port":27046,"stv_name":"Uncletopia | Sydney | 4 | All Maps | STV","players":null},{"server_id":58,"name":"Uncletopia | Sydney | 5 | Stopwatch","name_short":"syd-5","host":"syd-1.au.uncletopia.com","port":27055,"enabled":true,"region":"au","cc":"au","latitude":-33.865143,"longitude":151.2099,"reserved":0,"last_update":"0001-01-01T00:00:00Z","name_a2s":"Uncletopia | Sydney | 5 | Stopwatch","protocol":17,"map":"pl_frontier_final","folder":"tf","game":"Team Fortress","app_id":440,"player_count":0,"max_players":24,"Bots":0,"server_type":"Dedicated","server_os":"Linux","password":true,"vac":true,"version":"7961495","steam_id":85568392925397959,"keywords":["nocrits","nodmgspread","payload","uncletopia"],"game_id":440,"stv_port":27056,"stv_name":"Uncletopia | Sydney | 5 | Stopwatch | STV","players":null},{"server_id":59,"name":"Uncletopia | Sydney | 6 | Community","name_short":"syd-6","host":"syd-1.au.uncletopia.com","port":27065,"enabled":true,"region":"au","cc":"au","latitude":-33.865143,"longitude":151.2099,"reserved":0,"last_update":"0001-01-01T00:00:00Z","name_a2s":"Uncletopia | Sydney | 6 | Community","protocol":17,"map":"cp_sunshine","folder":"tf","game":"Team Fortress","app_id":440,"player_count":0,"max_players":24,"Bots":0,"server_type":"Dedicated","server_os":"Linux","password":true,"vac":true,"version":"7961495","steam_id":85568392925397960,"keywords":["cp","nocrits","nodmgspread","uncletopia"],"game_id":440,"stv_port":27066,"stv_name":"Uncletopia | Sydney | 6 | Community | STV","players":null},{"server_id":49,"name":"Uncletopia | Warsaw | 1 | One Thousand Uncles","name_short":"waw-1","host":"waw-1.pl.uncletopia.com","port":27015,"enabled":true,"region":"eu","cc":"pl","latitude":52.2297,"longitude":21.017532,"reserved":0,"last_update":"0001-01-01T00:00:00Z","name_a2s":"Uncletopia | Warsaw | 1 | One Thousand Uncles","protocol":17,"map":"cp_mossrock","folder":"tf","game":"Team Fortress","app_id":440,"player_count":0,"max_players":32,"Bots":0,"server_type":"Dedicated","server_os":"Linux","password":true,"vac":true,"version":"7961495","steam_id":85568392925397850,"keywords":["alltalk","cp","danepve","increased_maxplayers","nocrits","norespawntime","uncletopia"],"game_id":440,"stv_port":0,"stv_name":"","players":null},{"server_id":50,"name":"Uncletopia | Warsaw | 2 | One Thousand Uncles","name_short":"waw-2","host":"waw-1.pl.uncletopia.com","port":27025,"enabled":true,"region":"eu","cc":"pl","latitude":52.2297,"longitude":21.017532,"reserved":0,"last_update":"0001-01-01T00:00:00Z","name_a2s":"Uncletopia | Warsaw | 2 | One Thousand Uncles","protocol":17,"map":"pl_goldrush","folder":"tf","game":"Team Fortress","app_id":440,"player_count":0,"max_players":32,"Bots":0,"server_type":"Dedicated","server_os":"Linux","password":true,"vac":true,"version":"7961495","steam_id":85568392925397851,"keywords":["alltalk","danepve","increased_maxplayers","nocrits","norespawntime","payload","uncletopia"],"game_id":440,"stv_port":0,"stv_name":"","players":null},{"server_id":51,"name":"Uncletopia | Warsaw | 3 | All Maps","name_short":"waw-3","host":"waw-1.pl.uncletopia.com","port":27035,"enabled":true,"region":"eu","cc":"pl","latitude":52.2297,"longitude":21.017532,"reserved":0,"last_update":"0001-01-01T00:00:00Z","name_a2s":"Uncletopia | Warsaw | 3 | All Maps","protocol":17,"map":"cp_snakewater_final1","folder":"tf","game":"Team Fortress","app_id":440,"player_count":0,"max_players":24,"Bots":0,"server_type":"Dedicated","server_os":"Linux","password":true,"vac":true,"version":"7961495","steam_id":85568392925397852,"keywords":["cp","nocrits","nodmgspread","uncletopia"],"game_id":440,"stv_port":27036,"stv_name":"Uncletopia | Warsaw | 3 | All Maps | STV","players":null},{"server_id":52,"name":"Uncletopia | Warsaw | 4 | All Maps","name_short":"waw-4","host":"waw-1.pl.uncletopia.com","port":27045,"enabled":true,"region":"eu","cc":"pl","latitude":52.2297,"longitude":21.017532,"reserved":0,"last_update":"0001-01-01T00:00:00Z","name_a2s":"Uncletopia | Warsaw | 4 | All Maps","protocol":17,"map":"pl_borneo","folder":"tf","game":"Team Fortress","app_id":440,"player_count":0,"max_players":24,"Bots":0,"server_type":"Dedicated","server_os":"Linux","password":true,"vac":true,"version":"7961495","steam_id":85568392925397853,"keywords":["nocrits","nodmgspread","payload","uncletopia"],"game_id":440,"stv_port":27046,"stv_name":"Uncletopia | Warsaw | 4 | All Maps | STV","players":null},{"server_id":53,"name":"Uncletopia | Warsaw | 5 | Stopwatch","name_short":"waw-5","host":"waw-1.pl.uncletopia.com","port":27055,"enabled":true,"region":"eu","cc":"pl","latitude":52.2297,"longitude":21.017532,"reserved":0,"last_update":"0001-01-01T00:00:00Z","name_a2s":"Uncletopia | Warsaw | 5 | Stopwatch","protocol":17,"map":"workshop/koth_ramjam_rc1.ugc459778887","folder":"tf","game":"Team Fortress","app_id":440,"player_count":0,"max_players":24,"Bots":0,"server_type":"Dedicated","server_os":"Linux","password":true,"vac":true,"version":"7961495","steam_id":85568392925397854,"keywords":["cp","nocrits","nodmgspread","uncletopia"],"game_id":440,"stv_port":27056,"stv_name":"Uncletopia | Warsaw | 5 | Stopwatch | STV","players":null},{"server_id":54,"name":"Uncletopia | Warsaw | 6 | Community","name_short":"waw-6","host":"waw-1.pl.uncletopia.com","port":27065,"enabled":true,"region":"eu","cc":"pl","latitude":52.2297,"longitude":21.017532,"reserved":0,"last_update":"0001-01-01T00:00:00Z","name_a2s":"Uncletopia | Warsaw | 6 | Community","protocol":17,"map":"workshop/pl_badwater_pro_v12.ugc2142942074","folder":"tf","game":"Team Fortress","app_id":440,"player_count":0,"max_players":24,"Bots":0,"server_type":"Dedicated","server_os":"Linux","password":true,"vac":true,"version":"7961495","steam_id":85568392925397856,"keywords":["nocrits","nodmgspread","payload","uncletopia"],"game_id":440,"stv_port":27066,"stv_name":"Uncletopia | Warsaw | 6 | Community | STV","players":null}]}