{"status":true,"message":"","result":[{"server_id":9,"name":"Uncletopia | Atlanta | 1 | All Maps","name_short":"atl-1","host":"atl-1.us.uncletopia.com","port":27015,"enabled":true,"region":"us-east","cc":"us","latitude":33.753746,"longitude":-84.38633,"reserved":0,"last_update":"0001-01-01T00:00:00Z","name_a2s":"Uncletopia | Atlanta | 1 | All Maps","protocol":17,"map":"cp_dustbowl","folder":"tf","game":"Team Fortress","app_id":440,"player_count":24,"max_players":24,"Bots":0,"server_type":"Dedicated","server_os":"Linux","password":true,"vac":true,"version":"7882260","steam_id":85568392924469982,"keywords":["cp","nocrits","nodmgspread","uncletopia"],"game_id":440,"stv_port":27016,"stv_name":"Uncletopia | Atlanta | 1 | All Maps | STV","players":[{"user_id":772,"name":"13£","steam_id":76561198425726464,"connected_time":2086000000000,"state":"active","ping":68},{"user_id":779,"name":"Pants Shitter (with rizz)","steam_id":76561198276385778,"connected_time":1202000000000,"state":"active","ping":107},{"user_id":752,"name":"social distance warrior","steam_id":76561198128992994,"connected_time":4347000000000,"state":"active","ping":92},{"user_id":728,"name":"Catalina Caldwell","steam_id":76561198263579848,"connected_time":7105000000000,"state":"active","ping":84},{"user_id":771,"name":"Mocha","steam_id":76561199426520539,"connected_time":2090000000000,"state":"active","ping":84},{"user_id":773,"name":"Shi","steam_id":76561198053716284,"connected_time":2028000000000,"state":"active","ping":68},{"user_id":782,"name":"Jelqing Table","steam_id":76561198051373750,"connected_time":596000000000,"state":"active","ping":85},{"user_id":749,"name":"dementia gaming","steam_id":76561198432668439,"connected_time":4720000000000,"state":"active","ping":71},{"user_id":781,"name":"Satan-2","steam_id":76561199231742764,"connected_time":934000000000,"state":"active","ping":86},{"user_id":783,"name":"Aedaxe","steam_id":76561198036555143,"connected_time":589000000000,"state":"active","ping":70},{"user_id":774,"name":"The Bar Ice Cream","steam_id":76561198448102983,"connected_time":1981000000000,"state":"active","ping":70},{"user_id":716,"name":"Rusted Cake","steam_id":76561198209755931,"connected_time":7835000000000,"state":"active","ping":84},{"user_id":750,"name":"gerg","steam_id":76561197997127387,"connected_time":4712000000000,"state":"active","ping":104},{"user_id":730,"name":"Gaming","steam_id":76561198107080532,"connected_time":6754000000000,"state":"active","ping":68},{"user_id":764,"name":"Es","steam_id":76561198986060392,"connected_time":2349000000000,"state":"active","ping":160},{"user_id":788,"name":"Themme Fatale","steam_id":76561198096221632,"connected_time":194000000000,"state":"active","ping":45},{"user_id":762,"name":"Teh_Hsky","steam_id":76561198798630221,"connected_time":2407000000000,"state":"active","ping":88},{"user_id":786,"name":"provo","steam_id":76561198042843798,"connected_time":460000000000,"state":"active","ping":61},{"user_id":787,"name":"I wear Shirt","steam_id":76561199111367852,"connected_time":446000000000,"state":"active","ping":95},{"user_id":776,"name":"CheeseCake488","steam_id":76561199407617942,"connected_time":1948000000000,"state":"active","ping":138},{"user_id":729,"name":"Bodhi","steam_id":76561198103230995,"connected_time":6854000000000,"state":"active","ping":61},{"user_id":777,"name":"falc0n","steam_id":76561198055438261,"connected_time":1858000000000,"state":"active","ping":81},{"user_id":780,"name":"JollyVG","steam_id":76561198044919633,"connected_time":1006000000000,"state":"active","ping":55},{"user_id":751,"name":"Kanbaru Suruga","steam_id":76561198164782653,"connected_time":4711000000000,"state":"active","ping":70}]},{"server_id":104,"name":"Uncletopia | Atlanta | 2 | All Maps","name_short":"atl-2","host":"atl-1.us.uncletopia.com","port":27025,"enabled":true,"region":"us-east","cc":"us","latitude":33.753746,"longitude":-84.38633,"reserved":0,"last_update":"0001-01-01T00:00:00Z","name_a2s":"Uncletopia | Atlanta | 2 | All Maps","protocol":17,"map":"koth_viaduct","folder":"tf","game":"Team Fortress","app_id":440,"player_count":0,"max_players":24,"Bots":0,"server_type":"Dedicated","server_os":"Linux","password":true,"vac":true,"version":"7882260","steam_id":85568392924469983,"keywords":["cp","nocrits","nodmgspread","uncletopia"],"game_id":440,"stv_port":27026,"stv_name":"Uncletopia | Atlanta | 2 | All Maps | STV","players":null},{"server_id":400,"name":"Uncletopia | Atlanta | 3 | Community","name_short":"atl-3","host":"atl-1.us.uncletopia.com","port":27035,"enabled":true,"region":"us-east","cc":"us","latitude":33.753746,"longitude":-84.38633,"reserved":0,"last_update":"0001-01-01T00:00:00Z","name_a2s":"Uncletopia | Atlanta | 3 | Community","protocol":17,"map":"workshop/cp_indulge.ugc528106646","folder":"tf","game":"Team Fortress","app_id":440,"player_count":0,"max_players":24,"Bots":0,"server_type":"Dedicated","server_os":"Linux","password":true,"vac":true,"version":"7882260","steam_id":85568392924515187,"keywords":["cp","nocrits","nodmgspread","uncletopia"],"game_id":440,"stv_port":27036,"stv_name":"Uncletopia | Atlanta | 3 | Community | STV","players":null},{"server_id":401,"name":"Uncletopia | Atlanta | 4 | No Payload","name_short":"atl-4","host":"atl-1.us.uncletopia.com","port":27045,"enabled":true,"region":"us-east","cc":"us","latitude":33.753746,"longitude":-84.38633,"reserved":0,"last_update":"0001-01-01T00:00:00Z","name_a2s":"","protocol":0,"map":"","folder":"","game":"","app_id":0,"player_count":0,"max_players":0,"Bots":0,"server_type":"","server_os":"","password":false,"vac":false,"version":"","steam_id":0,"keywords":null,"game_id":0,"stv_port":0,"stv_name":"","players":null},{"server_id":2,"name":"Uncletopia | Chicago | 1 | All Maps","name_short":"chi-1","host":"chi-1.us.uncletopia.com","port":27015,"enabled":true,"region":"us-central","cc":"us","latitude":41.881832,"longitude":-87.62318,"reserved":0,"last_update":"0001-01-01T00:00:00Z","name_a2s":"Uncletopia | Chicago | 1 | All Maps","protocol":17,"map":"koth_highpass","folder":"tf","game":"Team Fortress","app_id":440,"player_count":0,"max_players":24,"Bots":0,"server_type":"Dedicated","server_os":"Linux","password":true,"vac":true,"version":"7882260","steam_id":85568392924469984,"keywords":["cp","nocrits","nodmgspread","uncletopia"],"game_id":440,"stv_port":27016,"stv_name":"Uncletopia | Chicago | 1 | All Maps | STV","players":null},{"server_id":106,"name":"Uncletopia | Chicago | 2 | All Maps","name_short":"chi-2","host":"chi-1.us.uncletopia.com","port":27025,"enabled":true,"region":"us-central","cc":"us","latitude":41.881832,"longitude":-87.62318,"reserved":0,"last_update":"0001-01-01T00:00:00Z","name_a2s":"Uncletopia | Chicago | 2 | All Maps","protocol":17,"map":"pl_upward","folder":"tf","game":"Team Fortress","app_id":440,"player_count":23,"max_players":24,"Bots":0,"server_type":"Dedicated","server_os":"Linux","password":true,"vac":true,"version":"7882260","steam_id":85568392924469985,"keywords":["nocrits","nodmgspread","payload","uncletopia"],"game_id":440,"stv_port":27026,"stv_name":"Uncletopia | Chicago | 2 | All Maps | STV","players":[{"user_id":925,"name":"cool safe name","steam_id":76561198237827742,"connected_time":3839000000000,"state":"active","ping":61},{"user_id":930,"name":"Breach","steam_id":76561198045060392,"connected_time":2665000000000,"state":"active","ping":59},{"user_id":936,"name":"lettuce","steam_id":76561198133969522,"connected_time":1884000000000,"state":"active","ping":105},{"user_id":937,"name":"milo","steam_id":76561199061380038,"connected_time":1883000000000,"state":"active","ping":64},{"user_id":926,"name":"Kurayami","steam_id":76561198089630547,"connected_time":3721000000000,"state":"active","ping":74},{"user_id":827,"name":"X_Sniper7","steam_id":76561198081097640,"connected_time":12969000000000,"state":"active","ping":72},{"user_id":957,"name":"Pseudo","steam_id":76561198026679489,"connected_time":11000000000,"state":"active","ping":73},{"user_id":931,"name":"conner","steam_id":76561198052911241,"connected_time":2645000000000,"state":"active","ping":75},{"user_id":954,"name":"Jayy","steam_id":76561198284869610,"connected_time":450000000000,"state":"active","ping":74},{"user_id":917,"name":"cornships","steam_id":76561199220411023,"connected_time":4167000000000,"state":"active","ping":39},{"user_id":847,"name":"Free1337","steam_id":76561198034160133,"connected_time":10728000000000,"state":"active","ping":55},{"user_id":946,"name":"Ayylmao","steam_id":76561198104780147,"connected_time":1097000000000,"state":"active","ping":45},{"user_id":944,"name":"Aeterna Victrix","steam_id":76561198067701236,"connected_time":1758000000000,"state":"active","ping":49},{"user_id":953,"name":"ultralisk52","steam_id":76561198051666604,"connected_time":795000000000,"state":"active","ping":62},{"user_id":885,"name":"creepycrawler","steam_id":76561198352016831,"connected_time":7646000000000,"state":"active","ping":58},{"user_id":956,"name":"Roguefluff","steam_id":76561198169269105,"connected_time":103000000000,"state":"active","ping":60},{"user_id":866,"name":"Node⋄","steam_id":76561198219359475,"connected_time":8706000000000,"state":"active","ping":67},{"user_id":923,"name":"Aqua UwU","steam_id":76561198108784167,"connected_time":3887000000000,"state":"active","ping":45},{"user_id":943,"name":"Snowbolt","steam_id":76561197974085095,"connected_time":1774000000000,"state":"active","ping":55},{"user_id":888,"name":"A Good Name (she/her)","steam_id":76561198858190691,"connected_time":7295000000000,"state":"active","ping":109},{"user_id":935,"name":"TrainerAbu","steam_id":76561197995479203,"connected_time":1984000000000,"state":"active","ping":79},{"user_id":927,"name":"slurdydurdy","steam_id":76561198101494591,"connected_time":3486000000000,"state":"active","ping":84},{"user_id":950,"name":"the tf2 player of all time","steam_id":76561198881665250,"connected_time":922000000000,"state":"active","ping":92}]},{"server_id":402,"name":"Uncletopia | Chicago | 3 | All Maps","name_short":"chi-3","host":"chi-1.us.uncletopia.com","port":27035,"enabled":true,"region":"us-central","cc":"us","latitude":41.881832,"longitude":-87.62318,"reserved":0,"last_update":"0001-01-01T00:00:00Z","name_a2s":"Uncletopia | Chicago | 3 | All Maps","protocol":17,"map":"koth_cascade","folder":"tf","game":"Team Fortress","app_id":440,"player_count":0,"max_players":24,"Bots":0,"server_type":"Dedicated","server_os":"Linux","password":true,"vac":true,"version":"7882260","steam_id":85568392924515191,"keywords":["cp","nocrits","nodmgspread","uncletopia"],"game_id":440,"stv_port":27036,"stv_name":"Uncletopia | Chicago | 3 | All Maps | STV","players":null},{"server_id":403,"name":"Uncletopia | Chicago | 4 | All Maps","name_short":"chi-4","host":"chi-1.us.uncletopia.com","port":27045,"enabled":true,"region":"us-central","cc":"us","latitude":41.881832,"longitude":-87.62318,"reserved":0,"last_update":"0001-01-01T00:00:00Z","name_a2s":"Uncletopia | Chicago | 4 | All Maps","protocol":17,"map":"koth_highpass","folder":"tf","game":"Team Fortress","app_id":440,"player_count":0,"max_players":24,"Bots":0,"server_type":"Dedicated","server_os":"Linux","password":true,"vac":true,"version":"7882260","steam_id":85568392924515193,"keywords":["cp","nocrits","nodmgspread","uncletopia"],"game_id":440,"stv_port":27046,"stv_name":"Uncletopia | Chicago | 4 | All Maps | STV","players":null},{"server_id":36,"name":"Uncletopia | Chicago | 5 | All Maps","name_short":"chi-5","host":"chi-2.us.uncletopia.com","port":27015,"enabled":true,"region":"us-central","cc":"us","latitude":41.881832,"longitude":-87.62318,"reserved":0,"last_update":"0001-01-01T00:00:00Z","name_a2s":"Uncletopia | Chicago | 5 | All Maps","protocol":17,"map":"koth_cascade","folder":"tf","game":"Team Fortress","app_id":440,"player_count":0,"max_players":24,"Bots":0,"server_type":"Dedicated","server_os":"Linux","password":true,"vac":true,"version":"7882260","steam_id":85568392924866362,"keywords":["cp","nocrits","nodmgspread","uncletopia"],"game_id":440,"stv_port":27016,"stv_name":"Uncletopia | Chicago | 5 | All Maps | STV","players":null},{"server_id":37,"name":"Uncletopia | Chicago | 6 | All Maps","name_short":"chi-6","host":"chi-2.us.uncletopia.com","port":27025,"enabled":true,"region":"us-central","cc":"us","latitude":41.881832,"longitude":-87.62318,"reserved":0,"last_update":"0001-01-01T00:00:00Z","name_a2s":"Uncletopia | Chicago | 6 | All Maps","protocol":17,"map":"pl_upward","folder":"tf","game":"Team Fortress","app_id":440,"player_count":0,"max_players":24,"Bots":0,"server_type":"Dedicated","server_os":"Linux","password":true,"vac":true,"version":"7882260","steam_id":85568392924866363,"keywords":["nocrits","nodmgspread","payload","uncletopia"],"game_id":440,"stv_port":27026,"stv_name":"Uncletopia | Chicago | 6 | All Maps | STV","players":null},{"server_id":38,"name":"Uncletopia | Chicago | 7 | Stopwatch Beta","name_short":"chi-7","host":"chi-2.us.uncletopia.com","port":27035,"enabled":true,"region":"us-central","cc":"us","latitude":41.881832,"longitude":-87.62318,"reserved":0,"last_update":"0001-01-01T00:00:00Z","name_a2s":"Uncletopia | Chicago | 7 | Stopwatch Beta","protocol":17,"map":"koth_highpass","folder":"tf","game":"Team Fortress","app_id":440,"player_count":0,"max_players":24,"Bots":0,"server_type":"Dedicated","server_os":"Linux","password":true,"vac":true,"version":"7882260","steam_id":85568392924866364,"keywords":["cp","nocrits","nodmgspread","uncletopia"],"game_id":440,"stv_port":27036,"stv_name":"Uncletopia | Chicago | 7 | Stopwatch Beta | STV","players":null},{"server_id":39,"name":"Uncletopia | Chicago | 8 | Community","name_short":"chi-8","host":"chi-2.us.uncletopia.com","port":27045,"enabled":true,"region":"us-central","cc":"us","latitude":41.881832,"longitude":-87.62318,"reserved":0,"last_update":"0001-01-01T00:00:00Z","name_a2s":"Uncletopia | Chicago | 8 | Community","protocol":17,"map":"workshop/koth_slaughter_rc1.ugc1712845210","folder":"tf","game":"Team Fortress","app_id":440,"player_count":0,"max_players":24,"Bots":0,"server_type":"Dedicated","server_os":"Linux","password":true,"vac":true,"version":"7882260","steam_id":85568392924866365,"keywords":["cp","nocrits","nodmgspread","uncletopia"],"game_id":440,"stv_port":27046,"stv_name":"Uncletopia | Chicago | 8 | Community | STV","players":null},{"server_id":8,"name":"Uncletopia | Dallas | 1 | All Maps","name_short":"dal-1","host":"dal-1.us.uncletopia.com","port":27015,"enabled":true,"region":"us-central","cc":"us","latitude":32.779167,"longitude":-96.80889,"reserved":0,"last_update":"0001-01-01T00:00:00Z","name_a2s":"Uncletopia | Dallas | 1 | All Maps","protocol":17,"map":"pl_borneo","folder":"tf","game":"Team Fortress","app_id":440,"player_count":6,"max_players":24,"Bots":0,"server_type":"Dedicated","server_os":"Linux","password":true,"vac":true,"version":"7882260","steam_id":85568392924469986,"keywords":["nocrits","nodmgspread","payload","uncletopia"],"game_id":440,"stv_port":27016,"stv_name":"Uncletopia | Dallas | 1 | All Maps | STV","players":[{"user_id":993,"name":"Professionally Braindead ツ","steam_id":76561198276714220,"connected_time":2092000000000,"state":"active","ping":44},{"user_id":998,"name":"joelygoat","steam_id":76561198949565555,"connected_time":261000000000,"state":"active","ping":107},{"user_id":999,"name":"fruitymario","steam_id":76561198047190430,"connected_time":154000000000,"state":"active","ping":98},{"user_id":970,"name":"Derpy Hooves???","steam_id":76561198101505695,"connected_time":5104000000000,"state":"active","ping":66},{"user_id":972,"name":"DGRarity","steam_id":76561198065196790,"connected_time":5097000000000,"state":"active","ping":83},{"user_id":979,"name":"a 1930","steam_id":76561198320639814,"connected_time":3599000000000,"state":"active","ping":124}]},{"server_id":108,"name":"Uncletopia | Dallas | 2 | All Maps","name_short":"dal-2","host":"dal-1.us.uncletopia.com","port":27025,"enabled":true,"region":"us-central","cc":"us","latitude":32.779167,"longitude":-96.80889,"reserved":0,"last_update":"0001-01-01T00:00:00Z","name_a2s":"Uncletopia | Dallas | 2 | All Maps","protocol":17,"map":"pl_frontier_final","folder":"tf","game":"Team Fortress","app_id":440,"player_count":24,"max_players":24,"Bots":0,"server_type":"Dedicated","server_os":"Linux","password":true,"vac":true,"version":"7882260","steam_id":85568392924469988,"keywords":["nocrits","nodmgspread","payload","uncletopia"],"game_id":440,"stv_port":27026,"stv_name":"Uncletopia | Dallas | 2 | All Maps | STV","players":[{"user_id":742,"name":"CupOJo","steam_id":76561198067153390,"connected_time":4236000000000,"state":"active","ping":75},{"user_id":764,"name":"John","steam_id":76561198138105188,"connected_time":894000000000,"state":"active","ping":99},{"user_id":728,"name":"Reptile","steam_id":76561198078463246,"connected_time":4970000000000,"state":"active","ping":74},{"user_id":745,"name":"lycoris","steam_id":76561199113965768,"connected_time":3650000000000,"state":"active","ping":103},{"user_id":748,"name":"HTA","steam_id":76561198043879140,"connected_time":3038000000000,"state":"active","ping":73},{"user_id":762,"name":"Medusaka","steam_id":76561198115735955,"connected_time":940000000000,"state":"active","ping":54},{"user_id":763,"name":"Aethirion","steam_id":76561198100185492,"connected_time":937000000000,"state":"active","ping":71},{"user_id":775,"name":"Jare Bear","steam_id":76561198056071365,"connected_time":59000000000,"state":"active","ping":54},{"user_id":746,"name":"shadow elite","steam_id":76561198165212575,"connected_time":3222000000000,"state":"active","ping":90},{"user_id":722,"name":"KrylonHeretic","steam_id":76561198139811459,"connected_time":5327000000000,"state":"active","ping":96},{"user_id":759,"name":"Neo Kojiro","steam_id":76561198000967076,"connected_time":1264000000000,"state":"active","ping":97},{"user_id":758,"name":"PocketTieAMPLFY","steam_id":76561199080485881,"connected_time":1398000000000,"state":"active","ping":115},{"user_id":751,"name":"Where The F**K I Am?","steam_id":76561197986530028,"connected_time":2984000000000,"state":"active","ping":90},{"user_id":766,"name":"Valnareik","steam_id":76561198096777039,"connected_time":765000000000,"state":"active","ping":102},{"user_id":767,"name":"Clear Sights","steam_id":76561198006215683,"connected_time":748000000000,"state":"active","ping":87},{"user_id":724,"name":"Shmaden Shmuki","steam_id":76561198272381217,"connected_time":5303000000000,"state":"active","ping":87},{"user_id":754,"name":"the beach that makes you old","steam_id":76561198008332777,"connected_time":2618000000000,"state":"active","ping":99},{"user_id":768,"name":"GroundedBeef","steam_id":76561198944628398,"connected_time":678000000000,"state":"active","ping":100},{"user_id":770,"name":"_ZimZam","steam_id":76561198091955715,"connected_time":658000000000,"state":"active","ping":63},{"user_id":760,"name":"twitch.tv/wokkyyy","steam_id":76561198265200834,"connected_time":1056000000000,"state":"active","ping":81},{"user_id":772,"name":"PirateJet","steam_id":76561198050858744,"connected_time":640000000000,"state":"active","ping":85},{"user_id":753,"name":"soupy","steam_id":76561197974283797,"connected_time":2933000000000,"state":"active","ping":61},{"user_id":744,"name":"kbsfnk","steam_id":76561198036884600,"connected_time":4165000000000,"state":"active","ping":90},{"user_id":774,"name":"WP Casual","steam_id":76561198057725316,"connected_time":159000000000,"state":"active","ping":94}]},{"server_id":5,"name":"Uncletopia | Frankfurt | 1 | All Maps","name_short":"frk-1","host":"frk-1.de.uncletopia.com","port":27015,"enabled":true,"region":"eu","cc":"de","latitude":50.110924,"longitude":8.682127,"reserved":0,"last_update":"0001-01-01T00:00:00Z","name_a2s":"Uncletopia | Frankfurt | 1 | All Maps","protocol":17,"map":"cp_process_final","folder":"tf","game":"Team Fortress","app_id":440,"player_count":0,"max_players":24,"Bots":0,"server_type":"Dedicated","server_os":"Linux","password":true,"vac":true,"version":"7882260","steam_id":85568392924469989,"keywords":["cp","nocrits","nodmgspread","uncletopia"],"game_id":440,"stv_port":27016,"stv_name":"Uncletopia | Frankfurt | 1 | All Maps | STV","players":null},{"server_id":110,"name":"Uncletopia | Frankfurt | 2 | All Maps","name_short":"frk-2","host":"frk-1.de.uncletopia.com","port":27025,"enabled":true,"region":"eu","cc":"de","latitude":50.110924,"longitude":8.682127,"reserved":0,"last_update":"0001-01-01T00:00:00Z","name_a2s":"Uncletopia | Frankfurt | 2 | All Maps","protocol":17,"map":"pl_swiftwater_final1","folder":"tf","game":"Team Fortress","app_id":440,"player_count":0,"max_players":24,"Bots":0,"server_type":"Dedicated","server_os":"Linux","password":true,"vac":true,"version":"7882260","steam_id":85568392924469990,"keywords":["nocrits","nodmgspread","payload","uncletopia"],"game_id":440,"stv_port":27026,"stv_name":"Uncletopia | Frankfurt | 2 | All Maps | STV","players":null},{"server_id":308,"name":"Uncletopia | Frankfurt | 3 | All Maps","name_short":"frk-3","host":"frk-1.de.uncletopia.com","port":27035,"enabled":true,"region":"eu","cc":"de","latitude":50.110924,"longitude":8.682127,"reserved":0,"last_update":"0001-01-01T00:00:00Z","name_a2s":"Uncletopia | Frankfurt | 3 | All Maps","protocol":17,"map":"koth_highpass","folder":"tf","game":"Team Fortress","app_id":440,"player_count":0,"max_players":24,"Bots":0,"server_type":"Dedicated","server_os":"Linux","password":true,"vac":true,"version":"7882260","steam_id":85568392924504274,"keywords":["cp","nocrits","nodmgspread","uncletopia"],"game_id":440,"stv_port":27036,"stv_name":"Uncletopia | Frankfurt | 3 | All Maps | STV","players":null},{"server_id":309,"name":"Uncletopia | Frankfurt | 4 | All Maps","name_short":"frk-4","host":"frk-1.de.uncletopia.com","port":27045,"enabled":true,"region":"eu","cc":"de","latitude":50.110924,"longitude":8.682127,"reserved":0,"last_update":"0001-01-01T00:00:00Z","name_a2s":"Uncletopia | Frankfurt | 4 | All Maps","protocol":17,"map":"pl_upward","folder":"tf","game":"Team Fortress","app_id":440,"player_count":0,"max_players":24,"Bots":0,"server_type":"Dedicated","server_os":"Linux","password":true,"vac":true,"version":"7882260","steam_id":85568392924504275,"keywords":["nocrits","nodmgspread","payload","uncletopia"],"game_id":440,"stv_port":27046,"stv_name":"Uncletopia | Frankfurt | 4 | All Maps | STV","players":null},{"server_id":310,"name":"Uncletopia | Frankfurt | 5 | All Maps","name_short":"frk-5","host":"frk-1.de.uncletopia.com","port":27055,"enabled":true,"region":"eu","cc":"de","latitude":50.110924,"longitude":8.682127,"reserved":0,"last_update":"0001-01-01T00:00:00Z","name_a2s":"Uncletopia | Frankfurt | 5 | All Maps","protocol":17,"map":"cp_mountainlab","folder":"tf","game":"Team Fortress","app_id":440,"player_count":0,"max_players":24,"Bots":0,"server_type":"Dedicated","server_os":"Linux","password":true,"vac":true,"version":"7882260","steam_id":85568392924504277,"keywords":["cp","nocrits","nodmgspread","uncletopia"],"game_id":440,"stv_port":27056,"stv_name":"Uncletopia | Frankfurt | 5 | All Maps | STV","players":null},{"server_id":311,"name":"Uncletopia | Frankfurt | 6 | All Maps","name_short":"frk-6","host":"frk-1.de.uncletopia.com","port":27065,"enabled":true,"region":"eu","cc":"de","latitude":50.110924,"longitude":8.682127,"reserved":0,"last_update":"0001-01-01T00:00:00Z","name_a2s":"Uncletopia | Frankfurt | 6 | All Maps","protocol":17,"map":"cp_snakewater_final1","folder":"tf","game":"Team Fortress","app_id":440,"player_count":14,"max_players":24,"Bots":0,"server_type":"Dedicated","server_os":"Linux","password":true,"vac":true,"version":"7882260","steam_id":85568392924504278,"keywords":["cp","nocrits","nodmgspread","uncletopia"],"game_id":440,"stv_port":27066,"stv_name":"Uncletopia | Frankfurt | 6 | All Maps | STV","players":[{"user_id":9,"name":"poliakov.noam","steam_id":76561199259322961,"connected_time":668000000000,"state":"active","ping":103},{"user_id":5,"name":"mero","steam_id":76561198293147412,"connected_time":1883000000000,"state":"active","ping":91},{"user_id":7,"name":"Zerwee","steam_id":76561198181368101,"connected_time":1126000000000,"state":"active","ping":52},{"user_id":27,"name":"Magirby","steam_id":76561198818777390,"connected_time":25000000000,"state":"active","ping":394},{"user_id":25,"name":"strideΔ","steam_id":76561199007826093,"connected_time":39000000000,"state":"active","ping":84},{"user_id":12,"name":"oriano","steam_id":76561198099916327,"connected_time":434000000000,"state":"active","ping":59},{"user_id":16,"name":"boje, nu chto za nub","steam_id":76561198172046813,"connected_time":209000000000,"state":"active","ping":74},{"user_id":26,"name":"ASS?!?!?!?!?","steam_id":76561199159262388,"connected_time":34000000000,"state":"spawning","ping":93},{"user_id":17,"name":"vadr","steam_id":76561198334528186,"connected_time":197000000000,"state":"active","ping":56},{"user_id":19,"name":"DribSitoop","steam_id":76561198020597104,"connected_time":179000000000,"state":"active","ping":58},{"user_id":20,"name":"Mr.Fix","steam_id":76561199017362445,"connected_time":164000000000,"state":"active","ping":104},{"user_id":21,"name":"KingofCubes","steam_id":76561198258037513,"connected_time":90000000000,"state":"active","ping":72},{"user_id":22,"name":"Hey, I´m Andy!","steam_id":76561198060337777,"connected_time":74000000000,"state":"active","ping":68},{"user_id":23,"name":"B.batt","steam_id":76561198998684199,"connected_time":73000000000,"state":"active","ping":108}]},{"server_id":23,"name":"Uncletopia | Frankfurt | 7 | Stopwatch Beta","name_short":"frk-7","host":"frk-1.de.uncletopia.com","port":27075,"enabled":true,"region":"eu","cc":"de","latitude":50.110924,"longitude":8.682127,"reserved":0,"last_update":"0001-01-01T00:00:00Z","name_a2s":"Uncletopia | Frankfurt | 7 | Stopwatch Beta","protocol":17,"map":"cp_dustbowl","folder":"tf","game":"Team Fortress","app_id":440,"player_count":0,"max_players":24,"Bots":0,"server_type":"Dedicated","server_os":"Linux","password":true,"vac":true,"version":"7882260","steam_id":85568392924742827,"keywords":["cp","nocrits","nodmgspread","uncletopia"],"game_id":440,"stv_port":27076,"stv_name":"Uncletopia | Frankfurt | 7 | Stopwatch Beta | STV","players":null},{"server_id":24,"name":"Uncletopia | Frankfurt | 8 | Community","name_short":"frk-8","host":"frk-1.de.uncletopia.com","port":27085,"enabled":true,"region":"eu","cc":"de","latitude":50.110924,"longitude":8.682127,"reserved":0,"last_update":"0001-01-01T00:00:00Z","name_a2s":"Uncletopia | Frankfurt | 8 | Community","protocol":17,"map":"koth_cascade","folder":"tf","game":"Team Fortress","app_id":440,"player_count":0,"max_players":24,"Bots":0,"server_type":"Dedicated","server_os":"Linux","password":true,"vac":true,"version":"7882260","steam_id":85568392924742828,"keywords":["cp","nocrits","nodmgspread","uncletopia"],"game_id":440,"stv_port":27086,"stv_name":"Uncletopia | Frankfurt | 8 | Community | STV","players":null},{"server_id":202,"name":"Uncletopia | Hong Kong | 1 | All Maps","name_short":"hgk-1","host":"hgk-1.hk.uncletopia.com","port":27015,"enabled":true,"region":"asia","cc":"hk","latitude":22.302711,"longitude":114.177216,"reserved":0,"last_update":"0001-01-01T00:00:00Z","name_a2s":"Uncletopia | Hong Kong | 1 | All Maps","protocol":17,"map":"cp_altitude","folder":"tf","game":"Team Fortress","app_id":440,"player_count":0,"max_players":24,"Bots":0,"server_type":"Dedicated","server_os":"Linux","password":true,"vac":true,"version":"7882260","steam_id":85568392924494504,"keywords":["cp","nocrits","nodmgspread","uncletopia"],"game_id":440,"stv_port":27016,"stv_name":"Uncletopia | Hong Kong | 1 | All Maps | STV","players":null},{"server_id":1,"name":"Uncletopia | Los Angeles | 1 | All Maps","name_short":"lax-1","host":"lax-1.us.uncletopia.com","port":27015,"enabled":true,"region":"us-west","cc":"us","latitude":33.94279,"longitude":-118.41004,"reserved":0,"last_update":"0001-01-01T00:00:00Z","name_a2s":"Uncletopia | Los Angeles | 1 | All Maps","protocol":17,"map":"pl_snowycoast","folder":"tf","game":"Team Fortress","app_id":440,"player_count":24,"max_players":24,"Bots":0,"server_type":"Dedicated","server_os":"Linux","password":true,"vac":true,"version":"7882260","steam_id":85568392924469991,"keywords":["nocrits","nodmgspread","payload","uncletopia"],"game_id":440,"stv_port":27016,"stv_name":"Uncletopia | Los Angeles | 1 | All Maps | STV","players":[{"user_id":820,"name":"TothBrush","steam_id":76561198028254471,"connected_time":2267000000000,"state":"active","ping":60},{"user_id":798,"name":"ProbiusSC","steam_id":76561198379167322,"connected_time":4068000000000,"state":"active","ping":88},{"user_id":772,"name":"Burgie","steam_id":76561198066425198,"connected_time":5389000000000,"state":"active","ping":54},{"user_id":802,"name":"Saul Bunyan Attorney at Log","steam_id":76561198209153291,"connected_time":3855000000000,"state":"active","ping":54},{"user_id":859,"name":"็","steam_id":76561199483015098,"connected_time":1180000000000,"state":"active","ping":90},{"user_id":868,"name":"uncleice","steam_id":76561198336423932,"connected_time":573000000000,"state":"active","ping":80},{"user_id":791,"name":"BananaFana","steam_id":76561198008891875,"connected_time":4668000000000,"state":"active","ping":40},{"user_id":854,"name":"Pylori","steam_id":76561197993858197,"connected_time":1258000000000,"state":"active","ping":180},{"user_id":869,"name":"July","steam_id":76561198011169998,"connected_time":573000000000,"state":"active","ping":43},{"user_id":821,"name":"bootyzillaᴸᴮᴴ","steam_id":76561198322206140,"connected_time":2250000000000,"state":"active","ping":85},{"user_id":874,"name":"Tea","steam_id":76561198004133638,"connected_time":421000000000,"state":"active","ping":57},{"user_id":799,"name":"TacticalFluke","steam_id":76561198403291862,"connected_time":3993000000000,"state":"active","ping":88},{"user_id":816,"name":"Saucy Boy","steam_id":76561198178332031,"connected_time":2607000000000,"state":"active","ping":115},{"user_id":822,"name":"Cap","steam_id":76561198072870415,"connected_time":2242000000000,"state":"active","ping":101},{"user_id":794,"name":"younggflylyfe","steam_id":76561199477357832,"connected_time":4344000000000,"state":"active","ping":71},{"user_id":863,"name":"Bobby","steam_id":76561198265253992,"connected_time":897000000000,"state":"active","ping":53},{"user_id":823,"name":"Mark^","steam_id":76561198068602143,"connected_time":2237000000000,"state":"active","ping":100},{"user_id":862,"name":"Lizardman","steam_id":76561198022410505,"connected_time":1067000000000,"state":"active","ping":65},{"user_id":873,"name":"noahgamblez","steam_id":76561198025463181,"connected_time":510000000000,"state":"active","ping":112},{"user_id":824,"name":"KermitSudoku","steam_id":76561198119723054,"connected_time":2233000000000,"state":"active","ping":100},{"user_id":871,"name":"Morris The Pet Rock","steam_id":76561199389115268,"connected_time":534000000000,"state":"active","ping":60},{"user_id":856,"name":"Miro","steam_id":76561198936412406,"connected_time":1256000000000,"state":"active","ping":130},{"user_id":828,"name":"Ty","steam_id":76561198137100410,"connected_time":2085000000000,"state":"active","ping":127},{"user_id":877,"name":"tr","steam_id":76561198046944222,"connected_time":240000000000,"state":"active","ping":71}]},{"server_id":112,"name":"Uncletopia | Los Angeles | 2 | All Maps","name_short":"lax-2","host":"lax-1.us.uncletopia.com","port":27025,"enabled":true,"region":"us-west","cc":"us","latitude":33.94279,"longitude":-118.41004,"reserved":0,"last_update":"0001-01-01T00:00:00Z","name_a2s":"Uncletopia | Los Angeles | 2 | All Maps","protocol":17,"map":"pl_pier","folder":"tf","game":"Team Fortress","app_id":440,"player_count":24,"max_players":24,"Bots":0,"server_type":"Dedicated","server_os":"Linux","password":true,"vac":true,"version":"7882260","steam_id":85568392924469992,"keywords":["nocrits","nodmgspread","payload","uncletopia"],"game_id":440,"stv_port":27026,"stv_name":"Uncletopia | Los Angeles | 2 | All Maps | STV","players":[{"user_id":660,"name":"zaza2k","steam_id":76561198393760567,"connected_time":498000000000,"state":"active","ping":46},{"user_id":643,"name":"owen excellence","steam_id":76561198079978485,"connected_time":2502000000000,"state":"active","ping":45},{"user_id":560,"name":"Seriously Bruh","steam_id":76561198070408485,"connected_time":8081000000000,"state":"active","ping":75},{"user_id":639,"name":"Linksaver1","steam_id":76561198096312838,"connected_time":3147000000000,"state":"active","ping":56},{"user_id":648,"name":"Mozz","steam_id":76561198132892873,"connected_time":1743000000000,"state":"active","ping":56},{"user_id":640,"name":"gatoloco","steam_id":76561198048779107,"connected_time":2893000000000,"state":"active","ping":75},{"user_id":645,"name":"ba ba black sheep","steam_id":76561198206922028,"connected_time":2289000000000,"state":"active","ping":45},{"user_id":649,"name":"Rabblerouser","steam_id":76561198127930963,"connected_time":1723000000000,"state":"active","ping":86},{"user_id":603,"name":"DaΓkPuΓple","steam_id":76561198271462402,"connected_time":5051000000000,"state":"active","ping":97},{"user_id":661,"name":"Kaluka","steam_id":76561198036861445,"connected_time":452000000000,"state":"active","ping":103},{"user_id":662,"name":"♔тeнριиeαρρℓe♚","steam_id":76561198079939127,"connected_time":444000000000,"state":"active","ping":57},{"user_id":611,"name":"Samurai JackOff","steam_id":76561198165160011,"connected_time":4557000000000,"state":"active","ping":62},{"user_id":668,"name":"sierra","steam_id":76561197969873415,"connected_time":130000000000,"state":"active","ping":150},{"user_id":663,"name":"franz","steam_id":76561198176896551,"connected_time":311000000000,"state":"active","ping":110},{"user_id":664,"name":"Solly Soupcan","steam_id":76561198071833965,"connected_time":311000000000,"state":"active","ping":99},{"user_id":634,"name":"Gruntic","steam_id":76561198170396647,"connected_time":3358000000000,"state":"active","ping":54},{"user_id":615,"name":"Popeye Senior","steam_id":76561198009727462,"connected_time":4451000000000,"state":"active","ping":123},{"user_id":665,"name":"mosh115","steam_id":76561198141533211,"connected_time":282000000000,"state":"active","ping":183},{"user_id":651,"name":"Manticore","steam_id":76561198044664093,"connected_time":1518000000000,"state":"active","ping":106},{"user_id":666,"name":"Paladin","steam_id":76561198839762958,"connected_time":260000000000,"state":"active","ping":91},{"user_id":642,"name":"Clagger","steam_id":76561198066701092,"connected_time":2822000000000,"state":"active","ping":67},{"user_id":586,"name":"SmallErection","steam_id":76561198071770147,"connected_time":6213000000000,"state":"active","ping":92},{"user_id":667,"name":"hotpocket","steam_id":76561199070028098,"connected_time":246000000000,"state":"active","ping":65},{"user_id":559,"name":"PillCosby","steam_id":76561199396184696,"connected_time":8107000000000,"state":"active","ping":75}]},{"server_id":324,"name":"Uncletopia | Los Angeles | 3 | All Maps","name_short":"lax-3","host":"lax-1.us.uncletopia.com","port":27035,"enabled":true,"region":"us-west","cc":"us","latitude":33.94279,"longitude":-118.41004,"reserved":0,"last_update":"0001-01-01T00:00:00Z","name_a2s":"Uncletopia | Los Angeles | 3 | All Maps","protocol":17,"map":"pl_upward","folder":"tf","game":"Team Fortress","app_id":440,"player_count":22,"max_players":24,"Bots":0,"server_type":"Dedicated","server_os":"Linux","password":true,"vac":true,"version":"7882260","steam_id":85568392924510198,"keywords":["nocrits","nodmgspread","payload","uncletopia"],"game_id":440,"stv_port":27036,"stv_name":"Uncletopia | Los Angeles | 3 | All Maps | STV","players":[{"user_id":740,"name":"Conclusion E²","steam_id":76561198100017156,"connected_time":519000000000,"state":"active","ping":108},{"user_id":727,"name":"AAGooseman","steam_id":76561198378941369,"connected_time":1650000000000,"state":"active","ping":32},{"user_id":731,"name":"Super crak 202 9","steam_id":76561199176207530,"connected_time":1494000000000,"state":"active","ping":70},{"user_id":709,"name":"Pee-Pee Storm","steam_id":76561198101442649,"connected_time":3079000000000,"state":"active","ping":73},{"user_id":741,"name":"Tofu","steam_id":76561198083778611,"connected_time":502000000000,"state":"active","ping":45},{"user_id":739,"name":"mu","steam_id":76561197997530228,"connected_time":559000000000,"state":"active","ping":90},{"user_id":735,"name":"xkill568","steam_id":76561198281705140,"connected_time":1129000000000,"state":"active","ping":112},{"user_id":742,"name":"STENDO_CLIP","steam_id":76561198059570167,"connected_time":277000000000,"state":"active","ping":160},{"user_id":730,"name":"Korwin","steam_id":76561198027369126,"connected_time":1554000000000,"state":"active","ping":94},{"user_id":576,"name":"BUSY","steam_id":76561198047532250,"connected_time":16574000000000,"state":"active","ping":77},{"user_id":738,"name":"ketsu","steam_id":76561197966171554,"connected_time":816000000000,"state":"active","ping":159},{"user_id":743,"name":"genuine reaction","steam_id":76561199007703661,"connected_time":224000000000,"state":"active","ping":89},{"user_id":744,"name":"Gavial the Invincible","steam_id":76561198348354629,"connected_time":43000000000,"state":"active","ping":37},{"user_id":732,"name":"zefir","steam_id":76561198041348890,"connected_time":1477000000000,"state":"active","ping":103},{"user_id":745,"name":"GrandZootWizard","steam_id":76561198143610902,"connected_time":36000000000,"state":"active","ping":119},{"user_id":716,"name":"Oh No! It's Twister!","steam_id":76561198016791916,"connected_time":2536000000000,"state":"active","ping":116},{"user_id":699,"name":"..flop","steam_id":76561197989058876,"connected_time":3526000000000,"state":"active","ping":75},{"user_id":721,"name":"happypurple","steam_id":76561198114782270,"connected_time":2430000000000,"state":"active","ping":58},{"user_id":711,"name":"IHUNTZ","steam_id":76561198390109907,"connected_time":3002000000000,"state":"active","ping":56},{"user_id":696,"name":"Spirit","steam_id":76561198026245914,"connected_time":4146000000000,"state":"active","ping":92},{"user_id":722,"name":"NoovaDT","steam_id":76561198369784242,"connected_time":2418000000000,"state":"active","ping":87},{"user_id":737,"name":"the sauce","steam_id":76561198250215874,"connected_time":902000000000,"state":"active","ping":127}]},{"server_id":25,"name":"Uncletopia | Los Angeles | 4 | Stopwatch Beta","name_short":"lax-4","host":"lax-1.us.uncletopia.com","port":27045,"enabled":true,"region":"us-west","cc":"us","latitude":33.94279,"longitude":-118.41004,"reserved":0,"last_update":"0001-01-01T00:00:00Z","name_a2s":"Uncletopia | Los Angeles | 4 | Stopwatch Beta","protocol":17,"map":"workshop/pl_badwater_pro_v12.ugc2142942074","folder":"tf","game":"Team Fortress","app_id":440,"player_count":2,"max_players":24,"Bots":0,"server_type":"Dedicated","server_os":"Linux","password":true,"vac":true,"version":"7882260","steam_id":85568392924510199,"keywords":["nocrits","nodmgspread","payload","uncletopia"],"game_id":440,"stv_port":27046,"stv_name":"Uncletopia | Los Angeles | 4 | Stopwatch Beta | STV","players":[{"user_id":112,"name":"YungLuv","steam_id":76561199200757524,"connected_time":1374000000000,"state":"active","ping":49},{"user_id":113,"name":"DeBaby(Plug\"Fraggers\"Ft.YungLuv","steam_id":76561198143209841,"connected_time":1296000000000,"state":"active","ping":75}]},{"server_id":11,"name":"Uncletopia | London | 1 | All Maps","name_short":"lon-1","host":"lon-1.uk.uncletopia.com","port":27015,"enabled":true,"region":"eu","cc":"gb","latitude":51.509865,"longitude":-0.118092,"reserved":0,"last_update":"0001-01-01T00:00:00Z","name_a2s":"Uncletopia | London | 1 | All Maps","protocol":17,"map":"pl_frontier_final","folder":"tf","game":"Team Fortress","app_id":440,"player_count":0,"max_players":24,"Bots":0,"server_type":"Dedicated","server_os":"Linux","password":true,"vac":true,"version":"7882260","steam_id":85568392924367362,"keywords":["nocrits","nodmgspread","payload","uncletopia"],"game_id":440,"stv_port":27016,"stv_name":"Uncletopia | London | 1 | All Maps | STV","players":null},{"server_id":114,"name":"Uncletopia | London | 2 | All Maps","name_short":"lon-2","host":"lon-1.uk.uncletopia.com","port":27025,"enabled":true,"region":"eu","cc":"gb","latitude":51.509865,"longitude":-0.118092,"reserved":0,"last_update":"0001-01-01T00:00:00Z","name_a2s":"Uncletopia | London | 2 | All Maps","protocol":17,"map":"koth_viaduct","folder":"tf","game":"Team Fortress","app_id":440,"player_count":0,"max_players":24,"Bots":0,"server_type":"Dedicated","server_os":"Linux","password":true,"vac":true,"version":"7882260","steam_id":85568392924470941,"keywords":["cp","nocrits","nodmgspread","uncletopia"],"game_id":440,"stv_port":27026,"stv_name":"Uncletopia | London | 2 | All Maps | STV","players":null},{"server_id":320,"name":"Uncletopia | London | 3 | All Maps","name_short":"lon-3","host":"lon-1.uk.uncletopia.com","port":27035,"enabled":true,"region":"eu","cc":"gb","latitude":51.509865,"longitude":-0.118092,"reserved":0,"last_update":"0001-01-01T00:00:00Z","name_a2s":"Uncletopia | London | 3 | All Maps","protocol":17,"map":"koth_highpass","folder":"tf","game":"Team Fortress","app_id":440,"player_count":0,"max_players":24,"Bots":0,"server_type":"Dedicated","server_os":"Linux","password":true,"vac":true,"version":"7882260","steam_id":85568392924510192,"keywords":["cp","nocrits","nodmgspread","uncletopia"],"game_id":440,"stv_port":27036,"stv_name":"Uncletopia | London | 3 | All Maps | STV","players":null},{"server_id":321,"name":"Uncletopia | London | 4 | All Maps","name_short":"lon-4","host":"lon-1.uk.uncletopia.com","port":27045,"enabled":true,"region":"eu","cc":"gb","latitude":51.509865,"longitude":-0.118092,"reserved":0,"last_update":"0001-01-01T00:00:00Z","name_a2s":"Uncletopia | London | 4 | All Maps","protocol":17,"map":"ctf_turbine","folder":"tf","game":"Team Fortress","app_id":440,"player_count":24,"max_players":24,"Bots":0,"server_type":"Dedicated","server_os":"Linux","password":true,"vac":true,"version":"7882260","steam_id":85568392924510193,"keywords":["ctf","nocrits","nodmgspread","uncletopia"],"game_id":440,"stv_port":27046,"stv_name":"Uncletopia | London | 4 | All Maps | STV","players":[{"user_id":49,"name":"Nyhde","steam_id":76561198012771416,"connected_time":10544000000000,"state":"active","ping":104},{"user_id":145,"name":"fried","steam_id":76561198307522022,"connected_time":2274000000000,"state":"active","ping":47},{"user_id":153,"name":"Egg","steam_id":76561199360189459,"connected_time":1125000000000,"state":"active","ping":70},{"user_id":158,"name":"$Theory","steam_id":76561198027033926,"connected_time":365000000000,"state":"active","ping":48},{"user_id":174,"name":"Sylvanas","steam_id":76561198154904165,"connected_time":13000000000,"state":"spawning","ping":137},{"user_id":171,"name":"nevim","steam_id":76561199120843402,"connected_time":32000000000,"state":"active","ping":60},{"user_id":144,"name":"cool skeleton","steam_id":76561198219901556,"connected_time":2371000000000,"state":"active","ping":106},{"user_id":138,"name":"s a i","steam_id":76561197970379754,"connected_time":2709000000000,"state":"active","ping":60},{"user_id":147,"name":"Jan.","steam_id":76561197974066329,"connected_time":1451000000000,"state":"active","ping":59},{"user_id":172,"name":"hud_saytext_time 0","steam_id":76561198010327228,"connected_time":28000000000,"state":"active","ping":65},{"user_id":166,"name":"Desj","steam_id":76561198114212636,"connected_time":48000000000,"state":"active","ping":46},{"user_id":173,"name":"Yuzu","steam_id":76561198121694613,"connected_time":28000000000,"state":"active","ping":46},{"user_id":169,"name":"Teaguy","steam_id":76561197990776598,"connected_time":40000000000,"state":"active","ping":135},{"user_id":168,"name":"Cookies and Bakies","steam_id":76561198017442928,"connected_time":44000000000,"state":"active","ping":65},{"user_id":149,"name":"engie?","steam_id":76561198331852832,"connected_time":1213000000000,"state":"active","ping":41},{"user_id":129,"name":"Saint","steam_id":76561198003296382,"connected_time":3135000000000,"state":"active","ping":74},{"user_id":109,"name":"tïger","steam_id":76561198260483157,"connected_time":5095000000000,"state":"active","ping":89},{"user_id":134,"name":"Dzan50","steam_id":76561198059758591,"connected_time":2799000000000,"state":"active","ping":101},{"user_id":152,"name":"0","steam_id":76561199084809092,"connected_time":1190000000000,"state":"active","ping":99},{"user_id":170,"name":"Tea","steam_id":76561198061580505,"connected_time":36000000000,"state":"active","ping":46},{"user_id":161,"name":"Stigurna","steam_id":76561198063906822,"connected_time":243000000000,"state":"active","ping":90},{"user_id":86,"name":"Mr. Shadow | Folfie","steam_id":76561198037028507,"connected_time":7401000000000,"state":"active","ping":57},{"user_id":130,"name":"Oceanic | tuesday maybe","steam_id":76561197979741827,"connected_time":3135000000000,"state":"active","ping":72},{"user_id":105,"name":"david","steam_id":76561198843793834,"connected_time":5783000000000,"state":"active","ping":75}]},{"server_id":21,"name":"Uncletopia | London | 5 | All Maps","name_short":"lon-5","host":"lon-1.uk.uncletopia.com","port":27055,"enabled":true,"region":"eu","cc":"gb","latitude":51.509865,"longitude":-0.118092,"reserved":0,"last_update":"0001-01-01T00:00:00Z","name_a2s":"Uncletopia | London | 5 | All Maps","protocol":17,"map":"koth_lakeside_final","folder":"tf","game":"Team Fortress","app_id":440,"player_count":0,"max_players":24,"Bots":0,"server_type":"Dedicated","server_os":"Linux","password":true,"vac":true,"version":"7882260","steam_id":85568392924742829,"keywords":["cp","nocrits","nodmgspread","uncletopia"],"game_id":440,"stv_port":27056,"stv_name":"Uncletopia | London | 5 | All Maps | STV","players":null},{"server_id":22,"name":"Uncletopia | London | 6 | All Maps","name_short":"lon-6","host":"lon-1.uk.uncletopia.com","port":27065,"enabled":true,"region":"eu","cc":"gb","latitude":51.509865,"longitude":-0.118092,"reserved":0,"last_update":"0001-01-01T00:00:00Z","name_a2s":"Uncletopia | London | 6 | All Maps","protocol":17,"map":"cp_altitude","folder":"tf","game":"Team Fortress","app_id":440,"player_count":0,"max_players":24,"Bots":0,"server_type":"Dedicated","server_os":"Linux","password":true,"vac":true,"version":"7882260","steam_id":85568392924742830,"keywords":["cp","nocrits","nodmgspread","uncletopia"],"game_id":440,"stv_port":27066,"stv_name":"Uncletopia | London | 6 | All Maps | STV","players":null},{"server_id":40,"name":"Uncletopia | London | 7 | No Payload","name_short":"lon-7","host":"lon-1.uk.uncletopia.com","port":27075,"enabled":true,"region":"eu","cc":"gb","latitude":51.509865,"longitude":-0.118092,"reserved":0,"last_update":"0001-01-01T00:00:00Z","name_a2s":"Uncletopia | London | 7 | No Payload","protocol":17,"map":"pl_pier","folder":"tf","game":"Team Fortress","app_id":440,"player_count":0,"max_players":24,"Bots":0,"server_type":"Dedicated","server_os":"Linux","password":true,"vac":true,"version":"7882260","steam_id":85568392924964314,"keywords":["nocrits","nodmgspread","payload","uncletopia"],"game_id":440,"stv_port":27076,"stv_name":"Uncletopia | London | 7 | No Payload | STV","players":null},{"server_id":41,"name":"Uncletopia | London | 8 | Community","name_short":"lon-8","host":"lon-1.uk.uncletopia.com","port":27085,"enabled":true,"region":"eu","cc":"gb","latitude":51.509865,"longitude":-0.118092,"reserved":0,"last_update":"0001-01-01T00:00:00Z","name_a2s":"Uncletopia | London | 8 | Community","protocol":17,"map":"pl_swiftwater_final1","folder":"tf","game":"Team Fortress","app_id":440,"player_count":0,"max_players":24,"Bots":0,"server_type":"Dedicated","server_os":"Linux","password":true,"vac":true,"version":"7882260","steam_id":85568392924964315,"keywords":["nocrits","nodmgspread","payload","uncletopia"],"game_id":440,"stv_port":27086,"stv_name":"Uncletopia | London | 8 | Community | STV","players":null},{"server_id":300,"name":"Uncletopia | Montréal | 1 | All Maps","name_short":"mtl-1","host":"mtl-1.ca.uncletopia.com","port":27015,"enabled":true,"region":"us-east","cc":"ca","latitude":45.50889,"longitude":-73.56167,"reserved":0,"last_update":"0001-01-01T00:00:00Z","name_a2s":"Uncletopia | Montréal | 1 | All Maps","protocol":17,"map":"cp_altitude","folder":"tf","game":"Team Fortress","app_id":440,"player_count":0,"max_players":24,"Bots":0,"server_type":"Dedicated","server_os":"Linux","password":true,"vac":true,"version":"7882260","steam_id":85568392924500087,"keywords":["cp","nocrits","nodmgspread","uncletopia"],"game_id":440,"stv_port":27016,"stv_name":"Uncletopia | Montréal | 1 | All Maps | STV","players":null},{"server_id":301,"name":"Uncletopia | Montréal | 2 | All Maps","name_short":"mtl-2","host":"mtl-1.ca.uncletopia.com","port":27025,"enabled":true,"region":"us-east","cc":"ca","latitude":45.50889,"longitude":-73.56167,"reserved":0,"last_update":"0001-01-01T00:00:00Z","name_a2s":"Uncletopia | Montréal | 2 | All Maps","protocol":17,"map":"koth_cascade","folder":"tf","game":"Team Fortress","app_id":440,"player_count":0,"max_players":24,"Bots":0,"server_type":"Dedicated","server_os":"Linux","password":true,"vac":true,"version":"7882260","steam_id":85568392924500088,"keywords":["cp","nocrits","nodmgspread","uncletopia"],"game_id":440,"stv_port":27026,"stv_name":"Uncletopia | Montréal | 2 | All Maps | STV","players":null},{"server_id":302,"name":"Uncletopia | Montréal | 3 | All Maps","name_short":"mtl-3","host":"mtl-1.ca.uncletopia.com","port":27035,"enabled":true,"region":"us-east","cc":"ca","latitude":45.50889,"longitude":-73.56167,"reserved":0,"last_update":"0001-01-01T00:00:00Z","name_a2s":"Uncletopia | Montréal | 3 | All Maps","protocol":17,"map":"koth_highpass","folder":"tf","game":"Team Fortress","app_id":440,"player_count":0,"max_players":24,"Bots":0,"server_type":"Dedicated","server_os":"Linux","password":true,"vac":true,"version":"7882260","steam_id":85568392924500089,"keywords":["cp","nocrits","nodmgspread","uncletopia"],"game_id":440,"stv_port":27036,"stv_name":"Uncletopia | Montréal | 3 | All Maps | STV","players":null},{"server_id":303,"name":"Uncletopia | Montréal | 4 | No Payload","name_short":"mtl-4","host":"mtl-1.ca.uncletopia.com","port":27045,"enabled":true,"region":"us-east","cc":"ca","latitude":45.50889,"longitude":-73.56167,"reserved":0,"last_update":"0001-01-01T00:00:00Z","name_a2s":"Uncletopia | Montréal | 4 | No Payload","protocol":17,"map":"koth_highpass","folder":"tf","game":"Team Fortress","app_id":440,"player_count":0,"max_players":24,"Bots":0,"server_type":"Dedicated","server_os":"Linux","password":true,"vac":true,"version":"7882260","steam_id":85568392924500090,"keywords":["cp","nocrits","nodmgspread","uncletopia"],"game_id":440,"stv_port":27046,"stv_name":"Uncletopia | Montréal | 4 | No Payload | STV","players":null},{"server_id":13,"name":"Uncletopia | New York City | 1 | All Maps","name_short":"nyc-1","host":"nyc-1.us.uncletopia.com","port":27015,"enabled":true,"region":"us-east","cc":"us","latitude":40.73061,"longitude":-73.93524,"reserved":0,"last_update":"0001-01-01T00:00:00Z","name_a2s":"Uncletopia | New York City | 1 | All Maps","protocol":17,"map":"cp_process_final","folder":"tf","game":"Team Fortress","app_id":440,"player_count":0,"max_players":24,"Bots":0,"server_type":"Dedicated","server_os":"Linux","password":true,"vac":true,"version":"7882260","steam_id":85568392924469993,"keywords":["cp","nocrits","nodmgspread","uncletopia"],"game_id":440,"stv_port":27016,"stv_name":"Uncletopia | New York City | 1 | All Maps | STV","players":null},{"server_id":14,"name":"Uncletopia | New York City | 2 | All Maps","name_short":"nyc-2","host":"nyc-1.us.uncletopia.com","port":27025,"enabled":true,"region":"us-east","cc":"us","latitude":40.73061,"longitude":-73.93524,"reserved":0,"last_update":"0001-01-01T00:00:00Z","name_a2s":"Uncletopia | New York City | 2 | All Maps","protocol":17,"map":"cp_snakewater_final1","folder":"tf","game":"Team Fortress","app_id":440,"player_count":0,"max_players":24,"Bots":0,"server_type":"Dedicated","server_os":"Linux","password":true,"vac":true,"version":"7882260","steam_id":85568392924469994,"keywords":["cp","nocrits","nodmgspread","uncletopia"],"game_id":440,"stv_port":27026,"stv_name":"Uncletopia | New York City | 2 | All Maps | STV","players":null},{"server_id":15,"name":"Uncletopia | New York City | 3 | Stopwatch Beta","name_short":"nyc-3","host":"nyc-1.us.uncletopia.com","port":27035,"enabled":true,"region":"us-east","cc":"us","latitude":40.73061,"longitude":-73.93524,"reserved":0,"last_update":"0001-01-01T00:00:00Z","name_a2s":"Uncletopia | New York City | 3 | Stopwatch Beta","protocol":17,"map":"koth_highpass","folder":"tf","game":"Team Fortress","app_id":440,"player_count":0,"max_players":24,"Bots":0,"server_type":"Dedicated","server_os":"Linux","password":true,"vac":true,"version":"7882260","steam_id":85568392924742820,"keywords":["cp","nocrits","nodmgspread","uncletopia"],"game_id":440,"stv_port":27036,"stv_name":"Uncletopia | New York City | 3 | Stopwatch Beta | STV","players":null},{"server_id":16,"name":"Uncletopia | New York City | 4 | Community","name_short":"nyc-4","host":"nyc-1.us.uncletopia.com","port":27045,"enabled":true,"region":"us-east","cc":"us","latitude":40.73061,"longitude":-73.93524,"reserved":0,"last_update":"0001-01-01T00:00:00Z","name_a2s":"Uncletopia | New York City | 4 | Community","protocol":17,"map":"workshop/cp_sulfur_rc2.ugc619869471","folder":"tf","game":"Team Fortress","app_id":440,"player_count":0,"max_players":24,"Bots":0,"server_type":"Dedicated","server_os":"Linux","password":true,"vac":true,"version":"7882260","steam_id":85568392924742821,"keywords":["cp","nocrits","nodmgspread","uncletopia"],"game_id":440,"stv_port":27046,"stv_name":"Uncletopia | New York City | 4 | Community | STV","players":null},{"server_id":142,"name":"Uncletopia | São Paulo | 1 | All Maps","name_short":"sao-1","host":"sao-1.br.uncletopia.com","port":27015,"enabled":true,"region":"sa","cc":"br","latitude":-23.533773,"longitude":-46.62529,"reserved":0,"last_update":"0001-01-01T00:00:00Z","name_a2s":"Uncletopia | São Paulo | 1 | All Maps","protocol":17,"map":"cp_process_final","folder":"tf","game":"Team Fortress","app_id":440,"player_count":0,"max_players":24,"Bots":0,"server_type":"Dedicated","server_os":"Linux","password":true,"vac":true,"version":"7882260","steam_id":85568392924469996,"keywords":["cp","nocrits","nodmgspread","uncletopia"],"game_id":440,"stv_port":27016,"stv_name":"Uncletopia | São Paulo | 1 | All Maps | STV","players":null},{"server_id":143,"name":"Uncletopia | São Paulo | 2 | All Maps","name_short":"sao-2","host":"sao-2.br.uncletopia.com","port":27015,"enabled":true,"region":"sa","cc":"br","latitude":-23.533773,"longitude":-46.62529,"reserved":0,"last_update":"0001-01-01T00:00:00Z","name_a2s":"Uncletopia | São Paulo | 2 | All Maps","protocol":17,"map":"pl_pier","folder":"tf","game":"Team Fortress","app_id":440,"player_count":0,"max_players":24,"Bots":0,"server_type":"Dedicated","server_os":"Linux","password":true,"vac":true,"version":"7882260","steam_id":85568392924485349,"keywords":["nocrits","nodmgspread","payload","uncletopia"],"game_id":440,"stv_port":27016,"stv_name":"Uncletopia | São Paulo | 2 | All Maps | STV","players":null},{"server_id":7,"name":"Uncletopia | Seattle | 1 | All Maps","name_short":"sea-1","host":"sea-1.us.uncletopia.com","port":27015,"enabled":true,"region":"us-west","cc":"us","latitude":47.608013,"longitude":-122.33517,"reserved":0,"last_update":"0001-01-01T00:00:00Z","name_a2s":"Uncletopia | Seattle | 1 | All Maps","protocol":17,"map":"pl_badwater","folder":"tf","game":"Team Fortress","app_id":440,"player_count":24,"max_players":24,"Bots":0,"server_type":"Dedicated","server_os":"Linux","password":true,"vac":true,"version":"7882260","steam_id":85568392924469997,"keywords":["nocrits","nodmgspread","payload","uncletopia"],"game_id":440,"stv_port":27016,"stv_name":"Uncletopia | Seattle | 1 | All Maps | STV","players":[{"user_id":888,"name":"Doctor™","steam_id":76561198134309750,"connected_time":27000000000,"state":"spawning","ping":91},{"user_id":850,"name":"Florist","steam_id":76561198009121060,"connected_time":5499000000000,"state":"active","ping":45},{"user_id":865,"name":"oil","steam_id":76561198099980149,"connected_time":3110000000000,"state":"active","ping":73},{"user_id":877,"name":"LovingKindn32z","steam_id":76561199064932372,"connected_time":1280000000000,"state":"active","ping":72},{"user_id":842,"name":"gorlab","steam_id":76561198025089694,"connected_time":5831000000000,"state":"active","ping":68},{"user_id":839,"name":"rorywashere /ᐠ - ˕ -マ Ⳋ","steam_id":76561198065825165,"connected_time":5879000000000,"state":"active","ping":95},{"user_id":824,"name":"ed","steam_id":76561198080475712,"connected_time":7555000000000,"state":"active","ping":69},{"user_id":823,"name":"delight","steam_id":76561197980280272,"connected_time":7945000000000,"state":"active","ping":45},{"user_id":814,"name":"my money washed like george","steam_id":76561198115458307,"connected_time":8316000000000,"state":"active","ping":75},{"user_id":886,"name":"Underscore Paul","steam_id":76561198070300902,"connected_time":463000000000,"state":"active","ping":72},{"user_id":871,"name":"baguette","steam_id":76561198041770884,"connected_time":2582000000000,"state":"active","ping":75},{"user_id":807,"name":"I'M DRUNK","steam_id":76561198107941274,"connected_time":9162000000000,"state":"active","ping":81},{"user_id":829,"name":"schmegalodon","steam_id":76561198986534519,"connected_time":7164000000000,"state":"active","ping":59},{"user_id":860,"name":"Cheezbeargur","steam_id":76561198164702899,"connected_time":4236000000000,"state":"active","ping":72},{"user_id":867,"name":"Tim Duncan","steam_id":76561198010557666,"connected_time":3093000000000,"state":"active","ping":72},{"user_id":887,"name":"resh","steam_id":76561198239598834,"connected_time":461000000000,"state":"active","ping":129},{"user_id":849,"name":"never knows best","steam_id":76561197989933601,"connected_time":5516000000000,"state":"active","ping":54},{"user_id":863,"name":"John Calibur","steam_id":76561197999986606,"connected_time":3627000000000,"state":"active","ping":71},{"user_id":864,"name":"jorts","steam_id":76561199041179985,"connected_time":3498000000000,"state":"active","ping":59},{"user_id":847,"name":"brobtlcehc","steam_id":76561198043558709,"connected_time":5583000000000,"state":"active","ping":59},{"user_id":883,"name":"fartstreaks active","steam_id":76561198046073848,"connected_time":956000000000,"state":"active","ping":49},{"user_id":866,"name":"please wait warmly","steam_id":76561198049258493,"connected_time":3105000000000,"state":"active","ping":54},{"user_id":852,"name":"smeasly","steam_id":76561198028718812,"connected_time":5422000000000,"state":"active","ping":40},{"user_id":857,"name":"PerKnuckleChuckle","steam_id":76561198023221596,"connected_time":4263000000000,"state":"active","ping":87}]},{"server_id":119,"name":"Uncletopia | Seattle | 2 | All Maps","name_short":"sea-2","host":"sea-1.us.uncletopia.com","port":27025,"enabled":true,"region":"us-west","cc":"us","latitude":47.608013,"longitude":-122.33517,"reserved":0,"last_update":"0001-01-01T00:00:00Z","name_a2s":"Uncletopia | Seattle | 2 | All Maps","protocol":17,"map":"pl_pier","folder":"tf","game":"Team Fortress","app_id":440,"player_count":0,"max_players":24,"Bots":0,"server_type":"Dedicated","server_os":"Linux","password":true,"vac":true,"version":"7882260","steam_id":85568392924469998,"keywords":["nocrits","nodmgspread","payload","uncletopia"],"game_id":440,"stv_port":27026,"stv_name":"Uncletopia | Seattle | 2 | All Maps | STV","players":null},{"server_id":406,"name":"Uncletopia | Seattle | 3 | Stopwatch Beta","name_short":"sea-3","host":"sea-1.us.uncletopia.com","port":27035,"enabled":true,"region":"us-west","cc":"us","latitude":47.608013,"longitude":-122.33517,"reserved":0,"last_update":"0001-01-01T00:00:00Z","name_a2s":"Uncletopia | Seattle | 3 | Stopwatch Beta","protocol":17,"map":"workshop/koth_bagel_rc6.ugc2514036946","folder":"tf","game":"Team Fortress","app_id":440,"player_count":0,"max_players":24,"Bots":0,"server_type":"Dedicated","server_os":"Linux","password":true,"vac":true,"version":"7882260","steam_id":85568392924515217,"keywords":["cp","nocrits","nodmgspread","uncletopia"],"game_id":440,"stv_port":27036,"stv_name":"Uncletopia | Seattle | 3 | Stopwatch Beta | STV","players":null},{"server_id":17,"name":"Uncletopia | San Francisco | 1 | All Maps","name_short":"sfo-1","host":"sfo-1.us.uncletopia.com","port":27015,"enabled":true,"region":"us-west","cc":"us","latitude":37.77397,"longitude":-122.4313,"reserved":0,"last_update":"0001-01-01T00:00:00Z","name_a2s":"Uncletopia | San Francisco | 1 | All Maps","protocol":17,"map":"cp_process_final","folder":"tf","game":"Team Fortress","app_id":440,"player_count":0,"max_players":24,"Bots":0,"server_type":"Dedicated","server_os":"Linux","password":true,"vac":true,"version":"7757534","steam_id":85568392924469999,"keywords":["cp","nocrits","nodmgspread","uncletopia"],"game_id":440,"stv_port":27016,"stv_name":"Uncletopia | San Francisco | 1 | All Maps | STV","players":null},{"server_id":18,"name":"Uncletopia | San Francisco | 2 | All Maps","name_short":"sfo-2","host":"sfo-1.us.uncletopia.com","port":27025,"enabled":true,"region":"us-west","cc":"us","latitude":37.77397,"longitude":-122.4313,"reserved":0,"last_update":"0001-01-01T00:00:00Z","name_a2s":"Uncletopia | San Francisco | 2 | All Maps","protocol":17,"map":"koth_highpass","folder":"tf","game":"Team Fortress","app_id":440,"player_count":0,"max_players":24,"Bots":0,"server_type":"Dedicated","server_os":"Linux","password":true,"vac":true,"version":"7757534","steam_id":85568392924470000,"keywords":["cp","nocrits","nodmgspread","uncletopia"],"game_id":440,"stv_port":27026,"stv_name":"Uncletopia | San Francisco | 2 | All Maps | STV","players":null},{"server_id":19,"name":"Uncletopia | San Francisco | 3 | Stopwatch Beta","name_short":"sfo-3","host":"sfo-1.us.uncletopia.com","port":27035,"enabled":true,"region":"us-west","cc":"us","latitude":37.77397,"longitude":-122.4313,"reserved":0,"last_update":"0001-01-01T00:00:00Z","name_a2s":"Uncletopia | San Francisco | 3 | Stopwatch Beta","protocol":17,"map":"koth_lakeside_final","folder":"tf","game":"Team Fortress","app_id":440,"player_count":0,"max_players":24,"Bots":0,"server_type":"Dedicated","server_os":"Linux","password":true,"vac":true,"version":"7757534","steam_id":85568392924742824,"keywords":["cp","nocrits","nodmgspread","uncletopia"],"game_id":440,"stv_port":27036,"stv_name":"Uncletopia | San Francisco | 3 | Stopwatch Beta | STV","players":null},{"server_id":20,"name":"Uncletopia | San Francisco | 4 | Community","name_short":"sfo-4","host":"sfo-1.us.uncletopia.com","port":27045,"enabled":true,"region":"us-west","cc":"us","latitude":37.77397,"longitude":-122.4313,"reserved":0,"last_update":"0001-01-01T00:00:00Z","name_a2s":"Uncletopia | San Francisco | 4 | Community","protocol":17,"map":"cp_altitude","folder":"tf","game":"Team Fortress","app_id":440,"player_count":0,"max_players":24,"Bots":0,"server_type":"Dedicated","server_os":"Linux","password":true,"vac":true,"version":"7757534","steam_id":85568392924742826,"keywords":["cp","nocrits","nodmgspread","uncletopia"],"game_id":440,"stv_port":27046,"stv_name":"Uncletopia | San Francisco | 4 | Community | STV","players":null},{"server_id":141,"name":"Uncletopia | Sydney | 1 | All Maps","name_short":"syd-1","host":"syd-1.au.uncletopia.com","port":27015,"enabled":true,"region":"au","cc":"au","latitude":-33.865143,"longitude":151.2099,"reserved":0,"last_update":"0001-01-01T00:00:00Z","name_a2s":"Uncletopia | Sydney | 1 | All Maps","protocol":17,"map":"pl_badwater","folder":"tf","game":"Team Fortress","app_id":440,"player_count":21,"max_players":24,"Bots":0,"server_type":"Dedicated","server_os":"Linux","password":true,"vac":true,"version":"7882260","steam_id":85568392924470001,"keywords":["nocrits","nodmgspread","payload","uncletopia"],"game_id":440,"stv_port":27016,"stv_name":"Uncletopia | Sydney | 1 | All Maps | STV","players":[{"user_id":441,"name":"ibus","steam_id":76561199026701614,"connected_time":206000000000,"state":"active","ping":64},{"user_id":439,"name":"Pathetic Coward","steam_id":76561197968304462,"connected_time":579000000000,"state":"active","ping":55},{"user_id":420,"name":"PootisMaster","steam_id":76561198879078558,"connected_time":2377000000000,"state":"active","ping":93},{"user_id":435,"name":"♠³","steam_id":76561199140616120,"connected_time":737000000000,"state":"active","ping":96},{"user_id":398,"name":"cas ganister","steam_id":76561198879023728,"connected_time":3906000000000,"state":"active","ping":50},{"user_id":442,"name":"Flak","steam_id":76561198205833232,"connected_time":103000000000,"state":"active","ping":42},{"user_id":438,"name":"calculusfish","steam_id":76561198067205959,"connected_time":681000000000,"state":"active","ping":70},{"user_id":437,"name":"Bob Ross","steam_id":76561198081686896,"connected_time":726000000000,"state":"active","ping":68},{"user_id":379,"name":"Psalm 118:10-17","steam_id":76561198305904806,"connected_time":5102000000000,"state":"active","ping":56},{"user_id":425,"name":"Comedy Mode","steam_id":76561198293250088,"connected_time":2019000000000,"state":"active","ping":102},{"user_id":408,"name":"JP","steam_id":76561198026221737,"connected_time":3459000000000,"state":"active","ping":46},{"user_id":445,"name":"Bigrichard","steam_id":76561198032092945,"connected_time":60000000000,"state":"active","ping":83},{"user_id":444,"name":"Masonight","steam_id":76561198153437521,"connected_time":88000000000,"state":"active","ping":73},{"user_id":428,"name":"hmmmmm","steam_id":76561198797890384,"connected_time":1806000000000,"state":"active","ping":68},{"user_id":409,"name":"Tetch","steam_id":76561198259803540,"connected_time":3446000000000,"state":"active","ping":64},{"user_id":446,"name":"Shotty 2 Hotty","steam_id":76561199174449723,"connected_time":14000000000,"state":"spawning","ping":169},{"user_id":417,"name":"Mr. Stank","steam_id":76561199145084308,"connected_time":2760000000000,"state":"active","ping":59},{"user_id":424,"name":"smite","steam_id":76561198845304189,"connected_time":2185000000000,"state":"active","ping":76},{"user_id":400,"name":"Jodelkönig Franzl Lang","steam_id":76561198007667830,"connected_time":3761000000000,"state":"active","ping":54},{"user_id":443,"name":"wombraidre","steam_id":76561199375834537,"connected_time":102000000000,"state":"active","ping":125},{"user_id":396,"name":"CHOIB","steam_id":76561198387938667,"connected_time":4149000000000,"state":"active","ping":45}]},{"server_id":123,"name":"Uncletopia | Sydney | 2 | All Maps","name_short":"syd-2","host":"syd-1.au.uncletopia.com","port":27025,"enabled":true,"region":"au","cc":"au","latitude":-33.865143,"longitude":151.2099,"reserved":0,"last_update":"0001-01-01T00:00:00Z","name_a2s":"Uncletopia | Sydney | 2 | All Maps","protocol":17,"map":"pl_borneo","folder":"tf","game":"Team Fortress","app_id":440,"player_count":24,"max_players":24,"Bots":0,"server_type":"Dedicated","server_os":"Linux","password":true,"vac":true,"version":"7882260","steam_id":85568392924470002,"keywords":["nocrits","nodmgspread","payload","uncletopia"],"game_id":440,"stv_port":27026,"stv_name":"Uncletopia | Sydney | 2 | All Maps | STV","players":[{"user_id":208,"name":"perturb (feed/seed)","steam_id":76561198085124297,"connected_time":3843000000000,"state":"active","ping":50},{"user_id":251,"name":"dinxie","steam_id":76561199448765541,"connected_time":921000000000,"state":"active","ping":86},{"user_id":252,"name":"Pompadouraus","steam_id":76561198327530525,"connected_time":896000000000,"state":"active","ping":75},{"user_id":257,"name":"Vanessa","steam_id":76561198077728992,"connected_time":252000000000,"state":"active","ping":65},{"user_id":247,"name":"trayegkuka","steam_id":76561199305297721,"connected_time":1341000000000,"state":"active","ping":97},{"user_id":243,"name":"ADUCK","steam_id":76561198249887912,"connected_time":1505000000000,"state":"active","ping":68},{"user_id":248,"name":"Toody","steam_id":76561198212656752,"connected_time":1059000000000,"state":"active","ping":61},{"user_id":204,"name":"Plowie789","steam_id":76561198144492322,"connected_time":4556000000000,"state":"active","ping":77},{"user_id":250,"name":"AmethystDragon10","steam_id":76561198412979983,"connected_time":973000000000,"state":"active","ping":82},{"user_id":249,"name":"Frog Friend","steam_id":76561198054505772,"connected_time":1032000000000,"state":"active","ping":60},{"user_id":177,"name":"Sentry Gun (EpicGuy4227)","steam_id":76561198094132328,"connected_time":6851000000000,"state":"active","ping":51},{"user_id":176,"name":"Jiffy360","steam_id":76561198149550772,"connected_time":6882000000000,"state":"active","ping":85},{"user_id":154,"name":"Muffin","steam_id":76561198075391119,"connected_time":8291000000000,"state":"active","ping":52},{"user_id":217,"name":"mushroom","steam_id":76561197992336470,"connected_time":3145000000000,"state":"active","ping":94},{"user_id":254,"name":"bird up","steam_id":76561198347964028,"connected_time":688000000000,"state":"active","ping":41},{"user_id":240,"name":"2fort investigator","steam_id":76561198996460555,"connected_time":1686000000000,"state":"active","ping":103},{"user_id":221,"name":"A KNIFE!","steam_id":76561198160390701,"connected_time":2868000000000,"state":"active","ping":60},{"user_id":256,"name":"[FTW] RonnieD'","steam_id":76561197993957267,"connected_time":480000000000,"state":"active","ping":56},{"user_id":238,"name":"ETHICAL CONSUMPTION","steam_id":76561198035066643,"connected_time":1710000000000,"state":"active","ping":96},{"user_id":244,"name":"little raw meat boy","steam_id":76561199248254676,"connected_time":1452000000000,"state":"active","ping":58},{"user_id":245,"name":"Fyre Rose","steam_id":76561198000527551,"connected_time":1430000000000,"state":"active","ping":82},{"user_id":246,"name":"table","steam_id":76561199218095319,"connected_time":1414000000000,"state":"active","ping":51},{"user_id":231,"name":"Granola (the bar)","steam_id":76561198059129270,"connected_time":2576000000000,"state":"active","ping":67},{"user_id":226,"name":"green dot","steam_id":76561198254802111,"connected_time":2654000000000,"state":"active","ping":59}]},{"server_id":395,"name":"Uncletopia | Sydney | 3 | All Maps","name_short":"syd-3","host":"syd-1.au.uncletopia.com","port":27035,"enabled":true,"region":"au","cc":"au","latitude":-33.865143,"longitude":151.2099,"reserved":0,"last_update":"0001-01-01T00:00:00Z","name_a2s":"Uncletopia | Sydney | 3 | All Maps","protocol":17,"map":"koth_viaduct","folder":"tf","game":"Team Fortress","app_id":440,"player_count":0,"max_players":24,"Bots":0,"server_type":"Dedicated","server_os":"Linux","password":true,"vac":true,"version":"7882260","steam_id":85568392925194467,"keywords":["cp","nocrits","nodmgspread","uncletopia"],"game_id":440,"stv_port":27036,"stv_name":"Uncletopia | Sydney | 3 | All Maps | STV","players":null},{"server_id":396,"name":"Uncletopia | Sydney | 4 | All Maps","name_short":"syd-4","host":"syd-1.au.uncletopia.com","port":27045,"enabled":true,"region":"au","cc":"au","latitude":-33.865143,"longitude":151.2099,"reserved":0,"last_update":"0001-01-01T00:00:00Z","name_a2s":"Uncletopia | Sydney | 4 | All Maps","protocol":17,"map":"koth_lakeside_final","folder":"tf","game":"Team Fortress","app_id":440,"player_count":0,"max_players":24,"Bots":0,"server_type":"Dedicated","server_os":"Linux","password":true,"vac":true,"version":"7882260","steam_id":85568392925397958,"keywords":["cp","nocrits","nodmgspread","uncletopia"],"game_id":440,"stv_port":27046,"stv_name":"Uncletopia | Sydney | 4 | All Maps | STV","players":null},{"server_id":58,"name":"Uncletopia | Sydney | 5 | Stopwatch Beta","name_short":"syd-5","host":"syd-1.au.uncletopia.com","port":27055,"enabled":true,"region":"au","cc":"au","latitude":-33.865143,"longitude":151.2099,"reserved":0,"last_update":"0001-01-01T00:00:00Z","name_a2s":"Uncletopia | Sydney | 5 | Stopwatch Beta","protocol":17,"map":"workshop/pl_vigil_rc9.ugc1266210012","folder":"tf","game":"Team Fortress","app_id":440,"player_count":0,"max_players":24,"Bots":0,"server_type":"Dedicated","server_os":"Linux","password":true,"vac":true,"version":"7882260","steam_id":85568392925397959,"keywords":["nocrits","nodmgspread","payload","uncletopia"],"game_id":440,"stv_port":27056,"stv_name":"Uncletopia | Sydney | 5 | Stopwatch Beta | STV","players":null},{"server_id":59,"name":"Uncletopia | Sydney | 6 | Community","name_short":"syd-6","host":"syd-1.au.uncletopia.com","port":27065,"enabled":true,"region":"au","cc":"au","latitude":-33.865143,"longitude":151.2099,"reserved":0,"last_update":"0001-01-01T00:00:00Z","name_a2s":"Uncletopia | Sydney | 6 | Community","protocol":17,"map":"workshop/pl_divulgence_b4b.ugc2884808746","folder":"tf","game":"Team Fortress","app_id":440,"player_count":0,"max_players":24,"Bots":0,"server_type":"Dedicated","server_os":"Linux","password":true,"vac":true,"version":"7882260","steam_id":85568392925397960,"keywords":["nocrits","nodmgspread","payload","uncletopia"],"game_id":440,"stv_port":27066,"stv_name":"Uncletopia | Sydney | 6 | Community | STV","players":null},{"server_id":49,"name":"Uncletopia | Warsaw | 1 | All Maps","name_short":"waw-1","host":"waw-1.pl.uncletopia.com","port":27015,"enabled":true,"region":"eu","cc":"pl","latitude":52.2297,"longitude":21.017532,"reserved":0,"last_update":"0001-01-01T00:00:00Z","name_a2s":"","protocol":0,"map":"","folder":"","game":"","app_id":0,"player_count":0,"max_players":0,"Bots":0,"server_type":"","server_os":"","password":false,"vac":false,"version":"","steam_id":0,"keywords":null,"game_id":0,"stv_port":0,"stv_name":"","players":null},{"server_id":50,"name":"Uncletopia | Warsaw | 2 | All Maps","name_short":"waw-2","host":"waw-1.pl.uncletopia.com","port":27025,"enabled":true,"region":"eu","cc":"pl","latitude":52.2297,"longitude":21.017532,"reserved":0,"last_update":"0001-01-01T00:00:00Z","name_a2s":"Uncletopia | Warsaw | 2 | All Maps","protocol":17,"map":"pl_swiftwater_final1","folder":"tf","game":"Team Fortress","app_id":440,"player_count":0,"max_players":24,"Bots":0,"server_type":"Dedicated","server_os":"Linux","password":true,"vac":true,"version":"7882260","steam_id":85568392925397851,"keywords":["nocrits","nodmgspread","payload","uncletopia"],"game_id":440,"stv_port":27026,"stv_name":"Uncletopia | Warsaw | 2 | All Maps | STV","players":null},{"server_id":51,"name":"Uncletopia | Warsaw | 3 | All Maps","name_short":"waw-3","host":"waw-1.pl.uncletopia.com","port":27035,"enabled":true,"region":"eu","cc":"pl","latitude":52.2297,"longitude":21.017532,"reserved":0,"last_update":"0001-01-01T00:00:00Z","name_a2s":"Uncletopia | Warsaw | 3 | All Maps","protocol":17,"map":"koth_viaduct","folder":"tf","game":"Team Fortress","app_id":440,"player_count":0,"max_players":24,"Bots":0,"server_type":"Dedicated","server_os":"Linux","password":true,"vac":true,"version":"7882260","steam_id":85568392925397852,"keywords":["cp","nocrits","nodmgspread","uncletopia"],"game_id":440,"stv_port":27036,"stv_name":"Uncletopia | Warsaw | 3 | All Maps | STV","players":null},{"server_id":52,"name":"Uncletopia | Warsaw | 4 | All Maps","name_short":"waw-4","host":"waw-1.pl.uncletopia.com","port":27045,"enabled":true,"region":"eu","cc":"pl","latitude":52.2297,"longitude":21.017532,"reserved":0,"last_update":"0001-01-01T00:00:00Z","name_a2s":"Uncletopia | Warsaw | 4 | All Maps","protocol":17,"map":"koth_highpass","folder":"tf","game":"Team Fortress","app_id":440,"player_count":0,"max_players":24,"Bots":0,"server_type":"Dedicated","server_os":"Linux","password":true,"vac":true,"version":"7882260","steam_id":85568392925397853,"keywords":["cp","nocrits","nodmgspread","uncletopia"],"game_id":440,"stv_port":27046,"stv_name":"Uncletopia | Warsaw | 4 | All Maps | STV","players":null},{"server_id":53,"name":"Uncletopia | Warsaw | 5 | Stopwatch Beta","name_short":"waw-5","host":"waw-1.pl.uncletopia.com","port":27055,"enabled":true,"region":"eu","cc":"pl","latitude":52.2297,"longitude":21.017532,"reserved":0,"last_update":"0001-01-01T00:00:00Z","name_a2s":"Uncletopia | Warsaw | 5 | Stopwatch Beta","protocol":17,"map":"cp_mountainlab","folder":"tf","game":"Team Fortress","app_id":440,"player_count":0,"max_players":24,"Bots":0,"server_type":"Dedicated","server_os":"Linux","password":true,"vac":true,"version":"7882260","steam_id":85568392925397854,"keywords":["cp","nocrits","nodmgspread","uncletopia"],"game_id":440,"stv_port":27056,"stv_name":"Uncletopia | Warsaw | 5 | Stopwatch Beta | STV","players":null},{"server_id":54,"name":"Uncletopia | Warsaw | 6 | Community","name_short":"waw-6","host":"waw-1.pl.uncletopia.com","port":27065,"enabled":true,"region":"eu","cc":"pl","latitude":52.2297,"longitude":21.017532,"reserved":0,"last_update":"0001-01-01T00:00:00Z","name_a2s":"Uncletopia | Warsaw | 6 | Community","protocol":17,"map":"koth_viaduct","folder":"tf","game":"Team Fortress","app_id":440,"player_count":0,"max_players":24,"Bots":0,"server_type":"Dedicated","server_os":"Linux","password":true,"vac":true,"version":"7882260","steam_id":85568392925397856,"keywords":["cp","nocrits","nodmgspread","uncletopia"],"game_id":440,"stv_port":27066,"stv_name":"Uncletopia | Warsaw | 6 | Community | STV","players":null}]}