{"status":true,"message":"","result":[{"server_id":9,"name":"Uncletopia | Atlanta | 1 | All Maps","name_short":"atl-1","host":"atl-1.us.uncletopia.com","port":27015,"enabled":true,"region":"us-east","cc":"us","latitude":33.753746,"longitude":-84.38633,"reserved":0,"last_update":"0001-01-01T00:00:00Z","name_a2s":"Uncletopia | Atlanta | 1 | All Maps","protocol":17,"map":"pl_badwater","folder":"tf","game":"Team Fortress","app_id":440,"player_count":24,"max_players":24,"Bots":0,"server_type":"Dedicated","server_os":"Linux","password":true,"vac":true,"version":"7695204","steam_id":85568392924469982,"keywords":["nocrits","nodmgspread","payload","uncletopia"],"game_id":440,"stv_port":27016,"stv_name":"Uncletopia | Atlanta | 1 | All Maps | STV","players":[{"user_id":484,"name":"Stapler","steam_id":76561198099295077,"connected_time":569000000000,"state":"active","ping":97},{"user_id":496,"name":"rumes","steam_id":76561198349219467,"connected_time":350000000000,"state":"active","ping":84},{"user_id":461,"name":"ATL1 | Lav4ie They/Them","steam_id":76561198825997674,"connected_time":2546000000000,"state":"active","ping":64},{"user_id":486,"name":"dysesthesia","steam_id":76561198027159018,"connected_time":522000000000,"state":"active","ping":66},{"user_id":487,"name":"sithreis","steam_id":76561198000564263,"connected_time":512000000000,"state":"active","ping":52},{"user_id":474,"name":"10footlongschlong","steam_id":76561198291160259,"connected_time":1857000000000,"state":"active","ping":53},{"user_id":488,"name":"stankonia","steam_id":76561198106690989,"connected_time":509000000000,"state":"active","ping":75},{"user_id":492,"name":"M.L.JEW","steam_id":76561198997375055,"connected_time":485000000000,"state":"active","ping":83},{"user_id":480,"name":"Mr.Silver","steam_id":76561198156382508,"connected_time":1404000000000,"state":"active","ping":72},{"user_id":424,"name":"kira","steam_id":76561198277979851,"connected_time":5767000000000,"state":"active","ping":68},{"user_id":489,"name":"м","steam_id":76561198799178176,"connected_time":501000000000,"state":"active","ping":60},{"user_id":490,"name":"EddyQTooReal","steam_id":76561198088480679,"connected_time":494000000000,"state":"active","ping":89},{"user_id":499,"name":"Donoschnoz","steam_id":76561198050033377,"connected_time":216000000000,"state":"active","ping":60},{"user_id":475,"name":"Joe","steam_id":76561198271907916,"connected_time":1787000000000,"state":"active","ping":59},{"user_id":439,"name":"Festive Fire Starting Rock","steam_id":76561198066547582,"connected_time":4465000000000,"state":"active","ping":125},{"user_id":481,"name":"potato pat!","steam_id":76561198025489194,"connected_time":1358000000000,"state":"active","ping":72},{"user_id":493,"name":"HammerHead","steam_id":76561197975668646,"connected_time":471000000000,"state":"active","ping":73},{"user_id":497,"name":"Vokani","steam_id":76561198186178423,"connected_time":319000000000,"state":"active","ping":48},{"user_id":498,"name":"TofuBear","steam_id":76561198096546152,"connected_time":218000000000,"state":"active","ping":69},{"user_id":472,"name":"Mr_Starman","steam_id":76561199083428007,"connected_time":1922000000000,"state":"active","ping":74},{"user_id":494,"name":"BotchedBeauty","steam_id":76561198092682129,"connected_time":445000000000,"state":"active","ping":52},{"user_id":477,"name":"Mickey","steam_id":76561197976868960,"connected_time":1731000000000,"state":"active","ping":165},{"user_id":500,"name":"www.yourteamsucks.org","steam_id":76561198062054335,"connected_time":146000000000,"state":"active","ping":104},{"user_id":473,"name":"com lag","steam_id":76561198019019392,"connected_time":1876000000000,"state":"active","ping":63}]},{"server_id":400,"name":"Uncletopia | Atlanta | 3 | All Maps","name_short":"atl-3","host":"atl-1.us.uncletopia.com","port":27035,"enabled":true,"region":"us-east","cc":"us","latitude":33.753746,"longitude":-84.38633,"reserved":0,"last_update":"0001-01-01T00:00:00Z","name_a2s":"Uncletopia | Atlanta | 3 | All Maps","protocol":17,"map":"pl_snowycoast","folder":"tf","game":"Team Fortress","app_id":440,"player_count":23,"max_players":24,"Bots":0,"server_type":"Dedicated","server_os":"Linux","password":true,"vac":true,"version":"7695204","steam_id":85568392924515187,"keywords":["nocrits","nodmgspread","payload","uncletopia"],"game_id":440,"stv_port":27036,"stv_name":"Uncletopia | Atlanta | 3 | All Maps | STV","players":[{"user_id":611,"name":"Ping","steam_id":76561199206514106,"connected_time":3335000000000,"state":"active","ping":81},{"user_id":640,"name":"Tannenbaum Trotsky","steam_id":76561199101638460,"connected_time":941000000000,"state":"active","ping":71},{"user_id":647,"name":"sasharudzik","steam_id":76561199126617781,"connected_time":682000000000,"state":"active","ping":79},{"user_id":624,"name":"Dad 2","steam_id":76561198138546187,"connected_time":2258000000000,"state":"active","ping":105},{"user_id":646,"name":"Drakkona","steam_id":76561198095449994,"connected_time":738000000000,"state":"active","ping":65},{"user_id":608,"name":"D3AC0N 44","steam_id":76561198115695203,"connected_time":3939000000000,"state":"active","ping":55},{"user_id":598,"name":"Zelumie","steam_id":76561198147335801,"connected_time":4128000000000,"state":"active","ping":64},{"user_id":576,"name":"Luucyf3r","steam_id":76561198141820085,"connected_time":6203000000000,"state":"active","ping":60},{"user_id":650,"name":"Snazzi","steam_id":76561198085208276,"connected_time":88000000000,"state":"active","ping":75},{"user_id":651,"name":"ElÁsfato (ESP)","steam_id":76561198162928979,"connected_time":77000000000,"state":"active","ping":162},{"user_id":635,"name":"Brother Garland","steam_id":76561198108026255,"connected_time":1525000000000,"state":"active","ping":52},{"user_id":641,"name":"The Sus Guy™","steam_id":76561198085571748,"connected_time":938000000000,"state":"active","ping":57},{"user_id":649,"name":"aero","steam_id":76561198297202459,"connected_time":282000000000,"state":"active","ping":77},{"user_id":636,"name":"Hylic","steam_id":76561199051314589,"connected_time":1525000000000,"state":"active","ping":88},{"user_id":622,"name":"moe","steam_id":76561198929586245,"connected_time":2412000000000,"state":"active","ping":93},{"user_id":567,"name":"tingle shitmouth","steam_id":76561198055109192,"connected_time":7572000000000,"state":"active","ping":92},{"user_id":642,"name":"lOs","steam_id":76561198994761483,"connected_time":907000000000,"state":"active","ping":132},{"user_id":639,"name":"the krut","steam_id":76561198084300505,"connected_time":1112000000000,"state":"active","ping":50},{"user_id":568,"name":"D-MROMA | Ham Mafia |","steam_id":76561198837664861,"connected_time":7493000000000,"state":"active","ping":89},{"user_id":644,"name":"t","steam_id":76561198175988929,"connected_time":849000000000,"state":"active","ping":122},{"user_id":628,"name":"XYZed","steam_id":76561198100804737,"connected_time":2164000000000,"state":"active","ping":111},{"user_id":638,"name":"hop","steam_id":76561198039914843,"connected_time":1481000000000,"state":"active","ping":58},{"user_id":612,"name":"Jolly evil little man","steam_id":76561198311053471,"connected_time":3029000000000,"state":"active","ping":68}]},{"server_id":401,"name":"Uncletopia | Atlanta | 4 | No Payload","name_short":"atl-4","host":"atl-1.us.uncletopia.com","port":27045,"enabled":true,"region":"us-east","cc":"us","latitude":33.753746,"longitude":-84.38633,"reserved":0,"last_update":"0001-01-01T00:00:00Z","name_a2s":"Uncletopia | Atlanta | 4 | No Payload","protocol":17,"map":"plr_pipeline","folder":"tf","game":"Team Fortress","app_id":440,"player_count":0,"max_players":24,"Bots":0,"server_type":"Dedicated","server_os":"Linux","password":true,"vac":true,"version":"7695204","steam_id":85568392924515188,"keywords":["nocrits","nodmgspread","payload","uncletopia"],"game_id":440,"stv_port":27046,"stv_name":"Uncletopia | Atlanta | 4 | No Payload | STV","players":null},{"server_id":2,"name":"Uncletopia | Chicago | 1 | All Maps","name_short":"chi-1","host":"chi-1.us.uncletopia.com","port":27015,"enabled":true,"region":"us-central","cc":"us","latitude":41.881832,"longitude":-87.62318,"reserved":0,"last_update":"0001-01-01T00:00:00Z","name_a2s":"Uncletopia | Chicago | 1 | All Maps","protocol":17,"map":"pl_frontier_final","folder":"tf","game":"Team Fortress","app_id":440,"player_count":24,"max_players":24,"Bots":0,"server_type":"Dedicated","server_os":"Linux","password":true,"vac":true,"version":"7695204","steam_id":85568392924469984,"keywords":["nocrits","nodmgspread","payload","uncletopia"],"game_id":440,"stv_port":27016,"stv_name":"Uncletopia | Chicago | 1 | All Maps | STV","players":[{"user_id":754,"name":"A tree","steam_id":76561198309065247,"connected_time":312000000000,"state":"active","ping":65},{"user_id":729,"name":"Alt","steam_id":76561197992591984,"connected_time":2878000000000,"state":"active","ping":56},{"user_id":706,"name":"Cucumber Gaming","steam_id":76561198982680715,"connected_time":5243000000000,"state":"active","ping":48},{"user_id":755,"name":"drako with a gun","steam_id":76561198133024493,"connected_time":296000000000,"state":"active","ping":68},{"user_id":738,"name":"wheat","steam_id":76561197971158435,"connected_time":2742000000000,"state":"active","ping":54},{"user_id":725,"name":"Crows!","steam_id":76561198150086324,"connected_time":3686000000000,"state":"active","ping":60},{"user_id":743,"name":"ÒwÓ","steam_id":76561197997304387,"connected_time":1482000000000,"state":"active","ping":75},{"user_id":710,"name":"Fucken Tony","steam_id":76561198332613369,"connected_time":4764000000000,"state":"active","ping":35},{"user_id":730,"name":"silver","steam_id":76561198081906712,"connected_time":2868000000000,"state":"active","ping":43},{"user_id":690,"name":"wutville enjoyer (chad)","steam_id":76561198418178297,"connected_time":6519000000000,"state":"active","ping":44},{"user_id":722,"name":"❤ Ashley ❤","steam_id":76561198056428303,"connected_time":4000000000000,"state":"active","ping":97},{"user_id":718,"name":"Shicane Slotrocket","steam_id":76561198119483989,"connected_time":4551000000000,"state":"active","ping":81},{"user_id":732,"name":"Razorback = No heal","steam_id":76561198207987376,"connected_time":2864000000000,"state":"active","ping":56},{"user_id":748,"name":"colorfulg70","steam_id":76561199010363371,"connected_time":1403000000000,"state":"active","ping":101},{"user_id":742,"name":"Snom","steam_id":76561198333827920,"connected_time":1816000000000,"state":"active","ping":89},{"user_id":747,"name":"demoknight tf2","steam_id":76561198070393998,"connected_time":1418000000000,"state":"active","ping":60},{"user_id":745,"name":"DistantJragon","steam_id":76561198117563641,"connected_time":1443000000000,"state":"active","ping":46},{"user_id":701,"name":"Sharmat","steam_id":76561198103492042,"connected_time":5844000000000,"state":"active","ping":74},{"user_id":753,"name":"wah","steam_id":76561198044443985,"connected_time":1014000000000,"state":"active","ping":82},{"user_id":677,"name":"Bobato Chaps","steam_id":76561198065103552,"connected_time":7859000000000,"state":"active","ping":62},{"user_id":746,"name":"Candy Sparkles","steam_id":76561198126871264,"connected_time":1435000000000,"state":"active","ping":82},{"user_id":692,"name":"Troglodyte","steam_id":76561198093926643,"connected_time":6203000000000,"state":"active","ping":63},{"user_id":708,"name":"The Caretaker","steam_id":76561198125241411,"connected_time":4850000000000,"state":"active","ping":111},{"user_id":752,"name":"Moshi Man","steam_id":76561198038249762,"connected_time":1200000000000,"state":"active","ping":52}]},{"server_id":106,"name":"Uncletopia | Chicago | 2 | All Maps","name_short":"chi-2","host":"chi-1.us.uncletopia.com","port":27025,"enabled":true,"region":"us-central","cc":"us","latitude":41.881832,"longitude":-87.62318,"reserved":0,"last_update":"0001-01-01T00:00:00Z","name_a2s":"Uncletopia | Chicago | 2 | All Maps","protocol":17,"map":"pl_barnblitz","folder":"tf","game":"Team Fortress","app_id":440,"player_count":24,"max_players":24,"Bots":0,"server_type":"Dedicated","server_os":"Linux","password":true,"vac":true,"version":"7695204","steam_id":85568392924469985,"keywords":["nocrits","nodmgspread","payload","uncletopia"],"game_id":440,"stv_port":27026,"stv_name":"Uncletopia | Chicago | 2 | All Maps | STV","players":[{"user_id":644,"name":"Samhain","steam_id":76561198005331286,"connected_time":65000000000,"state":"active","ping":98},{"user_id":612,"name":"WhoIsFrosty","steam_id":76561198880588117,"connected_time":2721000000000,"state":"active","ping":54},{"user_id":575,"name":"Master Of Whales","steam_id":76561198349104889,"connected_time":6305000000000,"state":"active","ping":95},{"user_id":638,"name":"Pinto","steam_id":76561199105386998,"connected_time":488000000000,"state":"active","ping":77},{"user_id":541,"name":"gorf?","steam_id":76561198142286417,"connected_time":7412000000000,"state":"active","ping":58},{"user_id":624,"name":"Aznrobot","steam_id":76561198031401263,"connected_time":1749000000000,"state":"active","ping":66},{"user_id":613,"name":"TheGhostThatWas","steam_id":76561198055836483,"connected_time":2713000000000,"state":"active","ping":66},{"user_id":634,"name":"Razz","steam_id":76561198119698950,"connected_time":582000000000,"state":"active","ping":119},{"user_id":645,"name":"OmniXVII","steam_id":76561198027183394,"connected_time":49000000000,"state":"active","ping":86},{"user_id":520,"name":"Pimpin' Aint Easy","steam_id":76561198228972504,"connected_time":8324000000000,"state":"active","ping":67},{"user_id":554,"name":"Wahooka (Manrobics Instructor)","steam_id":76561197962240925,"connected_time":7221000000000,"state":"active","ping":60},{"user_id":625,"name":"-.-*","steam_id":76561198109783729,"connected_time":1730000000000,"state":"active","ping":46},{"user_id":635,"name":"MjrMovnTARGET","steam_id":76561199125908849,"connected_time":564000000000,"state":"active","ping":69},{"user_id":636,"name":"Korra \u003c3","steam_id":76561198044991497,"connected_time":554000000000,"state":"active","ping":84},{"user_id":609,"name":"wunkem","steam_id":76561198055948497,"connected_time":2764000000000,"state":"active","ping":60},{"user_id":604,"name":"CharksTheGecko","steam_id":76561198058053850,"connected_time":3155000000000,"state":"active","ping":67},{"user_id":485,"name":"Potato","steam_id":76561198989551964,"connected_time":10593000000000,"state":"active","ping":48},{"user_id":585,"name":"Nate","steam_id":76561198068225765,"connected_time":4977000000000,"state":"active","ping":62},{"user_id":637,"name":"DonJamón","steam_id":76561198319090131,"connected_time":544000000000,"state":"active","ping":71},{"user_id":639,"name":"FiddyFoMike","steam_id":76561198057072581,"connected_time":478000000000,"state":"active","ping":94},{"user_id":621,"name":"Money Collector","steam_id":76561198046249467,"connected_time":2458000000000,"state":"active","ping":69},{"user_id":631,"name":"Caste | CAP411AGASGM","steam_id":76561198864363129,"connected_time":687000000000,"state":"active","ping":81},{"user_id":642,"name":"Alice in Rubberland","steam_id":76561198087328346,"connected_time":177000000000,"state":"active","ping":46},{"user_id":646,"name":"I_amgeneric","steam_id":76561198058605649,"connected_time":49000000000,"state":"spawning","ping":76}]},{"server_id":402,"name":"Uncletopia | Chicago | 3 | All Maps","name_short":"chi-3","host":"chi-1.us.uncletopia.com","port":27035,"enabled":true,"region":"us-central","cc":"us","latitude":41.881832,"longitude":-87.62318,"reserved":0,"last_update":"0001-01-01T00:00:00Z","name_a2s":"Uncletopia | Chicago | 3 | All Maps","protocol":17,"map":"pl_pier","folder":"tf","game":"Team Fortress","app_id":440,"player_count":24,"max_players":24,"Bots":0,"server_type":"Dedicated","server_os":"Linux","password":true,"vac":true,"version":"7695204","steam_id":85568392924515191,"keywords":["nocrits","nodmgspread","payload","uncletopia"],"game_id":440,"stv_port":27036,"stv_name":"Uncletopia | Chicago | 3 | All Maps | STV","players":[{"user_id":627,"name":"Jaded","steam_id":76561198272575611,"connected_time":924000000000,"state":"active","ping":78},{"user_id":642,"name":"Boop Master","steam_id":76561198091582046,"connected_time":398000000000,"state":"active","ping":109},{"user_id":631,"name":"Peter Griffin","steam_id":76561198119784475,"connected_time":902000000000,"state":"active","ping":123},{"user_id":612,"name":"Polygunner","steam_id":76561199165741650,"connected_time":2977000000000,"state":"active","ping":69},{"user_id":578,"name":"Spirosity","steam_id":76561198013485753,"connected_time":4789000000000,"state":"active","ping":73},{"user_id":623,"name":"The Super Mario Bros. Movie","steam_id":76561198871692156,"connected_time":2511000000000,"state":"active","ping":96},{"user_id":635,"name":"Scum Knight","steam_id":76561198282444763,"connected_time":615000000000,"state":"active","ping":57},{"user_id":636,"name":"t4rkus","steam_id":76561198233984300,"connected_time":511000000000,"state":"active","ping":57},{"user_id":637,"name":"schmopp","steam_id":76561198076490954,"connected_time":511000000000,"state":"active","ping":50},{"user_id":638,"name":"male order bride","steam_id":76561199014486986,"connected_time":463000000000,"state":"active","ping":62},{"user_id":614,"name":"RitzPitz","steam_id":76561198295102090,"connected_time":2863000000000,"state":"active","ping":47},{"user_id":568,"name":"ExoTheFestiveFish","steam_id":76561198034388243,"connected_time":5447000000000,"state":"active","ping":66},{"user_id":639,"name":"Temper","steam_id":76561198044123690,"connected_time":457000000000,"state":"active","ping":59},{"user_id":626,"name":"luminen","steam_id":76561198044479631,"connected_time":972000000000,"state":"active","ping":66},{"user_id":629,"name":"Minecraft Christmas Chest","steam_id":76561198272327629,"connected_time":916000000000,"state":"active","ping":104},{"user_id":622,"name":"Castar","steam_id":76561198090558038,"connected_time":2621000000000,"state":"active","ping":61},{"user_id":606,"name":"McGangBang","steam_id":76561198862379865,"connected_time":3430000000000,"state":"active","ping":56},{"user_id":596,"name":"Coach McFish","steam_id":76561198210456405,"connected_time":3793000000000,"state":"active","ping":68},{"user_id":640,"name":"cosmet","steam_id":76561198114899953,"connected_time":433000000000,"state":"active","ping":43},{"user_id":597,"name":"gilgy","steam_id":76561198855810297,"connected_time":3779000000000,"state":"active","ping":80},{"user_id":641,"name":"krakowski","steam_id":76561198119536224,"connected_time":415000000000,"state":"active","ping":77},{"user_id":634,"name":"themightys1","steam_id":76561198022340984,"connected_time":800000000000,"state":"active","ping":65},{"user_id":574,"name":"a crazy hobo","steam_id":76561198289650060,"connected_time":5289000000000,"state":"active","ping":99},{"user_id":619,"name":"Puke Skyfucker","steam_id":76561198012846213,"connected_time":2791000000000,"state":"active","ping":68}]},{"server_id":403,"name":"Uncletopia | Chicago | 4 | All Maps","name_short":"chi-4","host":"chi-1.us.uncletopia.com","port":27045,"enabled":true,"region":"us-central","cc":"us","latitude":41.881832,"longitude":-87.62318,"reserved":0,"last_update":"0001-01-01T00:00:00Z","name_a2s":"Uncletopia | Chicago | 4 | All Maps","protocol":17,"map":"pl_borneo","folder":"tf","game":"Team Fortress","app_id":440,"player_count":24,"max_players":24,"Bots":0,"server_type":"Dedicated","server_os":"Linux","password":true,"vac":true,"version":"7695204","steam_id":85568392924515193,"keywords":["nocrits","nodmgspread","payload","uncletopia"],"game_id":440,"stv_port":27046,"stv_name":"Uncletopia | Chicago | 4 | All Maps | STV","players":[{"user_id":484,"name":"their accomplice","steam_id":76561198364331423,"connected_time":2225000000000,"state":"active","ping":81},{"user_id":485,"name":"marlex20","steam_id":76561198043779844,"connected_time":2216000000000,"state":"active","ping":46},{"user_id":467,"name":"AmbiFMA","steam_id":76561198044009814,"connected_time":4059000000000,"state":"active","ping":85},{"user_id":444,"name":"motorized bar of soap","steam_id":76561198882404753,"connected_time":5649000000000,"state":"active","ping":76},{"user_id":492,"name":"steakfarmasian","steam_id":76561198212754036,"connected_time":1810000000000,"state":"active","ping":47},{"user_id":494,"name":"Cheese Graffiti","steam_id":76561198046575913,"connected_time":1645000000000,"state":"active","ping":55},{"user_id":511,"name":"Grease monkey","steam_id":76561199229169396,"connected_time":586000000000,"state":"active","ping":61},{"user_id":496,"name":"Lord GabeN","steam_id":76561198140862723,"connected_time":1381000000000,"state":"active","ping":53},{"user_id":495,"name":"CyborgHexapus4","steam_id":76561198160335724,"connected_time":1605000000000,"state":"active","ping":95},{"user_id":475,"name":"Chode Mode","steam_id":76561198353840477,"connected_time":3182000000000,"state":"active","ping":55},{"user_id":514,"name":"2004 Honda Accord (real)","steam_id":76561199377928777,"connected_time":133000000000,"state":"active","ping":114},{"user_id":515,"name":"JohhnyFromCali :7","steam_id":76561198044015725,"connected_time":128000000000,"state":"active","ping":76},{"user_id":510,"name":"ThatOneKnight","steam_id":76561198388583650,"connected_time":611000000000,"state":"active","ping":49},{"user_id":501,"name":"Novah","steam_id":76561198876978617,"connected_time":1242000000000,"state":"active","ping":136},{"user_id":504,"name":"zehane","steam_id":76561199441047988,"connected_time":823000000000,"state":"active","ping":89},{"user_id":505,"name":"Antifascist catgirl","steam_id":76561198149806947,"connected_time":793000000000,"state":"active","ping":75},{"user_id":506,"name":"ICBMonkey","steam_id":76561198033351821,"connected_time":775000000000,"state":"active","ping":73},{"user_id":486,"name":"hashmap","steam_id":76561198043794014,"connected_time":2189000000000,"state":"active","ping":56},{"user_id":459,"name":"_Lusty_","steam_id":76561198876948142,"connected_time":4762000000000,"state":"active","ping":67},{"user_id":507,"name":"generica","steam_id":76561198146304191,"connected_time":770000000000,"state":"active","ping":62},{"user_id":472,"name":"lil_blu_elephant","steam_id":76561198272955552,"connected_time":3374000000000,"state":"active","ping":105},{"user_id":508,"name":"TheAilingSword","steam_id":76561198250350844,"connected_time":765000000000,"state":"active","ping":61},{"user_id":512,"name":"blobb","steam_id":76561198950448488,"connected_time":429000000000,"state":"active","ping":55},{"user_id":466,"name":"SPIRE_FAN","steam_id":76561198001486573,"connected_time":4301000000000,"state":"active","ping":57}]},{"server_id":36,"name":"Uncletopia | Chicago | 5 | All Maps","name_short":"chi-5","host":"chi-2.us.uncletopia.com","port":27015,"enabled":true,"region":"us-central","cc":"us","latitude":41.881832,"longitude":-87.62318,"reserved":0,"last_update":"0001-01-01T00:00:00Z","name_a2s":"Uncletopia | Chicago | 5 | All Maps","protocol":17,"map":"pl_badwater","folder":"tf","game":"Team Fortress","app_id":440,"player_count":24,"max_players":24,"Bots":0,"server_type":"Dedicated","server_os":"Linux","password":true,"vac":true,"version":"7695204","steam_id":85568392924866362,"keywords":["nocrits","nodmgspread","payload","uncletopia"],"game_id":440,"stv_port":27016,"stv_name":"Uncletopia | Chicago | 5 | All Maps | STV","players":[{"user_id":71,"name":"spinning into a tizzy","steam_id":76561198353982514,"connected_time":2537000000000,"state":"active","ping":60},{"user_id":100,"name":"DeathToCats","steam_id":76561198092238353,"connected_time":186000000000,"state":"active","ping":67},{"user_id":98,"name":"p1ss","steam_id":76561198271748906,"connected_time":460000000000,"state":"active","ping":51},{"user_id":94,"name":"Discourse","steam_id":76561198984286678,"connected_time":1075000000000,"state":"active","ping":49},{"user_id":95,"name":"Octanoip","steam_id":76561199057752358,"connected_time":1044000000000,"state":"active","ping":84},{"user_id":93,"name":"Goldbug","steam_id":76561198025221202,"connected_time":1091000000000,"state":"active","ping":98},{"user_id":99,"name":"Aspxts","steam_id":76561199125254746,"connected_time":390000000000,"state":"active","ping":57},{"user_id":88,"name":"rubb3r","steam_id":76561198096874230,"connected_time":1699000000000,"state":"active","ping":67},{"user_id":101,"name":"wahvess","steam_id":76561198205200605,"connected_time":183000000000,"state":"active","ping":67},{"user_id":90,"name":"totally not a pile of beans","steam_id":76561198119851931,"connected_time":1456000000000,"state":"active","ping":80},{"user_id":102,"name":"gonk","steam_id":76561198061206732,"connected_time":174000000000,"state":"active","ping":76},{"user_id":78,"name":"Christoph Waltz eating a burger","steam_id":76561199215811448,"connected_time":1893000000000,"state":"active","ping":75},{"user_id":70,"name":"Dodge Ram Owner","steam_id":76561198039150580,"connected_time":2669000000000,"state":"active","ping":61},{"user_id":60,"name":"Azrael","steam_id":76561198307708221,"connected_time":3083000000000,"state":"active","ping":84},{"user_id":46,"name":"SuperPengas","steam_id":76561198271958398,"connected_time":3729000000000,"state":"active","ping":70},{"user_id":61,"name":"CluelessSenju","steam_id":76561198385663724,"connected_time":3038000000000,"state":"active","ping":88},{"user_id":103,"name":"Drilly22","steam_id":76561198068838338,"connected_time":162000000000,"state":"active","ping":86},{"user_id":96,"name":"Jitters","steam_id":76561198078898336,"connected_time":988000000000,"state":"active","ping":47},{"user_id":69,"name":"BALL FART BARON","steam_id":76561198410061750,"connected_time":2725000000000,"state":"active","ping":58},{"user_id":83,"name":"Chilidestroy","steam_id":76561199101551797,"connected_time":1846000000000,"state":"active","ping":68},{"user_id":62,"name":"mug enjoyer","steam_id":76561198273354132,"connected_time":3036000000000,"state":"active","ping":83},{"user_id":76,"name":"El Doktor","steam_id":76561198413013439,"connected_time":1924000000000,"state":"active","ping":84},{"user_id":57,"name":"VOID","steam_id":76561198107501413,"connected_time":3487000000000,"state":"active","ping":54},{"user_id":86,"name":"Fanatic","steam_id":76561197998548387,"connected_time":1799000000000,"state":"active","ping":75}]},{"server_id":37,"name":"Uncletopia | Chicago | 6 | All Maps","name_short":"chi-6","host":"chi-2.us.uncletopia.com","port":27025,"enabled":true,"region":"us-central","cc":"us","latitude":41.881832,"longitude":-87.62318,"reserved":0,"last_update":"0001-01-01T00:00:00Z","name_a2s":"Uncletopia | Chicago | 6 | All Maps","protocol":17,"map":"koth_lakeside_final","folder":"tf","game":"Team Fortress","app_id":440,"player_count":2,"max_players":24,"Bots":0,"server_type":"Dedicated","server_os":"Linux","password":true,"vac":true,"version":"7695204","steam_id":85568392924866363,"keywords":["cp","nocrits","nodmgspread","uncletopia"],"game_id":440,"stv_port":27026,"stv_name":"Uncletopia | Chicago | 6 | All Maps | STV","players":[{"user_id":25,"name":"starfinder","steam_id":76561199071758773,"connected_time":170000000000,"state":"active","ping":241},{"user_id":26,"name":"Underrocks","steam_id":76561198134725167,"connected_time":157000000000,"state":"active","ping":219}]},{"server_id":38,"name":"Uncletopia | Chicago | 7 | No Payload","name_short":"chi-7","host":"chi-2.us.uncletopia.com","port":27035,"enabled":true,"region":"us-central","cc":"us","latitude":41.881832,"longitude":-87.62318,"reserved":0,"last_update":"0001-01-01T00:00:00Z","name_a2s":"Uncletopia | Chicago | 7 | No Payload","protocol":17,"map":"koth_nucleus","folder":"tf","game":"Team Fortress","app_id":440,"player_count":22,"max_players":24,"Bots":0,"server_type":"Dedicated","server_os":"Linux","password":true,"vac":true,"version":"7695204","steam_id":85568392924866364,"keywords":["cp","nocrits","nodmgspread","uncletopia"],"game_id":440,"stv_port":27036,"stv_name":"Uncletopia | Chicago | 7 | No Payload | STV","players":[{"user_id":494,"name":"goober","steam_id":76561198127116199,"connected_time":334000000000,"state":"active","ping":60},{"user_id":497,"name":"majorbobfunction","steam_id":76561198042464632,"connected_time":119000000000,"state":"active","ping":59},{"user_id":496,"name":"ITSwillows_","steam_id":76561199239165015,"connected_time":260000000000,"state":"active","ping":74},{"user_id":498,"name":"Adolf The Toast Jesus™","steam_id":76561198024553767,"connected_time":51000000000,"state":"active","ping":81},{"user_id":493,"name":"ZekeThePlumber","steam_id":76561197995016724,"connected_time":383000000000,"state":"active","ping":72},{"user_id":446,"name":"Pan Piotr","steam_id":76561198140016126,"connected_time":4085000000000,"state":"active","ping":167},{"user_id":499,"name":"extinct111","steam_id":76561199013696367,"connected_time":46000000000,"state":"active","ping":57},{"user_id":454,"name":"StuartBell511","steam_id":76561198060931721,"connected_time":3511000000000,"state":"active","ping":72},{"user_id":489,"name":"Pizza Party","steam_id":76561198165730754,"connected_time":1019000000000,"state":"active","ping":64},{"user_id":455,"name":"LilFloozyFlirt","steam_id":76561198054467493,"connected_time":3510000000000,"state":"active","ping":65},{"user_id":500,"name":"Admiral Shackleford","steam_id":76561198051952755,"connected_time":31000000000,"state":"active","ping":70},{"user_id":501,"name":"Just_Gas","steam_id":76561198123082220,"connected_time":26000000000,"state":"active","ping":68},{"user_id":457,"name":"Devcronz","steam_id":76561198392905391,"connected_time":3385000000000,"state":"active","ping":62},{"user_id":467,"name":"Karcist","steam_id":76561197970744075,"connected_time":3185000000000,"state":"active","ping":74},{"user_id":483,"name":"Sir Tea","steam_id":76561198353912752,"connected_time":1304000000000,"state":"active","ping":55},{"user_id":468,"name":"Fribas","steam_id":76561198138502813,"connected_time":3108000000000,"state":"active","ping":66},{"user_id":502,"name":"Squirt Magnet","steam_id":76561198194491426,"connected_time":20000000000,"state":"active","ping":49},{"user_id":473,"name":"Scorpie Doodle","steam_id":76561198021845763,"connected_time":2210000000000,"state":"active","ping":58},{"user_id":503,"name":"Robyn Goodfellowe","steam_id":76561198074719241,"connected_time":3000000000,"state":"spawning","ping":104},{"user_id":485,"name":"BernardBull","steam_id":76561198036138813,"connected_time":1227000000000,"state":"active","ping":77},{"user_id":464,"name":"ZachChase","steam_id":76561198086057112,"connected_time":3279000000000,"state":"active","ping":107},{"user_id":492,"name":"KingTinkerer","steam_id":76561198226856548,"connected_time":467000000000,"state":"active","ping":82}]},{"server_id":39,"name":"Uncletopia | Chicago | 8 | Community","name_short":"chi-8","host":"chi-2.us.uncletopia.com","port":27045,"enabled":true,"region":"us-central","cc":"us","latitude":41.881832,"longitude":-87.62318,"reserved":0,"last_update":"0001-01-01T00:00:00Z","name_a2s":"Uncletopia | Chicago | 8 | Community","protocol":17,"map":"workshop/koth_slaughter_rc1.ugc1712845210","folder":"tf","game":"Team Fortress","app_id":440,"player_count":0,"max_players":24,"Bots":0,"server_type":"Dedicated","server_os":"Linux","password":true,"vac":true,"version":"7695204","steam_id":85568392924866365,"keywords":["cp","nocrits","nodmgspread","uncletopia"],"game_id":440,"stv_port":27046,"stv_name":"Uncletopia | Chicago | 8 | Community | STV","players":null},{"server_id":8,"name":"Uncletopia | Dallas | 1 | All Maps","name_short":"dal-1","host":"dal-1.us.uncletopia.com","port":27015,"enabled":true,"region":"us-central","cc":"us","latitude":32.779167,"longitude":-96.80889,"reserved":0,"last_update":"0001-01-01T00:00:00Z","name_a2s":"Uncletopia | Dallas | 1 | All Maps","protocol":17,"map":"pl_snowycoast","folder":"tf","game":"Team Fortress","app_id":440,"player_count":22,"max_players":24,"Bots":0,"server_type":"Dedicated","server_os":"Linux","password":true,"vac":true,"version":"7695204","steam_id":85568392924469986,"keywords":["nocrits","nodmgspread","payload","uncletopia"],"game_id":440,"stv_port":27016,"stv_name":"Uncletopia | Dallas | 1 | All Maps | STV","players":[{"user_id":32,"name":"The Ultimate Coomer","steam_id":76561199128833757,"connected_time":14627000000000,"state":"connecting","ping":55},{"user_id":160,"name":"OwlOddity","steam_id":76561198389068053,"connected_time":3210000000000,"state":"connecting","ping":59},{"user_id":159,"name":"Captain Innocuous","steam_id":76561197968982943,"connected_time":3246000000000,"state":"connecting","ping":82},{"user_id":158,"name":"beans","steam_id":76561199132406388,"connected_time":3258000000000,"state":"connecting","ping":108},{"user_id":175,"name":"Fresh","steam_id":76561198068565728,"connected_time":2459000000000,"state":"connecting","ping":98},{"user_id":179,"name":"Sqwizard","steam_id":76561198043730076,"connected_time":1683000000000,"state":"connecting","ping":77},{"user_id":157,"name":"kronk","steam_id":76561198054623686,"connected_time":3580000000000,"state":"connecting","ping":99},{"user_id":178,"name":"DeMO_","steam_id":76561199065191627,"connected_time":1802000000000,"state":"connecting","ping":83},{"user_id":41,"name":"Statutory Ape","steam_id":76561197990346445,"connected_time":13927000000000,"state":"connecting","ping":58},{"user_id":180,"name":"Petey","steam_id":76561198007339151,"connected_time":1642000000000,"state":"connecting","ping":78},{"user_id":147,"name":"The Sydney Sleeper Itself","steam_id":76561198180251763,"connected_time":5516000000000,"state":"connecting","ping":58},{"user_id":184,"name":"Jamie Hyneman","steam_id":76561199196036481,"connected_time":27000000000,"state":"connecting","ping":75},{"user_id":176,"name":"Queueue","steam_id":76561198070804012,"connected_time":2222000000000,"state":"connecting","ping":87},{"user_id":163,"name":"Squiliam Fancyson","steam_id":76561198075130050,"connected_time":3187000000000,"state":"connecting","ping":92},{"user_id":181,"name":"KnightShock","steam_id":76561199086307667,"connected_time":1638000000000,"state":"connecting","ping":115},{"user_id":186,"name":"Fewny","steam_id":76561198225977000,"connected_time":4000000000,"state":"connecting","ping":138},{"user_id":174,"name":"ungr8t","steam_id":76561198063521721,"connected_time":2508000000000,"state":"connecting","ping":73},{"user_id":168,"name":"Kamin","steam_id":76561198255299559,"connected_time":3089000000000,"state":"connecting","ping":76},{"user_id":187,"name":"Alberto2104","steam_id":76561198094968873,"connected_time":2000000000,"state":"connecting","ping":189},{"user_id":131,"name":"Robot Jones","steam_id":76561198033558013,"connected_time":6983000000000,"state":"connecting","ping":110},{"user_id":182,"name":"ryghehn","steam_id":76561198195359229,"connected_time":1497000000000,"state":"connecting","ping":110},{"user_id":171,"name":"Bobby Ferg (Festivized)","steam_id":76561198145102826,"connected_time":2747000000000,"state":"connecting","ping":91}]},{"server_id":108,"name":"Uncletopia | Dallas | 2 | All Maps","name_short":"dal-2","host":"dal-1.us.uncletopia.com","port":27025,"enabled":true,"region":"us-central","cc":"us","latitude":32.779167,"longitude":-96.80889,"reserved":0,"last_update":"0001-01-01T00:00:00Z","name_a2s":"Uncletopia | Dallas | 2 | All Maps","protocol":17,"map":"koth_highpass","folder":"tf","game":"Team Fortress","app_id":440,"player_count":21,"max_players":24,"Bots":0,"server_type":"Dedicated","server_os":"Linux","password":true,"vac":true,"version":"7695204","steam_id":85568392924469988,"keywords":["cp","nocrits","nodmgspread","uncletopia"],"game_id":440,"stv_port":27026,"stv_name":"Uncletopia | Dallas | 2 | All Maps | STV","players":[{"user_id":313,"name":"based li'l texan","steam_id":76561199389262041,"connected_time":335000000000,"state":"active","ping":56},{"user_id":309,"name":"Hentai Connoisseur","steam_id":76561198851585389,"connected_time":467000000000,"state":"active","ping":80},{"user_id":300,"name":"Maranata","steam_id":76561198830158092,"connected_time":1601000000000,"state":"active","ping":76},{"user_id":310,"name":"Alikchi","steam_id":76561197969594220,"connected_time":443000000000,"state":"active","ping":48},{"user_id":302,"name":"Brahan","steam_id":76561198024629210,"connected_time":1578000000000,"state":"active","ping":97},{"user_id":255,"name":"Feel the bern","steam_id":76561198078824519,"connected_time":3749000000000,"state":"active","ping":88},{"user_id":296,"name":"Dill","steam_id":76561197985091914,"connected_time":1805000000000,"state":"active","ping":81},{"user_id":311,"name":"AbsoluteGamer","steam_id":76561198214138391,"connected_time":384000000000,"state":"active","ping":112},{"user_id":312,"name":"richard yeah","steam_id":76561198966232220,"connected_time":379000000000,"state":"active","ping":94},{"user_id":307,"name":"Father Bob","steam_id":76561197961329340,"connected_time":626000000000,"state":"active","ping":107},{"user_id":278,"name":"Ellen Baker","steam_id":76561198065712435,"connected_time":3078000000000,"state":"active","ping":96},{"user_id":227,"name":"Harold","steam_id":76561198057317770,"connected_time":5114000000000,"state":"active","ping":74},{"user_id":319,"name":"Skippies","steam_id":76561198131280715,"connected_time":64000000000,"state":"active","ping":89},{"user_id":314,"name":"mEch114","steam_id":76561198236936060,"connected_time":331000000000,"state":"active","ping":44},{"user_id":315,"name":"cheeseball","steam_id":76561198107078963,"connected_time":320000000000,"state":"active","ping":59},{"user_id":294,"name":"Duke Rasputin","steam_id":76561198091823164,"connected_time":1987000000000,"state":"active","ping":90},{"user_id":308,"name":"999problem","steam_id":76561198017539604,"connected_time":519000000000,"state":"active","ping":66},{"user_id":286,"name":"remedu","steam_id":76561198005152587,"connected_time":2774000000000,"state":"active","ping":45},{"user_id":318,"name":"St. Michael","steam_id":76561198037611052,"connected_time":112000000000,"state":"active","ping":44},{"user_id":276,"name":"BLOCKHEAD04","steam_id":76561198808224331,"connected_time":3121000000000,"state":"active","ping":103},{"user_id":287,"name":"Flubdy_","steam_id":76561198073338521,"connected_time":2764000000000,"state":"active","ping":68}]},{"server_id":5,"name":"Uncletopia | Frankfurt | 1 | All Maps","name_short":"frk-1","host":"frk-1.de.uncletopia.com","port":27015,"enabled":true,"region":"eu","cc":"de","latitude":50.110924,"longitude":8.682127,"reserved":0,"last_update":"0001-01-01T00:00:00Z","name_a2s":"Uncletopia | Frankfurt | 1 | All Maps","protocol":17,"map":"pl_barnblitz","folder":"tf","game":"Team Fortress","app_id":440,"player_count":0,"max_players":24,"Bots":0,"server_type":"Dedicated","server_os":"Linux","password":true,"vac":true,"version":"7695204","steam_id":85568392924469989,"keywords":["nocrits","nodmgspread","payload","uncletopia"],"game_id":440,"stv_port":27016,"stv_name":"Uncletopia | Frankfurt | 1 | All Maps | STV","players":null},{"server_id":110,"name":"Uncletopia | Frankfurt | 2 | All Maps","name_short":"frk-2","host":"frk-1.de.uncletopia.com","port":27025,"enabled":true,"region":"eu","cc":"de","latitude":50.110924,"longitude":8.682127,"reserved":0,"last_update":"0001-01-01T00:00:00Z","name_a2s":"Uncletopia | Frankfurt | 2 | All Maps","protocol":17,"map":"pl_pier","folder":"tf","game":"Team Fortress","app_id":440,"player_count":0,"max_players":24,"Bots":0,"server_type":"Dedicated","server_os":"Linux","password":true,"vac":true,"version":"7695204","steam_id":85568392924469990,"keywords":["nocrits","nodmgspread","payload","uncletopia"],"game_id":440,"stv_port":27026,"stv_name":"Uncletopia | Frankfurt | 2 | All Maps | STV","players":null},{"server_id":308,"name":"Uncletopia | Frankfurt | 3 | All Maps","name_short":"frk-3","host":"frk-1.de.uncletopia.com","port":27035,"enabled":true,"region":"eu","cc":"de","latitude":50.110924,"longitude":8.682127,"reserved":0,"last_update":"0001-01-01T00:00:00Z","name_a2s":"Uncletopia | Frankfurt | 3 | All Maps","protocol":17,"map":"koth_lakeside_final","folder":"tf","game":"Team Fortress","app_id":440,"player_count":0,"max_players":24,"Bots":0,"server_type":"Dedicated","server_os":"Linux","password":true,"vac":true,"version":"7695204","steam_id":85568392924504274,"keywords":["cp","nocrits","nodmgspread","uncletopia"],"game_id":440,"stv_port":27036,"stv_name":"Uncletopia | Frankfurt | 3 | All Maps | STV","players":null},{"server_id":309,"name":"Uncletopia | Frankfurt | 4 | All Maps","name_short":"frk-4","host":"frk-1.de.uncletopia.com","port":27045,"enabled":true,"region":"eu","cc":"de","latitude":50.110924,"longitude":8.682127,"reserved":0,"last_update":"0001-01-01T00:00:00Z","name_a2s":"Uncletopia | Frankfurt | 4 | All Maps","protocol":17,"map":"cp_dustbowl","folder":"tf","game":"Team Fortress","app_id":440,"player_count":0,"max_players":24,"Bots":0,"server_type":"Dedicated","server_os":"Linux","password":true,"vac":true,"version":"7695204","steam_id":85568392924504275,"keywords":["cp","nocrits","nodmgspread","uncletopia"],"game_id":440,"stv_port":27046,"stv_name":"Uncletopia | Frankfurt | 4 | All Maps | STV","players":null},{"server_id":310,"name":"Uncletopia | Frankfurt | 5 | All Maps","name_short":"frk-5","host":"frk-1.de.uncletopia.com","port":27055,"enabled":true,"region":"eu","cc":"de","latitude":50.110924,"longitude":8.682127,"reserved":0,"last_update":"0001-01-01T00:00:00Z","name_a2s":"Uncletopia | Frankfurt | 5 | All Maps","protocol":17,"map":"cp_sunshine","folder":"tf","game":"Team Fortress","app_id":440,"player_count":0,"max_players":24,"Bots":0,"server_type":"Dedicated","server_os":"Linux","password":true,"vac":true,"version":"7695204","steam_id":85568392924504277,"keywords":["cp","nocrits","nodmgspread","uncletopia"],"game_id":440,"stv_port":27056,"stv_name":"Uncletopia | Frankfurt | 5 | All Maps | STV","players":null},{"server_id":311,"name":"Uncletopia | Frankfurt | 6 | All Maps","name_short":"frk-6","host":"frk-1.de.uncletopia.com","port":27065,"enabled":true,"region":"eu","cc":"de","latitude":50.110924,"longitude":8.682127,"reserved":0,"last_update":"0001-01-01T00:00:00Z","name_a2s":"Uncletopia | Frankfurt | 6 | All Maps","protocol":17,"map":"pl_badwater","folder":"tf","game":"Team Fortress","app_id":440,"player_count":0,"max_players":24,"Bots":0,"server_type":"Dedicated","server_os":"Linux","password":true,"vac":true,"version":"7695204","steam_id":85568392924504278,"keywords":["nocrits","nodmgspread","payload","uncletopia"],"game_id":440,"stv_port":27066,"stv_name":"Uncletopia | Frankfurt | 6 | All Maps | STV","players":null},{"server_id":23,"name":"Uncletopia | Frankfurt | 7 | No Payload","name_short":"frk-7","host":"frk-1.de.uncletopia.com","port":27075,"enabled":true,"region":"eu","cc":"de","latitude":50.110924,"longitude":8.682127,"reserved":0,"last_update":"0001-01-01T00:00:00Z","name_a2s":"Uncletopia | Frankfurt | 7 | No Payload","protocol":17,"map":"cp_fastlane","folder":"tf","game":"Team Fortress","app_id":440,"player_count":0,"max_players":24,"Bots":0,"server_type":"Dedicated","server_os":"Linux","password":true,"vac":true,"version":"7695204","steam_id":85568392924742827,"keywords":["cp","nocrits","nodmgspread","uncletopia"],"game_id":440,"stv_port":27076,"stv_name":"Uncletopia | Frankfurt | 7 | No Payload | STV","players":null},{"server_id":24,"name":"Uncletopia | Frankfurt | 8 | Community","name_short":"frk-8","host":"frk-1.de.uncletopia.com","port":27085,"enabled":true,"region":"eu","cc":"de","latitude":50.110924,"longitude":8.682127,"reserved":0,"last_update":"0001-01-01T00:00:00Z","name_a2s":"Uncletopia | Frankfurt | 8 | Community","protocol":17,"map":"workshop/koth_bagel_rc5.ugc2514036946","folder":"tf","game":"Team Fortress","app_id":440,"player_count":0,"max_players":24,"Bots":0,"server_type":"Dedicated","server_os":"Linux","password":true,"vac":true,"version":"7695204","steam_id":85568392924742828,"keywords":["cp","nocrits","nodmgspread","uncletopia"],"game_id":440,"stv_port":27086,"stv_name":"Uncletopia | Frankfurt | 8 | Community | STV","players":null},{"server_id":202,"name":"Uncletopia | Hong Kong | 1 | All Maps","name_short":"hgk-1","host":"hgk-1.hk.uncletopia.com","port":27015,"enabled":true,"region":"asia","cc":"hk","latitude":22.302711,"longitude":114.177216,"reserved":0,"last_update":"0001-01-01T00:00:00Z","name_a2s":"Uncletopia | Hong Kong | 1 | All Maps","protocol":17,"map":"cp_altitude","folder":"tf","game":"Team Fortress","app_id":440,"player_count":0,"max_players":24,"Bots":0,"server_type":"Dedicated","server_os":"Linux","password":true,"vac":true,"version":"7695204","steam_id":85568392924494504,"keywords":["cp","nocrits","nodmgspread","uncletopia"],"game_id":440,"stv_port":27016,"stv_name":"Uncletopia | Hong Kong | 1 | All Maps | STV","players":null},{"server_id":1,"name":"Uncletopia | Los Angeles | 1 | All Maps","name_short":"lax-1","host":"lax-1.us.uncletopia.com","port":27015,"enabled":true,"region":"us-west","cc":"us","latitude":33.94279,"longitude":-118.41004,"reserved":0,"last_update":"0001-01-01T00:00:00Z","name_a2s":"Uncletopia | Los Angeles | 1 | All Maps","protocol":17,"map":"koth_lakeside_final","folder":"tf","game":"Team Fortress","app_id":440,"player_count":0,"max_players":24,"Bots":0,"server_type":"Dedicated","server_os":"Linux","password":true,"vac":true,"version":"7695204","steam_id":85568392924469991,"keywords":["cp","nocrits","nodmgspread","uncletopia"],"game_id":440,"stv_port":27016,"stv_name":"Uncletopia | Los Angeles | 1 | All Maps | STV","players":null},{"server_id":112,"name":"Uncletopia | Los Angeles | 2 | All Maps","name_short":"lax-2","host":"lax-1.us.uncletopia.com","port":27025,"enabled":true,"region":"us-west","cc":"us","latitude":33.94279,"longitude":-118.41004,"reserved":0,"last_update":"0001-01-01T00:00:00Z","name_a2s":"Uncletopia | Los Angeles | 2 | All Maps","protocol":17,"map":"koth_brazil","folder":"tf","game":"Team Fortress","app_id":440,"player_count":24,"max_players":24,"Bots":0,"server_type":"Dedicated","server_os":"Linux","password":true,"vac":true,"version":"7695204","steam_id":85568392924469992,"keywords":["cp","nocrits","nodmgspread","uncletopia"],"game_id":440,"stv_port":27026,"stv_name":"Uncletopia | Los Angeles | 2 | All Maps | STV","players":[{"user_id":93,"name":"sheepstar34","steam_id":76561198344343340,"connected_time":2775000000000,"state":"active","ping":53},{"user_id":120,"name":"DeathSushi","steam_id":76561199156131540,"connected_time":1010000000000,"state":"active","ping":85},{"user_id":80,"name":"Many Bees' Chilling","steam_id":76561198079641282,"connected_time":3724000000000,"state":"active","ping":87},{"user_id":111,"name":"salmoon","steam_id":76561198170220290,"connected_time":1268000000000,"state":"active","ping":39},{"user_id":123,"name":"Perididdle","steam_id":76561198056864606,"connected_time":751000000000,"state":"active","ping":79},{"user_id":79,"name":"cielael","steam_id":76561198043971956,"connected_time":3800000000000,"state":"active","ping":58},{"user_id":103,"name":"flo rida","steam_id":76561198226169704,"connected_time":2037000000000,"state":"active","ping":50},{"user_id":125,"name":"JON","steam_id":76561198057971005,"connected_time":327000000000,"state":"active","ping":64},{"user_id":112,"name":"BODIE","steam_id":76561198079474904,"connected_time":1258000000000,"state":"active","ping":88},{"user_id":97,"name":"Grim","steam_id":76561198016978310,"connected_time":2448000000000,"state":"active","ping":63},{"user_id":124,"name":"brappy","steam_id":76561198024958319,"connected_time":433000000000,"state":"active","ping":109},{"user_id":99,"name":"OH JIMMY I'M HOME #SaveTf2","steam_id":76561198396658806,"connected_time":2215000000000,"state":"active","ping":59},{"user_id":101,"name":"Frongus","steam_id":76561197979056451,"connected_time":2175000000000,"state":"active","ping":74},{"user_id":113,"name":"Satori Komeiji","steam_id":76561198158211423,"connected_time":1256000000000,"state":"active","ping":30},{"user_id":58,"name":"Sad Sapling","steam_id":76561198075612150,"connected_time":4946000000000,"state":"active","ping":53},{"user_id":126,"name":"The Horny","steam_id":76561198863639459,"connected_time":306000000000,"state":"active","ping":90},{"user_id":106,"name":"Genius Meme","steam_id":76561198162911254,"connected_time":1941000000000,"state":"active","ping":65},{"user_id":114,"name":"Jen Shine","steam_id":76561198127039453,"connected_time":1157000000000,"state":"active","ping":65},{"user_id":127,"name":"๖ۣۜTavi","steam_id":76561198088228946,"connected_time":276000000000,"state":"active","ping":63},{"user_id":128,"name":"Kiernan2","steam_id":76561197996490798,"connected_time":162000000000,"state":"active","ping":70},{"user_id":118,"name":"Lambchop","steam_id":76561198043900363,"connected_time":1043000000000,"state":"active","ping":67},{"user_id":129,"name":"A UsedNom","steam_id":76561198402832756,"connected_time":159000000000,"state":"active","ping":56},{"user_id":119,"name":"Wormy Getting Coal","steam_id":76561198054539200,"connected_time":1036000000000,"state":"active","ping":77},{"user_id":130,"name":"littlehorks","steam_id":76561198098442591,"connected_time":138000000000,"state":"active","ping":95}]},{"server_id":324,"name":"Uncletopia | Los Angeles | 3 | All Maps","name_short":"lax-3","host":"lax-1.us.uncletopia.com","port":27035,"enabled":true,"region":"us-west","cc":"us","latitude":33.94279,"longitude":-118.41004,"reserved":0,"last_update":"0001-01-01T00:00:00Z","name_a2s":"Uncletopia | Los Angeles | 3 | All Maps","protocol":17,"map":"cp_sunshine","folder":"tf","game":"Team Fortress","app_id":440,"player_count":0,"max_players":24,"Bots":0,"server_type":"Dedicated","server_os":"Linux","password":true,"vac":true,"version":"7695204","steam_id":85568392924510198,"keywords":["cp","nocrits","nodmgspread","uncletopia"],"game_id":440,"stv_port":27036,"stv_name":"Uncletopia | Los Angeles | 3 | All Maps | STV","players":null},{"server_id":25,"name":"Uncletopia | Los Angeles | 4 | No Payload","name_short":"lax-4","host":"lax-1.us.uncletopia.com","port":27045,"enabled":true,"region":"us-west","cc":"us","latitude":33.94279,"longitude":-118.41004,"reserved":0,"last_update":"0001-01-01T00:00:00Z","name_a2s":"Uncletopia | Los Angeles | 4 | No Payload","protocol":17,"map":"koth_highpass","folder":"tf","game":"Team Fortress","app_id":440,"player_count":0,"max_players":24,"Bots":0,"server_type":"Dedicated","server_os":"Linux","password":true,"vac":true,"version":"7695204","steam_id":85568392924510199,"keywords":["cp","nocrits","nodmgspread","uncletopia"],"game_id":440,"stv_port":27046,"stv_name":"Uncletopia | Los Angeles | 4 | No Payload | STV","players":null},{"server_id":11,"name":"Uncletopia | London | 1 | All Maps","name_short":"lon-1","host":"lon-1.uk.uncletopia.com","port":27015,"enabled":true,"region":"eu","cc":"gb","latitude":51.509865,"longitude":-0.118092,"reserved":0,"last_update":"0001-01-01T00:00:00Z","name_a2s":"Uncletopia | London | 1 | All Maps","protocol":17,"map":"pl_swiftwater_final1","folder":"tf","game":"Team Fortress","app_id":440,"player_count":4,"max_players":24,"Bots":0,"server_type":"Dedicated","server_os":"Linux","password":true,"vac":true,"version":"7695204","steam_id":85568392924367362,"keywords":["nocrits","nodmgspread","payload","uncletopia"],"game_id":440,"stv_port":27016,"stv_name":"Uncletopia | London | 1 | All Maps | STV","players":[{"user_id":698,"name":"christmas clown :o)","steam_id":76561198074657015,"connected_time":4339000000000,"state":"active","ping":53},{"user_id":699,"name":"festive baby :)","steam_id":76561198257497429,"connected_time":4334000000000,"state":"active","ping":46},{"user_id":700,"name":"lephanukkah","steam_id":76561198797345502,"connected_time":4293000000000,"state":"active","ping":51},{"user_id":704,"name":"BubbyPlum","steam_id":76561198053568814,"connected_time":781000000000,"state":"active","ping":39}]},{"server_id":114,"name":"Uncletopia | London | 2 | All Maps","name_short":"lon-2","host":"lon-1.uk.uncletopia.com","port":27025,"enabled":true,"region":"eu","cc":"gb","latitude":51.509865,"longitude":-0.118092,"reserved":0,"last_update":"0001-01-01T00:00:00Z","name_a2s":"Uncletopia | London | 2 | All Maps","protocol":17,"map":"ctf_2fort","folder":"tf","game":"Team Fortress","app_id":440,"player_count":10,"max_players":24,"Bots":0,"server_type":"Dedicated","server_os":"Linux","password":true,"vac":true,"version":"7695204","steam_id":85568392924470941,"keywords":["ctf","nocrits","nodmgspread","uncletopia"],"game_id":440,"stv_port":27026,"stv_name":"Uncletopia | London | 2 | All Maps | STV","players":[{"user_id":544,"name":"Emperor Draka","steam_id":76561198442285002,"connected_time":2867000000000,"state":"active","ping":160},{"user_id":563,"name":"Hunter64","steam_id":76561199121947938,"connected_time":1593000000000,"state":"active","ping":53},{"user_id":547,"name":"Ingo","steam_id":76561198852812815,"connected_time":2712000000000,"state":"active","ping":45},{"user_id":575,"name":"RowanYo","steam_id":76561198044626873,"connected_time":245000000000,"state":"active","ping":45},{"user_id":557,"name":"ME + MY BEAR","steam_id":76561197977122134,"connected_time":2262000000000,"state":"active","ping":63},{"user_id":576,"name":"Yuwa","steam_id":76561199390332536,"connected_time":241000000000,"state":"active","ping":273},{"user_id":550,"name":"Lena ^^","steam_id":76561199435586696,"connected_time":2490000000000,"state":"active","ping":92},{"user_id":493,"name":"Bones","steam_id":76561198065081225,"connected_time":9004000000000,"state":"active","ping":44},{"user_id":461,"name":"nalapl3","steam_id":76561198197607383,"connected_time":13156000000000,"state":"active","ping":68},{"user_id":513,"name":"miau!","steam_id":76561198053919062,"connected_time":7951000000000,"state":"active","ping":74}]},{"server_id":320,"name":"Uncletopia | London | 3 | All Maps","name_short":"lon-3","host":"lon-1.uk.uncletopia.com","port":27035,"enabled":true,"region":"eu","cc":"gb","latitude":51.509865,"longitude":-0.118092,"reserved":0,"last_update":"0001-01-01T00:00:00Z","name_a2s":"Uncletopia | London | 3 | All Maps","protocol":17,"map":"pd_snowville_event","folder":"tf","game":"Team Fortress","app_id":440,"player_count":24,"max_players":24,"Bots":0,"server_type":"Dedicated","server_os":"Linux","password":true,"vac":true,"version":"7695204","steam_id":85568392924510192,"keywords":["misc","nocrits","nodmgspread","pd","uncletopia"],"game_id":440,"stv_port":27036,"stv_name":"Uncletopia | London | 3 | All Maps | STV","players":[{"user_id":987,"name":"hot pot","steam_id":76561198125838702,"connected_time":8334000000000,"state":"active","ping":69},{"user_id":966,"name":"pryate","steam_id":76561198135960359,"connected_time":9923000000000,"state":"active","ping":43},{"user_id":1055,"name":"ProntoX","steam_id":76561198850467394,"connected_time":436000000000,"state":"active","ping":74},{"user_id":1056,"name":"uu","steam_id":76561197994492154,"connected_time":423000000000,"state":"active","ping":76},{"user_id":1004,"name":"outlaw","steam_id":76561198323805289,"connected_time":6736000000000,"state":"active","ping":36},{"user_id":1053,"name":"Robik575","steam_id":76561198058506229,"connected_time":931000000000,"state":"active","ping":87},{"user_id":1046,"name":"schizo gamer moment","steam_id":76561199414716848,"connected_time":2360000000000,"state":"active","ping":72},{"user_id":1057,"name":"разбитая кукла","steam_id":76561199440030481,"connected_time":415000000000,"state":"active","ping":110},{"user_id":1036,"name":"Thunder","steam_id":76561198042433374,"connected_time":4003000000000,"state":"active","ping":36},{"user_id":1045,"name":"General Petrov","steam_id":76561198027204104,"connected_time":2946000000000,"state":"active","ping":69},{"user_id":1051,"name":"Teffg","steam_id":76561198274386094,"connected_time":1396000000000,"state":"active","ping":91},{"user_id":1061,"name":"Jouppi","steam_id":76561198063725468,"connected_time":168000000000,"state":"active","ping":92},{"user_id":1032,"name":"Proto-arc","steam_id":76561198012776747,"connected_time":4519000000000,"state":"active","ping":58},{"user_id":1058,"name":"happy hole-idays","steam_id":76561199095366133,"connected_time":341000000000,"state":"active","ping":55},{"user_id":1054,"name":"Daily Dose of Internet","steam_id":76561199440416217,"connected_time":486000000000,"state":"active","ping":82},{"user_id":1044,"name":"Essence of Sugarcoating","steam_id":76561198063618114,"connected_time":3218000000000,"state":"active","ping":74},{"user_id":1059,"name":"Economic crisis","steam_id":76561198063562843,"connected_time":312000000000,"state":"active","ping":61},{"user_id":1043,"name":"Mafour","steam_id":76561197994581337,"connected_time":3285000000000,"state":"active","ping":94},{"user_id":1062,"name":"chad,liG","steam_id":76561198012304706,"connected_time":127000000000,"state":"active","ping":104},{"user_id":1063,"name":"End","steam_id":76561198332429328,"connected_time":59000000000,"state":"active","ping":32},{"user_id":957,"name":"IndigoJones","steam_id":76561198050284262,"connected_time":10863000000000,"state":"active","ping":71},{"user_id":1026,"name":"Grey","steam_id":76561198187190267,"connected_time":5015000000000,"state":"active","ping":49},{"user_id":959,"name":"Slooshie","steam_id":76561198008749909,"connected_time":10766000000000,"state":"active","ping":73},{"user_id":935,"name":"Gry","steam_id":76561198053961616,"connected_time":12351000000000,"state":"active","ping":56}]},{"server_id":321,"name":"Uncletopia | London | 4 | All Maps","name_short":"lon-4","host":"lon-1.uk.uncletopia.com","port":27045,"enabled":true,"region":"eu","cc":"gb","latitude":51.509865,"longitude":-0.118092,"reserved":0,"last_update":"0001-01-01T00:00:00Z","name_a2s":"Uncletopia | London | 4 | All Maps","protocol":17,"map":"koth_lakeside_final","folder":"tf","game":"Team Fortress","app_id":440,"player_count":0,"max_players":24,"Bots":0,"server_type":"Dedicated","server_os":"Linux","password":true,"vac":true,"version":"7695204","steam_id":85568392924510193,"keywords":["cp","nocrits","nodmgspread","uncletopia"],"game_id":440,"stv_port":27046,"stv_name":"Uncletopia | London | 4 | All Maps | STV","players":null},{"server_id":21,"name":"Uncletopia | London | 5 | All Maps","name_short":"lon-5","host":"lon-1.uk.uncletopia.com","port":27055,"enabled":true,"region":"eu","cc":"gb","latitude":51.509865,"longitude":-0.118092,"reserved":0,"last_update":"0001-01-01T00:00:00Z","name_a2s":"Uncletopia | London | 5 | All Maps","protocol":17,"map":"koth_lakeside_final","folder":"tf","game":"Team Fortress","app_id":440,"player_count":2,"max_players":24,"Bots":0,"server_type":"Dedicated","server_os":"Linux","password":true,"vac":true,"version":"7695204","steam_id":85568392924742829,"keywords":["cp","nocrits","nodmgspread","uncletopia"],"game_id":440,"stv_port":27056,"stv_name":"Uncletopia | London | 5 | All Maps | STV","players":[{"user_id":459,"name":"dizzroll69","steam_id":76561199422394716,"connected_time":809000000000,"state":"active","ping":202},{"user_id":460,"name":"pan","steam_id":76561199215179117,"connected_time":787000000000,"state":"active","ping":181}]},{"server_id":22,"name":"Uncletopia | London | 6 | All Maps","name_short":"lon-6","host":"lon-1.uk.uncletopia.com","port":27065,"enabled":true,"region":"eu","cc":"gb","latitude":51.509865,"longitude":-0.118092,"reserved":0,"last_update":"0001-01-01T00:00:00Z","name_a2s":"Uncletopia | London | 6 | All Maps","protocol":17,"map":"cp_snakewater_final1","folder":"tf","game":"Team Fortress","app_id":440,"player_count":0,"max_players":24,"Bots":0,"server_type":"Dedicated","server_os":"Linux","password":true,"vac":true,"version":"7695204","steam_id":85568392924742830,"keywords":["cp","nocrits","nodmgspread","uncletopia"],"game_id":440,"stv_port":27066,"stv_name":"Uncletopia | London | 6 | All Maps | STV","players":null},{"server_id":40,"name":"Uncletopia | London | 7 | No Payload","name_short":"lon-7","host":"lon-1.uk.uncletopia.com","port":27075,"enabled":true,"region":"eu","cc":"gb","latitude":51.509865,"longitude":-0.118092,"reserved":0,"last_update":"0001-01-01T00:00:00Z","name_a2s":"Uncletopia | London | 7 | No Payload","protocol":17,"map":"koth_lakeside_final","folder":"tf","game":"Team Fortress","app_id":440,"player_count":0,"max_players":24,"Bots":0,"server_type":"Dedicated","server_os":"Linux","password":true,"vac":true,"version":"7695204","steam_id":85568392924964314,"keywords":["cp","nocrits","nodmgspread","uncletopia"],"game_id":440,"stv_port":27076,"stv_name":"Uncletopia | London | 7 | No Payload | STV","players":null},{"server_id":41,"name":"Uncletopia | London | 8 | Community","name_short":"lon-8","host":"lon-1.uk.uncletopia.com","port":27085,"enabled":true,"region":"eu","cc":"gb","latitude":51.509865,"longitude":-0.118092,"reserved":0,"last_update":"0001-01-01T00:00:00Z","name_a2s":"Uncletopia | London | 8 | Community","protocol":17,"map":"workshop/koth_slaughter_rc1.ugc1712845210","folder":"tf","game":"Team Fortress","app_id":440,"player_count":0,"max_players":24,"Bots":0,"server_type":"Dedicated","server_os":"Linux","password":true,"vac":true,"version":"7695204","steam_id":85568392924964315,"keywords":["cp","nocrits","nodmgspread","uncletopia"],"game_id":440,"stv_port":27086,"stv_name":"Uncletopia | London | 8 | Community | STV","players":null},{"server_id":300,"name":"Uncletopia | Montréal | 1 | All Maps","name_short":"mtl-1","host":"mtl-1.ca.uncletopia.com","port":27015,"enabled":true,"region":"us-east","cc":"ca","latitude":45.50889,"longitude":-73.56167,"reserved":0,"last_update":"0001-01-01T00:00:00Z","name_a2s":"Uncletopia | Montréal | 1 | All Maps","protocol":17,"map":"koth_highpass","folder":"tf","game":"Team Fortress","app_id":440,"player_count":0,"max_players":24,"Bots":0,"server_type":"Dedicated","server_os":"Linux","password":true,"vac":true,"version":"7695204","steam_id":85568392924500087,"keywords":["cp","nocrits","nodmgspread","uncletopia"],"game_id":440,"stv_port":27016,"stv_name":"Uncletopia | Montréal | 1 | All Maps | STV","players":null},{"server_id":301,"name":"Uncletopia | Montréal | 2 | All Maps","name_short":"mtl-2","host":"mtl-1.ca.uncletopia.com","port":27025,"enabled":true,"region":"us-east","cc":"ca","latitude":45.50889,"longitude":-73.56167,"reserved":0,"last_update":"0001-01-01T00:00:00Z","name_a2s":"Uncletopia | Montréal | 2 | All Maps","protocol":17,"map":"pl_barnblitz","folder":"tf","game":"Team Fortress","app_id":440,"player_count":0,"max_players":24,"Bots":0,"server_type":"Dedicated","server_os":"Linux","password":true,"vac":true,"version":"7695204","steam_id":85568392924500088,"keywords":["nocrits","nodmgspread","payload","uncletopia"],"game_id":440,"stv_port":27026,"stv_name":"Uncletopia | Montréal | 2 | All Maps | STV","players":null},{"server_id":302,"name":"Uncletopia | Montréal | 3 | All Maps","name_short":"mtl-3","host":"mtl-1.ca.uncletopia.com","port":27035,"enabled":true,"region":"us-east","cc":"ca","latitude":45.50889,"longitude":-73.56167,"reserved":0,"last_update":"0001-01-01T00:00:00Z","name_a2s":"Uncletopia | Montréal | 3 | All Maps","protocol":17,"map":"koth_viaduct","folder":"tf","game":"Team Fortress","app_id":440,"player_count":0,"max_players":24,"Bots":0,"server_type":"Dedicated","server_os":"Linux","password":true,"vac":true,"version":"7695204","steam_id":85568392924500089,"keywords":["cp","nocrits","nodmgspread","uncletopia"],"game_id":440,"stv_port":0,"stv_name":"","players":null},{"server_id":303,"name":"Uncletopia | Montréal | 4 | No Payload","name_short":"mtl-4","host":"mtl-1.ca.uncletopia.com","port":27045,"enabled":true,"region":"us-east","cc":"ca","latitude":45.50889,"longitude":-73.56167,"reserved":0,"last_update":"0001-01-01T00:00:00Z","name_a2s":"Uncletopia | Montréal | 4 | No Payload","protocol":17,"map":"cp_coldfront","folder":"tf","game":"Team Fortress","app_id":440,"player_count":2,"max_players":24,"Bots":0,"server_type":"Dedicated","server_os":"Linux","password":true,"vac":true,"version":"7695204","steam_id":85568392924500090,"keywords":["cp","nocrits","nodmgspread","uncletopia"],"game_id":440,"stv_port":27046,"stv_name":"Uncletopia | Montréal | 4 | No Payload | STV","players":[{"user_id":9,"name":"LooseCannon1010","steam_id":76561198201377137,"connected_time":2411000000000,"state":"active","ping":127},{"user_id":15,"name":"thob","steam_id":76561199173618294,"connected_time":911000000000,"state":"active","ping":85}]},{"server_id":13,"name":"Uncletopia | New York City | 1 | All Maps","name_short":"nyc-1","host":"nyc-1.us.uncletopia.com","port":27015,"enabled":true,"region":"us-east","cc":"us","latitude":40.73061,"longitude":-73.93524,"reserved":0,"last_update":"0001-01-01T00:00:00Z","name_a2s":"Uncletopia | New York City | 1 | All Maps","protocol":17,"map":"cp_dustbowl","folder":"tf","game":"Team Fortress","app_id":440,"player_count":8,"max_players":24,"Bots":0,"server_type":"Dedicated","server_os":"Linux","password":true,"vac":true,"version":"7695204","steam_id":85568392924469993,"keywords":["cp","nocrits","nodmgspread","uncletopia"],"game_id":440,"stv_port":27016,"stv_name":"Uncletopia | New York City | 1 | All Maps | STV","players":[{"user_id":631,"name":"Doost44","steam_id":76561198115785902,"connected_time":1096000000000,"state":"active","ping":79},{"user_id":645,"name":"⭕⃤ L. S.","steam_id":76561198167594968,"connected_time":30000000000,"state":"active","ping":102},{"user_id":642,"name":"LuciD","steam_id":76561198242842394,"connected_time":255000000000,"state":"active","ping":136},{"user_id":635,"name":"arcane.arcmage","steam_id":76561199194701945,"connected_time":826000000000,"state":"active","ping":66},{"user_id":637,"name":"german breastmilk","steam_id":76561198323031964,"connected_time":753000000000,"state":"active","ping":88},{"user_id":620,"name":"Drunken dwarf","steam_id":76561198909190942,"connected_time":1703000000000,"state":"active","ping":60},{"user_id":627,"name":"Laelaps","steam_id":76561198100061416,"connected_time":1517000000000,"state":"active","ping":48},{"user_id":626,"name":"AjProductions","steam_id":76561198217950125,"connected_time":1552000000000,"state":"active","ping":121}]},{"server_id":14,"name":"Uncletopia | New York City | 2 | All Maps","name_short":"nyc-2","host":"nyc-1.us.uncletopia.com","port":27025,"enabled":true,"region":"us-east","cc":"us","latitude":40.73061,"longitude":-73.93524,"reserved":0,"last_update":"0001-01-01T00:00:00Z","name_a2s":"Uncletopia | New York City | 2 | All Maps","protocol":17,"map":"pl_swiftwater_final1","folder":"tf","game":"Team Fortress","app_id":440,"player_count":24,"max_players":24,"Bots":0,"server_type":"Dedicated","server_os":"Linux","password":true,"vac":true,"version":"7695204","steam_id":85568392924469994,"keywords":["nocrits","nodmgspread","payload","uncletopia"],"game_id":440,"stv_port":27026,"stv_name":"Uncletopia | New York City | 2 | All Maps | STV","players":[{"user_id":523,"name":"Gramzon the Dragon","steam_id":76561198049780793,"connected_time":1980000000000,"state":"active","ping":81},{"user_id":433,"name":"Dihsar","steam_id":76561198065169821,"connected_time":8855000000000,"state":"active","ping":46},{"user_id":541,"name":"lker","steam_id":76561197976975075,"connected_time":257000000000,"state":"active","ping":60},{"user_id":542,"name":"ExtraSoap","steam_id":76561198008712409,"connected_time":169000000000,"state":"active","ping":51},{"user_id":519,"name":"fish.","steam_id":76561198401455467,"connected_time":2791000000000,"state":"active","ping":115},{"user_id":472,"name":"SE X","steam_id":76561198094525829,"connected_time":6091000000000,"state":"active","ping":54},{"user_id":526,"name":"GLEEKY","steam_id":76561198287245599,"connected_time":1360000000000,"state":"active","ping":73},{"user_id":537,"name":"urgotmain4000","steam_id":76561198030925329,"connected_time":496000000000,"state":"active","ping":49},{"user_id":532,"name":"Penrose42","steam_id":76561198288577396,"connected_time":793000000000,"state":"active","ping":63},{"user_id":525,"name":"a mcflurry of blows to the head","steam_id":76561198107343544,"connected_time":1499000000000,"state":"active","ping":73},{"user_id":521,"name":"the222attacker","steam_id":76561198969690191,"connected_time":2546000000000,"state":"active","ping":55},{"user_id":488,"name":"A Puppy","steam_id":76561198828184456,"connected_time":4846000000000,"state":"active","ping":46},{"user_id":524,"name":"wack","steam_id":76561198095697330,"connected_time":1949000000000,"state":"active","ping":90},{"user_id":510,"name":"Hugh G Rection","steam_id":76561198117404218,"connected_time":3244000000000,"state":"active","ping":67},{"user_id":512,"name":"Jordicr100","steam_id":76561198030999491,"connected_time":3111000000000,"state":"active","ping":131},{"user_id":528,"name":"Riske","steam_id":76561198115840568,"connected_time":1256000000000,"state":"active","ping":70},{"user_id":529,"name":"komi","steam_id":76561198321442747,"connected_time":1193000000000,"state":"active","ping":69},{"user_id":487,"name":"Karma","steam_id":76561198030565234,"connected_time":5013000000000,"state":"active","ping":50},{"user_id":507,"name":"parsee","steam_id":76561198095139889,"connected_time":3405000000000,"state":"active","ping":53},{"user_id":539,"name":"dnl","steam_id":76561198096413059,"connected_time":361000000000,"state":"active","ping":126},{"user_id":530,"name":"spectre","steam_id":76561197964657841,"connected_time":1188000000000,"state":"active","ping":85},{"user_id":536,"name":"Killedbynutz","steam_id":76561198070686152,"connected_time":584000000000,"state":"active","ping":45},{"user_id":540,"name":"yazub","steam_id":76561199095742895,"connected_time":351000000000,"state":"active","ping":70},{"user_id":411,"name":"yougotsauled","steam_id":76561198880754695,"connected_time":11044000000000,"state":"active","ping":50}]},{"server_id":15,"name":"Uncletopia | New York City | 3 | All Maps","name_short":"nyc-3","host":"nyc-1.us.uncletopia.com","port":27035,"enabled":true,"region":"us-east","cc":"us","latitude":40.73061,"longitude":-73.93524,"reserved":0,"last_update":"0001-01-01T00:00:00Z","name_a2s":"Uncletopia | New York City | 3 | All Maps","protocol":17,"map":"pl_upward","folder":"tf","game":"Team Fortress","app_id":440,"player_count":24,"max_players":24,"Bots":0,"server_type":"Dedicated","server_os":"Linux","password":true,"vac":true,"version":"7695204","steam_id":85568392924742820,"keywords":["nocrits","nodmgspread","payload","uncletopia"],"game_id":440,"stv_port":27036,"stv_name":"Uncletopia | New York City | 3 | All Maps | STV","players":[{"user_id":55,"name":"Chesh","steam_id":76561197990316722,"connected_time":421000000000,"state":"active","ping":72},{"user_id":40,"name":"shephard","steam_id":76561198043367011,"connected_time":1946000000000,"state":"active","ping":76},{"user_id":54,"name":"bonk","steam_id":76561198004823930,"connected_time":836000000000,"state":"active","ping":44},{"user_id":52,"name":"SarinaraMauce","steam_id":76561198189483978,"connected_time":1187000000000,"state":"active","ping":117},{"user_id":63,"name":"Lemur","steam_id":76561198065300466,"connected_time":208000000000,"state":"active","ping":57},{"user_id":57,"name":"DJ Pierce","steam_id":76561198394241466,"connected_time":389000000000,"state":"active","ping":46},{"user_id":50,"name":"CthUwU","steam_id":76561198036541581,"connected_time":1376000000000,"state":"active","ping":65},{"user_id":22,"name":"Patch27BlackToast","steam_id":76561199062429416,"connected_time":2345000000000,"state":"active","ping":71},{"user_id":58,"name":"Kaits","steam_id":76561199021082993,"connected_time":388000000000,"state":"active","ping":59},{"user_id":61,"name":"Mr. Tickle","steam_id":76561198126684647,"connected_time":332000000000,"state":"active","ping":78},{"user_id":37,"name":"EvilMrPotoo ｡◕‿◕｡","steam_id":76561198012566870,"connected_time":1984000000000,"state":"active","ping":61},{"user_id":26,"name":"Marslettuce","steam_id":76561198049192307,"connected_time":2237000000000,"state":"active","ping":76},{"user_id":27,"name":"rainbowmaster25!","steam_id":76561199215255414,"connected_time":2219000000000,"state":"active","ping":88},{"user_id":60,"name":"[BBC] Justario","steam_id":76561198016095410,"connected_time":376000000000,"state":"active","ping":52},{"user_id":29,"name":"Rock Kickass","steam_id":76561198450510841,"connected_time":2163000000000,"state":"active","ping":122},{"user_id":30,"name":"st3shk4a","steam_id":76561198025322638,"connected_time":2105000000000,"state":"active","ping":66},{"user_id":47,"name":"Ed G. Kidd","steam_id":76561198441376401,"connected_time":1648000000000,"state":"active","ping":121},{"user_id":35,"name":"BMongrel","steam_id":76561198072166677,"connected_time":2002000000000,"state":"active","ping":81},{"user_id":36,"name":"CHODIE LAND","steam_id":76561198057116531,"connected_time":1997000000000,"state":"active","ping":44},{"user_id":51,"name":"Johnny Ballsack","steam_id":76561198072876620,"connected_time":1376000000000,"state":"active","ping":73},{"user_id":42,"name":"bobby peanstalk","steam_id":76561198040495463,"connected_time":1936000000000,"state":"active","ping":60},{"user_id":43,"name":"BlurryChase","steam_id":76561198068372573,"connected_time":1931000000000,"state":"active","ping":86},{"user_id":44,"name":"Big Domino","steam_id":76561198055743516,"connected_time":1900000000000,"state":"active","ping":58},{"user_id":45,"name":"davidflyswag","steam_id":76561198979060652,"connected_time":1856000000000,"state":"active","ping":63}]},{"server_id":16,"name":"Uncletopia | New York City | 4 | Community","name_short":"nyc-4","host":"nyc-1.us.uncletopia.com","port":27045,"enabled":true,"region":"us-east","cc":"us","latitude":40.73061,"longitude":-73.93524,"reserved":0,"last_update":"0001-01-01T00:00:00Z","name_a2s":"Uncletopia | New York City | 4 | Community","protocol":17,"map":"workshop/rd_asteroid_redux_rc9.ugc2154902912","folder":"tf","game":"Team Fortress","app_id":440,"player_count":7,"max_players":24,"Bots":0,"server_type":"Dedicated","server_os":"Linux","password":true,"vac":true,"version":"7695204","steam_id":85568392924742821,"keywords":["beta","nocrits","nodmgspread","rd","uncletopia"],"game_id":440,"stv_port":27046,"stv_name":"Uncletopia | New York City | 4 | Community | STV","players":[{"user_id":430,"name":"Chin","steam_id":76561198247426906,"connected_time":330000000000,"state":"active","ping":71},{"user_id":419,"name":"bobbyboy4020","steam_id":76561198055602369,"connected_time":982000000000,"state":"active","ping":64},{"user_id":429,"name":"SaucySage--","steam_id":76561199389817605,"connected_time":500000000000,"state":"active","ping":78},{"user_id":377,"name":"Izerfun","steam_id":76561197977227320,"connected_time":4737000000000,"state":"active","ping":40},{"user_id":417,"name":"CaptainBallarms","steam_id":76561198074311539,"connected_time":1080000000000,"state":"active","ping":88},{"user_id":411,"name":"v⁧otlu","steam_id":76561198211993579,"connected_time":1892000000000,"state":"active","ping":73},{"user_id":416,"name":"Spicy Within Reason","steam_id":76561198066700370,"connected_time":1269000000000,"state":"active","ping":110}]},{"server_id":142,"name":"Uncletopia | São Paulo | 1 | All Maps","name_short":"sao-1","host":"sao-1.br.uncletopia.com","port":27015,"enabled":true,"region":"sa","cc":"br","latitude":-23.533773,"longitude":-46.62529,"reserved":0,"last_update":"0001-01-01T00:00:00Z","name_a2s":"Uncletopia | São Paulo | 1 | All Maps","protocol":17,"map":"cp_snakewater_final1","folder":"tf","game":"Team Fortress","app_id":440,"player_count":0,"max_players":24,"Bots":0,"server_type":"Dedicated","server_os":"Linux","password":true,"vac":true,"version":"7695204","steam_id":85568392924469996,"keywords":["cp","nocrits","nodmgspread","uncletopia"],"game_id":440,"stv_port":27016,"stv_name":"Uncletopia | São Paulo | 1 | All Maps | STV","players":null},{"server_id":143,"name":"Uncletopia | São Paulo | 2 | All Maps","name_short":"sao-2","host":"sao-2.br.uncletopia.com","port":27015,"enabled":true,"region":"sa","cc":"br","latitude":-23.533773,"longitude":-46.62529,"reserved":0,"last_update":"0001-01-01T00:00:00Z","name_a2s":"Uncletopia | São Paulo | 2 | All Maps","protocol":17,"map":"cp_process_final","folder":"tf","game":"Team Fortress","app_id":440,"player_count":0,"max_players":24,"Bots":0,"server_type":"Dedicated","server_os":"Linux","password":true,"vac":true,"version":"7695204","steam_id":85568392924485349,"keywords":["cp","nocrits","nodmgspread","uncletopia"],"game_id":440,"stv_port":27016,"stv_name":"Uncletopia | São Paulo | 2 | All Maps | STV","players":null},{"server_id":7,"name":"Uncletopia | Seattle | 1 | All Maps","name_short":"sea-1","host":"sea-1.us.uncletopia.com","port":27015,"enabled":true,"region":"us-west","cc":"us","latitude":47.608013,"longitude":-122.33517,"reserved":0,"last_update":"0001-01-01T00:00:00Z","name_a2s":"Uncletopia | Seattle | 1 | All Maps","protocol":17,"map":"cp_process_final","folder":"tf","game":"Team Fortress","app_id":440,"player_count":24,"max_players":24,"Bots":0,"server_type":"Dedicated","server_os":"Linux","password":true,"vac":true,"version":"7695204","steam_id":85568392924469997,"keywords":["cp","nocrits","nodmgspread","uncletopia"],"game_id":440,"stv_port":27016,"stv_name":"Uncletopia | Seattle | 1 | All Maps | STV","players":[{"user_id":355,"name":"Sylain","steam_id":76561198043958855,"connected_time":955000000000,"state":"active","ping":66},{"user_id":266,"name":"Grognak","steam_id":76561198044710527,"connected_time":7857000000000,"state":"active","ping":45},{"user_id":344,"name":"Mr.Thirteen","steam_id":76561198047468836,"connected_time":1623000000000,"state":"active","ping":63},{"user_id":291,"name":"NickoDeeBz","steam_id":76561198294657867,"connected_time":6357000000000,"state":"active","ping":64},{"user_id":358,"name":"Schnitz","steam_id":76561198265484253,"connected_time":641000000000,"state":"active","ping":78},{"user_id":359,"name":"Munkers","steam_id":76561198286585058,"connected_time":603000000000,"state":"active","ping":53},{"user_id":354,"name":"Barry Keoghan","steam_id":76561198036444997,"connected_time":982000000000,"state":"active","ping":45},{"user_id":351,"name":"reshi","steam_id":76561198239598834,"connected_time":1032000000000,"state":"active","ping":119},{"user_id":356,"name":"Sniff","steam_id":76561198010270922,"connected_time":662000000000,"state":"active","ping":42},{"user_id":361,"name":"Doozy","steam_id":76561198033106776,"connected_time":347000000000,"state":"active","ping":89},{"user_id":362,"name":"Greskrendtregk","steam_id":76561197969553142,"connected_time":171000000000,"state":"active","ping":59},{"user_id":360,"name":"☆Atomic Waffle☆","steam_id":76561198100385184,"connected_time":574000000000,"state":"active","ping":84},{"user_id":315,"name":"Korey","steam_id":76561198210734407,"connected_time":4189000000000,"state":"active","ping":116},{"user_id":363,"name":"goon","steam_id":76561198146228439,"connected_time":116000000000,"state":"active","ping":53},{"user_id":336,"name":"nightmareCircusDimensionEnjoyer","steam_id":76561198233978116,"connected_time":2287000000000,"state":"active","ping":46},{"user_id":352,"name":"Doctor Payne","steam_id":76561198025576587,"connected_time":1032000000000,"state":"active","ping":51},{"user_id":364,"name":"Aaah....Refreshing water!","steam_id":76561198035698704,"connected_time":23000000000,"state":"active","ping":67},{"user_id":299,"name":"MCman","steam_id":76561198412110305,"connected_time":5476000000000,"state":"active","ping":78},{"user_id":295,"name":"Pubk","steam_id":76561198095939571,"connected_time":5923000000000,"state":"active","ping":43},{"user_id":297,"name":"market pier","steam_id":76561198088131563,"connected_time":5844000000000,"state":"active","ping":83},{"user_id":329,"name":"tommy","steam_id":76561198041183975,"connected_time":3191000000000,"state":"active","ping":111},{"user_id":365,"name":"Spy from TF2","steam_id":76561198155413291,"connected_time":15000000000,"state":"spawning","ping":56},{"user_id":331,"name":"Axelfreeze14","steam_id":76561198436383913,"connected_time":3183000000000,"state":"active","ping":79},{"user_id":343,"name":"Day Man","steam_id":76561198067154807,"connected_time":1642000000000,"state":"active","ping":46}]},{"server_id":119,"name":"Uncletopia | Seattle | 2 | All Maps","name_short":"sea-2","host":"sea-1.us.uncletopia.com","port":27025,"enabled":true,"region":"us-west","cc":"us","latitude":47.608013,"longitude":-122.33517,"reserved":0,"last_update":"0001-01-01T00:00:00Z","name_a2s":"Uncletopia | Seattle | 2 | All Maps","protocol":17,"map":"koth_lakeside_final","folder":"tf","game":"Team Fortress","app_id":440,"player_count":0,"max_players":24,"Bots":0,"server_type":"Dedicated","server_os":"Linux","password":true,"vac":true,"version":"7695204","steam_id":85568392924469998,"keywords":["cp","nocrits","nodmgspread","uncletopia"],"game_id":440,"stv_port":27026,"stv_name":"Uncletopia | Seattle | 2 | All Maps | STV","players":null},{"server_id":17,"name":"Uncletopia | San Francisco | 1 | All Maps","name_short":"sfo-1","host":"sfo-1.us.uncletopia.com","port":27015,"enabled":true,"region":"us-west","cc":"us","latitude":37.77397,"longitude":-122.4313,"reserved":0,"last_update":"0001-01-01T00:00:00Z","name_a2s":"Uncletopia | San Francisco | 1 | All Maps","protocol":17,"map":"koth_viaduct","folder":"tf","game":"Team Fortress","app_id":440,"player_count":21,"max_players":24,"Bots":0,"server_type":"Dedicated","server_os":"Linux","password":true,"vac":true,"version":"7695204","steam_id":85568392924469999,"keywords":["cp","nocrits","nodmgspread","uncletopia"],"game_id":440,"stv_port":27016,"stv_name":"Uncletopia | San Francisco | 1 | All Maps | STV","players":[{"user_id":659,"name":"Mignyanne :3","steam_id":76561198048754056,"connected_time":6365000000000,"state":"active","ping":47},{"user_id":752,"name":"Sabag3D","steam_id":76561198094402240,"connected_time":613000000000,"state":"active","ping":105},{"user_id":757,"name":"Zepi ツ","steam_id":76561198803959570,"connected_time":86000000000,"state":"active","ping":56},{"user_id":718,"name":"Soap Man","steam_id":76561198000490235,"connected_time":2055000000000,"state":"active","ping":80},{"user_id":719,"name":"Inspecteur Spie","steam_id":76561198082825407,"connected_time":2041000000000,"state":"active","ping":107},{"user_id":753,"name":"tayzik","steam_id":76561199391478575,"connected_time":501000000000,"state":"active","ping":81},{"user_id":758,"name":"Livin' Like Larry","steam_id":76561198313360974,"connected_time":84000000000,"state":"active","ping":30},{"user_id":721,"name":"Suspectedcoast","steam_id":76561198064481614,"connected_time":1982000000000,"state":"active","ping":73},{"user_id":759,"name":"JimmySquid","steam_id":76561198254242530,"connected_time":61000000000,"state":"active","ping":91},{"user_id":722,"name":"Buter","steam_id":76561198202305826,"connected_time":1966000000000,"state":"active","ping":61},{"user_id":760,"name":"Aaah....Refreshing water!","steam_id":76561198035698704,"connected_time":32000000000,"state":"connecting","ping":0},{"user_id":725,"name":"The Gremlin","steam_id":76561198419066993,"connected_time":1848000000000,"state":"active","ping":91},{"user_id":694,"name":"super autism girl","steam_id":76561198008908085,"connected_time":4394000000000,"state":"active","ping":47},{"user_id":727,"name":"Joe (Mother)","steam_id":76561198054822700,"connected_time":1809000000000,"state":"active","ping":44},{"user_id":747,"name":"CLemont","steam_id":76561199063209358,"connected_time":890000000000,"state":"active","ping":87},{"user_id":742,"name":"Yatchi.","steam_id":76561198878073232,"connected_time":1151000000000,"state":"active","ping":152},{"user_id":743,"name":"SPEEEEEEEEEEEEEEEEEEEEED","steam_id":76561198316768819,"connected_time":1133000000000,"state":"active","ping":109},{"user_id":737,"name":"ASCII | kymeira","steam_id":76561198340743816,"connected_time":1484000000000,"state":"active","ping":48},{"user_id":731,"name":"N64Kanroji","steam_id":76561198045209288,"connected_time":1731000000000,"state":"active","ping":47},{"user_id":744,"name":"Guest 666","steam_id":76561198127674708,"connected_time":1042000000000,"state":"active","ping":44},{"user_id":751,"name":"sockgobblin","steam_id":76561198853494675,"connected_time":676000000000,"state":"active","ping":74}]},{"server_id":18,"name":"Uncletopia | San Francisco | 2 | All Maps","name_short":"sfo-2","host":"sfo-1.us.uncletopia.com","port":27025,"enabled":true,"region":"us-west","cc":"us","latitude":37.77397,"longitude":-122.4313,"reserved":0,"last_update":"0001-01-01T00:00:00Z","name_a2s":"Uncletopia | San Francisco | 2 | All Maps","protocol":17,"map":"koth_lakeside_final","folder":"tf","game":"Team Fortress","app_id":440,"player_count":0,"max_players":24,"Bots":0,"server_type":"Dedicated","server_os":"Linux","password":true,"vac":true,"version":"7695204","steam_id":85568392924470000,"keywords":["cp","nocrits","nodmgspread","uncletopia"],"game_id":440,"stv_port":27026,"stv_name":"Uncletopia | San Francisco | 2 | All Maps | STV","players":null},{"server_id":19,"name":"Uncletopia | San Francisco | 3 | No Payload","name_short":"sfo-3","host":"sfo-1.us.uncletopia.com","port":27035,"enabled":true,"region":"us-west","cc":"us","latitude":37.77397,"longitude":-122.4313,"reserved":0,"last_update":"0001-01-01T00:00:00Z","name_a2s":"Uncletopia | San Francisco | 3 | No Payload","protocol":17,"map":"koth_harvest_final","folder":"tf","game":"Team Fortress","app_id":440,"player_count":1,"max_players":24,"Bots":0,"server_type":"Dedicated","server_os":"Linux","password":true,"vac":true,"version":"7695204","steam_id":85568392924742824,"keywords":["cp","nocrits","nodmgspread","uncletopia"],"game_id":440,"stv_port":27036,"stv_name":"Uncletopia | San Francisco | 3 | No Payload | STV","players":[{"user_id":17,"name":"funtime0512","steam_id":76561198303770644,"connected_time":51000000000,"state":"active","ping":26}]},{"server_id":20,"name":"Uncletopia | San Francisco | 4 | Community","name_short":"sfo-4","host":"sfo-1.us.uncletopia.com","port":27045,"enabled":true,"region":"us-west","cc":"us","latitude":37.77397,"longitude":-122.4313,"reserved":0,"last_update":"0001-01-01T00:00:00Z","name_a2s":"Uncletopia | San Francisco | 4 | Community","protocol":17,"map":"koth_highpass","folder":"tf","game":"Team Fortress","app_id":440,"player_count":0,"max_players":24,"Bots":0,"server_type":"Dedicated","server_os":"Linux","password":true,"vac":true,"version":"7695204","steam_id":85568392924742826,"keywords":["cp","nocrits","nodmgspread","uncletopia"],"game_id":440,"stv_port":0,"stv_name":"","players":null},{"server_id":141,"name":"Uncletopia | Sydney | 1 | All Maps","name_short":"syd-1","host":"syd-1.au.uncletopia.com","port":27015,"enabled":true,"region":"au","cc":"au","latitude":-33.865143,"longitude":151.2099,"reserved":0,"last_update":"0001-01-01T00:00:00Z","name_a2s":"Uncletopia | Sydney | 1 | All Maps","protocol":17,"map":"pl_frontier_final","folder":"tf","game":"Team Fortress","app_id":440,"player_count":24,"max_players":24,"Bots":0,"server_type":"Dedicated","server_os":"Linux","password":true,"vac":true,"version":"7695204","steam_id":85568392924470001,"keywords":["nocrits","nodmgspread","payload","uncletopia"],"game_id":440,"stv_port":27016,"stv_name":"Uncletopia | Sydney | 1 | All Maps | STV","players":[{"user_id":186,"name":"CatWithAMatch","steam_id":76561199378844984,"connected_time":1139000000000,"state":"active","ping":41},{"user_id":138,"name":"Tiger_Tan","steam_id":76561198221733844,"connected_time":4341000000000,"state":"active","ping":61},{"user_id":189,"name":"Pak'n'Save","steam_id":76561199199754055,"connected_time":826000000000,"state":"active","ping":64},{"user_id":196,"name":"Alicia ♥","steam_id":76561198241303512,"connected_time":517000000000,"state":"active","ping":58},{"user_id":200,"name":"samm","steam_id":76561198190525662,"connected_time":286000000000,"state":"active","ping":58},{"user_id":197,"name":"scubasteve","steam_id":76561198101975391,"connected_time":465000000000,"state":"active","ping":56},{"user_id":184,"name":"lofty","steam_id":76561198380588357,"connected_time":1236000000000,"state":"active","ping":69},{"user_id":173,"name":"brownie","steam_id":76561198814158355,"connected_time":2203000000000,"state":"active","ping":58},{"user_id":195,"name":"chrislightning","steam_id":76561197998077324,"connected_time":559000000000,"state":"active","ping":48},{"user_id":185,"name":"SpacePan","steam_id":76561199164052617,"connected_time":1181000000000,"state":"active","ping":49},{"user_id":202,"name":"Catto","steam_id":76561197999111589,"connected_time":182000000000,"state":"active","ping":30},{"user_id":161,"name":"Macca","steam_id":76561198010207998,"connected_time":2720000000000,"state":"active","ping":51},{"user_id":199,"name":"Kumbya Kumbya","steam_id":76561198117979249,"connected_time":332000000000,"state":"active","ping":58},{"user_id":177,"name":"BackyardBonanza19943214","steam_id":76561198383642609,"connected_time":1738000000000,"state":"active","ping":61},{"user_id":155,"name":"cunning chris","steam_id":76561197972510204,"connected_time":2922000000000,"state":"active","ping":50},{"user_id":182,"name":"Eugene (built different)","steam_id":76561198079108027,"connected_time":1305000000000,"state":"active","ping":79},{"user_id":208,"name":"michael","steam_id":76561198052848358,"connected_time":78000000000,"state":"active","ping":57},{"user_id":101,"name":"zen","steam_id":76561198302670452,"connected_time":6443000000000,"state":"active","ping":62},{"user_id":130,"name":"Men Kisser 999","steam_id":76561198152210509,"connected_time":5357000000000,"state":"active","ping":41},{"user_id":198,"name":"Obilisk","steam_id":76561198020614225,"connected_time":358000000000,"state":"active","ping":79},{"user_id":165,"name":"PEACH","steam_id":76561198014422577,"connected_time":2608000000000,"state":"active","ping":72},{"user_id":171,"name":"CypressFluff (She/Her)","steam_id":76561198174667818,"connected_time":2327000000000,"state":"active","ping":57},{"user_id":203,"name":"Hona","steam_id":76561198221809496,"connected_time":152000000000,"state":"active","ping":49},{"user_id":205,"name":"tenten","steam_id":76561198402822072,"connected_time":145000000000,"state":"active","ping":93}]},{"server_id":123,"name":"Uncletopia | Sydney | 2 | All Maps","name_short":"syd-2","host":"syd-1.au.uncletopia.com","port":27025,"enabled":true,"region":"au","cc":"au","latitude":-33.865143,"longitude":151.2099,"reserved":0,"last_update":"0001-01-01T00:00:00Z","name_a2s":"Uncletopia | Sydney | 2 | All Maps","protocol":17,"map":"pl_pier","folder":"tf","game":"Team Fortress","app_id":440,"player_count":0,"max_players":24,"Bots":0,"server_type":"Dedicated","server_os":"Linux","password":true,"vac":true,"version":"7695204","steam_id":85568392924470002,"keywords":["nocrits","nodmgspread","payload","uncletopia"],"game_id":440,"stv_port":27026,"stv_name":"Uncletopia | Sydney | 2 | All Maps | STV","players":null},{"server_id":395,"name":"Uncletopia | Sydney | 3 | All Maps","name_short":"syd-3","host":"syd-1.au.uncletopia.com","port":27035,"enabled":true,"region":"au","cc":"au","latitude":-33.865143,"longitude":151.2099,"reserved":0,"last_update":"0001-01-01T00:00:00Z","name_a2s":"Uncletopia | Sydney | 3 | All Maps","protocol":17,"map":"cp_dustbowl","folder":"tf","game":"Team Fortress","app_id":440,"player_count":0,"max_players":24,"Bots":0,"server_type":"Dedicated","server_os":"Linux","password":true,"vac":true,"version":"7695204","steam_id":85568392925194467,"keywords":["cp","nocrits","nodmgspread","uncletopia"],"game_id":440,"stv_port":27036,"stv_name":"Uncletopia | Sydney | 3 | All Maps | STV","players":null},{"server_id":396,"name":"Uncletopia | Sydney | 4 | All Maps","name_short":"syd-4","host":"syd-1.au.uncletopia.com","port":27045,"enabled":true,"region":"au","cc":"au","latitude":-33.865143,"longitude":151.2099,"reserved":0,"last_update":"0001-01-01T00:00:00Z","name_a2s":"Uncletopia | Sydney | 4 | All Maps","protocol":17,"map":"pl_swiftwater_final1","folder":"tf","game":"Team Fortress","app_id":440,"player_count":3,"max_players":24,"Bots":0,"server_type":"Dedicated","server_os":"Linux","password":true,"vac":true,"version":"7695204","steam_id":85568392925397958,"keywords":["nocrits","nodmgspread","payload","uncletopia"],"game_id":440,"stv_port":0,"stv_name":"","players":[{"user_id":8,"name":"simpcyan","steam_id":76561199121837374,"connected_time":155000000000,"state":"active","ping":103},{"user_id":5,"name":"BSL_543","steam_id":76561198216094064,"connected_time":374000000000,"state":"active","ping":52},{"user_id":6,"name":"floop flub","steam_id":76561198418968979,"connected_time":277000000000,"state":"active","ping":103}]},{"server_id":58,"name":"Uncletopia | Sydney | 5 | No Payload","name_short":"syd-5","host":"syd-1.au.uncletopia.com","port":27055,"enabled":true,"region":"au","cc":"au","latitude":-33.865143,"longitude":151.2099,"reserved":0,"last_update":"0001-01-01T00:00:00Z","name_a2s":"Uncletopia | Sydney | 5 | No Payload","protocol":17,"map":"koth_viaduct","folder":"tf","game":"Team Fortress","app_id":440,"player_count":0,"max_players":24,"Bots":0,"server_type":"Dedicated","server_os":"Linux","password":true,"vac":true,"version":"7695204","steam_id":85568392925397959,"keywords":["cp","nocrits","nodmgspread","uncletopia"],"game_id":440,"stv_port":0,"stv_name":"","players":null},{"server_id":59,"name":"Uncletopia | Sydney | 6 | Community","name_short":"syd-6","host":"syd-1.au.uncletopia.com","port":27065,"enabled":true,"region":"au","cc":"au","latitude":-33.865143,"longitude":151.2099,"reserved":0,"last_update":"0001-01-01T00:00:00Z","name_a2s":"Uncletopia | Sydney | 6 | Community","protocol":17,"map":"workshop/koth_product_final.ugc454272353","folder":"tf","game":"Team Fortress","app_id":440,"player_count":0,"max_players":24,"Bots":0,"server_type":"Dedicated","server_os":"Linux","password":true,"vac":true,"version":"7695204","steam_id":85568392925397960,"keywords":["cp","nocrits","nodmgspread","uncletopia"],"game_id":440,"stv_port":27066,"stv_name":"Uncletopia | Sydney | 6 | Community | STV","players":null},{"server_id":49,"name":"Uncletopia | Warsaw | 1 | All Maps","name_short":"waw-1","host":"waw-1.pl.uncletopia.com","port":27015,"enabled":true,"region":"eu","cc":"pl","latitude":52.2297,"longitude":21.017532,"reserved":0,"last_update":"0001-01-01T00:00:00Z","name_a2s":"Uncletopia | Warsaw | 1 | All Maps","protocol":17,"map":"koth_viaduct","folder":"tf","game":"Team Fortress","app_id":440,"player_count":0,"max_players":24,"Bots":0,"server_type":"Dedicated","server_os":"Linux","password":true,"vac":true,"version":"7695204","steam_id":85568392925397850,"keywords":["cp","nocrits","nodmgspread","uncletopia"],"game_id":440,"stv_port":27016,"stv_name":"Uncletopia | Warsaw | 1 | All Maps | STV","players":null},{"server_id":50,"name":"Uncletopia | Warsaw | 2 | All Maps","name_short":"waw-2","host":"waw-1.pl.uncletopia.com","port":27025,"enabled":true,"region":"eu","cc":"pl","latitude":52.2297,"longitude":21.017532,"reserved":0,"last_update":"0001-01-01T00:00:00Z","name_a2s":"Uncletopia | Warsaw | 2 | All Maps","protocol":17,"map":"koth_highpass","folder":"tf","game":"Team Fortress","app_id":440,"player_count":0,"max_players":24,"Bots":0,"server_type":"Dedicated","server_os":"Linux","password":true,"vac":true,"version":"7695204","steam_id":85568392925397851,"keywords":["cp","nocrits","nodmgspread","uncletopia"],"game_id":440,"stv_port":27026,"stv_name":"Uncletopia | Warsaw | 2 | All Maps | STV","players":null},{"server_id":51,"name":"Uncletopia | Warsaw | 3 | All Maps","name_short":"waw-3","host":"waw-1.pl.uncletopia.com","port":27035,"enabled":true,"region":"eu","cc":"pl","latitude":52.2297,"longitude":21.017532,"reserved":0,"last_update":"0001-01-01T00:00:00Z","name_a2s":"Uncletopia | Warsaw | 3 | All Maps","protocol":17,"map":"koth_viaduct","folder":"tf","game":"Team Fortress","app_id":440,"player_count":0,"max_players":24,"Bots":0,"server_type":"Dedicated","server_os":"Linux","password":true,"vac":true,"version":"7695204","steam_id":85568392925397852,"keywords":["cp","nocrits","nodmgspread","uncletopia"],"game_id":440,"stv_port":27036,"stv_name":"Uncletopia | Warsaw | 3 | All Maps | STV","players":null},{"server_id":52,"name":"Uncletopia | Warsaw | 4 | All Maps","name_short":"waw-4","host":"waw-1.pl.uncletopia.com","port":27045,"enabled":true,"region":"eu","cc":"pl","latitude":52.2297,"longitude":21.017532,"reserved":0,"last_update":"0001-01-01T00:00:00Z","name_a2s":"Uncletopia | Warsaw | 4 | All Maps","protocol":17,"map":"pl_barnblitz","folder":"tf","game":"Team Fortress","app_id":440,"player_count":0,"max_players":24,"Bots":0,"server_type":"Dedicated","server_os":"Linux","password":true,"vac":true,"version":"7695204","steam_id":85568392925397853,"keywords":["nocrits","nodmgspread","payload","uncletopia"],"game_id":440,"stv_port":27046,"stv_name":"Uncletopia | Warsaw | 4 | All Maps | STV","players":null},{"server_id":53,"name":"Uncletopia | Warsaw | 5 | No Payload","name_short":"waw-5","host":"waw-1.pl.uncletopia.com","port":27055,"enabled":true,"region":"eu","cc":"pl","latitude":52.2297,"longitude":21.017532,"reserved":0,"last_update":"0001-01-01T00:00:00Z","name_a2s":"Uncletopia | Warsaw | 5 | No Payload","protocol":17,"map":"koth_highpass","folder":"tf","game":"Team Fortress","app_id":440,"player_count":0,"max_players":24,"Bots":0,"server_type":"Dedicated","server_os":"Linux","password":true,"vac":true,"version":"7695204","steam_id":85568392925397854,"keywords":["cp","nocrits","nodmgspread","uncletopia"],"game_id":440,"stv_port":27056,"stv_name":"Uncletopia | Warsaw | 5 | No Payload | STV","players":null},{"server_id":54,"name":"Uncletopia | Warsaw | 6 | Community","name_short":"waw-6","host":"waw-1.pl.uncletopia.com","port":27065,"enabled":true,"region":"eu","cc":"pl","latitude":52.2297,"longitude":21.017532,"reserved":0,"last_update":"0001-01-01T00:00:00Z","name_a2s":"Uncletopia | Warsaw | 6 | Community","protocol":17,"map":"workshop/rd_asteroid_redux_rc9.ugc2154902912","folder":"tf","game":"Team Fortress","app_id":440,"player_count":0,"max_players":24,"Bots":0,"server_type":"Dedicated","server_os":"Linux","password":true,"vac":true,"version":"7695204","steam_id":85568392925397856,"keywords":["beta","nocrits","nodmgspread","rd","uncletopia"],"game_id":440,"stv_port":27066,"stv_name":"Uncletopia | Warsaw | 6 | Community | STV","players":null}]}