{"status":true,"message":"","result":[{"server_id":9,"name":"Uncletopia | Atlanta | 1 | All Maps","name_short":"atl-1","host":"atl-1.us.uncletopia.com","port":27015,"enabled":true,"region":"us-east","cc":"us","latitude":33.753746,"longitude":-84.38633,"reserved":0,"last_update":"0001-01-01T00:00:00Z","name_a2s":"Uncletopia | Atlanta | 1 | All Maps","protocol":17,"map":"pl_pier","folder":"tf","game":"Team Fortress","app_id":440,"player_count":7,"max_players":24,"Bots":0,"server_type":"Dedicated","server_os":"Linux","password":true,"vac":true,"version":"7932396","steam_id":85568392924469982,"keywords":["nocrits","nodmgspread","payload","uncletopia"],"game_id":440,"stv_port":27016,"stv_name":"Uncletopia | Atlanta | 1 | All Maps | STV","players":[{"user_id":505,"name":"√áAFFIEND","steam_id":76561198062993241,"connected_time":684000000000,"state":"active","ping":78},{"user_id":400,"name":"GibbusGod","steam_id":76561199232436690,"connected_time":3571000000000,"state":"active","ping":75},{"user_id":512,"name":"peebs","steam_id":76561198261319753,"connected_time":69000000000,"state":"active","ping":70},{"user_id":507,"name":"Mengle","steam_id":76561198001953684,"connected_time":619000000000,"state":"active","ping":74},{"user_id":427,"name":"gon","steam_id":76561198341171295,"connected_time":3250000000000,"state":"active","ping":90},{"user_id":332,"name":"FOrce of nature","steam_id":76561198390522839,"connected_time":4625000000000,"state":"active","ping":91},{"user_id":377,"name":"iclark5","steam_id":76561199256588354,"connected_time":3886000000000,"state":"active","ping":95}]},{"server_id":104,"name":"Uncletopia | Atlanta | 2 | All Maps","name_short":"atl-2","host":"atl-1.us.uncletopia.com","port":27025,"enabled":true,"region":"us-east","cc":"us","latitude":33.753746,"longitude":-84.38633,"reserved":0,"last_update":"0001-01-01T00:00:00Z","name_a2s":"Uncletopia | Atlanta | 2 | All Maps","protocol":17,"map":"cp_altitude","folder":"tf","game":"Team Fortress","app_id":440,"player_count":0,"max_players":24,"Bots":0,"server_type":"Dedicated","server_os":"Linux","password":true,"vac":true,"version":"7932396","steam_id":85568392924469983,"keywords":["cp","nocrits","nodmgspread","uncletopia"],"game_id":440,"stv_port":27026,"stv_name":"Uncletopia | Atlanta | 2 | All Maps | STV","players":null},{"server_id":400,"name":"Uncletopia | Atlanta | 3 | Community","name_short":"atl-3","host":"atl-1.us.uncletopia.com","port":27035,"enabled":true,"region":"us-east","cc":"us","latitude":33.753746,"longitude":-84.38633,"reserved":0,"last_update":"0001-01-01T00:00:00Z","name_a2s":"Uncletopia | Atlanta | 3 | Community","protocol":17,"map":"workshop/koth_trenchfoot_b1a.ugc731436616","folder":"tf","game":"Team Fortress","app_id":440,"player_count":0,"max_players":24,"Bots":0,"server_type":"Dedicated","server_os":"Linux","password":true,"vac":true,"version":"7932396","steam_id":85568392924515187,"keywords":["cp","nocrits","nodmgspread","uncletopia"],"game_id":440,"stv_port":27036,"stv_name":"Uncletopia | Atlanta | 3 | Community | STV","players":null},{"server_id":401,"name":"Uncletopia | Atlanta | 4 | No Payload","name_short":"atl-4","host":"atl-1.us.uncletopia.com","port":27045,"enabled":true,"region":"us-east","cc":"us","latitude":33.753746,"longitude":-84.38633,"reserved":0,"last_update":"0001-01-01T00:00:00Z","name_a2s":"","protocol":0,"map":"","folder":"","game":"","app_id":0,"player_count":0,"max_players":0,"Bots":0,"server_type":"","server_os":"","password":false,"vac":false,"version":"","steam_id":0,"keywords":null,"game_id":0,"stv_port":0,"stv_name":"","players":null},{"server_id":2,"name":"Uncletopia | Chicago | 1 | All Maps","name_short":"chi-1","host":"chi-1.us.uncletopia.com","port":27015,"enabled":true,"region":"us-central","cc":"us","latitude":41.881832,"longitude":-87.62318,"reserved":0,"last_update":"0001-01-01T00:00:00Z","name_a2s":"Uncletopia | Chicago | 1 | All Maps","protocol":17,"map":"pl_upward","folder":"tf","game":"Team Fortress","app_id":440,"player_count":24,"max_players":24,"Bots":0,"server_type":"Dedicated","server_os":"Linux","password":true,"vac":true,"version":"7932396","steam_id":85568392924469984,"keywords":["nocrits","nodmgspread","payload","uncletopia"],"game_id":440,"stv_port":27016,"stv_name":"Uncletopia | Chicago | 1 | All Maps | STV","players":[{"user_id":786,"name":"God","steam_id":76561198131089513,"connected_time":2426000000000,"state":"active","ping":57},{"user_id":809,"name":"incredirocks","steam_id":76561198061079993,"connected_time":40000000000,"state":"active","ping":45},{"user_id":797,"name":"Tots","steam_id":76561198027485007,"connected_time":792000000000,"state":"active","ping":60},{"user_id":771,"name":"win free ipod","steam_id":76561198057356807,"connected_time":3065000000000,"state":"active","ping":50},{"user_id":760,"name":"Drooop","steam_id":76561198856700517,"connected_time":4724000000000,"state":"active","ping":74},{"user_id":781,"name":"loser","steam_id":76561198259380127,"connected_time":2813000000000,"state":"active","ping":52},{"user_id":704,"name":"Celestial Bodies","steam_id":76561198212572955,"connected_time":9883000000000,"state":"active","ping":75},{"user_id":773,"name":"Lost","steam_id":76561198093713427,"connected_time":3033000000000,"state":"active","ping":60},{"user_id":761,"name":"heademptyengineer.JIFF","steam_id":76561198045181760,"connected_time":4720000000000,"state":"active","ping":60},{"user_id":793,"name":"sir_shroomer","steam_id":76561199073946769,"connected_time":1160000000000,"state":"active","ping":120},{"user_id":801,"name":"Alice in Rubberland","steam_id":76561198087328346,"connected_time":548000000000,"state":"active","ping":45},{"user_id":790,"name":"Person","steam_id":76561198093244204,"connected_time":1762000000000,"state":"active","ping":76},{"user_id":752,"name":"Doctor Emerald(real)","steam_id":76561199123003872,"connected_time":4986000000000,"state":"active","ping":91},{"user_id":791,"name":"peakmeta","steam_id":76561199053600691,"connected_time":1758000000000,"state":"active","ping":54},{"user_id":774,"name":"Skinny pete","steam_id":76561198801608576,"connected_time":3020000000000,"state":"active","ping":76},{"user_id":784,"name":"Captain S. Forrest","steam_id":76561198062463029,"connected_time":2452000000000,"state":"active","ping":74},{"user_id":802,"name":"DinoGoof","steam_id":76561198998427283,"connected_time":497000000000,"state":"active","ping":70},{"user_id":776,"name":"FHC | Nyle","steam_id":76561198045652639,"connected_time":2954000000000,"state":"active","ping":134},{"user_id":727,"name":"Wizard Raccoon","steam_id":76561198072562591,"connected_time":7505000000000,"state":"active","ping":80},{"user_id":728,"name":"L + Ratio","steam_id":76561198263786953,"connected_time":7504000000000,"state":"active","ping":77},{"user_id":808,"name":"Kindagoodplayer","steam_id":76561198814625843,"connected_time":75000000000,"state":"active","ping":82},{"user_id":806,"name":"Chemist","steam_id":76561198175623743,"connected_time":107000000000,"state":"active","ping":84},{"user_id":785,"name":"Cleric","steam_id":76561198045887994,"connected_time":2452000000000,"state":"active","ping":47},{"user_id":792,"name":"DiGiorno's Pizza","steam_id":76561198142244035,"connected_time":1397000000000,"state":"active","ping":55}]},{"server_id":106,"name":"Uncletopia | Chicago | 2 | All Maps","name_short":"chi-2","host":"chi-1.us.uncletopia.com","port":27025,"enabled":true,"region":"us-central","cc":"us","latitude":41.881832,"longitude":-87.62318,"reserved":0,"last_update":"0001-01-01T00:00:00Z","name_a2s":"Uncletopia | Chicago | 2 | All Maps","protocol":17,"map":"pl_borneo","folder":"tf","game":"Team Fortress","app_id":440,"player_count":24,"max_players":24,"Bots":0,"server_type":"Dedicated","server_os":"Linux","password":true,"vac":true,"version":"7932396","steam_id":85568392924469985,"keywords":["nocrits","nodmgspread","payload","uncletopia"],"game_id":440,"stv_port":27026,"stv_name":"Uncletopia | Chicago | 2 | All Maps | STV","players":[{"user_id":771,"name":"cucumper","steam_id":76561198079504588,"connected_time":2454000000000,"state":"active","ping":68},{"user_id":766,"name":"SpongedSocks","steam_id":76561198374009086,"connected_time":3206000000000,"state":"active","ping":68},{"user_id":783,"name":"Six Piece Chicken McNobody","steam_id":76561198129848222,"connected_time":831000000000,"state":"active","ping":65},{"user_id":717,"name":"xX_HimboSwallower_Xx","steam_id":76561198016029965,"connected_time":7150000000000,"state":"active","ping":68},{"user_id":781,"name":"Albino Jellyfish","steam_id":76561198208561097,"connected_time":1255000000000,"state":"active","ping":64},{"user_id":734,"name":"Glass Joe","steam_id":76561198317365741,"connected_time":6356000000000,"state":"active","ping":64},{"user_id":791,"name":"pregame looser","steam_id":76561198075216115,"connected_time":588000000000,"state":"active","ping":145},{"user_id":785,"name":"Remy the rat","steam_id":76561198080519558,"connected_time":807000000000,"state":"active","ping":78},{"user_id":773,"name":"RaddahRaddah","steam_id":76561198194462829,"connected_time":2431000000000,"state":"active","ping":74},{"user_id":761,"name":"wiiblob","steam_id":76561198109106242,"connected_time":3751000000000,"state":"active","ping":145},{"user_id":786,"name":"A Rope, for big pits","steam_id":76561198068044782,"connected_time":801000000000,"state":"active","ping":73},{"user_id":735,"name":"Protato","steam_id":76561198061182563,"connected_time":6295000000000,"state":"active","ping":72},{"user_id":795,"name":"orangesuit1","steam_id":76561199020443017,"connected_time":145000000000,"state":"active","ping":115},{"user_id":796,"name":"OmniMoto","steam_id":76561198091298557,"connected_time":139000000000,"state":"active","ping":77},{"user_id":646,"name":"Unholy","steam_id":76561198058312481,"connected_time":12481000000000,"state":"active","ping":75},{"user_id":794,"name":"lcy13vv","steam_id":76561197995997446,"connected_time":205000000000,"state":"active","ping":60},{"user_id":778,"name":"co)))))ne","steam_id":76561198053967778,"connected_time":1398000000000,"state":"active","ping":60},{"user_id":763,"name":"Bali","steam_id":76561198038693845,"connected_time":3600000000000,"state":"active","ping":91},{"user_id":788,"name":"Dzhoshua","steam_id":76561198071915251,"connected_time":783000000000,"state":"active","ping":66},{"user_id":789,"name":"St. Bimmius","steam_id":76561198013595716,"connected_time":758000000000,"state":"active","ping":107},{"user_id":797,"name":"-W3E- grim10465","steam_id":76561198045698581,"connected_time":108000000000,"state":"active","ping":51},{"user_id":798,"name":"lolstar64","steam_id":76561198048565155,"connected_time":108000000000,"state":"active","ping":76},{"user_id":792,"name":"pee physics","steam_id":76561198089638718,"connected_time":587000000000,"state":"active","ping":59},{"user_id":799,"name":"Fudge_Cake","steam_id":76561198059218167,"connected_time":71000000000,"state":"active","ping":81}]},{"server_id":402,"name":"Uncletopia | Chicago | 3 | All Maps","name_short":"chi-3","host":"chi-1.us.uncletopia.com","port":27035,"enabled":true,"region":"us-central","cc":"us","latitude":41.881832,"longitude":-87.62318,"reserved":0,"last_update":"0001-01-01T00:00:00Z","name_a2s":"Uncletopia | Chicago | 3 | All Maps","protocol":17,"map":"koth_sawmill","folder":"tf","game":"Team Fortress","app_id":440,"player_count":24,"max_players":24,"Bots":0,"server_type":"Dedicated","server_os":"Linux","password":true,"vac":true,"version":"7932396","steam_id":85568392924515191,"keywords":["cp","nocrits","nodmgspread","uncletopia"],"game_id":440,"stv_port":27036,"stv_name":"Uncletopia | Chicago | 3 | All Maps | STV","players":[{"user_id":327,"name":"JDM Street Cred","steam_id":76561198033035560,"connected_time":3692000000000,"state":"active","ping":60},{"user_id":251,"name":"DoubleX2000","steam_id":76561198164134387,"connected_time":10028000000000,"state":"active","ping":113},{"user_id":372,"name":"EddyQTooReal","steam_id":76561198088480679,"connected_time":265000000000,"state":"active","ping":57},{"user_id":326,"name":"Ringo x Seiran","steam_id":76561198357437908,"connected_time":3698000000000,"state":"active","ping":70},{"user_id":368,"name":"Pourpel","steam_id":76561198059125470,"connected_time":381000000000,"state":"active","ping":71},{"user_id":365,"name":"Clover","steam_id":76561198038905361,"connected_time":532000000000,"state":"active","ping":58},{"user_id":344,"name":"Cassius Money","steam_id":76561197979696414,"connected_time":2842000000000,"state":"active","ping":53},{"user_id":357,"name":"megalexcraft00","steam_id":76561198167075182,"connected_time":850000000000,"state":"active","ping":83},{"user_id":354,"name":"Alecto","steam_id":76561198042476864,"connected_time":1238000000000,"state":"active","ping":45},{"user_id":240,"name":"Digitic","steam_id":76561198080295536,"connected_time":10644000000000,"state":"active","ping":78},{"user_id":364,"name":"beckeon","steam_id":76561198056474975,"connected_time":568000000000,"state":"active","ping":69},{"user_id":375,"name":"Herr M√ºller","steam_id":76561198064876829,"connected_time":90000000000,"state":"active","ping":86},{"user_id":360,"name":"∆ê’å—¥∆≥","steam_id":76561198099470277,"connected_time":715000000000,"state":"active","ping":77},{"user_id":366,"name":"Snowy 79","steam_id":76561198944639546,"connected_time":512000000000,"state":"active","ping":64},{"user_id":367,"name":"MarsionQuin","steam_id":76561199086790535,"connected_time":469000000000,"state":"active","ping":81},{"user_id":373,"name":"Vaudeville Villain","steam_id":76561199212093339,"connected_time":238000000000,"state":"active","ping":70},{"user_id":334,"name":"Tick","steam_id":76561198184161214,"connected_time":3615000000000,"state":"active","ping":42},{"user_id":361,"name":"frick off law enforcement","steam_id":76561198255022731,"connected_time":704000000000,"state":"active","ping":86},{"user_id":289,"name":"HappyOtterMan","steam_id":76561199051276989,"connected_time":7623000000000,"state":"active","ping":72},{"user_id":286,"name":"vv","steam_id":76561198134813102,"connected_time":7745000000000,"state":"active","ping":59},{"user_id":345,"name":"dailyspesh","steam_id":76561197988072369,"connected_time":2794000000000,"state":"active","ping":81},{"user_id":376,"name":"zvx she/her","steam_id":76561199480341552,"connected_time":75000000000,"state":"active","ping":157},{"user_id":371,"name":"lpk","steam_id":76561198025478698,"connected_time":332000000000,"state":"active","ping":41},{"user_id":325,"name":"freyja","steam_id":76561198249206656,"connected_time":3977000000000,"state":"active","ping":73}]},{"server_id":403,"name":"Uncletopia | Chicago | 4 | All Maps","name_short":"chi-4","host":"chi-1.us.uncletopia.com","port":27045,"enabled":true,"region":"us-central","cc":"us","latitude":41.881832,"longitude":-87.62318,"reserved":0,"last_update":"0001-01-01T00:00:00Z","name_a2s":"Uncletopia | Chicago | 4 | All Maps","protocol":17,"map":"pl_goldrush","folder":"tf","game":"Team Fortress","app_id":440,"player_count":24,"max_players":24,"Bots":0,"server_type":"Dedicated","server_os":"Linux","password":true,"vac":true,"version":"7932396","steam_id":85568392924515193,"keywords":["nocrits","nodmgspread","payload","uncletopia"],"game_id":440,"stv_port":27046,"stv_name":"Uncletopia | Chicago | 4 | All Maps | STV","players":[{"user_id":401,"name":"OneTrueMako","steam_id":76561199108504378,"connected_time":979000000000,"state":"active","ping":70},{"user_id":409,"name":"totally not a pile of beans","steam_id":76561198119851931,"connected_time":514000000000,"state":"active","ping":81},{"user_id":416,"name":"Sprit ‚ô•","steam_id":76561198268780781,"connected_time":231000000000,"state":"active","ping":51},{"user_id":330,"name":"hej","steam_id":76561197996366940,"connected_time":6663000000000,"state":"active","ping":60},{"user_id":414,"name":"wunkem","steam_id":76561198055948497,"connected_time":337000000000,"state":"active","ping":70},{"user_id":411,"name":"Goldensliv","steam_id":76561198161673891,"connected_time":432000000000,"state":"active","ping":92},{"user_id":375,"name":"duck, duck, LOVE","steam_id":76561198010706701,"connected_time":3791000000000,"state":"active","ping":70},{"user_id":376,"name":"gorf?","steam_id":76561198142286417,"connected_time":3789000000000,"state":"active","ping":55},{"user_id":365,"name":"pinglefingle","steam_id":76561198216580197,"connected_time":4752000000000,"state":"active","ping":76},{"user_id":417,"name":"Not Giga Chad","steam_id":76561198059785363,"connected_time":180000000000,"state":"active","ping":69},{"user_id":418,"name":"ATL","steam_id":76561198431196926,"connected_time":95000000000,"state":"active","ping":86},{"user_id":388,"name":"Morgster","steam_id":76561198131697761,"connected_time":3408000000000,"state":"active","ping":74},{"user_id":407,"name":"Jackx232","steam_id":76561198055126332,"connected_time":620000000000,"state":"active","ping":60},{"user_id":419,"name":"Truly Cryo","steam_id":76561198347497484,"connected_time":50000000000,"state":"spawning","ping":76},{"user_id":402,"name":"Ayylmao","steam_id":76561198104780147,"connected_time":977000000000,"state":"active","ping":45},{"user_id":306,"name":"Waddlehi","steam_id":76561198072553840,"connected_time":8096000000000,"state":"active","ping":65},{"user_id":362,"name":"Swash","steam_id":76561197969421355,"connected_time":5121000000000,"state":"active","ping":47},{"user_id":415,"name":"Commodore","steam_id":76561198042112852,"connected_time":288000000000,"state":"active","ping":74},{"user_id":406,"name":"SIN K4RMA","steam_id":76561198869287223,"connected_time":698000000000,"state":"active","ping":85},{"user_id":413,"name":"[DEEP] Roz257","steam_id":76561198842844532,"connected_time":405000000000,"state":"active","ping":74},{"user_id":396,"name":"Double Dip","steam_id":76561198067483536,"connected_time":1788000000000,"state":"active","ping":49},{"user_id":400,"name":"chunguspilled","steam_id":76561198263122601,"connected_time":1140000000000,"state":"active","ping":49},{"user_id":329,"name":"MedRed‚Ñ¢ #IATAH","steam_id":76561198002962970,"connected_time":6785000000000,"state":"active","ping":91},{"user_id":366,"name":"Lia_Rein","steam_id":76561198151569597,"connected_time":4725000000000,"state":"active","ping":144}]},{"server_id":36,"name":"Uncletopia | Chicago | 5 | All Maps","name_short":"chi-5","host":"chi-2.us.uncletopia.com","port":27015,"enabled":true,"region":"us-central","cc":"us","latitude":41.881832,"longitude":-87.62318,"reserved":0,"last_update":"0001-01-01T00:00:00Z","name_a2s":"Uncletopia | Chicago | 5 | All Maps","protocol":17,"map":"pl_badwater","folder":"tf","game":"Team Fortress","app_id":440,"player_count":24,"max_players":24,"Bots":0,"server_type":"Dedicated","server_os":"Linux","password":true,"vac":true,"version":"7932396","steam_id":85568392924866362,"keywords":["nocrits","nodmgspread","payload","uncletopia"],"game_id":440,"stv_port":27016,"stv_name":"Uncletopia | Chicago | 5 | All Maps | STV","players":[{"user_id":418,"name":"wheresgeorge","steam_id":76561198986281248,"connected_time":753000000000,"state":"active","ping":90},{"user_id":419,"name":"Jazz2T","steam_id":76561198154418867,"connected_time":725000000000,"state":"active","ping":94},{"user_id":434,"name":"rachel epiphet","steam_id":76561198380018244,"connected_time":155000000000,"state":"active","ping":75},{"user_id":432,"name":"kite man","steam_id":76561198156336213,"connected_time":379000000000,"state":"active","ping":75},{"user_id":431,"name":"[DOOR] Jacob","steam_id":76561198004630011,"connected_time":547000000000,"state":"active","ping":54},{"user_id":413,"name":"lifted tater","steam_id":76561198404564240,"connected_time":1212000000000,"state":"active","ping":62},{"user_id":371,"name":"-","steam_id":76561198057717934,"connected_time":4942000000000,"state":"active","ping":60},{"user_id":433,"name":"Techo","steam_id":76561199169405285,"connected_time":364000000000,"state":"active","ping":108},{"user_id":414,"name":"Stapler","steam_id":76561198099295077,"connected_time":1156000000000,"state":"active","ping":99},{"user_id":394,"name":"6t26j","steam_id":76561198278282836,"connected_time":2664000000000,"state":"active","ping":59},{"user_id":372,"name":"Cherry Coke","steam_id":76561198178233006,"connected_time":4941000000000,"state":"active","ping":45},{"user_id":426,"name":"Joey Lemons","steam_id":76561198068104187,"connected_time":635000000000,"state":"active","ping":41},{"user_id":330,"name":"eish","steam_id":76561198089463603,"connected_time":6760000000000,"state":"active","ping":134},{"user_id":436,"name":"im high asf","steam_id":76561198198781598,"connected_time":3000000000,"state":"spawning","ping":78},{"user_id":420,"name":"OWEENIE","steam_id":76561198083135927,"connected_time":705000000000,"state":"active","ping":51},{"user_id":422,"name":"pajayay","steam_id":76561198065040540,"connected_time":669000000000,"state":"active","ping":68},{"user_id":391,"name":"totoro","steam_id":76561198210420871,"connected_time":3109000000000,"state":"active","ping":47},{"user_id":423,"name":"Snake Handler","steam_id":76561198027198306,"connected_time":665000000000,"state":"active","ping":56},{"user_id":353,"name":"I have no idea what I am doing?","steam_id":76561198093152207,"connected_time":5879000000000,"state":"active","ping":76},{"user_id":375,"name":"Java_Siege_","steam_id":76561199090000728,"connected_time":4917000000000,"state":"active","ping":80},{"user_id":424,"name":"Sean Bae","steam_id":76561198036909521,"connected_time":663000000000,"state":"active","ping":53},{"user_id":427,"name":"The Law","steam_id":76561198202209948,"connected_time":633000000000,"state":"active","ping":45},{"user_id":415,"name":"msay","steam_id":76561198170888029,"connected_time":1050000000000,"state":"active","ping":98},{"user_id":429,"name":"the Light Beast","steam_id":76561198111975583,"connected_time":614000000000,"state":"active","ping":92}]},{"server_id":37,"name":"Uncletopia | Chicago | 6 | All Maps","name_short":"chi-6","host":"chi-2.us.uncletopia.com","port":27025,"enabled":true,"region":"us-central","cc":"us","latitude":41.881832,"longitude":-87.62318,"reserved":0,"last_update":"0001-01-01T00:00:00Z","name_a2s":"Uncletopia | Chicago | 6 | All Maps","protocol":17,"map":"cp_dustbowl","folder":"tf","game":"Team Fortress","app_id":440,"player_count":24,"max_players":24,"Bots":0,"server_type":"Dedicated","server_os":"Linux","password":true,"vac":true,"version":"7932396","steam_id":85568392924866363,"keywords":["cp","nocrits","nodmgspread","uncletopia"],"game_id":440,"stv_port":27026,"stv_name":"Uncletopia | Chicago | 6 | All Maps | STV","players":[{"user_id":471,"name":"sankara","steam_id":76561198013806060,"connected_time":4499000000000,"state":"active","ping":58},{"user_id":529,"name":"Vladikr1","steam_id":76561198401495362,"connected_time":142000000000,"state":"active","ping":63},{"user_id":519,"name":"NOTWALTER","steam_id":76561198125464744,"connected_time":1092000000000,"state":"active","ping":84},{"user_id":501,"name":"ky jelly packing","steam_id":76561198240906222,"connected_time":1977000000000,"state":"active","ping":75},{"user_id":528,"name":"fish LFT :)","steam_id":76561198054070811,"connected_time":452000000000,"state":"active","ping":105},{"user_id":489,"name":"wedoalittletrolling TF2EASY.COM","steam_id":76561198984807162,"connected_time":2871000000000,"state":"active","ping":67},{"user_id":508,"name":"Generic_Soda","steam_id":76561197993528721,"connected_time":1516000000000,"state":"active","ping":59},{"user_id":507,"name":"e77","steam_id":76561198069309111,"connected_time":1536000000000,"state":"active","ping":45},{"user_id":472,"name":"IMM0RTAL","steam_id":76561198013747901,"connected_time":4308000000000,"state":"active","ping":66},{"user_id":509,"name":"Walrusto","steam_id":76561198829644616,"connected_time":1495000000000,"state":"active","ping":75},{"user_id":525,"name":"Philly","steam_id":76561198085004599,"connected_time":916000000000,"state":"active","ping":69},{"user_id":503,"name":"Orion","steam_id":76561198000418837,"connected_time":1796000000000,"state":"active","ping":83},{"user_id":491,"name":"trappy (washed)","steam_id":76561198402801140,"connected_time":2676000000000,"state":"active","ping":62},{"user_id":451,"name":"eveie0mlets","steam_id":76561198259172011,"connected_time":7234000000000,"state":"active","ping":89},{"user_id":527,"name":"Xx_haZe_xX","steam_id":76561198243743666,"connected_time":784000000000,"state":"active","ping":90},{"user_id":512,"name":"pHsHy","steam_id":76561198013195018,"connected_time":1416000000000,"state":"active","ping":77},{"user_id":386,"name":"daemon","steam_id":76561198001541433,"connected_time":11364000000000,"state":"active","ping":58},{"user_id":483,"name":"squash the beef","steam_id":76561198277163301,"connected_time":3463000000000,"state":"active","ping":65},{"user_id":496,"name":"Skeleton Hotel","steam_id":76561198041704727,"connected_time":2558000000000,"state":"active","ping":59},{"user_id":521,"name":"baba -IYSMITL-","steam_id":76561198105065307,"connected_time":1068000000000,"state":"active","ping":47},{"user_id":517,"name":"hashmap","steam_id":76561198043794014,"connected_time":1229000000000,"state":"active","ping":51},{"user_id":526,"name":"3DylanStar","steam_id":76561198147042932,"connected_time":908000000000,"state":"active","ping":67},{"user_id":522,"name":"AnonymousCritter","steam_id":76561198864475187,"connected_time":1043000000000,"state":"active","ping":51},{"user_id":524,"name":"Vega","steam_id":76561198057374871,"connected_time":1018000000000,"state":"active","ping":60}]},{"server_id":38,"name":"Uncletopia | Chicago | 7 | Stopwatch Beta","name_short":"chi-7","host":"chi-2.us.uncletopia.com","port":27035,"enabled":true,"region":"us-central","cc":"us","latitude":41.881832,"longitude":-87.62318,"reserved":0,"last_update":"0001-01-01T00:00:00Z","name_a2s":"Uncletopia | Chicago | 7 | Stopwatch Beta","protocol":17,"map":"pl_borneo","folder":"tf","game":"Team Fortress","app_id":440,"player_count":0,"max_players":24,"Bots":0,"server_type":"Dedicated","server_os":"Linux","password":true,"vac":true,"version":"7932396","steam_id":85568392924866364,"keywords":["nocrits","nodmgspread","payload","uncletopia"],"game_id":440,"stv_port":27036,"stv_name":"Uncletopia | Chicago | 7 | Stopwatch Beta | STV","players":null},{"server_id":39,"name":"Uncletopia | Chicago | 8 | Community","name_short":"chi-8","host":"chi-2.us.uncletopia.com","port":27045,"enabled":true,"region":"us-central","cc":"us","latitude":41.881832,"longitude":-87.62318,"reserved":0,"last_update":"0001-01-01T00:00:00Z","name_a2s":"Uncletopia | Chicago | 8 | Community","protocol":17,"map":"workshop/cp_propaganda_b18.ugc1603743849","folder":"tf","game":"Team Fortress","app_id":440,"player_count":21,"max_players":24,"Bots":0,"server_type":"Dedicated","server_os":"Linux","password":true,"vac":true,"version":"7932396","steam_id":85568392924866365,"keywords":["cp","nocrits","nodmgspread","uncletopia"],"game_id":440,"stv_port":27046,"stv_name":"Uncletopia | Chicago | 8 | Community | STV","players":[{"user_id":547,"name":"SleepyCanary","steam_id":76561198071770434,"connected_time":983000000000,"state":"active","ping":115},{"user_id":540,"name":"The Incredible Fem Boy","steam_id":76561198355754259,"connected_time":1378000000000,"state":"active","ping":76},{"user_id":526,"name":"bonk","steam_id":76561198821774697,"connected_time":2154000000000,"state":"active","ping":48},{"user_id":514,"name":"Kalmaro","steam_id":76561198097425350,"connected_time":4229000000000,"state":"active","ping":59},{"user_id":545,"name":"tuba toothpaste","steam_id":76561198324896934,"connected_time":1176000000000,"state":"active","ping":62},{"user_id":530,"name":"J76_","steam_id":76561199224457967,"connected_time":1909000000000,"state":"active","ping":122},{"user_id":556,"name":"Gamering_funy","steam_id":76561199006503777,"connected_time":353000000000,"state":"active","ping":53},{"user_id":557,"name":"AudaCD","steam_id":76561198202775853,"connected_time":253000000000,"state":"active","ping":60},{"user_id":558,"name":"Antoni Wannabe","steam_id":76561199047187302,"connected_time":1000000000,"state":"spawning","ping":44},{"user_id":534,"name":"Tom Cr√∫aich","steam_id":76561197999439911,"connected_time":1685000000000,"state":"active","ping":72},{"user_id":535,"name":"Tis_Me_Hacksoulslayer1","steam_id":76561198340064206,"connected_time":1601000000000,"state":"active","ping":81},{"user_id":536,"name":"Ace Chromatica","steam_id":76561198042211131,"connected_time":1582000000000,"state":"active","ping":54},{"user_id":548,"name":"Eggregis-Thumbs","steam_id":76561198310566277,"connected_time":983000000000,"state":"active","ping":65},{"user_id":549,"name":"SodaKid_7","steam_id":76561198079419485,"connected_time":955000000000,"state":"active","ping":102},{"user_id":544,"name":"smef","steam_id":76561198321385895,"connected_time":1242000000000,"state":"active","ping":58},{"user_id":550,"name":"Soup Salad \u0026 Breadsticks","steam_id":76561198382572522,"connected_time":918000000000,"state":"active","ping":61},{"user_id":551,"name":"DanthePunman","steam_id":76561198453724913,"connected_time":838000000000,"state":"active","ping":53},{"user_id":517,"name":"HaveADay","steam_id":76561198001086219,"connected_time":4155000000000,"state":"active","ping":74},{"user_id":552,"name":"keesh","steam_id":76561199121201364,"connected_time":824000000000,"state":"active","ping":68},{"user_id":555,"name":"Big Oil","steam_id":76561199238964574,"connected_time":668000000000,"state":"active","ping":71},{"user_id":554,"name":"irritable vowel syndrome","steam_id":76561198117033273,"connected_time":778000000000,"state":"active","ping":140}]},{"server_id":8,"name":"Uncletopia | Dallas | 1 | All Maps","name_short":"dal-1","host":"dal-1.us.uncletopia.com","port":27015,"enabled":true,"region":"us-central","cc":"us","latitude":32.779167,"longitude":-96.80889,"reserved":0,"last_update":"0001-01-01T00:00:00Z","name_a2s":"Uncletopia | Dallas | 1 | All Maps","protocol":17,"map":"pl_frontier_final","folder":"tf","game":"Team Fortress","app_id":440,"player_count":24,"max_players":24,"Bots":0,"server_type":"Dedicated","server_os":"Linux","password":true,"vac":true,"version":"7932396","steam_id":85568392924469986,"keywords":["nocrits","nodmgspread","payload","uncletopia"],"game_id":440,"stv_port":27016,"stv_name":"Uncletopia | Dallas | 1 | All Maps | STV","players":[{"user_id":340,"name":"Greg Boberton 2012","steam_id":76561198983566026,"connected_time":6118000000000,"state":"active","ping":81},{"user_id":394,"name":"covered in ants","steam_id":76561198065266282,"connected_time":2021000000000,"state":"active","ping":82},{"user_id":411,"name":"Jav","steam_id":76561198073633513,"connected_time":511000000000,"state":"active","ping":74},{"user_id":375,"name":"Sahbi","steam_id":76561199196292242,"connected_time":3203000000000,"state":"active","ping":64},{"user_id":392,"name":"Pight","steam_id":76561198823422389,"connected_time":2040000000000,"state":"active","ping":83},{"user_id":396,"name":"Fletcher","steam_id":76561198317846538,"connected_time":1957000000000,"state":"active","ping":76},{"user_id":410,"name":"Broken Cereal‚àö","steam_id":76561198087489795,"connected_time":549000000000,"state":"active","ping":83},{"user_id":405,"name":"Ace_Steele23","steam_id":76561198086867678,"connected_time":1383000000000,"state":"active","ping":57},{"user_id":385,"name":"Jamie","steam_id":76561198917309036,"connected_time":2702000000000,"state":"active","ping":85},{"user_id":380,"name":"Snorps","steam_id":76561198964516229,"connected_time":3034000000000,"state":"active","ping":85},{"user_id":409,"name":"Holp","steam_id":76561199019186848,"connected_time":552000000000,"state":"active","ping":83},{"user_id":416,"name":"–ü–æ–ª–∫–æ–≤–Ω–∏–∫ M–æ–ª—å","steam_id":76561198120551680,"connected_time":268000000000,"state":"active","ping":60},{"user_id":408,"name":"WM1 PYRO","steam_id":76561198045893896,"connected_time":1007000000000,"state":"active","ping":110},{"user_id":407,"name":"Noid","steam_id":76561198227804500,"connected_time":1086000000000,"state":"active","ping":87},{"user_id":360,"name":"get with it","steam_id":76561198286627157,"connected_time":4834000000000,"state":"active","ping":79},{"user_id":413,"name":"Sup m8","steam_id":76561198081659121,"connected_time":459000000000,"state":"active","ping":41},{"user_id":374,"name":"OverPowered64","steam_id":76561198291027287,"connected_time":3284000000000,"state":"active","ping":56},{"user_id":406,"name":"fernando","steam_id":76561198142586591,"connected_time":1191000000000,"state":"active","ping":60},{"user_id":403,"name":"NeptuneÀñ‚Å∫ÔΩ°Àö‚ãÜÀô‚ô•","steam_id":76561199054203198,"connected_time":1590000000000,"state":"active","ping":86},{"user_id":400,"name":"LittleFieryOne","steam_id":76561198107463724,"connected_time":1891000000000,"state":"active","ping":82},{"user_id":414,"name":"Crispy","steam_id":76561198037481161,"connected_time":449000000000,"state":"active","ping":68},{"user_id":379,"name":"Reague","steam_id":76561199092175631,"connected_time":3069000000000,"state":"active","ping":73},{"user_id":382,"name":"Floating Peasant","steam_id":76561198000183671,"connected_time":2901000000000,"state":"active","ping":59},{"user_id":415,"name":"Average Caber Fan","steam_id":76561199451299044,"connected_time":443000000000,"state":"active","ping":77}]},{"server_id":108,"name":"Uncletopia | Dallas | 2 | All Maps","name_short":"dal-2","host":"dal-1.us.uncletopia.com","port":27025,"enabled":true,"region":"us-central","cc":"us","latitude":32.779167,"longitude":-96.80889,"reserved":0,"last_update":"0001-01-01T00:00:00Z","name_a2s":"Uncletopia | Dallas | 2 | All Maps","protocol":17,"map":"pl_snowycoast","folder":"tf","game":"Team Fortress","app_id":440,"player_count":24,"max_players":24,"Bots":0,"server_type":"Dedicated","server_os":"Linux","password":true,"vac":true,"version":"7932396","steam_id":85568392924469988,"keywords":["nocrits","nodmgspread","payload","uncletopia"],"game_id":440,"stv_port":27026,"stv_name":"Uncletopia | Dallas | 2 | All Maps | STV","players":[{"user_id":195,"name":"Redguardowen","steam_id":76561198176957862,"connected_time":4494000000000,"state":"active","ping":56},{"user_id":254,"name":"sex","steam_id":76561198138467891,"connected_time":128000000000,"state":"active","ping":82},{"user_id":199,"name":"aisu","steam_id":76561198043768507,"connected_time":4142000000000,"state":"active","ping":87},{"user_id":188,"name":"Agent Bowtie","steam_id":76561198175839279,"connected_time":5412000000000,"state":"active","ping":55},{"user_id":224,"name":"Fig Newton","steam_id":76561198064255155,"connected_time":2604000000000,"state":"active","ping":62},{"user_id":216,"name":"carrotcake","steam_id":76561198030997761,"connected_time":3267000000000,"state":"active","ping":45},{"user_id":229,"name":"Mile S","steam_id":76561198163238434,"connected_time":2249000000000,"state":"active","ping":93},{"user_id":235,"name":"HOODOO_LOVER_2007","steam_id":76561199087691214,"connected_time":1694000000000,"state":"active","ping":93},{"user_id":239,"name":"Clumsy","steam_id":76561198056345245,"connected_time":1374000000000,"state":"active","ping":61},{"user_id":205,"name":"Pie‚Ñ¢","steam_id":76561198158312625,"connected_time":3943000000000,"state":"active","ping":111},{"user_id":255,"name":"Sax","steam_id":76561198055425123,"connected_time":112000000000,"state":"active","ping":116},{"user_id":236,"name":"SizableChap","steam_id":76561199148162904,"connected_time":1582000000000,"state":"active","ping":68},{"user_id":251,"name":"Mail Delivery","steam_id":76561198290046318,"connected_time":325000000000,"state":"active","ping":60},{"user_id":253,"name":"InvaderAlex","steam_id":76561198039232451,"connected_time":250000000000,"state":"active","ping":88},{"user_id":256,"name":"ConnorBruh","steam_id":76561198869159718,"connected_time":102000000000,"state":"active","ping":58},{"user_id":238,"name":"SRP","steam_id":76561197995626651,"connected_time":1486000000000,"state":"active","ping":52},{"user_id":246,"name":"5mech","steam_id":76561198979167520,"connected_time":827000000000,"state":"active","ping":59},{"user_id":197,"name":"MeMyBongusAndTheGreatOutdoors","steam_id":76561198097708978,"connected_time":4460000000000,"state":"active","ping":46},{"user_id":243,"name":"Proud Swift City Resident","steam_id":76561198036283992,"connected_time":1071000000000,"state":"active","ping":77},{"user_id":228,"name":"WashingMachine","steam_id":76561198318572060,"connected_time":2429000000000,"state":"active","ping":60},{"user_id":242,"name":"RockMan","steam_id":76561199228684720,"connected_time":1190000000000,"state":"active","ping":60},{"user_id":247,"name":"DragonHunter994","steam_id":76561199076203907,"connected_time":703000000000,"state":"active","ping":63},{"user_id":250,"name":"crunchy obama","steam_id":76561198044485217,"connected_time":425000000000,"state":"active","ping":95},{"user_id":88,"name":"nori_420","steam_id":76561199117134203,"connected_time":13736000000000,"state":"active","ping":86}]},{"server_id":5,"name":"Uncletopia | Frankfurt | 1 | All Maps","name_short":"frk-1","host":"frk-1.de.uncletopia.com","port":27015,"enabled":true,"region":"eu","cc":"de","latitude":50.110924,"longitude":8.682127,"reserved":0,"last_update":"0001-01-01T00:00:00Z","name_a2s":"Uncletopia | Frankfurt | 1 | All Maps","protocol":17,"map":"koth_highpass","folder":"tf","game":"Team Fortress","app_id":440,"player_count":0,"max_players":24,"Bots":0,"server_type":"Dedicated","server_os":"Linux","password":true,"vac":true,"version":"7932396","steam_id":85568392924469989,"keywords":["cp","nocrits","nodmgspread","uncletopia"],"game_id":440,"stv_port":27016,"stv_name":"Uncletopia | Frankfurt | 1 | All Maps | STV","players":null},{"server_id":110,"name":"Uncletopia | Frankfurt | 2 | All Maps","name_short":"frk-2","host":"frk-1.de.uncletopia.com","port":27025,"enabled":true,"region":"eu","cc":"de","latitude":50.110924,"longitude":8.682127,"reserved":0,"last_update":"0001-01-01T00:00:00Z","name_a2s":"Uncletopia | Frankfurt | 2 | All Maps","protocol":17,"map":"pl_pier","folder":"tf","game":"Team Fortress","app_id":440,"player_count":0,"max_players":24,"Bots":0,"server_type":"Dedicated","server_os":"Linux","password":true,"vac":true,"version":"7932396","steam_id":85568392924469990,"keywords":["nocrits","nodmgspread","payload","uncletopia"],"game_id":440,"stv_port":27026,"stv_name":"Uncletopia | Frankfurt | 2 | All Maps | STV","players":null},{"server_id":308,"name":"Uncletopia | Frankfurt | 3 | All Maps","name_short":"frk-3","host":"frk-1.de.uncletopia.com","port":27035,"enabled":true,"region":"eu","cc":"de","latitude":50.110924,"longitude":8.682127,"reserved":0,"last_update":"0001-01-01T00:00:00Z","name_a2s":"Uncletopia | Frankfurt | 3 | All Maps","protocol":17,"map":"koth_cascade","folder":"tf","game":"Team Fortress","app_id":440,"player_count":0,"max_players":24,"Bots":0,"server_type":"Dedicated","server_os":"Linux","password":true,"vac":true,"version":"7932396","steam_id":85568392924504274,"keywords":["cp","nocrits","nodmgspread","uncletopia"],"game_id":440,"stv_port":27036,"stv_name":"Uncletopia | Frankfurt | 3 | All Maps | STV","players":null},{"server_id":309,"name":"Uncletopia | Frankfurt | 4 | All Maps","name_short":"frk-4","host":"frk-1.de.uncletopia.com","port":27045,"enabled":true,"region":"eu","cc":"de","latitude":50.110924,"longitude":8.682127,"reserved":0,"last_update":"0001-01-01T00:00:00Z","name_a2s":"Uncletopia | Frankfurt | 4 | All Maps","protocol":17,"map":"pl_snowycoast","folder":"tf","game":"Team Fortress","app_id":440,"player_count":0,"max_players":24,"Bots":0,"server_type":"Dedicated","server_os":"Linux","password":true,"vac":true,"version":"7932396","steam_id":85568392924504275,"keywords":["nocrits","nodmgspread","payload","uncletopia"],"game_id":440,"stv_port":27046,"stv_name":"Uncletopia | Frankfurt | 4 | All Maps | STV","players":null},{"server_id":310,"name":"Uncletopia | Frankfurt | 5 | All Maps","name_short":"frk-5","host":"frk-1.de.uncletopia.com","port":27055,"enabled":true,"region":"eu","cc":"de","latitude":50.110924,"longitude":8.682127,"reserved":0,"last_update":"0001-01-01T00:00:00Z","name_a2s":"Uncletopia | Frankfurt | 5 | All Maps","protocol":17,"map":"koth_highpass","folder":"tf","game":"Team Fortress","app_id":440,"player_count":0,"max_players":24,"Bots":0,"server_type":"Dedicated","server_os":"Linux","password":true,"vac":true,"version":"7932396","steam_id":85568392924504277,"keywords":["cp","nocrits","nodmgspread","uncletopia"],"game_id":440,"stv_port":27056,"stv_name":"Uncletopia | Frankfurt | 5 | All Maps | STV","players":null},{"server_id":311,"name":"Uncletopia | Frankfurt | 6 | All Maps","name_short":"frk-6","host":"frk-1.de.uncletopia.com","port":27065,"enabled":true,"region":"eu","cc":"de","latitude":50.110924,"longitude":8.682127,"reserved":0,"last_update":"0001-01-01T00:00:00Z","name_a2s":"Uncletopia | Frankfurt | 6 | All Maps","protocol":17,"map":"koth_highpass","folder":"tf","game":"Team Fortress","app_id":440,"player_count":0,"max_players":24,"Bots":0,"server_type":"Dedicated","server_os":"Linux","password":true,"vac":true,"version":"7932396","steam_id":85568392924504278,"keywords":["cp","nocrits","nodmgspread","uncletopia"],"game_id":440,"stv_port":27066,"stv_name":"Uncletopia | Frankfurt | 6 | All Maps | STV","players":null},{"server_id":23,"name":"Uncletopia | Frankfurt | 7 | Stopwatch Beta","name_short":"frk-7","host":"frk-1.de.uncletopia.com","port":27075,"enabled":true,"region":"eu","cc":"de","latitude":50.110924,"longitude":8.682127,"reserved":0,"last_update":"0001-01-01T00:00:00Z","name_a2s":"Uncletopia | Frankfurt | 7 | Stopwatch Beta","protocol":17,"map":"pl_snowycoast","folder":"tf","game":"Team Fortress","app_id":440,"player_count":0,"max_players":24,"Bots":0,"server_type":"Dedicated","server_os":"Linux","password":true,"vac":true,"version":"7932396","steam_id":85568392924742827,"keywords":["nocrits","nodmgspread","payload","uncletopia"],"game_id":440,"stv_port":27076,"stv_name":"Uncletopia | Frankfurt | 7 | Stopwatch Beta | STV","players":null},{"server_id":24,"name":"Uncletopia | Frankfurt | 8 | Community","name_short":"frk-8","host":"frk-1.de.uncletopia.com","port":27085,"enabled":true,"region":"eu","cc":"de","latitude":50.110924,"longitude":8.682127,"reserved":0,"last_update":"0001-01-01T00:00:00Z","name_a2s":"Uncletopia | Frankfurt | 8 | Community","protocol":17,"map":"workshop/koth_ashville_final.ugc2130459942","folder":"tf","game":"Team Fortress","app_id":440,"player_count":0,"max_players":24,"Bots":0,"server_type":"Dedicated","server_os":"Linux","password":true,"vac":true,"version":"7932396","steam_id":85568392924742828,"keywords":["cp","nocrits","nodmgspread","uncletopia"],"game_id":440,"stv_port":27086,"stv_name":"Uncletopia | Frankfurt | 8 | Community | STV","players":null},{"server_id":202,"name":"Uncletopia | Hong Kong | 1 | All Maps","name_short":"hgk-1","host":"hgk-1.hk.uncletopia.com","port":27015,"enabled":true,"region":"asia","cc":"hk","latitude":22.302711,"longitude":114.177216,"reserved":0,"last_update":"0001-01-01T00:00:00Z","name_a2s":"Uncletopia | Hong Kong | 1 | All Maps","protocol":17,"map":"koth_cascade","folder":"tf","game":"Team Fortress","app_id":440,"player_count":1,"max_players":24,"Bots":0,"server_type":"Dedicated","server_os":"Linux","password":true,"vac":true,"version":"7932396","steam_id":85568392924494504,"keywords":["cp","nocrits","nodmgspread","uncletopia"],"game_id":440,"stv_port":27016,"stv_name":"Uncletopia | Hong Kong | 1 | All Maps | STV","players":[{"user_id":13,"name":"DeesDeeds","steam_id":76561199244400513,"connected_time":70000000000,"state":"spawning","ping":68}]},{"server_id":1,"name":"Uncletopia | Los Angeles | 1 | All Maps","name_short":"lax-1","host":"lax-1.us.uncletopia.com","port":27015,"enabled":true,"region":"us-west","cc":"us","latitude":33.94279,"longitude":-118.41004,"reserved":0,"last_update":"0001-01-01T00:00:00Z","name_a2s":"Uncletopia | Los Angeles | 1 | All Maps","protocol":17,"map":"pl_borneo","folder":"tf","game":"Team Fortress","app_id":440,"player_count":15,"max_players":24,"Bots":0,"server_type":"Dedicated","server_os":"Linux","password":true,"vac":true,"version":"7932396","steam_id":85568392924469991,"keywords":["nocrits","nodmgspread","payload","uncletopia"],"game_id":440,"stv_port":27016,"stv_name":"Uncletopia | Los Angeles | 1 | All Maps | STV","players":[{"user_id":205,"name":"donkeyballs2007","steam_id":76561199466298683,"connected_time":2881000000000,"state":"active","ping":39},{"user_id":256,"name":"drevott74","steam_id":76561199262592779,"connected_time":145000000000,"state":"active","ping":85},{"user_id":257,"name":"Spooby","steam_id":76561198168114366,"connected_time":78000000000,"state":"active","ping":108},{"user_id":258,"name":"Disciple of Crazy Steve","steam_id":76561198870068763,"connected_time":38000000000,"state":"active","ping":130},{"user_id":259,"name":"UnusualTofu","steam_id":76561198060103750,"connected_time":19000000000,"state":"active","ping":72},{"user_id":242,"name":"Ralph Kramden (Slim Charles)","steam_id":76561197981687895,"connected_time":755000000000,"state":"active","ping":59},{"user_id":255,"name":"sirkelilimon","steam_id":76561199012980765,"connected_time":152000000000,"state":"active","ping":70},{"user_id":194,"name":"pissacrash","steam_id":76561198110723576,"connected_time":3231000000000,"state":"active","ping":34},{"user_id":260,"name":"Malevo","steam_id":76561198148606522,"connected_time":12000000000,"state":"spawning","ping":75},{"user_id":225,"name":"SkyBoundCaptain","steam_id":76561198045494959,"connected_time":1254000000000,"state":"active","ping":62},{"user_id":234,"name":"Gimli","steam_id":76561198153729934,"connected_time":1074000000000,"state":"active","ping":85},{"user_id":231,"name":"Taijo","steam_id":76561199237601803,"connected_time":1137000000000,"state":"active","ping":538},{"user_id":236,"name":"Dreamzapp","steam_id":76561199084936632,"connected_time":1040000000000,"state":"active","ping":67},{"user_id":238,"name":"WaveSmash","steam_id":76561198208785485,"connected_time":968000000000,"state":"active","ping":81},{"user_id":191,"name":"Nooblord","steam_id":76561199105123730,"connected_time":3669000000000,"state":"active","ping":86}]},{"server_id":112,"name":"Uncletopia | Los Angeles | 2 | All Maps","name_short":"lax-2","host":"lax-1.us.uncletopia.com","port":27025,"enabled":true,"region":"us-west","cc":"us","latitude":33.94279,"longitude":-118.41004,"reserved":0,"last_update":"0001-01-01T00:00:00Z","name_a2s":"Uncletopia | Los Angeles | 2 | All Maps","protocol":17,"map":"pl_borneo","folder":"tf","game":"Team Fortress","app_id":440,"player_count":24,"max_players":24,"Bots":0,"server_type":"Dedicated","server_os":"Linux","password":true,"vac":true,"version":"7932396","steam_id":85568392924469992,"keywords":["nocrits","nodmgspread","payload","uncletopia"],"game_id":440,"stv_port":27026,"stv_name":"Uncletopia | Los Angeles | 2 | All Maps | STV","players":[{"user_id":375,"name":"MonkeyMedic33","steam_id":76561197996138563,"connected_time":373000000000,"state":"active","ping":88},{"user_id":387,"name":"Roswell Randy","steam_id":76561198010208485,"connected_time":24000000000,"state":"active","ping":113},{"user_id":372,"name":"MayaBon","steam_id":76561198797968261,"connected_time":531000000000,"state":"active","ping":72},{"user_id":339,"name":"LordKirby","steam_id":76561198006938286,"connected_time":2724000000000,"state":"active","ping":69},{"user_id":358,"name":"jon pickle water","steam_id":76561199036212135,"connected_time":1995000000000,"state":"active","ping":89},{"user_id":338,"name":"Kip üêá","steam_id":76561198075476523,"connected_time":2743000000000,"state":"active","ping":67},{"user_id":376,"name":"franky","steam_id":76561198070903328,"connected_time":365000000000,"state":"active","ping":112},{"user_id":371,"name":"123","steam_id":76561198106308056,"connected_time":544000000000,"state":"active","ping":179},{"user_id":340,"name":"Grognak","steam_id":76561198044710527,"connected_time":2695000000000,"state":"active","ping":83},{"user_id":377,"name":"Dodobirdthe3rd","steam_id":76561199119848224,"connected_time":349000000000,"state":"active","ping":45},{"user_id":364,"name":"bladees saddest, realest verse","steam_id":76561198098099826,"connected_time":1511000000000,"state":"active","ping":48},{"user_id":378,"name":"breakfast","steam_id":76561198043712978,"connected_time":342000000000,"state":"active","ping":61},{"user_id":214,"name":"TORN RETINAS","steam_id":76561198033822457,"connected_time":11532000000000,"state":"active","ping":67},{"user_id":374,"name":"riSygneD","steam_id":76561198331618687,"connected_time":460000000000,"state":"active","ping":35},{"user_id":379,"name":"monk mode protocol","steam_id":76561199100342013,"connected_time":329000000000,"state":"active","ping":47},{"user_id":380,"name":"mr cool","steam_id":76561197967915784,"connected_time":323000000000,"state":"active","ping":74},{"user_id":381,"name":"bendera","steam_id":76561197965486503,"connected_time":304000000000,"state":"active","ping":115},{"user_id":383,"name":"cataconik","steam_id":76561198145530829,"connected_time":240000000000,"state":"active","ping":121},{"user_id":361,"name":"johnnajojonna","steam_id":76561199488883432,"connected_time":1968000000000,"state":"active","ping":106},{"user_id":356,"name":"Herbal Infusion","steam_id":76561198146881319,"connected_time":2156000000000,"state":"active","ping":58},{"user_id":352,"name":"goddess of holes","steam_id":76561198013483349,"connected_time":2278000000000,"state":"active","ping":77},{"user_id":353,"name":"the bone zone","steam_id":76561198022141048,"connected_time":2277000000000,"state":"active","ping":90},{"user_id":281,"name":"[Champ] Marssygurl","steam_id":76561198014928241,"connected_time":6407000000000,"state":"active","ping":130},{"user_id":363,"name":"[El Fail] MR.BadassMCLee","steam_id":76561198043787818,"connected_time":1860000000000,"state":"active","ping":94}]},{"server_id":324,"name":"Uncletopia | Los Angeles | 3 | All Maps","name_short":"lax-3","host":"lax-1.us.uncletopia.com","port":27035,"enabled":true,"region":"us-west","cc":"us","latitude":33.94279,"longitude":-118.41004,"reserved":0,"last_update":"0001-01-01T00:00:00Z","name_a2s":"Uncletopia | Los Angeles | 3 | All Maps","protocol":17,"map":"pl_swiftwater_final1","folder":"tf","game":"Team Fortress","app_id":440,"player_count":24,"max_players":24,"Bots":0,"server_type":"Dedicated","server_os":"Linux","password":true,"vac":true,"version":"7932396","steam_id":85568392924510198,"keywords":["nocrits","nodmgspread","payload","uncletopia"],"game_id":440,"stv_port":27036,"stv_name":"Uncletopia | Los Angeles | 3 | All Maps | STV","players":[{"user_id":313,"name":"naturia","steam_id":76561198092317849,"connected_time":3356000000000,"state":"active","ping":45},{"user_id":332,"name":"Nyges","steam_id":76561198139236154,"connected_time":1685000000000,"state":"active","ping":68},{"user_id":343,"name":"minerkid2004","steam_id":76561198044262827,"connected_time":964000000000,"state":"active","ping":58},{"user_id":346,"name":"adolf tickler","steam_id":76561198163120788,"connected_time":80000000000,"state":"active","ping":40},{"user_id":336,"name":"Fishandfish","steam_id":76561198298483804,"connected_time":1222000000000,"state":"active","ping":78},{"user_id":340,"name":"SCUD missile up your ass","steam_id":76561198066452726,"connected_time":1169000000000,"state":"active","ping":53},{"user_id":319,"name":"Dylan Pulido","steam_id":76561198272681544,"connected_time":2913000000000,"state":"active","ping":56},{"user_id":328,"name":"sams","steam_id":76561199093161260,"connected_time":1851000000000,"state":"active","ping":69},{"user_id":329,"name":"zenai","steam_id":76561199006227566,"connected_time":1824000000000,"state":"active","ping":128},{"user_id":331,"name":"glue","steam_id":76561198382076026,"connected_time":1730000000000,"state":"active","ping":49},{"user_id":314,"name":"-_-","steam_id":76561198048754646,"connected_time":3338000000000,"state":"active","ping":46},{"user_id":347,"name":"OutOfSortsOne","steam_id":76561198836006858,"connected_time":30000000000,"state":"active","ping":133},{"user_id":321,"name":"gunch","steam_id":76561198109948247,"connected_time":2855000000000,"state":"active","ping":85},{"user_id":258,"name":"Hindmost","steam_id":76561199081837220,"connected_time":7296000000000,"state":"active","ping":88},{"user_id":337,"name":"SanitysEdge","steam_id":76561198130732813,"connected_time":1212000000000,"state":"active","ping":47},{"user_id":338,"name":"trans ally danny  brown","steam_id":76561198239598834,"connected_time":1205000000000,"state":"active","ping":102},{"user_id":341,"name":"-L","steam_id":76561198046074220,"connected_time":1088000000000,"state":"active","ping":36},{"user_id":276,"name":"Ice cream sandwich","steam_id":76561198172748357,"connected_time":6823000000000,"state":"active","ping":57},{"user_id":316,"name":"raya","steam_id":76561198051504581,"connected_time":3321000000000,"state":"active","ping":77},{"user_id":327,"name":"Grizzakk","steam_id":76561198115821923,"connected_time":1903000000000,"state":"active","ping":85},{"user_id":326,"name":"selling rice","steam_id":76561198063357023,"connected_time":1997000000000,"state":"active","ping":51},{"user_id":334,"name":"DropBear","steam_id":76561197964435496,"connected_time":1526000000000,"state":"active","ping":139},{"user_id":339,"name":"RedPeng1","steam_id":76561198979539470,"connected_time":1202000000000,"state":"active","ping":78},{"user_id":345,"name":"Subject Delta","steam_id":76561199109118980,"connected_time":296000000000,"state":"active","ping":62}]},{"server_id":25,"name":"Uncletopia | Los Angeles | 4 | Stopwatch Beta","name_short":"lax-4","host":"lax-1.us.uncletopia.com","port":27045,"enabled":true,"region":"us-west","cc":"us","latitude":33.94279,"longitude":-118.41004,"reserved":0,"last_update":"0001-01-01T00:00:00Z","name_a2s":"Uncletopia | Los Angeles | 4 | Stopwatch Beta","protocol":17,"map":"pl_upward","folder":"tf","game":"Team Fortress","app_id":440,"player_count":11,"max_players":24,"Bots":0,"server_type":"Dedicated","server_os":"Linux","password":true,"vac":true,"version":"7932396","steam_id":85568392924510199,"keywords":["nocrits","nodmgspread","payload","uncletopia"],"game_id":440,"stv_port":27046,"stv_name":"Uncletopia | Los Angeles | 4 | Stopwatch Beta | STV","players":[{"user_id":45,"name":"bcizzo","steam_id":76561197994399953,"connected_time":2813000000000,"state":"active","ping":57},{"user_id":74,"name":"Robo","steam_id":76561197979357919,"connected_time":878000000000,"state":"active","ping":79},{"user_id":49,"name":"CrystalClear","steam_id":76561198210417120,"connected_time":2418000000000,"state":"active","ping":64},{"user_id":19,"name":"Oatmeal","steam_id":76561199378924674,"connected_time":5318000000000,"state":"active","ping":166},{"user_id":77,"name":"AXZIOM","steam_id":76561198255074952,"connected_time":680000000000,"state":"active","ping":74},{"user_id":78,"name":"MiserableBaldguy","steam_id":76561199139669907,"connected_time":571000000000,"state":"active","ping":250},{"user_id":28,"name":"Agent Q","steam_id":76561198830829003,"connected_time":3457000000000,"state":"active","ping":67},{"user_id":68,"name":"Mr_Moose","steam_id":76561198152815154,"connected_time":1564000000000,"state":"active","ping":141},{"user_id":59,"name":"babywizard","steam_id":76561198097757862,"connected_time":1935000000000,"state":"active","ping":59},{"user_id":38,"name":"Allison Ghost ‚∏ª‚∏ª‚∏ª‚∏∫‚∏∫","steam_id":76561198053851548,"connected_time":3189000000000,"state":"active","ping":81},{"user_id":42,"name":"Battle Engineer","steam_id":76561198145396989,"connected_time":3086000000000,"state":"active","ping":36}]},{"server_id":11,"name":"Uncletopia | London | 1 | All Maps","name_short":"lon-1","host":"lon-1.uk.uncletopia.com","port":27015,"enabled":true,"region":"eu","cc":"gb","latitude":51.509865,"longitude":-0.118092,"reserved":0,"last_update":"0001-01-01T00:00:00Z","name_a2s":"Uncletopia | London | 1 | All Maps","protocol":17,"map":"koth_cascade","folder":"tf","game":"Team Fortress","app_id":440,"player_count":0,"max_players":24,"Bots":0,"server_type":"Dedicated","server_os":"Linux","password":true,"vac":true,"version":"7932396","steam_id":85568392924367362,"keywords":["cp","nocrits","nodmgspread","uncletopia"],"game_id":440,"stv_port":27016,"stv_name":"Uncletopia | London | 1 | All Maps | STV","players":null},{"server_id":114,"name":"Uncletopia | London | 2 | All Maps","name_short":"lon-2","host":"lon-1.uk.uncletopia.com","port":27025,"enabled":true,"region":"eu","cc":"gb","latitude":51.509865,"longitude":-0.118092,"reserved":0,"last_update":"0001-01-01T00:00:00Z","name_a2s":"Uncletopia | London | 2 | All Maps","protocol":17,"map":"koth_lakeside_final","folder":"tf","game":"Team Fortress","app_id":440,"player_count":0,"max_players":24,"Bots":0,"server_type":"Dedicated","server_os":"Linux","password":true,"vac":true,"version":"7932396","steam_id":85568392924470941,"keywords":["cp","nocrits","nodmgspread","uncletopia"],"game_id":440,"stv_port":27026,"stv_name":"Uncletopia | London | 2 | All Maps | STV","players":null},{"server_id":320,"name":"Uncletopia | London | 3 | All Maps","name_short":"lon-3","host":"lon-1.uk.uncletopia.com","port":27035,"enabled":true,"region":"eu","cc":"gb","latitude":51.509865,"longitude":-0.118092,"reserved":0,"last_update":"0001-01-01T00:00:00Z","name_a2s":"Uncletopia | London | 3 | All Maps","protocol":17,"map":"cp_dustbowl","folder":"tf","game":"Team Fortress","app_id":440,"player_count":2,"max_players":24,"Bots":0,"server_type":"Dedicated","server_os":"Linux","password":true,"vac":true,"version":"7932396","steam_id":85568392924510192,"keywords":["cp","nocrits","nodmgspread","uncletopia"],"game_id":440,"stv_port":27036,"stv_name":"Uncletopia | London | 3 | All Maps | STV","players":[{"user_id":1018,"name":"SirDapperBirb","steam_id":76561198978305181,"connected_time":4522000000000,"state":"active","ping":122},{"user_id":1016,"name":"Dr.Doc","steam_id":76561198981911429,"connected_time":4804000000000,"state":"active","ping":160}]},{"server_id":321,"name":"Uncletopia | London | 4 | All Maps","name_short":"lon-4","host":"lon-1.uk.uncletopia.com","port":27045,"enabled":true,"region":"eu","cc":"gb","latitude":51.509865,"longitude":-0.118092,"reserved":0,"last_update":"0001-01-01T00:00:00Z","name_a2s":"Uncletopia | London | 4 | All Maps","protocol":17,"map":"pl_barnblitz","folder":"tf","game":"Team Fortress","app_id":440,"player_count":0,"max_players":24,"Bots":0,"server_type":"Dedicated","server_os":"Linux","password":true,"vac":true,"version":"7932396","steam_id":85568392924510193,"keywords":["nocrits","nodmgspread","payload","uncletopia"],"game_id":440,"stv_port":27046,"stv_name":"Uncletopia | London | 4 | All Maps | STV","players":null},{"server_id":21,"name":"Uncletopia | London | 5 | All Maps","name_short":"lon-5","host":"lon-1.uk.uncletopia.com","port":27055,"enabled":true,"region":"eu","cc":"gb","latitude":51.509865,"longitude":-0.118092,"reserved":0,"last_update":"0001-01-01T00:00:00Z","name_a2s":"Uncletopia | London | 5 | All Maps","protocol":17,"map":"pl_badwater","folder":"tf","game":"Team Fortress","app_id":440,"player_count":0,"max_players":24,"Bots":0,"server_type":"Dedicated","server_os":"Linux","password":true,"vac":true,"version":"7932396","steam_id":85568392924742829,"keywords":["nocrits","nodmgspread","payload","uncletopia"],"game_id":440,"stv_port":27056,"stv_name":"Uncletopia | London | 5 | All Maps | STV","players":null},{"server_id":22,"name":"Uncletopia | London | 6 | All Maps","name_short":"lon-6","host":"lon-1.uk.uncletopia.com","port":27065,"enabled":true,"region":"eu","cc":"gb","latitude":51.509865,"longitude":-0.118092,"reserved":0,"last_update":"0001-01-01T00:00:00Z","name_a2s":"Uncletopia | London | 6 | All Maps","protocol":17,"map":"pl_upward","folder":"tf","game":"Team Fortress","app_id":440,"player_count":0,"max_players":24,"Bots":0,"server_type":"Dedicated","server_os":"Linux","password":true,"vac":true,"version":"7932396","steam_id":85568392924742830,"keywords":["nocrits","nodmgspread","payload","uncletopia"],"game_id":440,"stv_port":27066,"stv_name":"Uncletopia | London | 6 | All Maps | STV","players":null},{"server_id":40,"name":"Uncletopia | London | 7 | No Payload","name_short":"lon-7","host":"lon-1.uk.uncletopia.com","port":27075,"enabled":true,"region":"eu","cc":"gb","latitude":51.509865,"longitude":-0.118092,"reserved":0,"last_update":"0001-01-01T00:00:00Z","name_a2s":"Uncletopia | London | 7 | No Payload","protocol":17,"map":"koth_lazarus","folder":"tf","game":"Team Fortress","app_id":440,"player_count":0,"max_players":24,"Bots":0,"server_type":"Dedicated","server_os":"Linux","password":true,"vac":true,"version":"7932396","steam_id":85568392924964314,"keywords":["cp","nocrits","nodmgspread","uncletopia"],"game_id":440,"stv_port":27076,"stv_name":"Uncletopia | London | 7 | No Payload | STV","players":null},{"server_id":41,"name":"Uncletopia | London | 8 | Community","name_short":"lon-8","host":"lon-1.uk.uncletopia.com","port":27085,"enabled":true,"region":"eu","cc":"gb","latitude":51.509865,"longitude":-0.118092,"reserved":0,"last_update":"0001-01-01T00:00:00Z","name_a2s":"Uncletopia | London | 8 | Community","protocol":17,"map":"workshop/koth_trenchfoot_b1a.ugc731436616","folder":"tf","game":"Team Fortress","app_id":440,"player_count":0,"max_players":24,"Bots":0,"server_type":"Dedicated","server_os":"Linux","password":true,"vac":true,"version":"7932396","steam_id":85568392924964315,"keywords":["cp","nocrits","nodmgspread","uncletopia"],"game_id":440,"stv_port":27086,"stv_name":"Uncletopia | London | 8 | Community | STV","players":null},{"server_id":300,"name":"Uncletopia | Montr√©al | 1 | All Maps","name_short":"mtl-1","host":"mtl-1.ca.uncletopia.com","port":27015,"enabled":true,"region":"us-east","cc":"ca","latitude":45.50889,"longitude":-73.56167,"reserved":0,"last_update":"0001-01-01T00:00:00Z","name_a2s":"Uncletopia | Montr√©al | 1 | All Maps","protocol":17,"map":"koth_cascade","folder":"tf","game":"Team Fortress","app_id":440,"player_count":2,"max_players":24,"Bots":0,"server_type":"Dedicated","server_os":"Linux","password":true,"vac":true,"version":"7932396","steam_id":85568392924500087,"keywords":["cp","nocrits","nodmgspread","uncletopia"],"game_id":440,"stv_port":27016,"stv_name":"Uncletopia | Montr√©al | 1 | All Maps | STV","players":[{"user_id":206,"name":"coolname","steam_id":76561199153923345,"connected_time":2261000000000,"state":"active","ping":76},{"user_id":207,"name":"fortnite gamer","steam_id":76561199445491246,"connected_time":2240000000000,"state":"active","ping":64}]},{"server_id":301,"name":"Uncletopia | Montr√©al | 2 | All Maps","name_short":"mtl-2","host":"mtl-1.ca.uncletopia.com","port":27025,"enabled":true,"region":"us-east","cc":"ca","latitude":45.50889,"longitude":-73.56167,"reserved":0,"last_update":"0001-01-01T00:00:00Z","name_a2s":"Uncletopia | Montr√©al | 2 | All Maps","protocol":17,"map":"koth_lakeside_final","folder":"tf","game":"Team Fortress","app_id":440,"player_count":0,"max_players":24,"Bots":0,"server_type":"Dedicated","server_os":"Linux","password":true,"vac":true,"version":"7932396","steam_id":85568392924500088,"keywords":["cp","nocrits","nodmgspread","uncletopia"],"game_id":440,"stv_port":27026,"stv_name":"Uncletopia | Montr√©al | 2 | All Maps | STV","players":null},{"server_id":302,"name":"Uncletopia | Montr√©al | 3 | All Maps","name_short":"mtl-3","host":"mtl-1.ca.uncletopia.com","port":27035,"enabled":true,"region":"us-east","cc":"ca","latitude":45.50889,"longitude":-73.56167,"reserved":0,"last_update":"0001-01-01T00:00:00Z","name_a2s":"Uncletopia | Montr√©al | 3 | All Maps","protocol":17,"map":"koth_cascade","folder":"tf","game":"Team Fortress","app_id":440,"player_count":0,"max_players":24,"Bots":0,"server_type":"Dedicated","server_os":"Linux","password":true,"vac":true,"version":"7932396","steam_id":85568392924500089,"keywords":["cp","nocrits","nodmgspread","uncletopia"],"game_id":440,"stv_port":27036,"stv_name":"Uncletopia | Montr√©al | 3 | All Maps | STV","players":null},{"server_id":303,"name":"Uncletopia | Montr√©al | 4 | No Payload","name_short":"mtl-4","host":"mtl-1.ca.uncletopia.com","port":27045,"enabled":true,"region":"us-east","cc":"ca","latitude":45.50889,"longitude":-73.56167,"reserved":0,"last_update":"0001-01-01T00:00:00Z","name_a2s":"Uncletopia | Montr√©al | 4 | No Payload","protocol":17,"map":"cp_sunshine","folder":"tf","game":"Team Fortress","app_id":440,"player_count":0,"max_players":24,"Bots":0,"server_type":"Dedicated","server_os":"Linux","password":true,"vac":true,"version":"7932396","steam_id":85568392924500090,"keywords":["cp","nocrits","nodmgspread","uncletopia"],"game_id":440,"stv_port":27046,"stv_name":"Uncletopia | Montr√©al | 4 | No Payload | STV","players":null},{"server_id":13,"name":"Uncletopia | New York City | 1 | All Maps","name_short":"nyc-1","host":"nyc-1.us.uncletopia.com","port":27015,"enabled":true,"region":"us-east","cc":"us","latitude":40.73061,"longitude":-73.93524,"reserved":0,"last_update":"0001-01-01T00:00:00Z","name_a2s":"Uncletopia | New York City | 1 | All Maps","protocol":17,"map":"cp_dustbowl","folder":"tf","game":"Team Fortress","app_id":440,"player_count":24,"max_players":24,"Bots":0,"server_type":"Dedicated","server_os":"Linux","password":true,"vac":true,"version":"7932396","steam_id":85568392924469993,"keywords":["cp","nocrits","nodmgspread","uncletopia"],"game_id":440,"stv_port":27016,"stv_name":"Uncletopia | New York City | 1 | All Maps | STV","players":[{"user_id":472,"name":"gyozaking","steam_id":76561197972312696,"connected_time":230000000000,"state":"active","ping":50},{"user_id":464,"name":"canadian birds","steam_id":76561198059466588,"connected_time":1079000000000,"state":"active","ping":59},{"user_id":465,"name":"caca sniffer","steam_id":76561199099914725,"connected_time":955000000000,"state":"active","ping":119},{"user_id":474,"name":"rollo","steam_id":76561198993144931,"connected_time":145000000000,"state":"active","ping":67},{"user_id":451,"name":"Snoogs","steam_id":76561198444880931,"connected_time":2553000000000,"state":"active","ping":67},{"user_id":452,"name":"A very nice man","steam_id":76561198165472253,"connected_time":2534000000000,"state":"active","ping":71},{"user_id":467,"name":"‚ô¶‚ô£Quadric‚ô•‚ô†","steam_id":76561198061003853,"connected_time":848000000000,"state":"active","ping":50},{"user_id":444,"name":"SentiuntReus","steam_id":76561198208788677,"connected_time":3409000000000,"state":"active","ping":52},{"user_id":397,"name":"Wique","steam_id":76561198071217597,"connected_time":7226000000000,"state":"active","ping":69},{"user_id":462,"name":"Skyfox","steam_id":76561198036647535,"connected_time":2147000000000,"state":"active","ping":119},{"user_id":445,"name":"gamer girl looking for a bf","steam_id":76561198279901162,"connected_time":2906000000000,"state":"active","ping":70},{"user_id":432,"name":"badasscoolboy57","steam_id":76561198795412055,"connected_time":4193000000000,"state":"active","ping":51},{"user_id":468,"name":"reymundo","steam_id":76561197989412830,"connected_time":846000000000,"state":"active","ping":121},{"user_id":456,"name":"hoovy spy","steam_id":76561198999843667,"connected_time":2496000000000,"state":"active","ping":73},{"user_id":457,"name":"Voyager","steam_id":76561199128786637,"connected_time":2458000000000,"state":"active","ping":91},{"user_id":386,"name":"Periculosum PhD in Funny","steam_id":76561198123370914,"connected_time":8371000000000,"state":"active","ping":87},{"user_id":415,"name":"noided","steam_id":76561198353924837,"connected_time":6049000000000,"state":"active","ping":77},{"user_id":458,"name":"Lots0","steam_id":76561198043143145,"connected_time":2407000000000,"state":"active","ping":115},{"user_id":439,"name":"winrarFanatic","steam_id":76561198026538317,"connected_time":3849000000000,"state":"active","ping":82},{"user_id":473,"name":"Croakacola","steam_id":76561199184411105,"connected_time":167000000000,"state":"active","ping":53},{"user_id":460,"name":"|AG| Level","steam_id":76561198063633592,"connected_time":2394000000000,"state":"active","ping":100},{"user_id":404,"name":"Bee_Pirate","steam_id":76561199000599111,"connected_time":6990000000000,"state":"active","ping":74},{"user_id":367,"name":"Samrizo el Chorizo","steam_id":76561198009838162,"connected_time":10017000000000,"state":"active","ping":54},{"user_id":470,"name":"average rust player","steam_id":76561198047627340,"connected_time":756000000000,"state":"active","ping":55}]},{"server_id":14,"name":"Uncletopia | New York City | 2 | All Maps","name_short":"nyc-2","host":"nyc-1.us.uncletopia.com","port":27025,"enabled":true,"region":"us-east","cc":"us","latitude":40.73061,"longitude":-73.93524,"reserved":0,"last_update":"0001-01-01T00:00:00Z","name_a2s":"Uncletopia | New York City | 2 | All Maps","protocol":17,"map":"pl_snowycoast","folder":"tf","game":"Team Fortress","app_id":440,"player_count":24,"max_players":24,"Bots":0,"server_type":"Dedicated","server_os":"Linux","password":true,"vac":true,"version":"7932396","steam_id":85568392924469994,"keywords":["nocrits","nodmgspread","payload","uncletopia"],"game_id":440,"stv_port":27026,"stv_name":"Uncletopia | New York City | 2 | All Maps | STV","players":[{"user_id":361,"name":"Aristotle Voulton","steam_id":76561198100174923,"connected_time":3439000000000,"state":"active","ping":72},{"user_id":396,"name":"Rock Lee in a Bikini","steam_id":76561198011204478,"connected_time":414000000000,"state":"active","ping":66},{"user_id":283,"name":"Heropon","steam_id":76561198105224481,"connected_time":9585000000000,"state":"active","ping":58},{"user_id":382,"name":"tim-","steam_id":76561199119101315,"connected_time":977000000000,"state":"active","ping":52},{"user_id":278,"name":"Thurricane","steam_id":76561198410724666,"connected_time":9828000000000,"state":"active","ping":49},{"user_id":395,"name":"Sarumon","steam_id":76561198078652494,"connected_time":551000000000,"state":"active","ping":56},{"user_id":306,"name":"IMPACT CPU","steam_id":76561198001344879,"connected_time":6518000000000,"state":"active","ping":57},{"user_id":331,"name":"Nevil","steam_id":76561198067925462,"connected_time":5734000000000,"state":"active","ping":71},{"user_id":390,"name":"WATERWATERWATERWATERWATER","steam_id":76561198100799021,"connected_time":639000000000,"state":"active","ping":61},{"user_id":399,"name":"No_Dictators","steam_id":76561199065777321,"connected_time":296000000000,"state":"active","ping":89},{"user_id":369,"name":"Sire Salty","steam_id":76561198079639072,"connected_time":2802000000000,"state":"active","ping":55},{"user_id":397,"name":"Champtiago25","steam_id":76561199244312774,"connected_time":332000000000,"state":"active","ping":108},{"user_id":392,"name":"yep","steam_id":76561198150627999,"connected_time":623000000000,"state":"active","ping":63},{"user_id":370,"name":"Singular Rooster","steam_id":76561197983872657,"connected_time":2622000000000,"state":"active","ping":76},{"user_id":386,"name":"Terror-Billy #SaveTF2","steam_id":76561198328141870,"connected_time":827000000000,"state":"active","ping":70},{"user_id":389,"name":"john travolta from pulp fiction","steam_id":76561199487373269,"connected_time":665000000000,"state":"active","ping":55},{"user_id":334,"name":"Matchstick","steam_id":76561198399856863,"connected_time":4644000000000,"state":"active","ping":84},{"user_id":400,"name":"Pizza","steam_id":76561198118748364,"connected_time":51000000000,"state":"active","ping":74},{"user_id":388,"name":"Fishman_200","steam_id":76561198152455167,"connected_time":681000000000,"state":"active","ping":61},{"user_id":355,"name":"nullptr","steam_id":76561198111790388,"connected_time":3838000000000,"state":"active","ping":96},{"user_id":371,"name":"Rudy","steam_id":76561198013456828,"connected_time":2621000000000,"state":"active","ping":50},{"user_id":398,"name":"lfty","steam_id":76561198283841707,"connected_time":322000000000,"state":"active","ping":56},{"user_id":385,"name":"nerd","steam_id":76561198964101426,"connected_time":862000000000,"state":"active","ping":44}]},{"server_id":15,"name":"Uncletopia | New York City | 3 | Stopwatch Beta","name_short":"nyc-3","host":"nyc-1.us.uncletopia.com","port":27035,"enabled":true,"region":"us-east","cc":"us","latitude":40.73061,"longitude":-73.93524,"reserved":0,"last_update":"0001-01-01T00:00:00Z","name_a2s":"Uncletopia | New York City | 3 | Stopwatch Beta","protocol":17,"map":"workshop/koth_clearcut_b15.ugc2107050255","folder":"tf","game":"Team Fortress","app_id":440,"player_count":0,"max_players":24,"Bots":0,"server_type":"Dedicated","server_os":"Linux","password":true,"vac":true,"version":"7932396","steam_id":85568392924742820,"keywords":["cp","nocrits","nodmgspread","uncletopia"],"game_id":440,"stv_port":27036,"stv_name":"Uncletopia | New York City | 3 | Stopwatch Beta | STV","players":null},{"server_id":16,"name":"Uncletopia | New York City | 4 | Community","name_short":"nyc-4","host":"nyc-1.us.uncletopia.com","port":27045,"enabled":true,"region":"us-east","cc":"us","latitude":40.73061,"longitude":-73.93524,"reserved":0,"last_update":"0001-01-01T00:00:00Z","name_a2s":"Uncletopia | New York City | 4 | Community","protocol":17,"map":"workshop/pl_corrode_rc2.ugc546577989","folder":"tf","game":"Team Fortress","app_id":440,"player_count":24,"max_players":24,"Bots":0,"server_type":"Dedicated","server_os":"Linux","password":true,"vac":true,"version":"7932396","steam_id":85568392924742821,"keywords":["nocrits","nodmgspread","payload","uncletopia"],"game_id":440,"stv_port":27046,"stv_name":"Uncletopia | New York City | 4 | Community | STV","players":[{"user_id":463,"name":"St4r_K1ll3r","steam_id":76561198853157301,"connected_time":1650000000000,"state":"active","ping":56},{"user_id":464,"name":"Source Enjoyer","steam_id":76561198105663173,"connected_time":1622000000000,"state":"active","ping":75},{"user_id":457,"name":"k3ramb1t","steam_id":76561198097880352,"connected_time":2187000000000,"state":"active","ping":55},{"user_id":420,"name":"EmeraldYeti","steam_id":76561198318703857,"connected_time":4730000000000,"state":"active","ping":67},{"user_id":479,"name":"Denzel McFlurry","steam_id":76561199231296521,"connected_time":821000000000,"state":"active","ping":62},{"user_id":461,"name":"LostRibosome","steam_id":76561198224637224,"connected_time":1775000000000,"state":"active","ping":79},{"user_id":487,"name":"dillon","steam_id":76561198118054166,"connected_time":21000000000,"state":"spawning","ping":112},{"user_id":397,"name":"helen keller","steam_id":76561197979870540,"connected_time":6058000000000,"state":"active","ping":68},{"user_id":418,"name":"Mathispell","steam_id":76561198066256066,"connected_time":4781000000000,"state":"active","ping":64},{"user_id":429,"name":"monkeycake","steam_id":76561198272061915,"connected_time":4426000000000,"state":"active","ping":66},{"user_id":481,"name":"Cringys","steam_id":76561199029812838,"connected_time":527000000000,"state":"active","ping":130},{"user_id":466,"name":"0xymoron¬≤","steam_id":76561198135993275,"connected_time":1603000000000,"state":"active","ping":69},{"user_id":482,"name":"Lord Scrubling","steam_id":76561198263744445,"connected_time":396000000000,"state":"active","ping":77},{"user_id":459,"name":"Joshkinz","steam_id":76561199087994881,"connected_time":1955000000000,"state":"active","ping":60},{"user_id":467,"name":"DaSoulFlaya","steam_id":76561198047916808,"connected_time":1541000000000,"state":"active","ping":134},{"user_id":398,"name":"(Past Tense)","steam_id":76561197996279335,"connected_time":6040000000000,"state":"active","ping":60},{"user_id":483,"name":"GiraffeMan","steam_id":76561198042104084,"connected_time":347000000000,"state":"active","ping":50},{"user_id":470,"name":"Skiddy","steam_id":76561198125942665,"connected_time":1400000000000,"state":"active","ping":60},{"user_id":425,"name":"Etienne 115","steam_id":76561198351660265,"connected_time":4640000000000,"state":"active","ping":62},{"user_id":473,"name":"IanFishooks","steam_id":76561199403427527,"connected_time":1269000000000,"state":"active","ping":70},{"user_id":484,"name":"ChozoChorizo","steam_id":76561198272609196,"connected_time":309000000000,"state":"active","ping":81},{"user_id":428,"name":"Zephiel Castelianos","steam_id":76561198092435137,"connected_time":4593000000000,"state":"active","ping":71},{"user_id":485,"name":"anewbpro2015","steam_id":76561198214610860,"connected_time":255000000000,"state":"active","ping":54},{"user_id":486,"name":"Gorb","steam_id":76561198153634425,"connected_time":222000000000,"state":"active","ping":87}]},{"server_id":142,"name":"Uncletopia | S√£o Paulo | 1 | All Maps","name_short":"sao-1","host":"sao-1.br.uncletopia.com","port":27015,"enabled":true,"region":"sa","cc":"br","latitude":-23.533773,"longitude":-46.62529,"reserved":0,"last_update":"0001-01-01T00:00:00Z","name_a2s":"Uncletopia | S√£o Paulo | 1 | All Maps","protocol":17,"map":"koth_cascade","folder":"tf","game":"Team Fortress","app_id":440,"player_count":0,"max_players":24,"Bots":0,"server_type":"Dedicated","server_os":"Linux","password":true,"vac":true,"version":"7932396","steam_id":85568392924469996,"keywords":["cp","nocrits","nodmgspread","uncletopia"],"game_id":440,"stv_port":27016,"stv_name":"Uncletopia | S√£o Paulo | 1 | All Maps | STV","players":null},{"server_id":143,"name":"Uncletopia | S√£o Paulo | 2 | All Maps","name_short":"sao-2","host":"sao-2.br.uncletopia.com","port":27015,"enabled":true,"region":"sa","cc":"br","latitude":-23.533773,"longitude":-46.62529,"reserved":0,"last_update":"0001-01-01T00:00:00Z","name_a2s":"Uncletopia | S√£o Paulo | 2 | All Maps","protocol":17,"map":"cp_sunshine","folder":"tf","game":"Team Fortress","app_id":440,"player_count":1,"max_players":24,"Bots":0,"server_type":"Dedicated","server_os":"Linux","password":true,"vac":true,"version":"7932396","steam_id":85568392924485349,"keywords":["cp","nocrits","nodmgspread","uncletopia"],"game_id":440,"stv_port":27016,"stv_name":"Uncletopia | S√£o Paulo | 2 | All Maps | STV","players":[{"user_id":158,"name":"kate ‚ùÄ","steam_id":76561198805567120,"connected_time":104000000000,"state":"active","ping":42}]},{"server_id":7,"name":"Uncletopia | Seattle | 1 | All Maps","name_short":"sea-1","host":"sea-1.us.uncletopia.com","port":27015,"enabled":true,"region":"us-west","cc":"us","latitude":47.608013,"longitude":-122.33517,"reserved":0,"last_update":"0001-01-01T00:00:00Z","name_a2s":"Uncletopia | Seattle | 1 | All Maps","protocol":17,"map":"cp_dustbowl","folder":"tf","game":"Team Fortress","app_id":440,"player_count":24,"max_players":24,"Bots":0,"server_type":"Dedicated","server_os":"Linux","password":true,"vac":true,"version":"7932396","steam_id":85568392924469997,"keywords":["cp","nocrits","nodmgspread","uncletopia"],"game_id":440,"stv_port":27016,"stv_name":"Uncletopia | Seattle | 1 | All Maps | STV","players":[{"user_id":254,"name":"InterplanetaryGentlemann","steam_id":76561198146559390,"connected_time":9003000000000,"state":"active","ping":45},{"user_id":252,"name":"Officer Earl","steam_id":76561199019675078,"connected_time":9022000000000,"state":"active","ping":122},{"user_id":397,"name":"Grand","steam_id":76561198290143399,"connected_time":1305000000000,"state":"active","ping":76},{"user_id":415,"name":"bagsy","steam_id":76561198088778979,"connected_time":139000000000,"state":"active","ping":74},{"user_id":407,"name":"Applesauce","steam_id":76561198047011689,"connected_time":883000000000,"state":"active","ping":95},{"user_id":398,"name":"Greskrendtregk","steam_id":76561197969553142,"connected_time":1283000000000,"state":"active","ping":50},{"user_id":367,"name":"4 life","steam_id":76561198175961598,"connected_time":3738000000000,"state":"active","ping":90},{"user_id":291,"name":"Alphaarmy01","steam_id":76561198818913025,"connected_time":6640000000000,"state":"active","ping":121},{"user_id":366,"name":"Haydob13","steam_id":76561198110378191,"connected_time":3968000000000,"state":"active","ping":54},{"user_id":391,"name":"Skabbety","steam_id":76561198168044257,"connected_time":1612000000000,"state":"active","ping":43},{"user_id":383,"name":"Coowil","steam_id":76561198070985437,"connected_time":1898000000000,"state":"active","ping":44},{"user_id":384,"name":"Peppy","steam_id":76561198866629645,"connected_time":1896000000000,"state":"active","ping":56},{"user_id":405,"name":"Haloman","steam_id":76561198119610371,"connected_time":971000000000,"state":"active","ping":84},{"user_id":365,"name":"Bendidy","steam_id":76561198041964300,"connected_time":4009000000000,"state":"active","ping":71},{"user_id":400,"name":"\u003e\u003e EngineerMaster","steam_id":76561198056377621,"connected_time":1247000000000,"state":"active","ping":103},{"user_id":396,"name":"Mignyanne :3","steam_id":76561198048754056,"connected_time":1349000000000,"state":"active","ping":60},{"user_id":369,"name":"ismellgood","steam_id":76561199005142939,"connected_time":3300000000000,"state":"active","ping":67},{"user_id":394,"name":"CashGordon","steam_id":76561197975594096,"connected_time":1421000000000,"state":"active","ping":40},{"user_id":413,"name":"Warhead","steam_id":76561198067746049,"connected_time":314000000000,"state":"active","ping":69},{"user_id":411,"name":"chilis baby back ribs","steam_id":76561198813516435,"connected_time":533000000000,"state":"active","ping":69},{"user_id":406,"name":"Lone_Explorer","steam_id":76561198081972715,"connected_time":949000000000,"state":"active","ping":58},{"user_id":412,"name":"SoldMyKidneyForCollege","steam_id":76561198096329559,"connected_time":528000000000,"state":"active","ping":95},{"user_id":377,"name":"Antwan","steam_id":76561198246200638,"connected_time":2903000000000,"state":"active","ping":95},{"user_id":414,"name":"HaphazardHazel","steam_id":76561198316812693,"connected_time":281000000000,"state":"active","ping":139}]},{"server_id":119,"name":"Uncletopia | Seattle | 2 | All Maps","name_short":"sea-2","host":"sea-1.us.uncletopia.com","port":27025,"enabled":true,"region":"us-west","cc":"us","latitude":47.608013,"longitude":-122.33517,"reserved":0,"last_update":"0001-01-01T00:00:00Z","name_a2s":"Uncletopia | Seattle | 2 | All Maps","protocol":17,"map":"koth_harvest_final","folder":"tf","game":"Team Fortress","app_id":440,"player_count":24,"max_players":24,"Bots":0,"server_type":"Dedicated","server_os":"Linux","password":true,"vac":true,"version":"7932396","steam_id":85568392924469998,"keywords":["cp","nocrits","nodmgspread","uncletopia"],"game_id":440,"stv_port":27026,"stv_name":"Uncletopia | Seattle | 2 | All Maps | STV","players":[{"user_id":716,"name":"HideOnTate","steam_id":76561198209880837,"connected_time":5148000000000,"state":"active","ping":45},{"user_id":770,"name":"viciousbeatmaker","steam_id":76561198086876652,"connected_time":1899000000000,"state":"active","ping":79},{"user_id":761,"name":"Otterstream8502","steam_id":76561198343767866,"connected_time":2805000000000,"state":"active","ping":57},{"user_id":791,"name":"PillCosby","steam_id":76561199396184696,"connected_time":502000000000,"state":"active","ping":55},{"user_id":773,"name":"xXCallOfDoodyQuikScopeMaster34X","steam_id":76561198067232540,"connected_time":1661000000000,"state":"active","ping":120},{"user_id":794,"name":"modemstring","steam_id":76561198869846942,"connected_time":379000000000,"state":"active","ping":91},{"user_id":799,"name":"Jkbh1","steam_id":76561198093449670,"connected_time":73000000000,"state":"active","ping":75},{"user_id":744,"name":"ejschild745","steam_id":76561199013388867,"connected_time":3886000000000,"state":"active","ping":71},{"user_id":795,"name":"flores","steam_id":76561198106938500,"connected_time":326000000000,"state":"active","ping":92},{"user_id":687,"name":"a cat plushie","steam_id":76561198080046542,"connected_time":7419000000000,"state":"active","ping":47},{"user_id":775,"name":"Codo Sapien","steam_id":76561198014206810,"connected_time":1594000000000,"state":"active","ping":84},{"user_id":676,"name":"dab","steam_id":76561197997990613,"connected_time":7850000000000,"state":"active","ping":72},{"user_id":786,"name":"Jigg","steam_id":76561198051140705,"connected_time":871000000000,"state":"active","ping":57},{"user_id":796,"name":"Starkiller","steam_id":76561198101643120,"connected_time":183000000000,"state":"active","ping":98},{"user_id":788,"name":"Santicules","steam_id":76561198209373536,"connected_time":564000000000,"state":"active","ping":108},{"user_id":625,"name":"a single goal","steam_id":76561198042913843,"connected_time":11390000000000,"state":"active","ping":54},{"user_id":777,"name":"Boomite","steam_id":76561198191441145,"connected_time":1570000000000,"state":"active","ping":60},{"user_id":778,"name":"RileyTheProtogen","steam_id":76561198835492754,"connected_time":1566000000000,"state":"active","ping":106},{"user_id":797,"name":"Space360","steam_id":76561198106743284,"connected_time":166000000000,"state":"active","ping":54},{"user_id":772,"name":"Shazzy","steam_id":76561198145460523,"connected_time":1706000000000,"state":"active","ping":48},{"user_id":767,"name":"mac_cheese","steam_id":76561198071334162,"connected_time":2637000000000,"state":"active","ping":46},{"user_id":768,"name":"Mr8bittripper","steam_id":76561198133894229,"connected_time":2223000000000,"state":"active","ping":49},{"user_id":800,"name":"nicok04.gamer","steam_id":76561198423082703,"connected_time":50000000000,"state":"active","ping":60},{"user_id":709,"name":"beam man","steam_id":76561198060567341,"connected_time":6236000000000,"state":"active","ping":163}]},{"server_id":406,"name":"Uncletopia | Seattle | 3 | Stopwatch Beta","name_short":"sea-3","host":"sea-1.us.uncletopia.com","port":27035,"enabled":true,"region":"us-west","cc":"us","latitude":47.608013,"longitude":-122.33517,"reserved":0,"last_update":"0001-01-01T00:00:00Z","name_a2s":"Uncletopia | Seattle | 3 | Stopwatch Beta","protocol":17,"map":"workshop/koth_bagel_rc6.ugc2514036946","folder":"tf","game":"Team Fortress","app_id":440,"player_count":0,"max_players":24,"Bots":0,"server_type":"Dedicated","server_os":"Linux","password":true,"vac":true,"version":"7932396","steam_id":85568392924515217,"keywords":["cp","nocrits","nodmgspread","uncletopia"],"game_id":440,"stv_port":27036,"stv_name":"Uncletopia | Seattle | 3 | Stopwatch Beta | STV","players":null},{"server_id":17,"name":"Uncletopia | San Francisco | 1 | All Maps","name_short":"sfo-1","host":"sfo-1.us.uncletopia.com","port":27015,"enabled":true,"region":"us-west","cc":"us","latitude":37.77397,"longitude":-122.4313,"reserved":0,"last_update":"0001-01-01T00:00:00Z","name_a2s":"Uncletopia | San Francisco | 1 | All Maps","protocol":17,"map":"cp_mountainlab","folder":"tf","game":"Team Fortress","app_id":440,"player_count":23,"max_players":24,"Bots":0,"server_type":"Dedicated","server_os":"Linux","password":true,"vac":true,"version":"7932396","steam_id":85568392924469999,"keywords":["cp","nocrits","nodmgspread","uncletopia"],"game_id":440,"stv_port":27016,"stv_name":"Uncletopia | San Francisco | 1 | All Maps | STV","players":[{"user_id":193,"name":"Pan-Demonica","steam_id":76561198294350105,"connected_time":1329000000000,"state":"active","ping":107},{"user_id":163,"name":"bobbymcbobington","steam_id":76561199089411172,"connected_time":3877000000000,"state":"active","ping":160},{"user_id":213,"name":"omnislime","steam_id":76561199382475668,"connected_time":208000000000,"state":"active","ping":96},{"user_id":202,"name":"Funbearable  ï ‚Ä¢·¥•‚Ä¢ î","steam_id":76561197968272094,"connected_time":629000000000,"state":"active","ping":61},{"user_id":169,"name":"Livin' Like Larry","steam_id":76561198313360974,"connected_time":3462000000000,"state":"active","ping":33},{"user_id":160,"name":"FUNNY JOKE(pls laugh)","steam_id":76561199070877046,"connected_time":4033000000000,"state":"active","ping":57},{"user_id":194,"name":"frostedflakes99","steam_id":76561199049292578,"connected_time":1328000000000,"state":"active","ping":52},{"user_id":182,"name":"Imitation Caucasian","steam_id":76561198320536166,"connected_time":2390000000000,"state":"active","ping":74},{"user_id":141,"name":"Buswolley","steam_id":76561197995205571,"connected_time":4490000000000,"state":"active","ping":41},{"user_id":208,"name":"b3afy","steam_id":76561198084208649,"connected_time":460000000000,"state":"active","ping":67},{"user_id":211,"name":"corrupted spy","steam_id":76561198018689620,"connected_time":382000000000,"state":"active","ping":68},{"user_id":209,"name":"Dr. FlimFlam","steam_id":76561198049212986,"connected_time":451000000000,"state":"active","ping":93},{"user_id":185,"name":"Bedside table, on the kangaroo","steam_id":76561198044277932,"connected_time":2355000000000,"state":"active","ping":105},{"user_id":204,"name":"yang","steam_id":76561199139767518,"connected_time":603000000000,"state":"active","ping":76},{"user_id":207,"name":"Shingles","steam_id":76561199225619586,"connected_time":520000000000,"state":"active","ping":71},{"user_id":201,"name":"Xylaite ÓÄî","steam_id":76561198210402325,"connected_time":643000000000,"state":"active","ping":78},{"user_id":151,"name":"baguette","steam_id":76561199097689778,"connected_time":4304000000000,"state":"active","ping":89},{"user_id":214,"name":"Scrap2552","steam_id":76561198814967954,"connected_time":57000000000,"state":"active","ping":64},{"user_id":153,"name":"nburns","steam_id":76561199227334296,"connected_time":4280000000000,"state":"active","ping":86},{"user_id":191,"name":"BongBlaster69","steam_id":76561198316811893,"connected_time":1792000000000,"state":"active","ping":56},{"user_id":186,"name":"BON6 R1P5","steam_id":76561199187170139,"connected_time":2334000000000,"state":"active","ping":102},{"user_id":187,"name":"Maid Knight","steam_id":76561198214370515,"connected_time":2327000000000,"state":"active","ping":109},{"user_id":210,"name":"Siilph","steam_id":76561198094126723,"connected_time":451000000000,"state":"active","ping":105}]},{"server_id":18,"name":"Uncletopia | San Francisco | 2 | All Maps","name_short":"sfo-2","host":"sfo-1.us.uncletopia.com","port":27025,"enabled":true,"region":"us-west","cc":"us","latitude":37.77397,"longitude":-122.4313,"reserved":0,"last_update":"0001-01-01T00:00:00Z","name_a2s":"Uncletopia | San Francisco | 2 | All Maps","protocol":17,"map":"pl_swiftwater_final1","folder":"tf","game":"Team Fortress","app_id":440,"player_count":24,"max_players":24,"Bots":0,"server_type":"Dedicated","server_os":"Linux","password":true,"vac":true,"version":"7932396","steam_id":85568392924470000,"keywords":["nocrits","nodmgspread","payload","uncletopia"],"game_id":440,"stv_port":27026,"stv_name":"Uncletopia | San Francisco | 2 | All Maps | STV","players":[{"user_id":213,"name":"R5-D4","steam_id":76561198025196439,"connected_time":697000000000,"state":"active","ping":71},{"user_id":214,"name":"the hype man","steam_id":76561199052875314,"connected_time":569000000000,"state":"active","ping":64},{"user_id":221,"name":"KaleScrooge","steam_id":76561199229442595,"connected_time":311000000000,"state":"active","ping":181},{"user_id":215,"name":"Cherry Bomb!","steam_id":76561198017947020,"connected_time":558000000000,"state":"active","ping":111},{"user_id":216,"name":"Rat Brain Solar Probe","steam_id":76561197995191233,"connected_time":553000000000,"state":"active","ping":60},{"user_id":211,"name":"Jovo","steam_id":76561197993265970,"connected_time":941000000000,"state":"active","ping":50},{"user_id":208,"name":"miscellaneous","steam_id":76561199436642954,"connected_time":1190000000000,"state":"active","ping":75},{"user_id":217,"name":"rad killl raccoon","steam_id":76561198980975595,"connected_time":538000000000,"state":"active","ping":86},{"user_id":222,"name":"Kep","steam_id":76561199215126029,"connected_time":188000000000,"state":"active","ping":115},{"user_id":193,"name":"bandit","steam_id":76561198126546221,"connected_time":2736000000000,"state":"active","ping":46},{"user_id":168,"name":"Feel the bern","steam_id":76561198078824519,"connected_time":4962000000000,"state":"active","ping":57},{"user_id":203,"name":"CollDragon","steam_id":76561198067534450,"connected_time":1348000000000,"state":"active","ping":111},{"user_id":204,"name":"Macro","steam_id":76561199442846226,"connected_time":1339000000000,"state":"active","ping":109},{"user_id":194,"name":"hace","steam_id":76561198240217520,"connected_time":2728000000000,"state":"active","ping":82},{"user_id":218,"name":"bing soy","steam_id":76561199093824429,"connected_time":502000000000,"state":"active","ping":76},{"user_id":219,"name":"G. Howard Dee","steam_id":76561198058382812,"connected_time":500000000000,"state":"active","ping":60},{"user_id":195,"name":"lasky","steam_id":76561198017030029,"connected_time":2416000000000,"state":"active","ping":56},{"user_id":209,"name":"Spring Beans","steam_id":76561197978546259,"connected_time":1185000000000,"state":"active","ping":74},{"user_id":220,"name":"the meat man","steam_id":76561198037921140,"connected_time":390000000000,"state":"active","ping":45},{"user_id":153,"name":"lili","steam_id":76561199391478575,"connected_time":5742000000000,"state":"active","ping":83},{"user_id":224,"name":"mango cafe","steam_id":76561198142328193,"connected_time":75000000000,"state":"active","ping":69},{"user_id":225,"name":"the fool","steam_id":76561198133933158,"connected_time":67000000000,"state":"active","ping":49},{"user_id":226,"name":"Master Cannoli","steam_id":76561198272327518,"connected_time":38000000000,"state":"active","ping":59},{"user_id":198,"name":"zinnk","steam_id":76561198092081825,"connected_time":1728000000000,"state":"active","ping":45}]},{"server_id":19,"name":"Uncletopia | San Francisco | 3 | Stopwatch Beta","name_short":"sfo-3","host":"sfo-1.us.uncletopia.com","port":27035,"enabled":true,"region":"us-west","cc":"us","latitude":37.77397,"longitude":-122.4313,"reserved":0,"last_update":"0001-01-01T00:00:00Z","name_a2s":"Uncletopia | San Francisco | 3 | Stopwatch Beta","protocol":17,"map":"workshop/pl_vigil_rc9.ugc1266210012","folder":"tf","game":"Team Fortress","app_id":440,"player_count":0,"max_players":24,"Bots":0,"server_type":"Dedicated","server_os":"Linux","password":true,"vac":true,"version":"7932396","steam_id":85568392924742824,"keywords":["nocrits","nodmgspread","payload","uncletopia"],"game_id":440,"stv_port":27036,"stv_name":"Uncletopia | San Francisco | 3 | Stopwatch Beta | STV","players":null},{"server_id":20,"name":"Uncletopia | San Francisco | 4 | Community","name_short":"sfo-4","host":"sfo-1.us.uncletopia.com","port":27045,"enabled":true,"region":"us-west","cc":"us","latitude":37.77397,"longitude":-122.4313,"reserved":0,"last_update":"0001-01-01T00:00:00Z","name_a2s":"Uncletopia | San Francisco | 4 | Community","protocol":17,"map":"workshop/cp_croissant_final.ugc458840209","folder":"tf","game":"Team Fortress","app_id":440,"player_count":0,"max_players":24,"Bots":0,"server_type":"Dedicated","server_os":"Linux","password":true,"vac":true,"version":"7932396","steam_id":85568392924742826,"keywords":["cp","nocrits","nodmgspread","uncletopia"],"game_id":440,"stv_port":27046,"stv_name":"Uncletopia | San Francisco | 4 | Community | STV","players":null},{"server_id":141,"name":"Uncletopia | Sydney | 1 | All Maps","name_short":"syd-1","host":"syd-1.au.uncletopia.com","port":27015,"enabled":true,"region":"au","cc":"au","latitude":-33.865143,"longitude":151.2099,"reserved":0,"last_update":"0001-01-01T00:00:00Z","name_a2s":"Uncletopia | Sydney | 1 | All Maps","protocol":17,"map":"koth_highpass","folder":"tf","game":"Team Fortress","app_id":440,"player_count":0,"max_players":24,"Bots":0,"server_type":"Dedicated","server_os":"Linux","password":true,"vac":true,"version":"7932396","steam_id":85568392924470001,"keywords":["cp","nocrits","nodmgspread","uncletopia"],"game_id":440,"stv_port":27016,"stv_name":"Uncletopia | Sydney | 1 | All Maps | STV","players":null},{"server_id":123,"name":"Uncletopia | Sydney | 2 | All Maps","name_short":"syd-2","host":"syd-1.au.uncletopia.com","port":27025,"enabled":true,"region":"au","cc":"au","latitude":-33.865143,"longitude":151.2099,"reserved":0,"last_update":"0001-01-01T00:00:00Z","name_a2s":"Uncletopia | Sydney | 2 | All Maps","protocol":17,"map":"pl_barnblitz","folder":"tf","game":"Team Fortress","app_id":440,"player_count":24,"max_players":24,"Bots":0,"server_type":"Dedicated","server_os":"Linux","password":true,"vac":true,"version":"7932396","steam_id":85568392924470002,"keywords":["nocrits","nodmgspread","payload","uncletopia"],"game_id":440,"stv_port":27026,"stv_name":"Uncletopia | Sydney | 2 | All Maps | STV","players":[{"user_id":234,"name":"Hawk","steam_id":76561198135164277,"connected_time":3724000000000,"state":"active","ping":50},{"user_id":282,"name":"Okie Dokie","steam_id":76561198125237921,"connected_time":310000000000,"state":"active","ping":32},{"user_id":254,"name":"Bamooxa","steam_id":76561198067160709,"connected_time":2726000000000,"state":"active","ping":80},{"user_id":238,"name":"kisses you","steam_id":76561198288970258,"connected_time":3387000000000,"state":"active","ping":53},{"user_id":239,"name":"Sinister80s","steam_id":76561198343540472,"connected_time":3345000000000,"state":"active","ping":70},{"user_id":244,"name":"Zieria","steam_id":76561199261811388,"connected_time":3119000000000,"state":"active","ping":44},{"user_id":286,"name":"Hech","steam_id":76561198044032335,"connected_time":1000000000,"state":"spawning","ping":22},{"user_id":277,"name":"Vaconcovat","steam_id":76561198024284041,"connected_time":900000000000,"state":"active","ping":60},{"user_id":262,"name":"Mooty","steam_id":76561198301293435,"connected_time":1907000000000,"state":"active","ping":49},{"user_id":242,"name":"splurboingus wazoogort","steam_id":76561198063481761,"connected_time":3294000000000,"state":"active","ping":45},{"user_id":246,"name":"Kiwoo","steam_id":76561198097429186,"connected_time":3045000000000,"state":"active","ping":83},{"user_id":276,"name":"ibus","steam_id":76561199026701614,"connected_time":1015000000000,"state":"active","ping":54},{"user_id":281,"name":"heavy in the backrooms","steam_id":76561199011086504,"connected_time":392000000000,"state":"active","ping":54},{"user_id":279,"name":"El Chupacabra","steam_id":76561198070641651,"connected_time":505000000000,"state":"active","ping":46},{"user_id":285,"name":"Marsguard","steam_id":76561198113775091,"connected_time":198000000000,"state":"active","ping":57},{"user_id":266,"name":"wom","steam_id":76561199375834537,"connected_time":1722000000000,"state":"active","ping":132},{"user_id":130,"name":"Empol√©","steam_id":76561198363939040,"connected_time":10973000000000,"state":"active","ping":77},{"user_id":252,"name":"Hona","steam_id":76561198221809496,"connected_time":2792000000000,"state":"active","ping":59},{"user_id":233,"name":"mwahlib","steam_id":76561198044007267,"connected_time":3851000000000,"state":"active","ping":42},{"user_id":272,"name":"MrTrollTheMadGamer","steam_id":76561198095862889,"connected_time":1394000000000,"state":"active","ping":75},{"user_id":284,"name":"Buny","steam_id":76561198051375054,"connected_time":213000000000,"state":"active","ping":37},{"user_id":280,"name":"voxii","steam_id":76561198099698281,"connected_time":420000000000,"state":"active","ping":69},{"user_id":269,"name":"payn.","steam_id":76561199277321828,"connected_time":1690000000000,"state":"active","ping":54},{"user_id":273,"name":"Trifled","steam_id":76561199251487616,"connected_time":1311000000000,"state":"active","ping":47}]},{"server_id":395,"name":"Uncletopia | Sydney | 3 | All Maps","name_short":"syd-3","host":"syd-1.au.uncletopia.com","port":27035,"enabled":true,"region":"au","cc":"au","latitude":-33.865143,"longitude":151.2099,"reserved":0,"last_update":"0001-01-01T00:00:00Z","name_a2s":"Uncletopia | Sydney | 3 | All Maps","protocol":17,"map":"cp_snakewater_final1","folder":"tf","game":"Team Fortress","app_id":440,"player_count":0,"max_players":24,"Bots":0,"server_type":"Dedicated","server_os":"Linux","password":true,"vac":true,"version":"7932396","steam_id":85568392925194467,"keywords":["cp","nocrits","nodmgspread","uncletopia"],"game_id":440,"stv_port":27036,"stv_name":"Uncletopia | Sydney | 3 | All Maps | STV","players":null},{"server_id":396,"name":"Uncletopia | Sydney | 4 | All Maps","name_short":"syd-4","host":"syd-1.au.uncletopia.com","port":27045,"enabled":true,"region":"au","cc":"au","latitude":-33.865143,"longitude":151.2099,"reserved":0,"last_update":"0001-01-01T00:00:00Z","name_a2s":"Uncletopia | Sydney | 4 | All Maps","protocol":17,"map":"cp_sunshine","folder":"tf","game":"Team Fortress","app_id":440,"player_count":0,"max_players":24,"Bots":0,"server_type":"Dedicated","server_os":"Linux","password":true,"vac":true,"version":"7932396","steam_id":85568392925397958,"keywords":["cp","nocrits","nodmgspread","uncletopia"],"game_id":440,"stv_port":27046,"stv_name":"Uncletopia | Sydney | 4 | All Maps | STV","players":null},{"server_id":58,"name":"Uncletopia | Sydney | 5 | Stopwatch Beta","name_short":"syd-5","host":"syd-1.au.uncletopia.com","port":27055,"enabled":true,"region":"au","cc":"au","latitude":-33.865143,"longitude":151.2099,"reserved":0,"last_update":"0001-01-01T00:00:00Z","name_a2s":"Uncletopia | Sydney | 5 | Stopwatch Beta","protocol":17,"map":"pl_borneo","folder":"tf","game":"Team Fortress","app_id":440,"player_count":0,"max_players":24,"Bots":0,"server_type":"Dedicated","server_os":"Linux","password":true,"vac":true,"version":"7932396","steam_id":85568392925397959,"keywords":["nocrits","nodmgspread","payload","uncletopia"],"game_id":440,"stv_port":27056,"stv_name":"Uncletopia | Sydney | 5 | Stopwatch Beta | STV","players":null},{"server_id":59,"name":"Uncletopia | Sydney | 6 | Community","name_short":"syd-6","host":"syd-1.au.uncletopia.com","port":27065,"enabled":true,"region":"au","cc":"au","latitude":-33.865143,"longitude":151.2099,"reserved":0,"last_update":"0001-01-01T00:00:00Z","name_a2s":"Uncletopia | Sydney | 6 | Community","protocol":17,"map":"workshop/cp_snowbase_b18.ugc2081770490","folder":"tf","game":"Team Fortress","app_id":440,"player_count":0,"max_players":24,"Bots":0,"server_type":"Dedicated","server_os":"Linux","password":true,"vac":true,"version":"7932396","steam_id":85568392925397960,"keywords":["cp","nocrits","nodmgspread","uncletopia"],"game_id":440,"stv_port":27066,"stv_name":"Uncletopia | Sydney | 6 | Community | STV","players":null},{"server_id":49,"name":"Uncletopia | Warsaw | 1 | All Maps","name_short":"waw-1","host":"waw-1.pl.uncletopia.com","port":27015,"enabled":true,"region":"eu","cc":"pl","latitude":52.2297,"longitude":21.017532,"reserved":0,"last_update":"0001-01-01T00:00:00Z","name_a2s":"","protocol":0,"map":"","folder":"","game":"","app_id":0,"player_count":0,"max_players":0,"Bots":0,"server_type":"","server_os":"","password":false,"vac":false,"version":"","steam_id":0,"keywords":null,"game_id":0,"stv_port":0,"stv_name":"","players":null},{"server_id":50,"name":"Uncletopia | Warsaw | 2 | All Maps","name_short":"waw-2","host":"waw-1.pl.uncletopia.com","port":27025,"enabled":true,"region":"eu","cc":"pl","latitude":52.2297,"longitude":21.017532,"reserved":0,"last_update":"0001-01-01T00:00:00Z","name_a2s":"Uncletopia | Warsaw | 2 | All Maps","protocol":17,"map":"koth_highpass","folder":"tf","game":"Team Fortress","app_id":440,"player_count":0,"max_players":24,"Bots":0,"server_type":"Dedicated","server_os":"Linux","password":true,"vac":true,"version":"7932396","steam_id":85568392925397851,"keywords":["cp","nocrits","nodmgspread","uncletopia"],"game_id":440,"stv_port":27026,"stv_name":"Uncletopia | Warsaw | 2 | All Maps | STV","players":null},{"server_id":51,"name":"Uncletopia | Warsaw | 3 | All Maps","name_short":"waw-3","host":"waw-1.pl.uncletopia.com","port":27035,"enabled":true,"region":"eu","cc":"pl","latitude":52.2297,"longitude":21.017532,"reserved":0,"last_update":"0001-01-01T00:00:00Z","name_a2s":"Uncletopia | Warsaw | 3 | All Maps","protocol":17,"map":"pl_pier","folder":"tf","game":"Team Fortress","app_id":440,"player_count":0,"max_players":24,"Bots":0,"server_type":"Dedicated","server_os":"Linux","password":true,"vac":true,"version":"7932396","steam_id":85568392925397852,"keywords":["nocrits","nodmgspread","payload","uncletopia"],"game_id":440,"stv_port":27036,"stv_name":"Uncletopia | Warsaw | 3 | All Maps | STV","players":null},{"server_id":52,"name":"Uncletopia | Warsaw | 4 | All Maps","name_short":"waw-4","host":"waw-1.pl.uncletopia.com","port":27045,"enabled":true,"region":"eu","cc":"pl","latitude":52.2297,"longitude":21.017532,"reserved":0,"last_update":"0001-01-01T00:00:00Z","name_a2s":"Uncletopia | Warsaw | 4 | All Maps","protocol":17,"map":"pl_frontier_final","folder":"tf","game":"Team Fortress","app_id":440,"player_count":0,"max_players":24,"Bots":0,"server_type":"Dedicated","server_os":"Linux","password":true,"vac":true,"version":"7932396","steam_id":85568392925397853,"keywords":["nocrits","nodmgspread","payload","uncletopia"],"game_id":440,"stv_port":27046,"stv_name":"Uncletopia | Warsaw | 4 | All Maps | STV","players":null},{"server_id":53,"name":"Uncletopia | Warsaw | 5 | Stopwatch Beta","name_short":"waw-5","host":"waw-1.pl.uncletopia.com","port":27055,"enabled":true,"region":"eu","cc":"pl","latitude":52.2297,"longitude":21.017532,"reserved":0,"last_update":"0001-01-01T00:00:00Z","name_a2s":"Uncletopia | Warsaw | 5 | Stopwatch Beta","protocol":17,"map":"pl_upward","folder":"tf","game":"Team Fortress","app_id":440,"player_count":0,"max_players":24,"Bots":0,"server_type":"Dedicated","server_os":"Linux","password":true,"vac":true,"version":"7932396","steam_id":85568392925397854,"keywords":["nocrits","nodmgspread","payload","uncletopia"],"game_id":440,"stv_port":27056,"stv_name":"Uncletopia | Warsaw | 5 | Stopwatch Beta | STV","players":null},{"server_id":54,"name":"Uncletopia | Warsaw | 6 | Community","name_short":"waw-6","host":"waw-1.pl.uncletopia.com","port":27065,"enabled":true,"region":"eu","cc":"pl","latitude":52.2297,"longitude":21.017532,"reserved":0,"last_update":"0001-01-01T00:00:00Z","name_a2s":"Uncletopia | Warsaw | 6 | Community","protocol":17,"map":"workshop/cp_bruhstbowl_b6.ugc2878604990","folder":"tf","game":"Team Fortress","app_id":440,"player_count":0,"max_players":24,"Bots":0,"server_type":"Dedicated","server_os":"Linux","password":true,"vac":true,"version":"7932396","steam_id":85568392925397856,"keywords":["cp","nocrits","nodmgspread","uncletopia"],"game_id":440,"stv_port":27066,"stv_name":"Uncletopia | Warsaw | 6 | Community | STV","players":null}]}