{"status":true,"message":"","result":[{"server_id":9,"name":"Uncletopia | Atlanta | 1 | All Maps","name_short":"atl-1","host":"atl-1.us.uncletopia.com","port":27015,"enabled":true,"region":"us-east","cc":"us","latitude":33.753746,"longitude":-84.38633,"reserved":0,"last_update":"0001-01-01T00:00:00Z","name_a2s":"Uncletopia | Atlanta | 1 | All Maps","protocol":17,"map":"pl_upward","folder":"tf","game":"Team Fortress","app_id":440,"player_count":7,"max_players":24,"Bots":0,"server_type":"Dedicated","server_os":"Linux","password":true,"vac":true,"version":"7961495","steam_id":85568392924469982,"keywords":["nocrits","nodmgspread","payload","uncletopia"],"game_id":440,"stv_port":27016,"stv_name":"Uncletopia | Atlanta | 1 | All Maps | STV","players":[{"user_id":760,"name":"TheBeanary","steam_id":76561198090631435,"connected_time":1377000000000,"state":"active","ping":53},{"user_id":762,"name":"Therapy Goth","steam_id":76561198048448497,"connected_time":1101000000000,"state":"active","ping":64},{"user_id":763,"name":"Violet The Derg","steam_id":76561198002525691,"connected_time":1097000000000,"state":"active","ping":115},{"user_id":764,"name":"gayforgod","steam_id":76561198364882421,"connected_time":1090000000000,"state":"active","ping":99},{"user_id":769,"name":"Mexican from Mars","steam_id":76561198999625381,"connected_time":87000000000,"state":"active","ping":150},{"user_id":755,"name":"scooterre","steam_id":76561198055068182,"connected_time":1835000000000,"state":"active","ping":71},{"user_id":756,"name":"Kajolica","steam_id":76561198968709419,"connected_time":1786000000000,"state":"active","ping":60}]},{"server_id":104,"name":"Uncletopia | Atlanta | 2 | All Maps","name_short":"atl-2","host":"atl-1.us.uncletopia.com","port":27025,"enabled":true,"region":"us-east","cc":"us","latitude":33.753746,"longitude":-84.38633,"reserved":0,"last_update":"0001-01-01T00:00:00Z","name_a2s":"Uncletopia | Atlanta | 2 | All Maps","protocol":17,"map":"pl_hoodoo_final","folder":"tf","game":"Team Fortress","app_id":440,"player_count":16,"max_players":24,"Bots":0,"server_type":"Dedicated","server_os":"Linux","password":true,"vac":true,"version":"7961495","steam_id":85568392924469983,"keywords":["nocrits","nodmgspread","payload","uncletopia"],"game_id":440,"stv_port":27026,"stv_name":"Uncletopia | Atlanta | 2 | All Maps | STV","players":[{"user_id":494,"name":"Alx","steam_id":76561198080854314,"connected_time":2704000000000,"state":"spawning","ping":175},{"user_id":511,"name":"Five","steam_id":76561198026640473,"connected_time":418000000000,"state":"spawning","ping":282},{"user_id":503,"name":"phfez","steam_id":76561198046150386,"connected_time":1638000000000,"state":"spawning","ping":164},{"user_id":507,"name":"RAWRWAIFU","steam_id":76561198032118386,"connected_time":1415000000000,"state":"spawning","ping":146},{"user_id":471,"name":"Hipster_Giraffe","steam_id":76561198069701092,"connected_time":4775000000000,"state":"spawning","ping":133},{"user_id":508,"name":"Hobo Shanker","steam_id":76561198001785187,"connected_time":1413000000000,"state":"spawning","ping":168},{"user_id":502,"name":"Pop","steam_id":76561199012562851,"connected_time":1667000000000,"state":"spawning","ping":148},{"user_id":510,"name":"âˆ°","steam_id":76561198064424202,"connected_time":595000000000,"state":"spawning","ping":216},{"user_id":500,"name":"greasy little man","steam_id":76561198043787070,"connected_time":2115000000000,"state":"spawning","ping":172},{"user_id":485,"name":"concrete_car","steam_id":76561198388207363,"connected_time":3111000000000,"state":"spawning","ping":135},{"user_id":488,"name":"âœ¿ PoutyBun âœ¿","steam_id":76561197965762847,"connected_time":2910000000000,"state":"spawning","ping":322},{"user_id":501,"name":"Bark Soul","steam_id":76561198061791538,"connected_time":1673000000000,"state":"spawning","ping":146},{"user_id":466,"name":"The Final Terminus","steam_id":76561197964985183,"connected_time":5146000000000,"state":"spawning","ping":203},{"user_id":456,"name":"Filthy Hobo","steam_id":76561198174373015,"connected_time":6059000000000,"state":"spawning","ping":152},{"user_id":495,"name":"gabba gabba","steam_id":76561198031737033,"connected_time":2693000000000,"state":"spawning","ping":140},{"user_id":482,"name":"AzuriousAlex","steam_id":76561198158026405,"connected_time":3417000000000,"state":"spawning","ping":173}]},{"server_id":400,"name":"Uncletopia | Atlanta | 3 | Stopwatch","name_short":"atl-3","host":"atl-1.us.uncletopia.com","port":27035,"enabled":true,"region":"us-east","cc":"us","latitude":33.753746,"longitude":-84.38633,"reserved":0,"last_update":"0001-01-01T00:00:00Z","name_a2s":"Uncletopia | Atlanta | 3 | Stopwatch","protocol":17,"map":"koth_highpass","folder":"tf","game":"Team Fortress","app_id":440,"player_count":0,"max_players":24,"Bots":0,"server_type":"Dedicated","server_os":"Linux","password":true,"vac":true,"version":"7961495","steam_id":85568392924515187,"keywords":["cp","nocrits","nodmgspread","uncletopia"],"game_id":440,"stv_port":27036,"stv_name":"Uncletopia | Atlanta | 3 | Stopwatch | STV","players":null},{"server_id":401,"name":"Uncletopia | Atlanta | 4 | Community","name_short":"atl-4","host":"atl-1.us.uncletopia.com","port":27045,"enabled":true,"region":"us-east","cc":"us","latitude":33.753746,"longitude":-84.38633,"reserved":0,"last_update":"0001-01-01T00:00:00Z","name_a2s":"Uncletopia | Atlanta | 4 | Community","protocol":17,"map":"workshop/cp_indulge.ugc528106646","folder":"tf","game":"Team Fortress","app_id":440,"player_count":0,"max_players":24,"Bots":0,"server_type":"Dedicated","server_os":"Linux","password":true,"vac":true,"version":"7961495","steam_id":85568392924515188,"keywords":["cp","nocrits","nodmgspread","uncletopia"],"game_id":440,"stv_port":27046,"stv_name":"Uncletopia | Atlanta | 4 | Community | STV","players":null},{"server_id":2,"name":"Uncletopia | Chicago | 1 | All Maps","name_short":"chi-1","host":"chi-1.us.uncletopia.com","port":27015,"enabled":true,"region":"us-central","cc":"us","latitude":41.881832,"longitude":-87.62318,"reserved":0,"last_update":"0001-01-01T00:00:00Z","name_a2s":"Uncletopia | Chicago | 1 | All Maps","protocol":17,"map":"pl_badwater","folder":"tf","game":"Team Fortress","app_id":440,"player_count":24,"max_players":24,"Bots":0,"server_type":"Dedicated","server_os":"Linux","password":true,"vac":true,"version":"7961495","steam_id":85568392924469984,"keywords":["nocrits","nodmgspread","payload","uncletopia"],"game_id":440,"stv_port":27016,"stv_name":"Uncletopia | Chicago | 1 | All Maps | STV","players":[{"user_id":652,"name":"Flyinglab","steam_id":76561198042161408,"connected_time":1390000000000,"state":"active","ping":80},{"user_id":679,"name":"Tideflat","steam_id":76561198179850851,"connected_time":432000000000,"state":"active","ping":103},{"user_id":670,"name":"Am Da Best","steam_id":76561198163825955,"connected_time":795000000000,"state":"active","ping":125},{"user_id":669,"name":"rose","steam_id":76561198048882285,"connected_time":832000000000,"state":"active","ping":127},{"user_id":646,"name":"paint pig","steam_id":76561198024817457,"connected_time":1925000000000,"state":"active","ping":76},{"user_id":666,"name":"ms. capgras","steam_id":76561199080209996,"connected_time":932000000000,"state":"active","ping":50},{"user_id":648,"name":"Homo Ejectus","steam_id":76561197968701952,"connected_time":1589000000000,"state":"active","ping":75},{"user_id":640,"name":"Axelonemillion15","steam_id":76561198421342282,"connected_time":2476000000000,"state":"active","ping":126},{"user_id":686,"name":"gyat","steam_id":76561198043684960,"connected_time":273000000000,"state":"active","ping":65},{"user_id":668,"name":"Sophie","steam_id":76561198170408057,"connected_time":868000000000,"state":"active","ping":74},{"user_id":681,"name":"Poopisviel Von Einzbern","steam_id":76561198259260433,"connected_time":399000000000,"state":"active","ping":89},{"user_id":605,"name":"robot with human hair","steam_id":76561198018691308,"connected_time":5175000000000,"state":"active","ping":89},{"user_id":659,"name":"exa*âœ©â€§â‚ŠËš","steam_id":76561198044511912,"connected_time":1073000000000,"state":"active","ping":111},{"user_id":660,"name":"eBay","steam_id":76561198061214569,"connected_time":1073000000000,"state":"active","ping":96},{"user_id":586,"name":"joseph stalin","steam_id":76561199230441293,"connected_time":6009000000000,"state":"active","ping":83},{"user_id":614,"name":"Dzhoshua","steam_id":76561198071915251,"connected_time":4968000000000,"state":"active","ping":67},{"user_id":690,"name":"EvilPi99let","steam_id":76561197987243470,"connected_time":147000000000,"state":"active","ping":72},{"user_id":661,"name":"Garfelf","steam_id":76561198419850129,"connected_time":1056000000000,"state":"active","ping":125},{"user_id":662,"name":"zacharylynch0","steam_id":76561198328295107,"connected_time":1050000000000,"state":"active","ping":84},{"user_id":667,"name":"DethSQRL","steam_id":76561199149628610,"connected_time":891000000000,"state":"active","ping":76},{"user_id":631,"name":"saucy jack","steam_id":76561198307012859,"connected_time":3560000000000,"state":"active","ping":65},{"user_id":607,"name":"J O S HÂ³Â²","steam_id":76561198122603779,"connected_time":5163000000000,"state":"active","ping":95},{"user_id":692,"name":"Zing","steam_id":76561198097160898,"connected_time":6000000000,"state":"spawning","ping":380},{"user_id":665,"name":"Orange Mann Bad","steam_id":76561198021126964,"connected_time":981000000000,"state":"active","ping":116}]},{"server_id":106,"name":"Uncletopia | Chicago | 2 | All Maps","name_short":"chi-2","host":"chi-1.us.uncletopia.com","port":27025,"enabled":true,"region":"us-central","cc":"us","latitude":41.881832,"longitude":-87.62318,"reserved":0,"last_update":"0001-01-01T00:00:00Z","name_a2s":"Uncletopia | Chicago | 2 | All Maps","protocol":17,"map":"pl_snowycoast","folder":"tf","game":"Team Fortress","app_id":440,"player_count":24,"max_players":24,"Bots":0,"server_type":"Dedicated","server_os":"Linux","password":true,"vac":true,"version":"7961495","steam_id":85568392924469985,"keywords":["nocrits","nodmgspread","payload","uncletopia"],"game_id":440,"stv_port":27026,"stv_name":"Uncletopia | Chicago | 2 | All Maps | STV","players":[{"user_id":425,"name":"Maxxycat","steam_id":76561198194062681,"connected_time":208000000000,"state":"active","ping":56},{"user_id":422,"name":"Gray","steam_id":76561198387827743,"connected_time":242000000000,"state":"active","ping":107},{"user_id":410,"name":"Veil","steam_id":76561199177642251,"connected_time":538000000000,"state":"active","ping":81},{"user_id":407,"name":"FiZZy","steam_id":76561198990783547,"connected_time":832000000000,"state":"active","ping":91},{"user_id":409,"name":"Onsyn","steam_id":76561199201517591,"connected_time":761000000000,"state":"active","ping":80},{"user_id":424,"name":"Soup Fascist","steam_id":76561198801210525,"connected_time":231000000000,"state":"active","ping":94},{"user_id":416,"name":"Octovaitor","steam_id":76561198004658451,"connected_time":429000000000,"state":"active","ping":78},{"user_id":371,"name":"Darth Bane","steam_id":76561198236828096,"connected_time":3949000000000,"state":"active","ping":78},{"user_id":348,"name":"Howard Hamlin","steam_id":76561198881039861,"connected_time":6267000000000,"state":"active","ping":51},{"user_id":381,"name":"Tobo","steam_id":76561198085846393,"connected_time":3564000000000,"state":"active","ping":79},{"user_id":412,"name":"shannongram","steam_id":76561198967261342,"connected_time":494000000000,"state":"active","ping":115},{"user_id":399,"name":"Klynol","steam_id":76561198065856098,"connected_time":2070000000000,"state":"active","ping":74},{"user_id":420,"name":"Xsaber","steam_id":76561198285273249,"connected_time":382000000000,"state":"active","ping":54},{"user_id":389,"name":"Probably George","steam_id":76561198320099889,"connected_time":2490000000000,"state":"active","ping":76},{"user_id":362,"name":"Ripley","steam_id":76561198064478354,"connected_time":4902000000000,"state":"active","ping":146},{"user_id":414,"name":"Gimme your Teeth","steam_id":76561198240523882,"connected_time":461000000000,"state":"active","ping":113},{"user_id":417,"name":"Pongallow","steam_id":76561198146876078,"connected_time":428000000000,"state":"active","ping":55},{"user_id":418,"name":"xjlm","steam_id":76561198043497260,"connected_time":408000000000,"state":"active","ping":110},{"user_id":403,"name":"44Ejkej77","steam_id":76561198117717593,"connected_time":1387000000000,"state":"active","ping":182},{"user_id":421,"name":"bladees realest, saddest verse","steam_id":76561198098099826,"connected_time":328000000000,"state":"active","ping":102},{"user_id":396,"name":"JudeTheDude","steam_id":76561198834387981,"connected_time":2131000000000,"state":"active","ping":95},{"user_id":367,"name":"werecat","steam_id":76561198005091213,"connected_time":4784000000000,"state":"active","ping":59},{"user_id":397,"name":"bigman","steam_id":76561199055369923,"connected_time":2117000000000,"state":"active","ping":110},{"user_id":406,"name":"Vynthex","steam_id":76561198990762666,"connected_time":860000000000,"state":"active","ping":74}]},{"server_id":402,"name":"Uncletopia | Chicago | 3 | All Maps","name_short":"chi-3","host":"chi-1.us.uncletopia.com","port":27035,"enabled":true,"region":"us-central","cc":"us","latitude":41.881832,"longitude":-87.62318,"reserved":0,"last_update":"0001-01-01T00:00:00Z","name_a2s":"Uncletopia | Chicago | 3 | All Maps","protocol":17,"map":"pl_borneo","folder":"tf","game":"Team Fortress","app_id":440,"player_count":0,"max_players":24,"Bots":0,"server_type":"Dedicated","server_os":"Linux","password":true,"vac":true,"version":"7961495","steam_id":85568392924515191,"keywords":["nocrits","nodmgspread","payload","uncletopia"],"game_id":440,"stv_port":27036,"stv_name":"Uncletopia | Chicago | 3 | All Maps | STV","players":null},{"server_id":403,"name":"Uncletopia | Chicago | 4 | All Maps","name_short":"chi-4","host":"chi-1.us.uncletopia.com","port":27045,"enabled":true,"region":"us-central","cc":"us","latitude":41.881832,"longitude":-87.62318,"reserved":0,"last_update":"0001-01-01T00:00:00Z","name_a2s":"Uncletopia | Chicago | 4 | All Maps","protocol":17,"map":"pl_frontier_final","folder":"tf","game":"Team Fortress","app_id":440,"player_count":23,"max_players":24,"Bots":0,"server_type":"Dedicated","server_os":"Linux","password":true,"vac":true,"version":"7961495","steam_id":85568392924515193,"keywords":["nocrits","nodmgspread","payload","uncletopia"],"game_id":440,"stv_port":27046,"stv_name":"Uncletopia | Chicago | 4 | All Maps | STV","players":[{"user_id":672,"name":"pah","steam_id":76561198065040540,"connected_time":1430000000000,"state":"active","ping":70},{"user_id":690,"name":"Foolie","steam_id":76561198291741747,"connected_time":320000000000,"state":"active","ping":95},{"user_id":678,"name":"nanoboosts","steam_id":76561199500861337,"connected_time":1171000000000,"state":"active","ping":124},{"user_id":673,"name":"Cactusâ„¢ â™¥","steam_id":76561198036441270,"connected_time":1340000000000,"state":"active","ping":123},{"user_id":616,"name":"1st place love live fan","steam_id":76561198037951506,"connected_time":5809000000000,"state":"active","ping":69},{"user_id":654,"name":"Kantamoe","steam_id":76561198046661611,"connected_time":3405000000000,"state":"active","ping":85},{"user_id":691,"name":"å¦‚é¡˜","steam_id":76561198038486613,"connected_time":315000000000,"state":"active","ping":66},{"user_id":696,"name":"ouroya","steam_id":76561198269138985,"connected_time":3000000000,"state":"spawning","ping":33},{"user_id":624,"name":"zpalmtree","steam_id":76561198134307620,"connected_time":5145000000000,"state":"active","ping":60},{"user_id":692,"name":"Maurdakar","steam_id":76561197983420976,"connected_time":310000000000,"state":"active","ping":67},{"user_id":683,"name":"GasterDog","steam_id":76561198844423506,"connected_time":876000000000,"state":"active","ping":98},{"user_id":649,"name":"9gon Danmar33","steam_id":76561198056453091,"connected_time":3776000000000,"state":"active","ping":60},{"user_id":676,"name":"Nexusuxen","steam_id":76561198117547131,"connected_time":1249000000000,"state":"active","ping":71},{"user_id":670,"name":"kikikikoboy","steam_id":76561198073380271,"connected_time":1909000000000,"state":"active","ping":79},{"user_id":667,"name":"mark","steam_id":76561198200380143,"connected_time":2391000000000,"state":"active","ping":122},{"user_id":695,"name":"Assitins","steam_id":76561198041572892,"connected_time":84000000000,"state":"active","ping":76},{"user_id":693,"name":"keffers","steam_id":76561198202338796,"connected_time":307000000000,"state":"active","ping":72},{"user_id":677,"name":"Always Here for You","steam_id":76561198219252313,"connected_time":1185000000000,"state":"active","ping":75},{"user_id":651,"name":"Jousty","steam_id":76561199162677853,"connected_time":3649000000000,"state":"active","ping":87},{"user_id":684,"name":"Captain Shank","steam_id":76561198057017006,"connected_time":785000000000,"state":"active","ping":101},{"user_id":680,"name":"Mufalito","steam_id":76561198951889482,"connected_time":1120000000000,"state":"active","ping":132},{"user_id":681,"name":"ans","steam_id":76561198274007110,"connected_time":1080000000000,"state":"active","ping":111},{"user_id":685,"name":"Mitchu The Bidness Man","steam_id":76561198102494381,"connected_time":716000000000,"state":"active","ping":62}]},{"server_id":36,"name":"Uncletopia | Chicago | 5 | All Maps","name_short":"chi-5","host":"chi-2.us.uncletopia.com","port":27015,"enabled":true,"region":"us-central","cc":"us","latitude":41.881832,"longitude":-87.62318,"reserved":0,"last_update":"0001-01-01T00:00:00Z","name_a2s":"Uncletopia | Chicago | 5 | All Maps","protocol":17,"map":"ctf_turbine","folder":"tf","game":"Team Fortress","app_id":440,"player_count":0,"max_players":24,"Bots":0,"server_type":"Dedicated","server_os":"Linux","password":true,"vac":true,"version":"7961495","steam_id":85568392924866362,"keywords":["ctf","nocrits","nodmgspread","uncletopia"],"game_id":440,"stv_port":27016,"stv_name":"Uncletopia | Chicago | 5 | All Maps | STV","players":null},{"server_id":37,"name":"Uncletopia | Chicago | 6 | All Maps","name_short":"chi-6","host":"chi-2.us.uncletopia.com","port":27025,"enabled":true,"region":"us-central","cc":"us","latitude":41.881832,"longitude":-87.62318,"reserved":0,"last_update":"0001-01-01T00:00:00Z","name_a2s":"Uncletopia | Chicago | 6 | All Maps","protocol":17,"map":"koth_highpass","folder":"tf","game":"Team Fortress","app_id":440,"player_count":0,"max_players":24,"Bots":0,"server_type":"Dedicated","server_os":"Linux","password":true,"vac":true,"version":"7961495","steam_id":85568392924866363,"keywords":["cp","nocrits","nodmgspread","uncletopia"],"game_id":440,"stv_port":27026,"stv_name":"Uncletopia | Chicago | 6 | All Maps | STV","players":null},{"server_id":38,"name":"Uncletopia | Chicago | 7 | Stopwatch","name_short":"chi-7","host":"chi-2.us.uncletopia.com","port":27035,"enabled":true,"region":"us-central","cc":"us","latitude":41.881832,"longitude":-87.62318,"reserved":0,"last_update":"0001-01-01T00:00:00Z","name_a2s":"Uncletopia | Chicago | 7 | Stopwatch","protocol":17,"map":"workshop/koth_bagel_rc6.ugc2514036946","folder":"tf","game":"Team Fortress","app_id":440,"player_count":0,"max_players":24,"Bots":0,"server_type":"Dedicated","server_os":"Linux","password":true,"vac":true,"version":"7961495","steam_id":85568392924866364,"keywords":["cp","nocrits","nodmgspread","uncletopia"],"game_id":440,"stv_port":27036,"stv_name":"Uncletopia | Chicago | 7 | Stopwatch | STV","players":null},{"server_id":39,"name":"Uncletopia | Chicago | 8 | Community","name_short":"chi-8","host":"chi-2.us.uncletopia.com","port":27045,"enabled":true,"region":"us-central","cc":"us","latitude":41.881832,"longitude":-87.62318,"reserved":0,"last_update":"0001-01-01T00:00:00Z","name_a2s":"Uncletopia | Chicago | 8 | Community","protocol":17,"map":"workshop/koth_ashville_final.ugc2130459942","folder":"tf","game":"Team Fortress","app_id":440,"player_count":0,"max_players":24,"Bots":0,"server_type":"Dedicated","server_os":"Linux","password":true,"vac":true,"version":"7961495","steam_id":85568392924866365,"keywords":["cp","nocrits","nodmgspread","uncletopia"],"game_id":440,"stv_port":27046,"stv_name":"Uncletopia | Chicago | 8 | Community | STV","players":null},{"server_id":8,"name":"Uncletopia | Dallas | 1 | All Maps","name_short":"dal-1","host":"dal-1.us.uncletopia.com","port":27015,"enabled":true,"region":"us-central","cc":"us","latitude":32.779167,"longitude":-96.80889,"reserved":0,"last_update":"0001-01-01T00:00:00Z","name_a2s":"Uncletopia | Dallas | 1 | All Maps","protocol":17,"map":"cp_process_final","folder":"tf","game":"Team Fortress","app_id":440,"player_count":24,"max_players":24,"Bots":0,"server_type":"Dedicated","server_os":"Linux","password":true,"vac":true,"version":"7961495","steam_id":85568392924469986,"keywords":["cp","nocrits","nodmgspread","uncletopia"],"game_id":440,"stv_port":27016,"stv_name":"Uncletopia | Dallas | 1 | All Maps | STV","players":[{"user_id":389,"name":"she became a fish","steam_id":76561198062263639,"connected_time":7676000000000,"state":"active","ping":53},{"user_id":482,"name":"Gummy","steam_id":76561199200969139,"connected_time":853000000000,"state":"active","ping":108},{"user_id":459,"name":"Green Mario","steam_id":76561198094325997,"connected_time":3009000000000,"state":"active","ping":66},{"user_id":474,"name":"aaaah2","steam_id":76561198178501314,"connected_time":1291000000000,"state":"active","ping":72},{"user_id":467,"name":"Larry Gooseman","steam_id":76561198018696922,"connected_time":2076000000000,"state":"active","ping":87},{"user_id":464,"name":"{ST} Oxythemoron","steam_id":76561198060089965,"connected_time":2241000000000,"state":"active","ping":52},{"user_id":469,"name":"sithreis","steam_id":76561198000564263,"connected_time":2038000000000,"state":"active","ping":66},{"user_id":422,"name":"tsz","steam_id":76561199246231090,"connected_time":5348000000000,"state":"active","ping":82},{"user_id":487,"name":"dobby","steam_id":76561198012274834,"connected_time":337000000000,"state":"active","ping":71},{"user_id":440,"name":"Rennsellaer","steam_id":76561198096207580,"connected_time":4460000000000,"state":"active","ping":79},{"user_id":484,"name":"Akira (they/them)","steam_id":76561198294601519,"connected_time":606000000000,"state":"active","ping":91},{"user_id":446,"name":"shin megami tensei nocturne","steam_id":76561198026563351,"connected_time":4240000000000,"state":"active","ping":82},{"user_id":465,"name":"Thunder","steam_id":76561198097721532,"connected_time":2207000000000,"state":"active","ping":77},{"user_id":461,"name":"Draven","steam_id":76561198074776388,"connected_time":2970000000000,"state":"active","ping":54},{"user_id":453,"name":"Syndra's Futa Balls","steam_id":76561198058671296,"connected_time":3642000000000,"state":"active","ping":85},{"user_id":457,"name":"AlecTheNefarious","steam_id":76561198035291230,"connected_time":3160000000000,"state":"active","ping":45},{"user_id":471,"name":"KevilPo","steam_id":76561199244507267,"connected_time":2002000000000,"state":"active","ping":93},{"user_id":489,"name":"C^a^L","steam_id":76561198241124222,"connected_time":213000000000,"state":"active","ping":90},{"user_id":485,"name":"mewtek","steam_id":76561198138599995,"connected_time":595000000000,"state":"active","ping":80},{"user_id":444,"name":"Mexican Muselk","steam_id":76561199289676387,"connected_time":4374000000000,"state":"active","ping":62},{"user_id":480,"name":"meggie","steam_id":76561198038291026,"connected_time":1033000000000,"state":"active","ping":42},{"user_id":458,"name":"lanoc","steam_id":76561198055415367,"connected_time":3156000000000,"state":"active","ping":60},{"user_id":488,"name":"DJ WIZARDPOOTIS","steam_id":76561198309329395,"connected_time":263000000000,"state":"active","ping":51},{"user_id":449,"name":"ash","steam_id":76561198127890645,"connected_time":4147000000000,"state":"active","ping":83}]},{"server_id":108,"name":"Uncletopia | Dallas | 2 | All Maps","name_short":"dal-2","host":"dal-1.us.uncletopia.com","port":27025,"enabled":true,"region":"us-central","cc":"us","latitude":32.779167,"longitude":-96.80889,"reserved":0,"last_update":"0001-01-01T00:00:00Z","name_a2s":"Uncletopia | Dallas | 2 | All Maps","protocol":17,"map":"koth_lakeside_final","folder":"tf","game":"Team Fortress","app_id":440,"player_count":3,"max_players":24,"Bots":0,"server_type":"Dedicated","server_os":"Linux","password":true,"vac":true,"version":"7961495","steam_id":85568392924469988,"keywords":["cp","nocrits","nodmgspread","uncletopia"],"game_id":440,"stv_port":27026,"stv_name":"Uncletopia | Dallas | 2 | All Maps | STV","players":[{"user_id":536,"name":"ShadowBolt","steam_id":76561198061610985,"connected_time":1017000000000,"state":"active","ping":108},{"user_id":537,"name":"cofferhead","steam_id":76561199191108449,"connected_time":531000000000,"state":"active","ping":82},{"user_id":538,"name":"Kirbothebrony","steam_id":76561198971911330,"connected_time":77000000000,"state":"active","ping":59}]},{"server_id":404,"name":"Uncletopia | Dallas | 3 | All Maps","name_short":"dal-3","host":"dal-1.us.uncletopia.com","port":27035,"enabled":true,"region":"us-central","cc":"us","latitude":32.779167,"longitude":-96.80889,"reserved":0,"last_update":"0001-01-01T00:00:00Z","name_a2s":"Uncletopia | Dallas | 3 | All Maps","protocol":17,"map":"ctf_2fort","folder":"tf","game":"Team Fortress","app_id":440,"player_count":16,"max_players":24,"Bots":0,"server_type":"Dedicated","server_os":"Linux","password":true,"vac":true,"version":"7961495","steam_id":85568392924515219,"keywords":["ctf","nocrits","nodmgspread","uncletopia"],"game_id":440,"stv_port":27036,"stv_name":"Uncletopia | Dallas | 3 | All Maps | STV","players":[{"user_id":860,"name":"Fargo","steam_id":76561198044703931,"connected_time":287000000000,"state":"active","ping":60},{"user_id":862,"name":"Hyrulaz","steam_id":76561198274216676,"connected_time":140000000000,"state":"active","ping":110},{"user_id":863,"name":"cajun thotsauce","steam_id":76561198101636066,"connected_time":44000000000,"state":"active","ping":84},{"user_id":843,"name":"basilberry","steam_id":76561198145275937,"connected_time":2212000000000,"state":"active","ping":63},{"user_id":859,"name":"AHotdogVendor","steam_id":76561199211436683,"connected_time":314000000000,"state":"active","ping":39},{"user_id":801,"name":"Thequirka","steam_id":76561198968058652,"connected_time":4998000000000,"state":"active","ping":93},{"user_id":864,"name":"The Notorious T.A.F.T.","steam_id":76561198073012352,"connected_time":21000000000,"state":"active","ping":59},{"user_id":846,"name":"Burny Sanders","steam_id":76561197961879048,"connected_time":2127000000000,"state":"active","ping":44},{"user_id":836,"name":"ItsYaBoiScooter","steam_id":76561199028427897,"connected_time":2795000000000,"state":"active","ping":89},{"user_id":777,"name":"Cinnifox","steam_id":76561198068773971,"connected_time":6674000000000,"state":"active","ping":79},{"user_id":854,"name":"justyoureventualruler","steam_id":76561198410993481,"connected_time":1470000000000,"state":"active","ping":58},{"user_id":802,"name":"Phoenix","steam_id":76561199465534945,"connected_time":4951000000000,"state":"active","ping":104},{"user_id":813,"name":"Cheese","steam_id":76561199207081299,"connected_time":4176000000000,"state":"active","ping":98},{"user_id":815,"name":"Censure","steam_id":76561198850891374,"connected_time":4087000000000,"state":"active","ping":81},{"user_id":853,"name":"Bizsnitch","steam_id":76561198017936794,"connected_time":1782000000000,"state":"active","ping":61},{"user_id":857,"name":"jello_pudding","steam_id":76561198073844467,"connected_time":325000000000,"state":"active","ping":99}]},{"server_id":405,"name":"Uncletopia | Dallas | 4 | Community","name_short":"dal-4","host":"dal-1.us.uncletopia.com","port":27045,"enabled":true,"region":"us-central","cc":"us","latitude":32.779167,"longitude":-96.80889,"reserved":0,"last_update":"0001-01-01T00:00:00Z","name_a2s":"Uncletopia | Dallas | 4 | Community","protocol":17,"map":"workshop/koth_kemptown_rc1.ugc767410655","folder":"tf","game":"Team Fortress","app_id":440,"player_count":0,"max_players":24,"Bots":0,"server_type":"Dedicated","server_os":"Linux","password":true,"vac":true,"version":"7961495","steam_id":85568392924515220,"keywords":["cp","nocrits","nodmgspread","uncletopia"],"game_id":440,"stv_port":27046,"stv_name":"Uncletopia | Dallas | 4 | Community | STV","players":null},{"server_id":5,"name":"Uncletopia | Frankfurt | 1 | All Maps","name_short":"frk-1","host":"frk-1.de.uncletopia.com","port":27015,"enabled":true,"region":"eu","cc":"de","latitude":50.110924,"longitude":8.682127,"reserved":0,"last_update":"0001-01-01T00:00:00Z","name_a2s":"Uncletopia | Frankfurt | 1 | All Maps","protocol":17,"map":"koth_highpass","folder":"tf","game":"Team Fortress","app_id":440,"player_count":0,"max_players":24,"Bots":0,"server_type":"Dedicated","server_os":"Linux","password":true,"vac":true,"version":"7961495","steam_id":85568392924469989,"keywords":["cp","nocrits","nodmgspread","uncletopia"],"game_id":440,"stv_port":27016,"stv_name":"Uncletopia | Frankfurt | 1 | All Maps | STV","players":null},{"server_id":110,"name":"Uncletopia | Frankfurt | 2 | All Maps","name_short":"frk-2","host":"frk-1.de.uncletopia.com","port":27025,"enabled":true,"region":"eu","cc":"de","latitude":50.110924,"longitude":8.682127,"reserved":0,"last_update":"0001-01-01T00:00:00Z","name_a2s":"Uncletopia | Frankfurt | 2 | All Maps","protocol":17,"map":"cp_dustbowl","folder":"tf","game":"Team Fortress","app_id":440,"player_count":0,"max_players":24,"Bots":0,"server_type":"Dedicated","server_os":"Linux","password":true,"vac":true,"version":"7961495","steam_id":85568392924469990,"keywords":["cp","nocrits","nodmgspread","uncletopia"],"game_id":440,"stv_port":27026,"stv_name":"Uncletopia | Frankfurt | 2 | All Maps | STV","players":null},{"server_id":308,"name":"Uncletopia | Frankfurt | 3 | All Maps","name_short":"frk-3","host":"frk-1.de.uncletopia.com","port":27035,"enabled":true,"region":"eu","cc":"de","latitude":50.110924,"longitude":8.682127,"reserved":0,"last_update":"0001-01-01T00:00:00Z","name_a2s":"Uncletopia | Frankfurt | 3 | All Maps","protocol":17,"map":"pl_swiftwater_final1","folder":"tf","game":"Team Fortress","app_id":440,"player_count":0,"max_players":24,"Bots":0,"server_type":"Dedicated","server_os":"Linux","password":true,"vac":true,"version":"7961495","steam_id":85568392924504274,"keywords":["nocrits","nodmgspread","payload","uncletopia"],"game_id":440,"stv_port":27036,"stv_name":"Uncletopia | Frankfurt | 3 | All Maps | STV","players":null},{"server_id":309,"name":"Uncletopia | Frankfurt | 4 | All Maps","name_short":"frk-4","host":"frk-1.de.uncletopia.com","port":27045,"enabled":true,"region":"eu","cc":"de","latitude":50.110924,"longitude":8.682127,"reserved":0,"last_update":"0001-01-01T00:00:00Z","name_a2s":"Uncletopia | Frankfurt | 4 | All Maps","protocol":17,"map":"koth_highpass","folder":"tf","game":"Team Fortress","app_id":440,"player_count":0,"max_players":24,"Bots":0,"server_type":"Dedicated","server_os":"Linux","password":true,"vac":true,"version":"7961495","steam_id":85568392924504275,"keywords":["cp","nocrits","nodmgspread","uncletopia"],"game_id":440,"stv_port":27046,"stv_name":"Uncletopia | Frankfurt | 4 | All Maps | STV","players":null},{"server_id":310,"name":"Uncletopia | Frankfurt | 5 | All Maps","name_short":"frk-5","host":"frk-1.de.uncletopia.com","port":27055,"enabled":true,"region":"eu","cc":"de","latitude":50.110924,"longitude":8.682127,"reserved":0,"last_update":"0001-01-01T00:00:00Z","name_a2s":"Uncletopia | Frankfurt | 5 | All Maps","protocol":17,"map":"koth_lakeside_final","folder":"tf","game":"Team Fortress","app_id":440,"player_count":0,"max_players":24,"Bots":0,"server_type":"Dedicated","server_os":"Linux","password":true,"vac":true,"version":"7961495","steam_id":85568392924504277,"keywords":["cp","nocrits","nodmgspread","uncletopia"],"game_id":440,"stv_port":27056,"stv_name":"Uncletopia | Frankfurt | 5 | All Maps | STV","players":null},{"server_id":311,"name":"Uncletopia | Frankfurt | 6 | All Maps","name_short":"frk-6","host":"frk-1.de.uncletopia.com","port":27065,"enabled":true,"region":"eu","cc":"de","latitude":50.110924,"longitude":8.682127,"reserved":0,"last_update":"0001-01-01T00:00:00Z","name_a2s":"Uncletopia | Frankfurt | 6 | All Maps","protocol":17,"map":"pl_upward","folder":"tf","game":"Team Fortress","app_id":440,"player_count":0,"max_players":24,"Bots":0,"server_type":"Dedicated","server_os":"Linux","password":true,"vac":true,"version":"7961495","steam_id":85568392924504278,"keywords":["nocrits","nodmgspread","payload","uncletopia"],"game_id":440,"stv_port":27066,"stv_name":"Uncletopia | Frankfurt | 6 | All Maps | STV","players":null},{"server_id":23,"name":"Uncletopia | Frankfurt | 7 | Stopwatch","name_short":"frk-7","host":"frk-1.de.uncletopia.com","port":27075,"enabled":true,"region":"eu","cc":"de","latitude":50.110924,"longitude":8.682127,"reserved":0,"last_update":"0001-01-01T00:00:00Z","name_a2s":"Uncletopia | Frankfurt | 7 | Stopwatch","protocol":17,"map":"pl_frontier_final","folder":"tf","game":"Team Fortress","app_id":440,"player_count":0,"max_players":24,"Bots":0,"server_type":"Dedicated","server_os":"Linux","password":true,"vac":true,"version":"7961495","steam_id":85568392924742827,"keywords":["nocrits","nodmgspread","payload","uncletopia"],"game_id":440,"stv_port":27076,"stv_name":"Uncletopia | Frankfurt | 7 | Stopwatch | STV","players":null},{"server_id":24,"name":"Uncletopia | Frankfurt | 8 | Community","name_short":"frk-8","host":"frk-1.de.uncletopia.com","port":27085,"enabled":true,"region":"eu","cc":"de","latitude":50.110924,"longitude":8.682127,"reserved":0,"last_update":"0001-01-01T00:00:00Z","name_a2s":"Uncletopia | Frankfurt | 8 | Community","protocol":17,"map":"cp_mountainlab","folder":"tf","game":"Team Fortress","app_id":440,"player_count":0,"max_players":24,"Bots":0,"server_type":"Dedicated","server_os":"Linux","password":true,"vac":true,"version":"7961495","steam_id":85568392924742828,"keywords":["cp","nocrits","nodmgspread","uncletopia"],"game_id":440,"stv_port":27086,"stv_name":"Uncletopia | Frankfurt | 8 | Community | STV","players":null},{"server_id":202,"name":"Uncletopia | Hong Kong | 1 | All Maps","name_short":"hgk-1","host":"hgk-1.hk.uncletopia.com","port":27015,"enabled":true,"region":"asia","cc":"hk","latitude":22.302711,"longitude":114.177216,"reserved":0,"last_update":"0001-01-01T00:00:00Z","name_a2s":"Uncletopia | Hong Kong | 1 | All Maps","protocol":17,"map":"cp_dustbowl","folder":"tf","game":"Team Fortress","app_id":440,"player_count":0,"max_players":24,"Bots":0,"server_type":"Dedicated","server_os":"Linux","password":true,"vac":true,"version":"7961495","steam_id":85568392924494504,"keywords":["cp","nocrits","nodmgspread","uncletopia"],"game_id":440,"stv_port":27016,"stv_name":"Uncletopia | Hong Kong | 1 | All Maps | STV","players":null},{"server_id":1,"name":"Uncletopia | Los Angeles | 1 | All Maps","name_short":"lax-1","host":"lax-1.us.uncletopia.com","port":27015,"enabled":true,"region":"us-west","cc":"us","latitude":33.94279,"longitude":-118.41004,"reserved":0,"last_update":"0001-01-01T00:00:00Z","name_a2s":"Uncletopia | Los Angeles | 1 | All Maps","protocol":17,"map":"pl_barnblitz","folder":"tf","game":"Team Fortress","app_id":440,"player_count":22,"max_players":24,"Bots":0,"server_type":"Dedicated","server_os":"Linux","password":true,"vac":true,"version":"7961495","steam_id":85568392924469991,"keywords":["nocrits","nodmgspread","payload","uncletopia"],"game_id":440,"stv_port":27016,"stv_name":"Uncletopia | Los Angeles | 1 | All Maps | STV","players":[{"user_id":189,"name":"Zippy","steam_id":76561198279229422,"connected_time":4629000000000,"state":"active","ping":115},{"user_id":223,"name":"PROFILE NAME","steam_id":76561199438851854,"connected_time":1711000000000,"state":"active","ping":87},{"user_id":113,"name":"Anon","steam_id":76561198109740776,"connected_time":10563000000000,"state":"active","ping":55},{"user_id":225,"name":"Mayor McCheese","steam_id":76561198347579460,"connected_time":1668000000000,"state":"active","ping":76},{"user_id":219,"name":"chicken","steam_id":76561198313121580,"connected_time":2343000000000,"state":"active","ping":54},{"user_id":224,"name":"Drive-By-Fish-Guy","steam_id":76561198105513652,"connected_time":1705000000000,"state":"active","ping":60},{"user_id":206,"name":"BLÃ˜RG","steam_id":76561198036126673,"connected_time":3875000000000,"state":"active","ping":90},{"user_id":240,"name":"SneekiCheekiQbone","steam_id":76561198045077980,"connected_time":234000000000,"state":"active","ping":45},{"user_id":241,"name":"Guus Frang","steam_id":76561198033562613,"connected_time":163000000000,"state":"active","ping":149},{"user_id":236,"name":"Gundam Guy","steam_id":76561198178453993,"connected_time":1213000000000,"state":"active","ping":68},{"user_id":192,"name":"HAT-WEARINGâ„¢ Maggot Gamer Cat","steam_id":76561197973992705,"connected_time":4415000000000,"state":"active","ping":69},{"user_id":235,"name":"fish","steam_id":76561198054070811,"connected_time":1334000000000,"state":"active","ping":59},{"user_id":238,"name":"Evelyn!","steam_id":76561198881145760,"connected_time":318000000000,"state":"active","ping":44},{"user_id":198,"name":"ThecoolestEmmy","steam_id":76561198999423393,"connected_time":4131000000000,"state":"active","ping":59},{"user_id":231,"name":"Maid 'n' China","steam_id":76561198423392976,"connected_time":1489000000000,"state":"active","ping":61},{"user_id":212,"name":"ZeroEmpires","steam_id":76561198044112464,"connected_time":3779000000000,"state":"active","ping":74},{"user_id":232,"name":"psi","steam_id":76561198061497429,"connected_time":1469000000000,"state":"active","ping":77},{"user_id":233,"name":"Ulysses Jack","steam_id":76561199497821434,"connected_time":1443000000000,"state":"active","ping":136},{"user_id":215,"name":"Midnight","steam_id":76561198115714484,"connected_time":3723000000000,"state":"active","ping":97},{"user_id":234,"name":"Cat","steam_id":76561198132362099,"connected_time":1380000000000,"state":"active","ping":68},{"user_id":222,"name":"lordstinkdemon666","steam_id":76561198073914311,"connected_time":1948000000000,"state":"active","ping":45},{"user_id":237,"name":"FROYO b4nny","steam_id":76561197970669109,"connected_time":749000000000,"state":"active","ping":56}]},{"server_id":112,"name":"Uncletopia | Los Angeles | 2 | All Maps","name_short":"lax-2","host":"lax-1.us.uncletopia.com","port":27025,"enabled":true,"region":"us-west","cc":"us","latitude":33.94279,"longitude":-118.41004,"reserved":0,"last_update":"0001-01-01T00:00:00Z","name_a2s":"Uncletopia | Los Angeles | 2 | All Maps","protocol":17,"map":"cp_dustbowl","folder":"tf","game":"Team Fortress","app_id":440,"player_count":24,"max_players":24,"Bots":0,"server_type":"Dedicated","server_os":"Linux","password":true,"vac":true,"version":"7961495","steam_id":85568392924469992,"keywords":["cp","nocrits","nodmgspread","uncletopia"],"game_id":440,"stv_port":27026,"stv_name":"Uncletopia | Los Angeles | 2 | All Maps | STV","players":[{"user_id":232,"name":"matto1120","steam_id":76561198201321499,"connected_time":247000000000,"state":"active","ping":53},{"user_id":194,"name":"filtered by cp_steel","steam_id":76561198031409921,"connected_time":3403000000000,"state":"active","ping":45},{"user_id":237,"name":"Dustin Bones","steam_id":76561198019314474,"connected_time":69000000000,"state":"active","ping":83},{"user_id":233,"name":"011sra","steam_id":76561199489542125,"connected_time":216000000000,"state":"active","ping":73},{"user_id":234,"name":"seattlepilot","steam_id":76561198157510704,"connected_time":143000000000,"state":"active","ping":93},{"user_id":224,"name":"Admiral Angry","steam_id":76561198058199206,"connected_time":1415000000000,"state":"active","ping":110},{"user_id":230,"name":"Big Floppa Gaming","steam_id":76561198151258264,"connected_time":1280000000000,"state":"active","ping":65},{"user_id":213,"name":"Whisper!","steam_id":76561198119609795,"connected_time":1929000000000,"state":"active","ping":50},{"user_id":196,"name":"Mr. Noodle","steam_id":76561198025280658,"connected_time":3384000000000,"state":"active","ping":55},{"user_id":197,"name":"lol","steam_id":76561198026491738,"connected_time":3381000000000,"state":"active","ping":68},{"user_id":201,"name":"scringo","steam_id":76561198169969030,"connected_time":3293000000000,"state":"active","ping":57},{"user_id":209,"name":"SanitysEdge","steam_id":76561198130732813,"connected_time":2373000000000,"state":"active","ping":47},{"user_id":202,"name":"Skumpfsklub","steam_id":76561198045782334,"connected_time":3253000000000,"state":"active","ping":55},{"user_id":238,"name":"nÃ¸bu","steam_id":76561198100614981,"connected_time":48000000000,"state":"active","ping":76},{"user_id":226,"name":"Charles","steam_id":76561198155322277,"connected_time":1374000000000,"state":"active","ping":74},{"user_id":186,"name":"Lane","steam_id":76561197965828506,"connected_time":4803000000000,"state":"active","ping":89},{"user_id":212,"name":"Syrup","steam_id":76561198055850531,"connected_time":2125000000000,"state":"active","ping":49},{"user_id":231,"name":"Andrew Dice Gay","steam_id":76561198040736821,"connected_time":485000000000,"state":"active","ping":59},{"user_id":229,"name":"Soggy Zogg","steam_id":76561198836316052,"connected_time":1290000000000,"state":"active","ping":56},{"user_id":217,"name":"rat ðŸ¥²ðŸ˜¶ðŸŒ«","steam_id":76561198130412963,"connected_time":1675000000000,"state":"active","ping":79},{"user_id":203,"name":"who","steam_id":76561198066091050,"connected_time":3144000000000,"state":"active","ping":89},{"user_id":218,"name":"generalnat","steam_id":76561198140394819,"connected_time":1606000000000,"state":"active","ping":116},{"user_id":236,"name":"Herman Bavinck","steam_id":76561197993190216,"connected_time":131000000000,"state":"active","ping":105},{"user_id":189,"name":"FortniteJimmy2008","steam_id":76561198821567852,"connected_time":4496000000000,"state":"active","ping":53}]},{"server_id":324,"name":"Uncletopia | Los Angeles | 3 | All Maps","name_short":"lax-3","host":"lax-1.us.uncletopia.com","port":27035,"enabled":true,"region":"us-west","cc":"us","latitude":33.94279,"longitude":-118.41004,"reserved":0,"last_update":"0001-01-01T00:00:00Z","name_a2s":"Uncletopia | Los Angeles | 3 | All Maps","protocol":17,"map":"koth_cascade","folder":"tf","game":"Team Fortress","app_id":440,"player_count":0,"max_players":24,"Bots":0,"server_type":"Dedicated","server_os":"Linux","password":true,"vac":true,"version":"7961495","steam_id":85568392924510198,"keywords":["cp","nocrits","nodmgspread","uncletopia"],"game_id":440,"stv_port":27036,"stv_name":"Uncletopia | Los Angeles | 3 | All Maps | STV","players":null},{"server_id":25,"name":"Uncletopia | Los Angeles | 4 | Stopwatch","name_short":"lax-4","host":"lax-1.us.uncletopia.com","port":27045,"enabled":true,"region":"us-west","cc":"us","latitude":33.94279,"longitude":-118.41004,"reserved":0,"last_update":"0001-01-01T00:00:00Z","name_a2s":"Uncletopia | Los Angeles | 4 | Stopwatch","protocol":17,"map":"workshop/koth_ashville_final.ugc2130459942","folder":"tf","game":"Team Fortress","app_id":440,"player_count":0,"max_players":24,"Bots":0,"server_type":"Dedicated","server_os":"Linux","password":true,"vac":true,"version":"7961495","steam_id":85568392924510199,"keywords":["cp","nocrits","nodmgspread","uncletopia"],"game_id":440,"stv_port":27046,"stv_name":"Uncletopia | Los Angeles | 4 | Stopwatch | STV","players":null},{"server_id":11,"name":"Uncletopia | London | 1 | All Maps","name_short":"lon-1","host":"lon-1.uk.uncletopia.com","port":27015,"enabled":true,"region":"eu","cc":"gb","latitude":51.509865,"longitude":-0.118092,"reserved":0,"last_update":"0001-01-01T00:00:00Z","name_a2s":"Uncletopia | London | 1 | All Maps","protocol":17,"map":"pl_borneo","folder":"tf","game":"Team Fortress","app_id":440,"player_count":11,"max_players":24,"Bots":0,"server_type":"Dedicated","server_os":"Linux","password":true,"vac":true,"version":"7961495","steam_id":85568392924367362,"keywords":["nocrits","nodmgspread","payload","uncletopia"],"game_id":440,"stv_port":27016,"stv_name":"Uncletopia | London | 1 | All Maps | STV","players":[{"user_id":19,"name":"Ember The Drunk Femboy","steam_id":76561198139630565,"connected_time":1451000000000,"state":"active","ping":49},{"user_id":17,"name":"yuno appreciator","steam_id":76561198083286511,"connected_time":1640000000000,"state":"active","ping":34},{"user_id":33,"name":"kkk [AI]","steam_id":76561198117319649,"connected_time":1000000000,"state":"spawning","ping":99},{"user_id":20,"name":"Femboy Foxi","steam_id":76561198108635769,"connected_time":1426000000000,"state":"active","ping":57},{"user_id":25,"name":"geroxe cruo","steam_id":76561199480942903,"connected_time":757000000000,"state":"active","ping":72},{"user_id":28,"name":"Fr0zt","steam_id":76561198353017137,"connected_time":415000000000,"state":"active","ping":159},{"user_id":26,"name":"Koranae","steam_id":76561198343198306,"connected_time":599000000000,"state":"active","ping":61},{"user_id":23,"name":"76561199218760942","steam_id":76561199218760942,"connected_time":1175000000000,"state":"active","ping":58},{"user_id":29,"name":"hock3n","steam_id":76561198805431094,"connected_time":414000000000,"state":"active","ping":148},{"user_id":30,"name":"snek","steam_id":76561198393655249,"connected_time":406000000000,"state":"active","ping":73},{"user_id":31,"name":"thatmandan14","steam_id":76561199167911857,"connected_time":272000000000,"state":"active","ping":37}]},{"server_id":114,"name":"Uncletopia | London | 2 | All Maps","name_short":"lon-2","host":"lon-1.uk.uncletopia.com","port":27025,"enabled":true,"region":"eu","cc":"gb","latitude":51.509865,"longitude":-0.118092,"reserved":0,"last_update":"0001-01-01T00:00:00Z","name_a2s":"Uncletopia | London | 2 | All Maps","protocol":17,"map":"koth_lakeside_final","folder":"tf","game":"Team Fortress","app_id":440,"player_count":0,"max_players":24,"Bots":0,"server_type":"Dedicated","server_os":"Linux","password":true,"vac":true,"version":"7961495","steam_id":85568392924470941,"keywords":["cp","nocrits","nodmgspread","uncletopia"],"game_id":440,"stv_port":27026,"stv_name":"Uncletopia | London | 2 | All Maps | STV","players":null},{"server_id":320,"name":"Uncletopia | London | 3 | All Maps","name_short":"lon-3","host":"lon-1.uk.uncletopia.com","port":27035,"enabled":true,"region":"eu","cc":"gb","latitude":51.509865,"longitude":-0.118092,"reserved":0,"last_update":"0001-01-01T00:00:00Z","name_a2s":"Uncletopia | London | 3 | All Maps","protocol":17,"map":"cp_process_final","folder":"tf","game":"Team Fortress","app_id":440,"player_count":0,"max_players":24,"Bots":0,"server_type":"Dedicated","server_os":"Linux","password":true,"vac":true,"version":"7961495","steam_id":85568392924510192,"keywords":["cp","nocrits","nodmgspread","uncletopia"],"game_id":440,"stv_port":27036,"stv_name":"Uncletopia | London | 3 | All Maps | STV","players":null},{"server_id":321,"name":"Uncletopia | London | 4 | All Maps","name_short":"lon-4","host":"lon-1.uk.uncletopia.com","port":27045,"enabled":true,"region":"eu","cc":"gb","latitude":51.509865,"longitude":-0.118092,"reserved":0,"last_update":"0001-01-01T00:00:00Z","name_a2s":"Uncletopia | London | 4 | All Maps","protocol":17,"map":"koth_cascade","folder":"tf","game":"Team Fortress","app_id":440,"player_count":0,"max_players":24,"Bots":0,"server_type":"Dedicated","server_os":"Linux","password":true,"vac":true,"version":"7961495","steam_id":85568392924510193,"keywords":["cp","nocrits","nodmgspread","uncletopia"],"game_id":440,"stv_port":27046,"stv_name":"Uncletopia | London | 4 | All Maps | STV","players":null},{"server_id":21,"name":"Uncletopia | London | 5 | All Maps","name_short":"lon-5","host":"lon-1.uk.uncletopia.com","port":27055,"enabled":true,"region":"eu","cc":"gb","latitude":51.509865,"longitude":-0.118092,"reserved":0,"last_update":"0001-01-01T00:00:00Z","name_a2s":"Uncletopia | London | 5 | All Maps","protocol":17,"map":"koth_lakeside_final","folder":"tf","game":"Team Fortress","app_id":440,"player_count":0,"max_players":24,"Bots":0,"server_type":"Dedicated","server_os":"Linux","password":true,"vac":true,"version":"7961495","steam_id":85568392924742829,"keywords":["cp","nocrits","nodmgspread","uncletopia"],"game_id":440,"stv_port":27056,"stv_name":"Uncletopia | London | 5 | All Maps | STV","players":null},{"server_id":22,"name":"Uncletopia | London | 6 | All Maps","name_short":"lon-6","host":"lon-1.uk.uncletopia.com","port":27065,"enabled":true,"region":"eu","cc":"gb","latitude":51.509865,"longitude":-0.118092,"reserved":0,"last_update":"0001-01-01T00:00:00Z","name_a2s":"Uncletopia | London | 6 | All Maps","protocol":17,"map":"cp_dustbowl","folder":"tf","game":"Team Fortress","app_id":440,"player_count":0,"max_players":24,"Bots":0,"server_type":"Dedicated","server_os":"Linux","password":true,"vac":true,"version":"7961495","steam_id":85568392924742830,"keywords":["cp","nocrits","nodmgspread","uncletopia"],"game_id":440,"stv_port":27066,"stv_name":"Uncletopia | London | 6 | All Maps | STV","players":null},{"server_id":40,"name":"Uncletopia | London | 7 | Stopwatch","name_short":"lon-7","host":"lon-1.uk.uncletopia.com","port":27075,"enabled":true,"region":"eu","cc":"gb","latitude":51.509865,"longitude":-0.118092,"reserved":0,"last_update":"0001-01-01T00:00:00Z","name_a2s":"Uncletopia | London | 7 | Stopwatch","protocol":17,"map":"koth_lakeside_final","folder":"tf","game":"Team Fortress","app_id":440,"player_count":0,"max_players":24,"Bots":0,"server_type":"Dedicated","server_os":"Linux","password":true,"vac":true,"version":"7961495","steam_id":85568392924964314,"keywords":["cp","nocrits","nodmgspread","uncletopia"],"game_id":440,"stv_port":27076,"stv_name":"Uncletopia | London | 7 | Stopwatch | STV","players":null},{"server_id":41,"name":"Uncletopia | London | 8 | Community","name_short":"lon-8","host":"lon-1.uk.uncletopia.com","port":27085,"enabled":true,"region":"eu","cc":"gb","latitude":51.509865,"longitude":-0.118092,"reserved":0,"last_update":"0001-01-01T00:00:00Z","name_a2s":"Uncletopia | London | 8 | Community","protocol":17,"map":"cp_snakewater_final1","folder":"tf","game":"Team Fortress","app_id":440,"player_count":0,"max_players":24,"Bots":0,"server_type":"Dedicated","server_os":"Linux","password":true,"vac":true,"version":"7961495","steam_id":85568392924964315,"keywords":["cp","nocrits","nodmgspread","uncletopia"],"game_id":440,"stv_port":27086,"stv_name":"Uncletopia | London | 8 | Community | STV","players":null},{"server_id":300,"name":"Uncletopia | MontrÃ©al | 1 | One Thousand Uncles","name_short":"mtl-1","host":"mtl-1.ca.uncletopia.com","port":27015,"enabled":true,"region":"us-east","cc":"ca","latitude":45.50889,"longitude":-73.56167,"reserved":0,"last_update":"0001-01-01T00:00:00Z","name_a2s":"","protocol":0,"map":"","folder":"","game":"","app_id":0,"player_count":0,"max_players":0,"Bots":0,"server_type":"","server_os":"","password":false,"vac":false,"version":"","steam_id":0,"keywords":null,"game_id":0,"stv_port":0,"stv_name":"","players":null},{"server_id":301,"name":"Uncletopia | MontrÃ©al | 2 | One Thousand Uncles","name_short":"mtl-2","host":"mtl-1.ca.uncletopia.com","port":27025,"enabled":true,"region":"us-east","cc":"ca","latitude":45.50889,"longitude":-73.56167,"reserved":0,"last_update":"0001-01-01T00:00:00Z","name_a2s":"","protocol":0,"map":"","folder":"","game":"","app_id":0,"player_count":0,"max_players":0,"Bots":0,"server_type":"","server_os":"","password":false,"vac":false,"version":"","steam_id":0,"keywords":null,"game_id":0,"stv_port":0,"stv_name":"","players":null},{"server_id":302,"name":"Uncletopia | MontrÃ©al | 3 | One Thousand Uncles","name_short":"mtl-3","host":"mtl-1.ca.uncletopia.com","port":27035,"enabled":true,"region":"us-east","cc":"ca","latitude":45.50889,"longitude":-73.56167,"reserved":0,"last_update":"0001-01-01T00:00:00Z","name_a2s":"","protocol":0,"map":"","folder":"","game":"","app_id":0,"player_count":0,"max_players":0,"Bots":0,"server_type":"","server_os":"","password":false,"vac":false,"version":"","steam_id":0,"keywords":null,"game_id":0,"stv_port":0,"stv_name":"","players":null},{"server_id":13,"name":"Uncletopia | New York City | 1 | All Maps","name_short":"nyc-1","host":"nyc-1.us.uncletopia.com","port":27015,"enabled":true,"region":"us-east","cc":"us","latitude":40.73061,"longitude":-73.93524,"reserved":0,"last_update":"0001-01-01T00:00:00Z","name_a2s":"Uncletopia | New York City | 1 | All Maps","protocol":17,"map":"koth_highpass","folder":"tf","game":"Team Fortress","app_id":440,"player_count":0,"max_players":24,"Bots":0,"server_type":"Dedicated","server_os":"Linux","password":true,"vac":true,"version":"7961495","steam_id":85568392924469993,"keywords":["cp","nocrits","nodmgspread","uncletopia"],"game_id":440,"stv_port":27016,"stv_name":"Uncletopia | New York City | 1 | All Maps | STV","players":null},{"server_id":14,"name":"Uncletopia | New York City | 2 | All Maps","name_short":"nyc-2","host":"nyc-1.us.uncletopia.com","port":27025,"enabled":true,"region":"us-east","cc":"us","latitude":40.73061,"longitude":-73.93524,"reserved":0,"last_update":"0001-01-01T00:00:00Z","name_a2s":"Uncletopia | New York City | 2 | All Maps","protocol":17,"map":"koth_viaduct","folder":"tf","game":"Team Fortress","app_id":440,"player_count":0,"max_players":24,"Bots":0,"server_type":"Dedicated","server_os":"Linux","password":true,"vac":true,"version":"7961495","steam_id":85568392924469994,"keywords":["cp","nocrits","nodmgspread","uncletopia"],"game_id":440,"stv_port":27026,"stv_name":"Uncletopia | New York City | 2 | All Maps | STV","players":null},{"server_id":15,"name":"Uncletopia | New York City | 3 | Stopwatch","name_short":"nyc-3","host":"nyc-1.us.uncletopia.com","port":27035,"enabled":true,"region":"us-east","cc":"us","latitude":40.73061,"longitude":-73.93524,"reserved":0,"last_update":"0001-01-01T00:00:00Z","name_a2s":"Uncletopia | New York City | 3 | Stopwatch","protocol":17,"map":"pl_upward","folder":"tf","game":"Team Fortress","app_id":440,"player_count":0,"max_players":24,"Bots":0,"server_type":"Dedicated","server_os":"Linux","password":true,"vac":true,"version":"7961495","steam_id":85568392924742820,"keywords":["nocrits","nodmgspread","payload","uncletopia"],"game_id":440,"stv_port":27036,"stv_name":"Uncletopia | New York City | 3 | Stopwatch | STV","players":null},{"server_id":16,"name":"Uncletopia | New York City | 4 | Community","name_short":"nyc-4","host":"nyc-1.us.uncletopia.com","port":27045,"enabled":true,"region":"us-east","cc":"us","latitude":40.73061,"longitude":-73.93524,"reserved":0,"last_update":"0001-01-01T00:00:00Z","name_a2s":"Uncletopia | New York City | 4 | Community","protocol":17,"map":"workshop/koth_bagel_rc6.ugc2514036946","folder":"tf","game":"Team Fortress","app_id":440,"player_count":0,"max_players":24,"Bots":0,"server_type":"Dedicated","server_os":"Linux","password":true,"vac":true,"version":"7961495","steam_id":85568392924742821,"keywords":["cp","nocrits","nodmgspread","uncletopia"],"game_id":440,"stv_port":27046,"stv_name":"Uncletopia | New York City | 4 | Community | STV","players":null},{"server_id":142,"name":"Uncletopia | SÃ£o Paulo | 1 | All Maps","name_short":"sao-1","host":"sao-1.br.uncletopia.com","port":27015,"enabled":true,"region":"sa","cc":"br","latitude":-23.533773,"longitude":-46.62529,"reserved":0,"last_update":"0001-01-01T00:00:00Z","name_a2s":"Uncletopia | SÃ£o Paulo | 1 | All Maps","protocol":17,"map":"koth_highpass","folder":"tf","game":"Team Fortress","app_id":440,"player_count":0,"max_players":24,"Bots":0,"server_type":"Dedicated","server_os":"Linux","password":true,"vac":true,"version":"7961495","steam_id":85568392924469996,"keywords":["cp","nocrits","nodmgspread","uncletopia"],"game_id":440,"stv_port":27016,"stv_name":"Uncletopia | SÃ£o Paulo | 1 | All Maps | STV","players":null},{"server_id":143,"name":"Uncletopia | SÃ£o Paulo | 2 | Community","name_short":"sao-2","host":"sao-2.br.uncletopia.com","port":27015,"enabled":true,"region":"sa","cc":"br","latitude":-23.533773,"longitude":-46.62529,"reserved":0,"last_update":"0001-01-01T00:00:00Z","name_a2s":"Uncletopia | SÃ£o Paulo | 2 | Community","protocol":17,"map":"workshop/koth_bagel_rc6.ugc2514036946","folder":"tf","game":"Team Fortress","app_id":440,"player_count":0,"max_players":24,"Bots":0,"server_type":"Dedicated","server_os":"Linux","password":true,"vac":true,"version":"7961495","steam_id":85568392924485349,"keywords":["cp","nocrits","nodmgspread","uncletopia"],"game_id":440,"stv_port":27016,"stv_name":"Uncletopia | SÃ£o Paulo | 2 | Community | STV","players":null},{"server_id":7,"name":"Uncletopia | Seattle | 1 | All Maps","name_short":"sea-1","host":"sea-1.us.uncletopia.com","port":27015,"enabled":true,"region":"us-west","cc":"us","latitude":47.608013,"longitude":-122.33517,"reserved":0,"last_update":"0001-01-01T00:00:00Z","name_a2s":"Uncletopia | Seattle | 1 | All Maps","protocol":17,"map":"pl_pier","folder":"tf","game":"Team Fortress","app_id":440,"player_count":23,"max_players":24,"Bots":0,"server_type":"Dedicated","server_os":"Linux","password":true,"vac":true,"version":"7961495","steam_id":85568392924469997,"keywords":["nocrits","nodmgspread","payload","uncletopia"],"game_id":440,"stv_port":27016,"stv_name":"Uncletopia | Seattle | 1 | All Maps | STV","players":[{"user_id":1054,"name":"bocchi the shlock (real)","steam_id":76561198844648825,"connected_time":845000000000,"state":"active","ping":49},{"user_id":1034,"name":"Dog","steam_id":76561198041841128,"connected_time":2122000000000,"state":"active","ping":76},{"user_id":1037,"name":"Truffles","steam_id":76561198095868800,"connected_time":2088000000000,"state":"active","ping":96},{"user_id":1045,"name":"Keamy","steam_id":76561199471434875,"connected_time":1466000000000,"state":"active","ping":37},{"user_id":1062,"name":"Gobbie","steam_id":76561198004352408,"connected_time":210000000000,"state":"active","ping":32},{"user_id":1049,"name":"nivekuil","steam_id":76561198043892129,"connected_time":910000000000,"state":"active","ping":35},{"user_id":1061,"name":"Henchie!","steam_id":76561198047567464,"connected_time":325000000000,"state":"active","ping":80},{"user_id":1000,"name":"Cheezbeargur","steam_id":76561198164702899,"connected_time":5158000000000,"state":"active","ping":64},{"user_id":1056,"name":"{907}DarkestFury","steam_id":76561198103662458,"connected_time":751000000000,"state":"active","ping":73},{"user_id":1010,"name":"Noah1k","steam_id":76561199428633514,"connected_time":3952000000000,"state":"active","ping":45},{"user_id":940,"name":"waggyaggy","steam_id":76561197998241407,"connected_time":10178000000000,"state":"active","ping":77},{"user_id":1026,"name":"you just got dyked on","steam_id":76561198018977723,"connected_time":2735000000000,"state":"active","ping":48},{"user_id":1017,"name":"Hog Rider","steam_id":76561198275999294,"connected_time":3220000000000,"state":"active","ping":45},{"user_id":1008,"name":"Melly","steam_id":76561198045867175,"connected_time":4650000000000,"state":"active","ping":60},{"user_id":1046,"name":"kill me","steam_id":76561198032625036,"connected_time":1056000000000,"state":"active","ping":52},{"user_id":1063,"name":"Warhead","steam_id":76561198067746049,"connected_time":16000000000,"state":"spawning","ping":95},{"user_id":1052,"name":"Tuna Man","steam_id":76561198039977972,"connected_time":861000000000,"state":"active","ping":50},{"user_id":995,"name":"Daz","steam_id":76561198041431938,"connected_time":5668000000000,"state":"active","ping":50},{"user_id":1057,"name":"Mitchell","steam_id":76561197972922328,"connected_time":613000000000,"state":"active","ping":49},{"user_id":966,"name":"HopeTheNeko","steam_id":76561199159285465,"connected_time":8123000000000,"state":"active","ping":79},{"user_id":1044,"name":"Theluvlesstoast","steam_id":76561198060511303,"connected_time":1664000000000,"state":"active","ping":121},{"user_id":1048,"name":"luc","steam_id":76561198093883448,"connected_time":1013000000000,"state":"active","ping":51},{"user_id":1060,"name":"a","steam_id":76561198074209737,"connected_time":374000000000,"state":"active","ping":95}]},{"server_id":119,"name":"Uncletopia | Seattle | 2 | All Maps","name_short":"sea-2","host":"sea-1.us.uncletopia.com","port":27025,"enabled":true,"region":"us-west","cc":"us","latitude":47.608013,"longitude":-122.33517,"reserved":0,"last_update":"0001-01-01T00:00:00Z","name_a2s":"Uncletopia | Seattle | 2 | All Maps","protocol":17,"map":"pl_frontier_final","folder":"tf","game":"Team Fortress","app_id":440,"player_count":24,"max_players":24,"Bots":0,"server_type":"Dedicated","server_os":"Linux","password":true,"vac":true,"version":"7961495","steam_id":85568392924469998,"keywords":["nocrits","nodmgspread","payload","uncletopia"],"game_id":440,"stv_port":27026,"stv_name":"Uncletopia | Seattle | 2 | All Maps | STV","players":[{"user_id":322,"name":"Drone #0432 (they/it)\u0026","steam_id":76561198027321950,"connected_time":1898000000000,"state":"active","ping":91},{"user_id":301,"name":"NOT FRIENDLY","steam_id":76561198041327231,"connected_time":3459000000000,"state":"active","ping":45},{"user_id":335,"name":"Dextersbrain","steam_id":76561198011831579,"connected_time":109000000000,"state":"active","ping":63},{"user_id":336,"name":"spiderland","steam_id":76561198335992132,"connected_time":27000000000,"state":"active","ping":42},{"user_id":273,"name":"S Q U I S H E  T H A T  C A T","steam_id":76561198293865429,"connected_time":5335000000000,"state":"active","ping":44},{"user_id":290,"name":"Sefren","steam_id":76561198007657340,"connected_time":4454000000000,"state":"active","ping":46},{"user_id":324,"name":"Silly Shark","steam_id":76561198130714378,"connected_time":1736000000000,"state":"active","ping":57},{"user_id":275,"name":"Breast Expansion Bertha","steam_id":76561198225766444,"connected_time":5286000000000,"state":"active","ping":56},{"user_id":303,"name":"Persona404","steam_id":76561198109635077,"connected_time":3251000000000,"state":"active","ping":159},{"user_id":323,"name":"Achoo","steam_id":76561198009091066,"connected_time":1761000000000,"state":"active","ping":45},{"user_id":330,"name":"Spam The Alien","steam_id":76561199122290968,"connected_time":1243000000000,"state":"active","ping":55},{"user_id":297,"name":"THAT CAT","steam_id":76561198010828625,"connected_time":3671000000000,"state":"active","ping":44},{"user_id":311,"name":"Be Gay, Do Crimes, Smoke Weed!","steam_id":76561198092419868,"connected_time":2683000000000,"state":"active","ping":129},{"user_id":321,"name":"The New Bob","steam_id":76561199122072556,"connected_time":2013000000000,"state":"active","ping":132},{"user_id":307,"name":"Rich Homie Rob","steam_id":76561198046570914,"connected_time":3028000000000,"state":"active","ping":63},{"user_id":288,"name":"Facepalm","steam_id":76561198001935226,"connected_time":4758000000000,"state":"active","ping":62},{"user_id":328,"name":"como hacer dinero facil","steam_id":76561198356414514,"connected_time":1490000000000,"state":"active","ping":121},{"user_id":334,"name":"toastii","steam_id":76561198064658477,"connected_time":385000000000,"state":"active","ping":101},{"user_id":333,"name":"jasus","steam_id":76561198088035919,"connected_time":495000000000,"state":"active","ping":43},{"user_id":317,"name":"ElectronX","steam_id":76561198116034988,"connected_time":2358000000000,"state":"active","ping":65},{"user_id":296,"name":"moonboy","steam_id":76561198172113657,"connected_time":3955000000000,"state":"active","ping":121},{"user_id":320,"name":"Shang","steam_id":76561198298637817,"connected_time":2165000000000,"state":"active","ping":114},{"user_id":304,"name":"dougrocks421","steam_id":76561198165063918,"connected_time":3251000000000,"state":"active","ping":37},{"user_id":315,"name":"O bez","steam_id":76561198841579939,"connected_time":2531000000000,"state":"active","ping":83}]},{"server_id":406,"name":"Uncletopia | Seattle | 3 | Stopwatch","name_short":"sea-3","host":"sea-1.us.uncletopia.com","port":27035,"enabled":true,"region":"us-west","cc":"us","latitude":47.608013,"longitude":-122.33517,"reserved":0,"last_update":"0001-01-01T00:00:00Z","name_a2s":"Uncletopia | Seattle | 3 | Stopwatch","protocol":17,"map":"cp_gullywash_final1","folder":"tf","game":"Team Fortress","app_id":440,"player_count":0,"max_players":24,"Bots":0,"server_type":"Dedicated","server_os":"Linux","password":true,"vac":true,"version":"7961495","steam_id":85568392924515217,"keywords":["cp","nocrits","nodmgspread","uncletopia"],"game_id":440,"stv_port":27036,"stv_name":"Uncletopia | Seattle | 3 | Stopwatch | STV","players":null},{"server_id":17,"name":"Uncletopia | San Francisco | 1 | All Maps","name_short":"sfo-1","host":"sfo-1.us.uncletopia.com","port":27015,"enabled":true,"region":"us-west","cc":"us","latitude":37.77397,"longitude":-122.4313,"reserved":0,"last_update":"0001-01-01T00:00:00Z","name_a2s":"Uncletopia | San Francisco | 1 | All Maps","protocol":17,"map":"pl_upward","folder":"tf","game":"Team Fortress","app_id":440,"player_count":24,"max_players":24,"Bots":0,"server_type":"Dedicated","server_os":"Linux","password":true,"vac":true,"version":"7961495","steam_id":85568392924469999,"keywords":["nocrits","nodmgspread","payload","uncletopia"],"game_id":440,"stv_port":27016,"stv_name":"Uncletopia | San Francisco | 1 | All Maps | STV","players":[{"user_id":340,"name":"Fgtfv567","steam_id":76561198071022525,"connected_time":706000000000,"state":"active","ping":53},{"user_id":339,"name":"loco503","steam_id":76561198827495121,"connected_time":776000000000,"state":"active","ping":59},{"user_id":303,"name":"Poladroid","steam_id":76561198032005291,"connected_time":3198000000000,"state":"active","ping":62},{"user_id":322,"name":"Cheff cook","steam_id":76561198451203268,"connected_time":2192000000000,"state":"active","ping":49},{"user_id":328,"name":"Mr. Carfox","steam_id":76561198041664428,"connected_time":1457000000000,"state":"active","ping":45},{"user_id":324,"name":"tie dye die guy","steam_id":76561198049845337,"connected_time":1635000000000,"state":"active","ping":64},{"user_id":344,"name":"crazey","steam_id":76561198286510667,"connected_time":170000000000,"state":"active","ping":58},{"user_id":331,"name":"Khrono691","steam_id":76561198246227600,"connected_time":1367000000000,"state":"active","ping":70},{"user_id":345,"name":"Gawin Goodman","steam_id":76561198192661585,"connected_time":138000000000,"state":"active","ping":81},{"user_id":298,"name":"Cave Dweller","steam_id":76561198374825685,"connected_time":4196000000000,"state":"active","ping":54},{"user_id":343,"name":"mobtownUSA","steam_id":76561198393054672,"connected_time":187000000000,"state":"active","ping":78},{"user_id":302,"name":"The Fairy Love Sniper","steam_id":76561198049358645,"connected_time":3209000000000,"state":"active","ping":101},{"user_id":330,"name":"cepi","steam_id":76561198120385184,"connected_time":1379000000000,"state":"active","ping":61},{"user_id":332,"name":"greg","steam_id":76561198878022971,"connected_time":1367000000000,"state":"active","ping":149},{"user_id":347,"name":"Blue Shell Man Guy","steam_id":76561198157985901,"connected_time":96000000000,"state":"active","ping":72},{"user_id":333,"name":"delight","steam_id":76561197980280272,"connected_time":1254000000000,"state":"active","ping":69},{"user_id":312,"name":"1000 Ping","steam_id":76561198098330939,"connected_time":2798000000000,"state":"active","ping":81},{"user_id":318,"name":"Teddy Roosebelt","steam_id":76561198045493149,"connected_time":2575000000000,"state":"active","ping":69},{"user_id":342,"name":"ketsu","steam_id":76561197966171554,"connected_time":524000000000,"state":"active","ping":178},{"user_id":348,"name":"chesterwnimitz","steam_id":76561198062664377,"connected_time":13000000000,"state":"spawning","ping":100},{"user_id":336,"name":"endo","steam_id":76561197995204381,"connected_time":1247000000000,"state":"active","ping":65},{"user_id":338,"name":"PinguEnjoyer6","steam_id":76561199186723516,"connected_time":1119000000000,"state":"active","ping":58},{"user_id":315,"name":"darren","steam_id":76561199050155136,"connected_time":2753000000000,"state":"active","ping":60},{"user_id":323,"name":"owl","steam_id":76561198088403016,"connected_time":1815000000000,"state":"active","ping":152}]},{"server_id":18,"name":"Uncletopia | San Francisco | 2 | All Maps","name_short":"sfo-2","host":"sfo-1.us.uncletopia.com","port":27025,"enabled":true,"region":"us-west","cc":"us","latitude":37.77397,"longitude":-122.4313,"reserved":0,"last_update":"0001-01-01T00:00:00Z","name_a2s":"Uncletopia | San Francisco | 2 | All Maps","protocol":17,"map":"pl_badwater","folder":"tf","game":"Team Fortress","app_id":440,"player_count":0,"max_players":24,"Bots":0,"server_type":"Dedicated","server_os":"Linux","password":true,"vac":true,"version":"7961495","steam_id":85568392924470000,"keywords":["nocrits","nodmgspread","payload","uncletopia"],"game_id":440,"stv_port":27026,"stv_name":"Uncletopia | San Francisco | 2 | All Maps | STV","players":null},{"server_id":19,"name":"Uncletopia | San Francisco | 3 | Stopwatch","name_short":"sfo-3","host":"sfo-1.us.uncletopia.com","port":27035,"enabled":true,"region":"us-west","cc":"us","latitude":37.77397,"longitude":-122.4313,"reserved":0,"last_update":"0001-01-01T00:00:00Z","name_a2s":"Uncletopia | San Francisco | 3 | Stopwatch","protocol":17,"map":"workshop/koth_ashville_final.ugc2130459942","folder":"tf","game":"Team Fortress","app_id":440,"player_count":0,"max_players":24,"Bots":0,"server_type":"Dedicated","server_os":"Linux","password":true,"vac":true,"version":"7961495","steam_id":85568392924742824,"keywords":["cp","nocrits","nodmgspread","uncletopia"],"game_id":440,"stv_port":27036,"stv_name":"Uncletopia | San Francisco | 3 | Stopwatch | STV","players":null},{"server_id":20,"name":"Uncletopia | San Francisco | 4 | Community","name_short":"sfo-4","host":"sfo-1.us.uncletopia.com","port":27045,"enabled":true,"region":"us-west","cc":"us","latitude":37.77397,"longitude":-122.4313,"reserved":0,"last_update":"0001-01-01T00:00:00Z","name_a2s":"Uncletopia | San Francisco | 4 | Community","protocol":17,"map":"workshop/koth_bagel_rc6.ugc2514036946","folder":"tf","game":"Team Fortress","app_id":440,"player_count":0,"max_players":24,"Bots":0,"server_type":"Dedicated","server_os":"Linux","password":true,"vac":true,"version":"7961495","steam_id":85568392924742826,"keywords":["cp","nocrits","nodmgspread","uncletopia"],"game_id":440,"stv_port":27046,"stv_name":"Uncletopia | San Francisco | 4 | Community | STV","players":null},{"server_id":141,"name":"Uncletopia | Sydney | 1 | All Maps","name_short":"syd-1","host":"syd-1.au.uncletopia.com","port":27015,"enabled":true,"region":"au","cc":"au","latitude":-33.865143,"longitude":151.2099,"reserved":0,"last_update":"0001-01-01T00:00:00Z","name_a2s":"Uncletopia | Sydney | 1 | All Maps","protocol":17,"map":"pl_barnblitz","folder":"tf","game":"Team Fortress","app_id":440,"player_count":15,"max_players":24,"Bots":0,"server_type":"Dedicated","server_os":"Linux","password":true,"vac":true,"version":"7961495","steam_id":85568392924470001,"keywords":["nocrits","nodmgspread","payload","uncletopia"],"game_id":440,"stv_port":27016,"stv_name":"Uncletopia | Sydney | 1 | All Maps | STV","players":[{"user_id":22,"name":"Matt","steam_id":76561198006791420,"connected_time":2296000000000,"state":"active","ping":99},{"user_id":23,"name":"Penguinator5000","steam_id":76561198038183553,"connected_time":1951000000000,"state":"active","ping":46},{"user_id":34,"name":"Two Fortress Enjoyer","steam_id":76561198039845750,"connected_time":846000000000,"state":"active","ping":59},{"user_id":53,"name":"lobster","steam_id":76561198288970258,"connected_time":15000000000,"state":"active","ping":47},{"user_id":35,"name":"LaFleur","steam_id":76561198869499113,"connected_time":806000000000,"state":"active","ping":51},{"user_id":30,"name":"Alright","steam_id":76561198075411902,"connected_time":1126000000000,"state":"active","ping":58},{"user_id":31,"name":"Lord Saladman","steam_id":76561199363661936,"connected_time":1078000000000,"state":"active","ping":60},{"user_id":36,"name":"Skree'kaw","steam_id":76561199415758131,"connected_time":744000000000,"state":"active","ping":66},{"user_id":38,"name":"Raven","steam_id":76561198428025966,"connected_time":657000000000,"state":"active","ping":60},{"user_id":45,"name":"ANML","steam_id":76561198260039591,"connected_time":362000000000,"state":"active","ping":58},{"user_id":41,"name":"vermilion","steam_id":76561198962623543,"connected_time":534000000000,"state":"active","ping":60},{"user_id":46,"name":"Gas Passer (sliced toast)","steam_id":76561199220276252,"connected_time":294000000000,"state":"active","ping":62},{"user_id":49,"name":"Fresh Produce Gaming","steam_id":76561198358483352,"connected_time":247000000000,"state":"active","ping":62},{"user_id":51,"name":"JP","steam_id":76561198026221737,"connected_time":153000000000,"state":"active","ping":53},{"user_id":52,"name":"flow","steam_id":76561198113244106,"connected_time":121000000000,"state":"active","ping":44}]},{"server_id":123,"name":"Uncletopia | Sydney | 2 | All Maps","name_short":"syd-2","host":"syd-1.au.uncletopia.com","port":27025,"enabled":true,"region":"au","cc":"au","latitude":-33.865143,"longitude":151.2099,"reserved":0,"last_update":"0001-01-01T00:00:00Z","name_a2s":"Uncletopia | Sydney | 2 | All Maps","protocol":17,"map":"koth_lakeside_final","folder":"tf","game":"Team Fortress","app_id":440,"player_count":1,"max_players":24,"Bots":0,"server_type":"Dedicated","server_os":"Linux","password":true,"vac":true,"version":"7961495","steam_id":85568392924470002,"keywords":["cp","nocrits","nodmgspread","uncletopia"],"game_id":440,"stv_port":27026,"stv_name":"Uncletopia | Sydney | 2 | All Maps | STV","players":[{"user_id":6,"name":"AceOS","steam_id":76561199473362832,"connected_time":96000000000,"state":"active","ping":104}]},{"server_id":395,"name":"Uncletopia | Sydney | 3 | All Maps","name_short":"syd-3","host":"syd-1.au.uncletopia.com","port":27035,"enabled":true,"region":"au","cc":"au","latitude":-33.865143,"longitude":151.2099,"reserved":0,"last_update":"0001-01-01T00:00:00Z","name_a2s":"Uncletopia | Sydney | 3 | All Maps","protocol":17,"map":"pl_frontier_final","folder":"tf","game":"Team Fortress","app_id":440,"player_count":0,"max_players":24,"Bots":0,"server_type":"Dedicated","server_os":"Linux","password":true,"vac":true,"version":"7961495","steam_id":85568392925194467,"keywords":["nocrits","nodmgspread","payload","uncletopia"],"game_id":440,"stv_port":27036,"stv_name":"Uncletopia | Sydney | 3 | All Maps | STV","players":null},{"server_id":396,"name":"Uncletopia | Sydney | 4 | All Maps","name_short":"syd-4","host":"syd-1.au.uncletopia.com","port":27045,"enabled":true,"region":"au","cc":"au","latitude":-33.865143,"longitude":151.2099,"reserved":0,"last_update":"0001-01-01T00:00:00Z","name_a2s":"Uncletopia | Sydney | 4 | All Maps","protocol":17,"map":"cp_mountainlab","folder":"tf","game":"Team Fortress","app_id":440,"player_count":0,"max_players":24,"Bots":0,"server_type":"Dedicated","server_os":"Linux","password":true,"vac":true,"version":"7961495","steam_id":85568392925397958,"keywords":["cp","nocrits","nodmgspread","uncletopia"],"game_id":440,"stv_port":27046,"stv_name":"Uncletopia | Sydney | 4 | All Maps | STV","players":null},{"server_id":58,"name":"Uncletopia | Sydney | 5 | Stopwatch","name_short":"syd-5","host":"syd-1.au.uncletopia.com","port":27055,"enabled":true,"region":"au","cc":"au","latitude":-33.865143,"longitude":151.2099,"reserved":0,"last_update":"0001-01-01T00:00:00Z","name_a2s":"Uncletopia | Sydney | 5 | Stopwatch","protocol":17,"map":"cp_metalworks","folder":"tf","game":"Team Fortress","app_id":440,"player_count":0,"max_players":24,"Bots":0,"server_type":"Dedicated","server_os":"Linux","password":true,"vac":true,"version":"7961495","steam_id":85568392925397959,"keywords":["cp","nocrits","nodmgspread","uncletopia"],"game_id":440,"stv_port":27056,"stv_name":"Uncletopia | Sydney | 5 | Stopwatch | STV","players":null},{"server_id":59,"name":"Uncletopia | Sydney | 6 | Community","name_short":"syd-6","host":"syd-1.au.uncletopia.com","port":27065,"enabled":true,"region":"au","cc":"au","latitude":-33.865143,"longitude":151.2099,"reserved":0,"last_update":"0001-01-01T00:00:00Z","name_a2s":"Uncletopia | Sydney | 6 | Community","protocol":17,"map":"cp_sunshine","folder":"tf","game":"Team Fortress","app_id":440,"player_count":0,"max_players":24,"Bots":0,"server_type":"Dedicated","server_os":"Linux","password":true,"vac":true,"version":"7961495","steam_id":85568392925397960,"keywords":["cp","nocrits","nodmgspread","uncletopia"],"game_id":440,"stv_port":27066,"stv_name":"Uncletopia | Sydney | 6 | Community | STV","players":null},{"server_id":49,"name":"Uncletopia | Warsaw | 1 | One Thousand Uncles","name_short":"waw-1","host":"waw-1.pl.uncletopia.com","port":27015,"enabled":true,"region":"eu","cc":"pl","latitude":52.2297,"longitude":21.017532,"reserved":0,"last_update":"0001-01-01T00:00:00Z","name_a2s":"Uncletopia | Warsaw | 1 | One Thousand Uncles","protocol":17,"map":"pl_hoodoo_final","folder":"tf","game":"Team Fortress","app_id":440,"player_count":0,"max_players":32,"Bots":0,"server_type":"Dedicated","server_os":"Linux","password":true,"vac":true,"version":"7961495","steam_id":85568392925397850,"keywords":["alltalk","danepve","increased_maxplayers","nocrits","norespawntime","payload","uncletopia"],"game_id":440,"stv_port":0,"stv_name":"","players":null},{"server_id":50,"name":"Uncletopia | Warsaw | 2 | One Thousand Uncles","name_short":"waw-2","host":"waw-1.pl.uncletopia.com","port":27025,"enabled":true,"region":"eu","cc":"pl","latitude":52.2297,"longitude":21.017532,"reserved":0,"last_update":"0001-01-01T00:00:00Z","name_a2s":"Uncletopia | Warsaw | 2 | One Thousand Uncles","protocol":17,"map":"pl_goldrush","folder":"tf","game":"Team Fortress","app_id":440,"player_count":0,"max_players":32,"Bots":0,"server_type":"Dedicated","server_os":"Linux","password":true,"vac":true,"version":"7961495","steam_id":85568392925397851,"keywords":["alltalk","danepve","increased_maxplayers","nocrits","norespawntime","payload","uncletopia"],"game_id":440,"stv_port":0,"stv_name":"","players":null},{"server_id":51,"name":"Uncletopia | Warsaw | 3 | All Maps","name_short":"waw-3","host":"waw-1.pl.uncletopia.com","port":27035,"enabled":true,"region":"eu","cc":"pl","latitude":52.2297,"longitude":21.017532,"reserved":0,"last_update":"0001-01-01T00:00:00Z","name_a2s":"Uncletopia | Warsaw | 3 | All Maps","protocol":17,"map":"plr_pipeline","folder":"tf","game":"Team Fortress","app_id":440,"player_count":0,"max_players":24,"Bots":0,"server_type":"Dedicated","server_os":"Linux","password":true,"vac":true,"version":"7961495","steam_id":85568392925397852,"keywords":["nocrits","nodmgspread","payload","uncletopia"],"game_id":440,"stv_port":27036,"stv_name":"Uncletopia | Warsaw | 3 | All Maps | STV","players":null},{"server_id":52,"name":"Uncletopia | Warsaw | 4 | All Maps","name_short":"waw-4","host":"waw-1.pl.uncletopia.com","port":27045,"enabled":true,"region":"eu","cc":"pl","latitude":52.2297,"longitude":21.017532,"reserved":0,"last_update":"0001-01-01T00:00:00Z","name_a2s":"Uncletopia | Warsaw | 4 | All Maps","protocol":17,"map":"cp_coldfront","folder":"tf","game":"Team Fortress","app_id":440,"player_count":0,"max_players":24,"Bots":0,"server_type":"Dedicated","server_os":"Linux","password":true,"vac":true,"version":"7961495","steam_id":85568392925397853,"keywords":["cp","nocrits","nodmgspread","uncletopia"],"game_id":440,"stv_port":27046,"stv_name":"Uncletopia | Warsaw | 4 | All Maps | STV","players":null},{"server_id":53,"name":"Uncletopia | Warsaw | 5 | Stopwatch","name_short":"waw-5","host":"waw-1.pl.uncletopia.com","port":27055,"enabled":true,"region":"eu","cc":"pl","latitude":52.2297,"longitude":21.017532,"reserved":0,"last_update":"0001-01-01T00:00:00Z","name_a2s":"Uncletopia | Warsaw | 5 | Stopwatch","protocol":17,"map":"workshop/koth_bagel_rc6.ugc2514036946","folder":"tf","game":"Team Fortress","app_id":440,"player_count":0,"max_players":24,"Bots":0,"server_type":"Dedicated","server_os":"Linux","password":true,"vac":true,"version":"7961495","steam_id":85568392925397854,"keywords":["cp","nocrits","nodmgspread","uncletopia"],"game_id":440,"stv_port":27056,"stv_name":"Uncletopia | Warsaw | 5 | Stopwatch | STV","players":null},{"server_id":54,"name":"Uncletopia | Warsaw | 6 | Community","name_short":"waw-6","host":"waw-1.pl.uncletopia.com","port":27065,"enabled":true,"region":"eu","cc":"pl","latitude":52.2297,"longitude":21.017532,"reserved":0,"last_update":"0001-01-01T00:00:00Z","name_a2s":"Uncletopia | Warsaw | 6 | Community","protocol":17,"map":"workshop/pl_badwater_pro_v12.ugc2142942074","folder":"tf","game":"Team Fortress","app_id":440,"player_count":0,"max_players":24,"Bots":0,"server_type":"Dedicated","server_os":"Linux","password":true,"vac":true,"version":"7961495","steam_id":85568392925397856,"keywords":["nocrits","nodmgspread","payload","uncletopia"],"game_id":440,"stv_port":27066,"stv_name":"Uncletopia | Warsaw | 6 | Community | STV","players":null}]}