{"status":true,"message":"","result":[{"server_id":9,"name":"Uncletopia | Atlanta | 1 | All Maps","name_short":"atl-1","host":"atl-1.us.uncletopia.com","port":27015,"enabled":true,"region":"us-east","cc":"us","latitude":33.753746,"longitude":-84.38633,"reserved":0,"last_update":"0001-01-01T00:00:00Z","name_a2s":"Uncletopia | Atlanta | 1 | All Maps","protocol":17,"map":"pl_borneo","folder":"tf","game":"Team Fortress","app_id":440,"player_count":24,"max_players":24,"Bots":0,"server_type":"Dedicated","server_os":"Linux","password":true,"vac":true,"version":"7961495","steam_id":85568392924469982,"keywords":["nocrits","nodmgspread","payload","uncletopia"],"game_id":440,"stv_port":27016,"stv_name":"Uncletopia | Atlanta | 1 | All Maps | STV","players":null},{"server_id":104,"name":"Uncletopia | Atlanta | 2 | All Maps","name_short":"atl-2","host":"atl-1.us.uncletopia.com","port":27025,"enabled":true,"region":"us-east","cc":"us","latitude":33.753746,"longitude":-84.38633,"reserved":0,"last_update":"0001-01-01T00:00:00Z","name_a2s":"Uncletopia | Atlanta | 2 | All Maps","protocol":17,"map":"ctf_2fort","folder":"tf","game":"Team Fortress","app_id":440,"player_count":17,"max_players":24,"Bots":0,"server_type":"Dedicated","server_os":"Linux","password":true,"vac":true,"version":"7961495","steam_id":85568392924469983,"keywords":["ctf","nocrits","nodmgspread","uncletopia"],"game_id":440,"stv_port":27026,"stv_name":"Uncletopia | Atlanta | 2 | All Maps | STV","players":null},{"server_id":400,"name":"Uncletopia | Atlanta | 3 | Stopwatch","name_short":"atl-3","host":"atl-1.us.uncletopia.com","port":27035,"enabled":true,"region":"us-east","cc":"us","latitude":33.753746,"longitude":-84.38633,"reserved":0,"last_update":"0001-01-01T00:00:00Z","name_a2s":"Uncletopia | Atlanta | 3 | Stopwatch","protocol":17,"map":"pl_vigil_rc10","folder":"tf","game":"Team Fortress","app_id":440,"player_count":0,"max_players":24,"Bots":0,"server_type":"Dedicated","server_os":"Linux","password":true,"vac":true,"version":"7961495","steam_id":85568392924515187,"keywords":["nocrits","nodmgspread","payload","uncletopia"],"game_id":440,"stv_port":27036,"stv_name":"Uncletopia | Atlanta | 3 | Stopwatch | STV","players":null},{"server_id":401,"name":"Uncletopia | Atlanta | 4 | Community","name_short":"atl-4","host":"atl-1.us.uncletopia.com","port":27045,"enabled":true,"region":"us-east","cc":"us","latitude":33.753746,"longitude":-84.38633,"reserved":0,"last_update":"0001-01-01T00:00:00Z","name_a2s":"Uncletopia | Atlanta | 4 | Community","protocol":17,"map":"pl_eruption_b9a","folder":"tf","game":"Team Fortress","app_id":440,"player_count":0,"max_players":24,"Bots":0,"server_type":"Dedicated","server_os":"Linux","password":true,"vac":true,"version":"7961495","steam_id":85568392924515188,"keywords":["nocrits","nodmgspread","payload","uncletopia"],"game_id":440,"stv_port":27046,"stv_name":"Uncletopia | Atlanta | 4 | Community | STV","players":null},{"server_id":2,"name":"Uncletopia | Chicago | 1 | All Maps","name_short":"chi-1","host":"chi-1.us.uncletopia.com","port":27015,"enabled":true,"region":"us-central","cc":"us","latitude":41.881832,"longitude":-87.62318,"reserved":0,"last_update":"0001-01-01T00:00:00Z","name_a2s":"Uncletopia | Chicago | 1 | All Maps","protocol":17,"map":"pl_badwater","folder":"tf","game":"Team Fortress","app_id":440,"player_count":24,"max_players":24,"Bots":0,"server_type":"Dedicated","server_os":"Linux","password":true,"vac":true,"version":"7961495","steam_id":85568392924469984,"keywords":["nocrits","nodmgspread","payload","uncletopia"],"game_id":440,"stv_port":27016,"stv_name":"Uncletopia | Chicago | 1 | All Maps | STV","players":[{"user_id":803,"name":"Raccoon Wizard","steam_id":76561198072562591,"connected_time":1650000000000,"state":"active","ping":91},{"user_id":807,"name":"Fat Kid In a Dragonball T-Shirt","steam_id":76561198182589975,"connected_time":1214000000000,"state":"active","ping":76},{"user_id":789,"name":"d4 f4rt f4ce kill4","steam_id":76561198046130544,"connected_time":2250000000000,"state":"active","ping":64},{"user_id":790,"name":"crunch","steam_id":76561198058209703,"connected_time":2236000000000,"state":"active","ping":55},{"user_id":740,"name":"WheelockWarlock","steam_id":76561198171456553,"connected_time":7385000000000,"state":"active","ping":87},{"user_id":814,"name":"RagingRoosevelt","steam_id":76561197985483153,"connected_time":944000000000,"state":"active","ping":108},{"user_id":818,"name":"Space","steam_id":76561198350489754,"connected_time":409000000000,"state":"active","ping":48},{"user_id":794,"name":"feed chakra","steam_id":76561198105065307,"connected_time":2100000000000,"state":"active","ping":45},{"user_id":809,"name":"nomis","steam_id":76561198115367704,"connected_time":1185000000000,"state":"active","ping":82},{"user_id":812,"name":"Major_Pippy","steam_id":76561198004482878,"connected_time":981000000000,"state":"active","ping":99},{"user_id":819,"name":"El Güey","steam_id":76561197970450546,"connected_time":407000000000,"state":"active","ping":122},{"user_id":816,"name":"Combez","steam_id":76561198215028184,"connected_time":835000000000,"state":"active","ping":73},{"user_id":815,"name":"raymond","steam_id":76561198272609196,"connected_time":855000000000,"state":"active","ping":55},{"user_id":796,"name":"snowa","steam_id":76561198109783729,"connected_time":2067000000000,"state":"active","ping":46},{"user_id":825,"name":"loser","steam_id":76561198259380127,"connected_time":145000000000,"state":"active","ping":58},{"user_id":798,"name":"crayonnipple","steam_id":76561198070253331,"connected_time":2024000000000,"state":"active","ping":73},{"user_id":820,"name":"Jousty","steam_id":76561199162677853,"connected_time":384000000000,"state":"active","ping":91},{"user_id":799,"name":"Deni Jems","steam_id":76561198147707286,"connected_time":1991000000000,"state":"active","ping":79},{"user_id":788,"name":"dunk","steam_id":76561198132476501,"connected_time":2340000000000,"state":"active","ping":60},{"user_id":804,"name":"Pepilepsi","steam_id":76561198000809372,"connected_time":1642000000000,"state":"active","ping":49},{"user_id":821,"name":"banana","steam_id":76561199159928133,"connected_time":363000000000,"state":"active","ping":75},{"user_id":823,"name":"Chef__7","steam_id":76561199056921540,"connected_time":180000000000,"state":"active","ping":59},{"user_id":802,"name":"ColdTooth","steam_id":76561197994963901,"connected_time":1840000000000,"state":"active","ping":77},{"user_id":822,"name":"/\\=/\\=/\\=/\\=/\\=/\\=/\\=/\\=/\\=/\\=/","steam_id":76561198087666917,"connected_time":362000000000,"state":"active","ping":60}]},{"server_id":106,"name":"Uncletopia | Chicago | 2 | All Maps","name_short":"chi-2","host":"chi-1.us.uncletopia.com","port":27025,"enabled":true,"region":"us-central","cc":"us","latitude":41.881832,"longitude":-87.62318,"reserved":0,"last_update":"0001-01-01T00:00:00Z","name_a2s":"Uncletopia | Chicago | 2 | All Maps","protocol":17,"map":"pl_snowycoast","folder":"tf","game":"Team Fortress","app_id":440,"player_count":24,"max_players":24,"Bots":0,"server_type":"Dedicated","server_os":"Linux","password":true,"vac":true,"version":"7961495","steam_id":85568392924469985,"keywords":["nocrits","nodmgspread","payload","uncletopia"],"game_id":440,"stv_port":27026,"stv_name":"Uncletopia | Chicago | 2 | All Maps | STV","players":[{"user_id":572,"name":"c00kie","steam_id":76561198418178297,"connected_time":5369000000000,"state":"active","ping":42},{"user_id":645,"name":"De MonkE","steam_id":76561198140626221,"connected_time":446000000000,"state":"active","ping":53},{"user_id":616,"name":"Smooky","steam_id":76561198191435451,"connected_time":2063000000000,"state":"active","ping":95},{"user_id":611,"name":"Fewny","steam_id":76561198225977000,"connected_time":2190000000000,"state":"active","ping":71},{"user_id":598,"name":"Cyndaquil Fan","steam_id":76561198799205521,"connected_time":3275000000000,"state":"active","ping":74},{"user_id":647,"name":"rosable ☆","steam_id":76561199164371592,"connected_time":434000000000,"state":"active","ping":66},{"user_id":633,"name":"liveleak pussy","steam_id":76561198272645467,"connected_time":1307000000000,"state":"active","ping":102},{"user_id":641,"name":"Shmokey","steam_id":76561198870461639,"connected_time":792000000000,"state":"active","ping":123},{"user_id":615,"name":"Nagao Kagetora","steam_id":76561198798176670,"connected_time":2109000000000,"state":"active","ping":54},{"user_id":607,"name":"_Ati","steam_id":76561198339777801,"connected_time":2727000000000,"state":"active","ping":113},{"user_id":567,"name":"Kent C Straight","steam_id":76561198056190259,"connected_time":5625000000000,"state":"active","ping":61},{"user_id":571,"name":"Susan Wetwinky","steam_id":76561198119483989,"connected_time":5453000000000,"state":"active","ping":85},{"user_id":644,"name":"Proxy-mo","steam_id":76561198221741428,"connected_time":540000000000,"state":"active","ping":80},{"user_id":619,"name":"4 life","steam_id":76561198175961598,"connected_time":1992000000000,"state":"active","ping":118},{"user_id":651,"name":"warren","steam_id":76561198136331136,"connected_time":302000000000,"state":"active","ping":75},{"user_id":652,"name":"Yukon Cornelius","steam_id":76561198261512781,"connected_time":202000000000,"state":"active","ping":68},{"user_id":653,"name":"Zanartan","steam_id":76561198050528902,"connected_time":168000000000,"state":"active","ping":176},{"user_id":570,"name":"puppy :3","steam_id":76561198011196264,"connected_time":5572000000000,"state":"active","ping":59},{"user_id":650,"name":"DoubleX2000","steam_id":76561198164134387,"connected_time":339000000000,"state":"active","ping":120},{"user_id":646,"name":"Zinc","steam_id":76561198025303928,"connected_time":443000000000,"state":"active","ping":82},{"user_id":566,"name":"UNCLE RUCKUS","steam_id":76561199380604147,"connected_time":5856000000000,"state":"active","ping":50},{"user_id":589,"name":"WhiteRabbit","steam_id":76561198027579538,"connected_time":3929000000000,"state":"active","ping":71},{"user_id":596,"name":"Riggatoni","steam_id":76561198203745763,"connected_time":3478000000000,"state":"active","ping":80},{"user_id":590,"name":"Trundle","steam_id":76561198005548044,"connected_time":3926000000000,"state":"active","ping":69}]},{"server_id":402,"name":"Uncletopia | Chicago | 3 | All Maps","name_short":"chi-3","host":"chi-1.us.uncletopia.com","port":27035,"enabled":true,"region":"us-central","cc":"us","latitude":41.881832,"longitude":-87.62318,"reserved":0,"last_update":"0001-01-01T00:00:00Z","name_a2s":"Uncletopia | Chicago | 3 | All Maps","protocol":17,"map":"pl_enclosure_final","folder":"tf","game":"Team Fortress","app_id":440,"player_count":24,"max_players":24,"Bots":0,"server_type":"Dedicated","server_os":"Linux","password":true,"vac":true,"version":"7961495","steam_id":85568392924515191,"keywords":["nocrits","nodmgspread","payload","uncletopia"],"game_id":440,"stv_port":27036,"stv_name":"Uncletopia | Chicago | 3 | All Maps | STV","players":[{"user_id":476,"name":"DistantJragon","steam_id":76561198117563641,"connected_time":431000000000,"state":"active","ping":55},{"user_id":480,"name":"Final_MarioXD","steam_id":76561199184862419,"connected_time":96000000000,"state":"active","ping":89},{"user_id":481,"name":"Dog Deodorant","steam_id":76561199225832228,"connected_time":77000000000,"state":"active","ping":94},{"user_id":435,"name":"Six Piece Chicken McNobody","steam_id":76561198129848222,"connected_time":3717000000000,"state":"active","ping":71},{"user_id":474,"name":"TheSnipersHat","steam_id":76561198057684066,"connected_time":804000000000,"state":"active","ping":56},{"user_id":436,"name":"localize","steam_id":76561198135559825,"connected_time":3693000000000,"state":"active","ping":61},{"user_id":479,"name":"N8","steam_id":76561198077788860,"connected_time":202000000000,"state":"active","ping":87},{"user_id":437,"name":"LVL","steam_id":76561198334403617,"connected_time":3689000000000,"state":"active","ping":57},{"user_id":464,"name":"Vega","steam_id":76561198141126883,"connected_time":1726000000000,"state":"active","ping":91},{"user_id":450,"name":"FluorescentDome","steam_id":76561198046897504,"connected_time":3147000000000,"state":"active","ping":59},{"user_id":399,"name":"Nefy","steam_id":76561198030017316,"connected_time":7196000000000,"state":"active","ping":84},{"user_id":412,"name":"badboy6996","steam_id":76561197969386201,"connected_time":6554000000000,"state":"active","ping":50},{"user_id":482,"name":"Mr. Big","steam_id":76561197996596175,"connected_time":69000000000,"state":"active","ping":114},{"user_id":475,"name":"Viren","steam_id":76561198012636897,"connected_time":709000000000,"state":"active","ping":61},{"user_id":483,"name":"GodandTitans","steam_id":76561198070070155,"connected_time":43000000000,"state":"active","ping":75},{"user_id":463,"name":"Red Metal","steam_id":76561198362722560,"connected_time":1803000000000,"state":"active","ping":90},{"user_id":405,"name":"HOW2TAKEASHIT@ABITCHCRIB","steam_id":76561198144766439,"connected_time":6973000000000,"state":"active","ping":48},{"user_id":465,"name":"HundchenTanque","steam_id":76561198122692754,"connected_time":1703000000000,"state":"active","ping":57},{"user_id":470,"name":"Eblizard","steam_id":76561198111481965,"connected_time":1102000000000,"state":"active","ping":73},{"user_id":467,"name":"yomommasabitch","steam_id":76561198323217150,"connected_time":1561000000000,"state":"active","ping":61},{"user_id":457,"name":"oppenheimer style","steam_id":76561198026664629,"connected_time":2484000000000,"state":"active","ping":60},{"user_id":484,"name":"\"that\" guy","steam_id":76561198079434304,"connected_time":43000000000,"state":"active","ping":91},{"user_id":441,"name":"wintermint","steam_id":76561198013735714,"connected_time":3639000000000,"state":"active","ping":71},{"user_id":477,"name":"supcupman","steam_id":76561198051513866,"connected_time":231000000000,"state":"active","ping":112}]},{"server_id":403,"name":"Uncletopia | Chicago | 4 | All Maps","name_short":"chi-4","host":"chi-1.us.uncletopia.com","port":27045,"enabled":true,"region":"us-central","cc":"us","latitude":41.881832,"longitude":-87.62318,"reserved":0,"last_update":"0001-01-01T00:00:00Z","name_a2s":"Uncletopia | Chicago | 4 | All Maps","protocol":17,"map":"pl_barnblitz","folder":"tf","game":"Team Fortress","app_id":440,"player_count":24,"max_players":24,"Bots":0,"server_type":"Dedicated","server_os":"Linux","password":true,"vac":true,"version":"7961495","steam_id":85568392924515193,"keywords":["nocrits","nodmgspread","payload","uncletopia"],"game_id":440,"stv_port":27046,"stv_name":"Uncletopia | Chicago | 4 | All Maps | STV","players":[{"user_id":295,"name":"Ojen","steam_id":76561197998414482,"connected_time":1597000000000,"state":"active","ping":60},{"user_id":298,"name":"chanoc","steam_id":76561198026734746,"connected_time":1081000000000,"state":"active","ping":91},{"user_id":287,"name":"duneblaster0","steam_id":76561198040364680,"connected_time":1981000000000,"state":"active","ping":45},{"user_id":299,"name":"Synonymancer","steam_id":76561198135492252,"connected_time":1054000000000,"state":"active","ping":125},{"user_id":296,"name":"angel","steam_id":76561198991768686,"connected_time":1414000000000,"state":"active","ping":102},{"user_id":262,"name":"Cat doin laundry","steam_id":76561198063895852,"connected_time":4250000000000,"state":"active","ping":61},{"user_id":265,"name":"shadow wizard money gang","steam_id":76561198042298511,"connected_time":4204000000000,"state":"active","ping":53},{"user_id":245,"name":"King","steam_id":76561198039763676,"connected_time":5818000000000,"state":"active","ping":67},{"user_id":300,"name":"roast pig with apple in mouth","steam_id":76561198051353647,"connected_time":1039000000000,"state":"active","ping":63},{"user_id":267,"name":"lobb","steam_id":76561198346041205,"connected_time":4191000000000,"state":"active","ping":106},{"user_id":268,"name":"Sam","steam_id":76561198069948353,"connected_time":4186000000000,"state":"active","ping":79},{"user_id":293,"name":"Sanamsam1","steam_id":76561198051890899,"connected_time":1747000000000,"state":"active","ping":64},{"user_id":302,"name":"Quattro Bajeena","steam_id":76561198135151660,"connected_time":601000000000,"state":"active","ping":111},{"user_id":272,"name":"The Great and Mighty Kiku","steam_id":76561198057590164,"connected_time":4169000000000,"state":"active","ping":84},{"user_id":304,"name":"MakeSureToKnock","steam_id":76561198075600007,"connected_time":359000000000,"state":"active","ping":118},{"user_id":271,"name":"Charmy","steam_id":76561198069969998,"connected_time":4179000000000,"state":"active","ping":85},{"user_id":273,"name":"OddSlaush","steam_id":76561198043898488,"connected_time":4167000000000,"state":"active","ping":107},{"user_id":279,"name":"i^Marmot","steam_id":76561197972379514,"connected_time":3547000000000,"state":"active","ping":83},{"user_id":216,"name":"qt pa 2t","steam_id":76561198066867150,"connected_time":8583000000000,"state":"active","ping":66},{"user_id":277,"name":"Skeleton Hotel","steam_id":76561198041704727,"connected_time":3957000000000,"state":"active","ping":55},{"user_id":297,"name":"WesyUWU (The mini crit pig)","steam_id":76561198069188177,"connected_time":1258000000000,"state":"active","ping":79},{"user_id":275,"name":"cheese burger","steam_id":76561199100034198,"connected_time":4007000000000,"state":"active","ping":72},{"user_id":276,"name":"boffo","steam_id":76561198096978718,"connected_time":4000000000000,"state":"active","ping":91},{"user_id":306,"name":"evilstuntman","steam_id":76561198056911537,"connected_time":72000000000,"state":"active","ping":66}]},{"server_id":36,"name":"Uncletopia | Chicago | 5 | All Maps","name_short":"chi-5","host":"chi-2.us.uncletopia.com","port":27015,"enabled":true,"region":"us-central","cc":"us","latitude":41.881832,"longitude":-87.62318,"reserved":0,"last_update":"0001-01-01T00:00:00Z","name_a2s":"Uncletopia | Chicago | 5 | All Maps","protocol":17,"map":"cp_badlands","folder":"tf","game":"Team Fortress","app_id":440,"player_count":11,"max_players":24,"Bots":0,"server_type":"Dedicated","server_os":"Linux","password":true,"vac":true,"version":"7961495","steam_id":85568392924866362,"keywords":["cp","nocrits","nodmgspread","uncletopia"],"game_id":440,"stv_port":27016,"stv_name":"Uncletopia | Chicago | 5 | All Maps | STV","players":[{"user_id":521,"name":"LiGhT_LaVa SKINBOX","steam_id":76561199148254906,"connected_time":219000000000,"state":"active","ping":223},{"user_id":522,"name":"we cant ever go back to arizona","steam_id":76561198348884781,"connected_time":207000000000,"state":"active","ping":100},{"user_id":506,"name":"The premium licking experience","steam_id":76561199213456232,"connected_time":663000000000,"state":"active","ping":92},{"user_id":510,"name":"lp","steam_id":76561198058469527,"connected_time":473000000000,"state":"active","ping":68},{"user_id":523,"name":"Limitless","steam_id":76561198057139998,"connected_time":168000000000,"state":"active","ping":78},{"user_id":511,"name":"Thequirka","steam_id":76561198968058652,"connected_time":462000000000,"state":"active","ping":105},{"user_id":512,"name":"bald man on a plane to turkey","steam_id":76561198060296782,"connected_time":451000000000,"state":"active","ping":103},{"user_id":514,"name":"sherk the musical","steam_id":76561199262559447,"connected_time":376000000000,"state":"active","ping":60},{"user_id":515,"name":"{Malik} Lightnin ϟ Phoenix™","steam_id":76561198042509328,"connected_time":354000000000,"state":"active","ping":92},{"user_id":517,"name":"Natsuki the Scunt","steam_id":76561199175922684,"connected_time":305000000000,"state":"active","ping":84},{"user_id":518,"name":"shawcrow","steam_id":76561198998720161,"connected_time":286000000000,"state":"active","ping":74}]},{"server_id":37,"name":"Uncletopia | Chicago | 6 | All Maps","name_short":"chi-6","host":"chi-2.us.uncletopia.com","port":27025,"enabled":true,"region":"us-central","cc":"us","latitude":41.881832,"longitude":-87.62318,"reserved":0,"last_update":"0001-01-01T00:00:00Z","name_a2s":"Uncletopia | Chicago | 6 | All Maps","protocol":17,"map":"pl_borneo","folder":"tf","game":"Team Fortress","app_id":440,"player_count":24,"max_players":24,"Bots":0,"server_type":"Dedicated","server_os":"Linux","password":true,"vac":true,"version":"7961495","steam_id":85568392924866363,"keywords":["nocrits","nodmgspread","payload","uncletopia"],"game_id":440,"stv_port":27026,"stv_name":"Uncletopia | Chicago | 6 | All Maps | STV","players":[{"user_id":330,"name":"ʚїɞ","steam_id":76561198449527009,"connected_time":1353000000000,"state":"active","ping":92},{"user_id":301,"name":"Pain Elemental","steam_id":76561198433044023,"connected_time":2636000000000,"state":"active","ping":51},{"user_id":339,"name":"ᵇᵒᵗᵗˡᵉ","steam_id":76561198348353820,"connected_time":1188000000000,"state":"active","ping":60},{"user_id":343,"name":"Sulong","steam_id":76561198798244209,"connected_time":724000000000,"state":"active","ping":72},{"user_id":326,"name":"3pac","steam_id":76561198068393322,"connected_time":1684000000000,"state":"active","ping":68},{"user_id":334,"name":"frank","steam_id":76561198137777483,"connected_time":1333000000000,"state":"active","ping":69},{"user_id":323,"name":"ultralisk52","steam_id":76561198051666604,"connected_time":1925000000000,"state":"active","ping":62},{"user_id":311,"name":"Big Unck","steam_id":76561198024658073,"connected_time":2301000000000,"state":"active","ping":71},{"user_id":342,"name":"JellyParrot","steam_id":76561199190990163,"connected_time":825000000000,"state":"active","ping":69},{"user_id":302,"name":"IanTheAwsm","steam_id":76561198093031738,"connected_time":2555000000000,"state":"active","ping":61},{"user_id":303,"name":"monsterkill4567","steam_id":76561198272986367,"connected_time":2542000000000,"state":"active","ping":111},{"user_id":327,"name":"TheSausageSwiper","steam_id":76561198972869845,"connected_time":1680000000000,"state":"active","ping":86},{"user_id":341,"name":"faxxy","steam_id":76561198079621240,"connected_time":962000000000,"state":"active","ping":73},{"user_id":325,"name":"womthedom","steam_id":76561198088768287,"connected_time":1839000000000,"state":"active","ping":48},{"user_id":305,"name":"riSygneD","steam_id":76561198331618687,"connected_time":2409000000000,"state":"active","ping":93},{"user_id":345,"name":"Sporks4Life","steam_id":76561198845120154,"connected_time":657000000000,"state":"active","ping":53},{"user_id":347,"name":"Wang of Wall St","steam_id":76561198047460598,"connected_time":642000000000,"state":"active","ping":79},{"user_id":310,"name":"Wilfred Carr","steam_id":76561198039149060,"connected_time":2321000000000,"state":"active","ping":74},{"user_id":344,"name":"blob","steam_id":76561198122375328,"connected_time":663000000000,"state":"active","ping":59},{"user_id":349,"name":"rivera","steam_id":76561198051058706,"connected_time":533000000000,"state":"active","ping":65},{"user_id":346,"name":"wise","steam_id":76561198030066204,"connected_time":646000000000,"state":"active","ping":54},{"user_id":337,"name":"Els (F2P)","steam_id":76561199129761684,"connected_time":1324000000000,"state":"active","ping":87},{"user_id":348,"name":"negus 2","steam_id":76561198043862737,"connected_time":636000000000,"state":"active","ping":61}]},{"server_id":38,"name":"Uncletopia | Chicago | 7 | Stopwatch","name_short":"chi-7","host":"chi-2.us.uncletopia.com","port":27035,"enabled":true,"region":"us-central","cc":"us","latitude":41.881832,"longitude":-87.62318,"reserved":0,"last_update":"0001-01-01T00:00:00Z","name_a2s":"Uncletopia | Chicago | 7 | Stopwatch","protocol":17,"map":"cp_process_final","folder":"tf","game":"Team Fortress","app_id":440,"player_count":0,"max_players":24,"Bots":0,"server_type":"Dedicated","server_os":"Linux","password":true,"vac":true,"version":"7961495","steam_id":85568392924866364,"keywords":["cp","nocrits","nodmgspread","uncletopia"],"game_id":440,"stv_port":27036,"stv_name":"Uncletopia | Chicago | 7 | Stopwatch | STV","players":null},{"server_id":39,"name":"Uncletopia | Chicago | 8 | Community","name_short":"chi-8","host":"chi-2.us.uncletopia.com","port":27045,"enabled":true,"region":"us-central","cc":"us","latitude":41.881832,"longitude":-87.62318,"reserved":0,"last_update":"0001-01-01T00:00:00Z","name_a2s":"Uncletopia | Chicago | 8 | Community","protocol":17,"map":"workshop/koth_trenchfoot_b1a.ugc731436616","folder":"tf","game":"Team Fortress","app_id":440,"player_count":0,"max_players":24,"Bots":0,"server_type":"Dedicated","server_os":"Linux","password":true,"vac":true,"version":"7961495","steam_id":85568392924866365,"keywords":["cp","nocrits","nodmgspread","uncletopia"],"game_id":440,"stv_port":27046,"stv_name":"Uncletopia | Chicago | 8 | Community | STV","players":null},{"server_id":8,"name":"Uncletopia | Dallas | 1 | All Maps","name_short":"dal-1","host":"dal-1.us.uncletopia.com","port":27015,"enabled":true,"region":"us-central","cc":"us","latitude":32.779167,"longitude":-96.80889,"reserved":0,"last_update":"0001-01-01T00:00:00Z","name_a2s":"Uncletopia | Dallas | 1 | All Maps","protocol":17,"map":"cp_dustbowl","folder":"tf","game":"Team Fortress","app_id":440,"player_count":24,"max_players":24,"Bots":0,"server_type":"Dedicated","server_os":"Linux","password":true,"vac":true,"version":"7961495","steam_id":85568392924469986,"keywords":["cp","nocrits","nodmgspread","uncletopia"],"game_id":440,"stv_port":27016,"stv_name":"Uncletopia | Dallas | 1 | All Maps | STV","players":[{"user_id":523,"name":"Warmerfall","steam_id":76561198812218923,"connected_time":682000000000,"state":"active","ping":90},{"user_id":474,"name":"brewkey","steam_id":76561198057896324,"connected_time":3476000000000,"state":"active","ping":52},{"user_id":524,"name":"your little goofy homie","steam_id":76561198967158026,"connected_time":679000000000,"state":"active","ping":70},{"user_id":510,"name":"Legally Braindead","steam_id":76561198377574031,"connected_time":1898000000000,"state":"active","ping":98},{"user_id":521,"name":"flippercurve","steam_id":76561199238295034,"connected_time":1032000000000,"state":"active","ping":72},{"user_id":484,"name":"tsz","steam_id":76561199246231090,"connected_time":2682000000000,"state":"active","ping":86},{"user_id":506,"name":"Bogey","steam_id":76561198096227944,"connected_time":2064000000000,"state":"active","ping":45},{"user_id":504,"name":"Lore","steam_id":76561198098407538,"connected_time":2261000000000,"state":"active","ping":73},{"user_id":488,"name":"Levi","steam_id":76561198089832776,"connected_time":2647000000000,"state":"active","ping":55},{"user_id":512,"name":"Scrampled Aigs","steam_id":76561198014526583,"connected_time":1867000000000,"state":"active","ping":80},{"user_id":532,"name":"Grand Champion of Cyrodiil","steam_id":76561198029072412,"connected_time":472000000000,"state":"active","ping":60},{"user_id":525,"name":"Tuba","steam_id":76561198088679633,"connected_time":668000000000,"state":"active","ping":91},{"user_id":483,"name":"Silvermace","steam_id":76561198090696843,"connected_time":2855000000000,"state":"active","ping":60},{"user_id":505,"name":"FI LO","steam_id":76561198976530881,"connected_time":2238000000000,"state":"active","ping":70},{"user_id":494,"name":"Squids023","steam_id":76561199013031576,"connected_time":2564000000000,"state":"active","ping":102},{"user_id":526,"name":"Burny Sanders","steam_id":76561197961879048,"connected_time":665000000000,"state":"active","ping":44},{"user_id":527,"name":"Deshift00","steam_id":76561198058015192,"connected_time":664000000000,"state":"active","ping":100},{"user_id":498,"name":"aqua","steam_id":76561199407709552,"connected_time":2485000000000,"state":"active","ping":77},{"user_id":533,"name":"Crack Addict","steam_id":76561198166681494,"connected_time":471000000000,"state":"active","ping":59},{"user_id":529,"name":"ふわふわ毛布","steam_id":76561198088403016,"connected_time":642000000000,"state":"active","ping":180},{"user_id":481,"name":"u4me","steam_id":76561198001669743,"connected_time":3235000000000,"state":"active","ping":86},{"user_id":530,"name":"AtomicSexMachine","steam_id":76561198886585159,"connected_time":633000000000,"state":"active","ping":63},{"user_id":531,"name":"girthmilk","steam_id":76561198054799782,"connected_time":633000000000,"state":"active","ping":91},{"user_id":516,"name":"Rearranging furniture","steam_id":76561199054971009,"connected_time":1542000000000,"state":"active","ping":53}]},{"server_id":108,"name":"Uncletopia | Dallas | 2 | All Maps","name_short":"dal-2","host":"dal-1.us.uncletopia.com","port":27025,"enabled":true,"region":"us-central","cc":"us","latitude":32.779167,"longitude":-96.80889,"reserved":0,"last_update":"0001-01-01T00:00:00Z","name_a2s":"Uncletopia | Dallas | 2 | All Maps","protocol":17,"map":"pl_borneo","folder":"tf","game":"Team Fortress","app_id":440,"player_count":24,"max_players":24,"Bots":0,"server_type":"Dedicated","server_os":"Linux","password":true,"vac":true,"version":"7961495","steam_id":85568392924469988,"keywords":["nocrits","nodmgspread","payload","uncletopia"],"game_id":440,"stv_port":27026,"stv_name":"Uncletopia | Dallas | 2 | All Maps | STV","players":[{"user_id":765,"name":"ShadowWasUhOh","steam_id":76561198400361935,"connected_time":832000000000,"state":"active","ping":75},{"user_id":772,"name":"G2 DamDam","steam_id":76561198173095997,"connected_time":434000000000,"state":"active","ping":89},{"user_id":753,"name":"Lycan","steam_id":76561198151499868,"connected_time":2009000000000,"state":"active","ping":65},{"user_id":748,"name":"♦♣Quadric♥♠","steam_id":76561198061003853,"connected_time":2085000000000,"state":"active","ping":88},{"user_id":747,"name":"Ozzyhalen","steam_id":76561198025207814,"connected_time":2193000000000,"state":"active","ping":72},{"user_id":708,"name":"Engideer","steam_id":76561198145733164,"connected_time":3867000000000,"state":"active","ping":45},{"user_id":766,"name":"Renota","steam_id":76561198058224488,"connected_time":805000000000,"state":"active","ping":85},{"user_id":770,"name":"Panda Loser","steam_id":76561198828745176,"connected_time":462000000000,"state":"active","ping":86},{"user_id":773,"name":"Nicklouse","steam_id":76561198852629024,"connected_time":58000000000,"state":"active","ping":74},{"user_id":679,"name":"BlancaLamb","steam_id":76561198025646073,"connected_time":6036000000000,"state":"active","ping":83},{"user_id":759,"name":"DELTRON ZERO","steam_id":76561198081123470,"connected_time":954000000000,"state":"active","ping":49},{"user_id":728,"name":"EvilPigglet","steam_id":76561197987243470,"connected_time":2916000000000,"state":"active","ping":77},{"user_id":758,"name":"Cat","steam_id":76561198132362099,"connected_time":1414000000000,"state":"active","ping":111},{"user_id":769,"name":"BigPimpin","steam_id":76561198119549348,"connected_time":494000000000,"state":"active","ping":50},{"user_id":749,"name":"ChErrY","steam_id":76561198045614766,"connected_time":2073000000000,"state":"active","ping":123},{"user_id":754,"name":"Manic","steam_id":76561198128149670,"connected_time":2009000000000,"state":"active","ping":52},{"user_id":745,"name":"[ØWQJØ]chubacaalatake","steam_id":76561198136201697,"connected_time":2287000000000,"state":"active","ping":139},{"user_id":736,"name":"2L84U","steam_id":76561198079176017,"connected_time":2663000000000,"state":"active","ping":111},{"user_id":755,"name":"sebas-01-hv","steam_id":76561198123191202,"connected_time":2003000000000,"state":"active","ping":143},{"user_id":761,"name":"paint","steam_id":76561199006886644,"connected_time":925000000000,"state":"active","ping":89},{"user_id":762,"name":"Jams and Bread","steam_id":76561199240243522,"connected_time":920000000000,"state":"active","ping":109},{"user_id":724,"name":"k1tty","steam_id":76561198869348268,"connected_time":3223000000000,"state":"active","ping":78},{"user_id":584,"name":"Anon","steam_id":76561198109740776,"connected_time":14513000000000,"state":"active","ping":100},{"user_id":723,"name":"mr.edderkopper","steam_id":76561198152614478,"connected_time":3279000000000,"state":"active","ping":66}]},{"server_id":404,"name":"Uncletopia | Dallas | 3 | All Maps","name_short":"dal-3","host":"dal-1.us.uncletopia.com","port":27035,"enabled":true,"region":"us-central","cc":"us","latitude":32.779167,"longitude":-96.80889,"reserved":0,"last_update":"0001-01-01T00:00:00Z","name_a2s":"Uncletopia | Dallas | 3 | All Maps","protocol":17,"map":"pl_frontier_final","folder":"tf","game":"Team Fortress","app_id":440,"player_count":24,"max_players":24,"Bots":0,"server_type":"Dedicated","server_os":"Linux","password":true,"vac":true,"version":"7961495","steam_id":85568392924515219,"keywords":["nocrits","nodmgspread","payload","uncletopia"],"game_id":440,"stv_port":27036,"stv_name":"Uncletopia | Dallas | 3 | All Maps | STV","players":[{"user_id":317,"name":"Hiigara","steam_id":76561198028393133,"connected_time":511000000000,"state":"active","ping":68},{"user_id":285,"name":"Mythical Lag","steam_id":76561198347031281,"connected_time":2632000000000,"state":"active","ping":48},{"user_id":314,"name":"askuwd","steam_id":76561198087637901,"connected_time":1065000000000,"state":"active","ping":52},{"user_id":230,"name":"Nightmare","steam_id":76561198409907417,"connected_time":5663000000000,"state":"active","ping":100},{"user_id":294,"name":"Fargo","steam_id":76561198044703931,"connected_time":1776000000000,"state":"active","ping":67},{"user_id":297,"name":"Vazquez Perez","steam_id":76561199185750989,"connected_time":1685000000000,"state":"active","ping":112},{"user_id":286,"name":"ElectronX","steam_id":76561198116034988,"connected_time":2563000000000,"state":"active","ping":85},{"user_id":298,"name":"Chilis 2 for 20","steam_id":76561198121544531,"connected_time":1588000000000,"state":"active","ping":77},{"user_id":307,"name":"Skeleblood","steam_id":76561198153323281,"connected_time":1373000000000,"state":"active","ping":82},{"user_id":215,"name":"Ket","steam_id":76561198241951244,"connected_time":6229000000000,"state":"active","ping":60},{"user_id":274,"name":"LargeBigboy","steam_id":76561198089293265,"connected_time":2818000000000,"state":"active","ping":69},{"user_id":240,"name":"Big Inch","steam_id":76561198052513500,"connected_time":5183000000000,"state":"active","ping":70},{"user_id":318,"name":"Team Fartpiss Poo","steam_id":76561199163591880,"connected_time":185000000000,"state":"active","ping":96},{"user_id":299,"name":"Phantom_4202","steam_id":76561198230325044,"connected_time":1546000000000,"state":"active","ping":93},{"user_id":306,"name":"Claaws","steam_id":76561198159589471,"connected_time":1429000000000,"state":"active","ping":117},{"user_id":292,"name":"rAnch","steam_id":76561198024562587,"connected_time":1939000000000,"state":"active","ping":43},{"user_id":301,"name":"dopadream","steam_id":76561198068383694,"connected_time":1515000000000,"state":"active","ping":57},{"user_id":275,"name":"CatLike Pigeon","steam_id":76561198171716030,"connected_time":2816000000000,"state":"active","ping":99},{"user_id":302,"name":"SpamTheAlien","steam_id":76561199122290968,"connected_time":1511000000000,"state":"active","ping":126},{"user_id":250,"name":"caliecat","steam_id":76561198075902571,"connected_time":4083000000000,"state":"active","ping":88},{"user_id":290,"name":"crookedspinalcord","steam_id":76561198833269144,"connected_time":2139000000000,"state":"active","ping":87},{"user_id":304,"name":"Jolly Wolly","steam_id":76561198087571347,"connected_time":1497000000000,"state":"active","ping":115},{"user_id":305,"name":"Duk","steam_id":76561198450692568,"connected_time":1486000000000,"state":"active","ping":87},{"user_id":311,"name":"Light-Work","steam_id":76561198084263001,"connected_time":1204000000000,"state":"active","ping":55}]},{"server_id":405,"name":"Uncletopia | Dallas | 4 | Community","name_short":"dal-4","host":"dal-1.us.uncletopia.com","port":27045,"enabled":true,"region":"us-central","cc":"us","latitude":32.779167,"longitude":-96.80889,"reserved":0,"last_update":"0001-01-01T00:00:00Z","name_a2s":"Uncletopia | Dallas | 4 | Community","protocol":17,"map":"workshop/koth_trenchfoot_b1a.ugc731436616","folder":"tf","game":"Team Fortress","app_id":440,"player_count":0,"max_players":24,"Bots":0,"server_type":"Dedicated","server_os":"Linux","password":true,"vac":true,"version":"7961495","steam_id":85568392924515220,"keywords":["cp","nocrits","nodmgspread","uncletopia"],"game_id":440,"stv_port":27046,"stv_name":"Uncletopia | Dallas | 4 | Community | STV","players":null},{"server_id":5,"name":"Uncletopia | Frankfurt | 1 | All Maps","name_short":"frk-1","host":"frk-1.de.uncletopia.com","port":27015,"enabled":true,"region":"eu","cc":"de","latitude":50.110924,"longitude":8.682127,"reserved":0,"last_update":"0001-01-01T00:00:00Z","name_a2s":"Uncletopia | Frankfurt | 1 | All Maps","protocol":17,"map":"koth_highpass","folder":"tf","game":"Team Fortress","app_id":440,"player_count":0,"max_players":24,"Bots":0,"server_type":"Dedicated","server_os":"Linux","password":true,"vac":true,"version":"7961495","steam_id":85568392924469989,"keywords":["cp","nocrits","nodmgspread","uncletopia"],"game_id":440,"stv_port":27016,"stv_name":"Uncletopia | Frankfurt | 1 | All Maps | STV","players":null},{"server_id":110,"name":"Uncletopia | Frankfurt | 2 | All Maps","name_short":"frk-2","host":"frk-1.de.uncletopia.com","port":27025,"enabled":true,"region":"eu","cc":"de","latitude":50.110924,"longitude":8.682127,"reserved":0,"last_update":"0001-01-01T00:00:00Z","name_a2s":"Uncletopia | Frankfurt | 2 | All Maps","protocol":17,"map":"cp_dustbowl","folder":"tf","game":"Team Fortress","app_id":440,"player_count":0,"max_players":24,"Bots":0,"server_type":"Dedicated","server_os":"Linux","password":true,"vac":true,"version":"7961495","steam_id":85568392924469990,"keywords":["cp","nocrits","nodmgspread","uncletopia"],"game_id":440,"stv_port":27026,"stv_name":"Uncletopia | Frankfurt | 2 | All Maps | STV","players":null},{"server_id":308,"name":"Uncletopia | Frankfurt | 3 | All Maps","name_short":"frk-3","host":"frk-1.de.uncletopia.com","port":27035,"enabled":true,"region":"eu","cc":"de","latitude":50.110924,"longitude":8.682127,"reserved":0,"last_update":"0001-01-01T00:00:00Z","name_a2s":"Uncletopia | Frankfurt | 3 | All Maps","protocol":17,"map":"pl_barnblitz","folder":"tf","game":"Team Fortress","app_id":440,"player_count":0,"max_players":24,"Bots":0,"server_type":"Dedicated","server_os":"Linux","password":true,"vac":true,"version":"7961495","steam_id":85568392924504274,"keywords":["nocrits","nodmgspread","payload","uncletopia"],"game_id":440,"stv_port":27036,"stv_name":"Uncletopia | Frankfurt | 3 | All Maps | STV","players":null},{"server_id":309,"name":"Uncletopia | Frankfurt | 4 | All Maps","name_short":"frk-4","host":"frk-1.de.uncletopia.com","port":27045,"enabled":true,"region":"eu","cc":"de","latitude":50.110924,"longitude":8.682127,"reserved":0,"last_update":"0001-01-01T00:00:00Z","name_a2s":"Uncletopia | Frankfurt | 4 | All Maps","protocol":17,"map":"koth_highpass","folder":"tf","game":"Team Fortress","app_id":440,"player_count":0,"max_players":24,"Bots":0,"server_type":"Dedicated","server_os":"Linux","password":true,"vac":true,"version":"7961495","steam_id":85568392924504275,"keywords":["cp","nocrits","nodmgspread","uncletopia"],"game_id":440,"stv_port":27046,"stv_name":"Uncletopia | Frankfurt | 4 | All Maps | STV","players":null},{"server_id":310,"name":"Uncletopia | Frankfurt | 5 | All Maps","name_short":"frk-5","host":"frk-1.de.uncletopia.com","port":27055,"enabled":true,"region":"eu","cc":"de","latitude":50.110924,"longitude":8.682127,"reserved":0,"last_update":"0001-01-01T00:00:00Z","name_a2s":"Uncletopia | Frankfurt | 5 | All Maps","protocol":17,"map":"pl_badwater","folder":"tf","game":"Team Fortress","app_id":440,"player_count":0,"max_players":24,"Bots":0,"server_type":"Dedicated","server_os":"Linux","password":true,"vac":true,"version":"7961495","steam_id":85568392924504277,"keywords":["nocrits","nodmgspread","payload","uncletopia"],"game_id":440,"stv_port":27056,"stv_name":"Uncletopia | Frankfurt | 5 | All Maps | STV","players":null},{"server_id":311,"name":"Uncletopia | Frankfurt | 6 | All Maps","name_short":"frk-6","host":"frk-1.de.uncletopia.com","port":27065,"enabled":true,"region":"eu","cc":"de","latitude":50.110924,"longitude":8.682127,"reserved":0,"last_update":"0001-01-01T00:00:00Z","name_a2s":"Uncletopia | Frankfurt | 6 | All Maps","protocol":17,"map":"cp_altitude","folder":"tf","game":"Team Fortress","app_id":440,"player_count":0,"max_players":24,"Bots":0,"server_type":"Dedicated","server_os":"Linux","password":true,"vac":true,"version":"7961495","steam_id":85568392924504278,"keywords":["cp","nocrits","nodmgspread","uncletopia"],"game_id":440,"stv_port":27066,"stv_name":"Uncletopia | Frankfurt | 6 | All Maps | STV","players":null},{"server_id":23,"name":"Uncletopia | Frankfurt | 7 | Stopwatch","name_short":"frk-7","host":"frk-1.de.uncletopia.com","port":27075,"enabled":true,"region":"eu","cc":"de","latitude":50.110924,"longitude":8.682127,"reserved":0,"last_update":"0001-01-01T00:00:00Z","name_a2s":"Uncletopia | Frankfurt | 7 | Stopwatch","protocol":17,"map":"pl_frontier_final","folder":"tf","game":"Team Fortress","app_id":440,"player_count":0,"max_players":24,"Bots":0,"server_type":"Dedicated","server_os":"Linux","password":true,"vac":true,"version":"7961495","steam_id":85568392924742827,"keywords":["nocrits","nodmgspread","payload","uncletopia"],"game_id":440,"stv_port":27076,"stv_name":"Uncletopia | Frankfurt | 7 | Stopwatch | STV","players":null},{"server_id":24,"name":"Uncletopia | Frankfurt | 8 | Community","name_short":"frk-8","host":"frk-1.de.uncletopia.com","port":27085,"enabled":true,"region":"eu","cc":"de","latitude":50.110924,"longitude":8.682127,"reserved":0,"last_update":"0001-01-01T00:00:00Z","name_a2s":"Uncletopia | Frankfurt | 8 | Community","protocol":17,"map":"cp_mountainlab","folder":"tf","game":"Team Fortress","app_id":440,"player_count":0,"max_players":24,"Bots":0,"server_type":"Dedicated","server_os":"Linux","password":true,"vac":true,"version":"7961495","steam_id":85568392924742828,"keywords":["cp","nocrits","nodmgspread","uncletopia"],"game_id":440,"stv_port":27086,"stv_name":"Uncletopia | Frankfurt | 8 | Community | STV","players":null},{"server_id":202,"name":"Uncletopia | Hong Kong | 1 | All Maps","name_short":"hgk-1","host":"hgk-1.hk.uncletopia.com","port":27015,"enabled":true,"region":"asia","cc":"hk","latitude":22.302711,"longitude":114.177216,"reserved":0,"last_update":"0001-01-01T00:00:00Z","name_a2s":"Uncletopia | Hong Kong | 1 | All Maps","protocol":17,"map":"cp_snakewater_final1","folder":"tf","game":"Team Fortress","app_id":440,"player_count":0,"max_players":24,"Bots":0,"server_type":"Dedicated","server_os":"Linux","password":true,"vac":true,"version":"7961495","steam_id":85568392924494504,"keywords":["cp","nocrits","nodmgspread","uncletopia"],"game_id":440,"stv_port":27016,"stv_name":"Uncletopia | Hong Kong | 1 | All Maps | STV","players":null},{"server_id":1,"name":"Uncletopia | Los Angeles | 1 | All Maps","name_short":"lax-1","host":"lax-1.us.uncletopia.com","port":27015,"enabled":true,"region":"us-west","cc":"us","latitude":33.94279,"longitude":-118.41004,"reserved":0,"last_update":"0001-01-01T00:00:00Z","name_a2s":"Uncletopia | Los Angeles | 1 | All Maps","protocol":17,"map":"pl_pier","folder":"tf","game":"Team Fortress","app_id":440,"player_count":24,"max_players":24,"Bots":0,"server_type":"Dedicated","server_os":"Linux","password":true,"vac":true,"version":"7961495","steam_id":85568392924469991,"keywords":["nocrits","nodmgspread","payload","uncletopia"],"game_id":440,"stv_port":27016,"stv_name":"Uncletopia | Los Angeles | 1 | All Maps | STV","players":[{"user_id":301,"name":"Chinaski","steam_id":76561198092218594,"connected_time":5284000000000,"state":"active","ping":64},{"user_id":349,"name":"the hype man","steam_id":76561199052875314,"connected_time":14000000000,"state":"active","ping":89},{"user_id":346,"name":"yogi","steam_id":76561198067986753,"connected_time":542000000000,"state":"active","ping":46},{"user_id":295,"name":"squart guy","steam_id":76561199411560141,"connected_time":5770000000000,"state":"active","ping":70},{"user_id":329,"name":"The_Pacific_gamer","steam_id":76561198089491446,"connected_time":2303000000000,"state":"active","ping":73},{"user_id":296,"name":"Obersteuermann","steam_id":76561198044468707,"connected_time":5761000000000,"state":"active","ping":68},{"user_id":275,"name":"Tim","steam_id":76561198126844549,"connected_time":6684000000000,"state":"active","ping":41},{"user_id":326,"name":"cringy","steam_id":76561198323000455,"connected_time":2600000000000,"state":"active","ping":50},{"user_id":324,"name":"Juice","steam_id":76561198085001331,"connected_time":3138000000000,"state":"active","ping":59},{"user_id":341,"name":"Keamy","steam_id":76561199471434875,"connected_time":1501000000000,"state":"active","ping":74},{"user_id":323,"name":"sola venereum","steam_id":76561198368179166,"connected_time":3309000000000,"state":"active","ping":91},{"user_id":332,"name":"Borgor Boi","steam_id":76561199061388107,"connected_time":2199000000000,"state":"active","ping":70},{"user_id":325,"name":"Peppino","steam_id":76561199139504199,"connected_time":2772000000000,"state":"active","ping":62},{"user_id":258,"name":"rad killl raccoon","steam_id":76561198980975595,"connected_time":8088000000000,"state":"active","ping":96},{"user_id":327,"name":"vioxynteris","steam_id":76561198161428666,"connected_time":2380000000000,"state":"active","ping":28},{"user_id":342,"name":"fire","steam_id":76561198044354279,"connected_time":1482000000000,"state":"active","ping":48},{"user_id":338,"name":"Ice cream sandwich","steam_id":76561198172748357,"connected_time":1891000000000,"state":"active","ping":50},{"user_id":347,"name":"RainbowHeavy FM","steam_id":76561198070800159,"connected_time":516000000000,"state":"active","ping":56},{"user_id":343,"name":"HAT-WEARING™ Maggot Gamer Cat","steam_id":76561197973992705,"connected_time":943000000000,"state":"active","ping":67},{"user_id":345,"name":"TeCon","steam_id":76561198049127236,"connected_time":735000000000,"state":"active","ping":61},{"user_id":337,"name":"Living_Zombie","steam_id":76561198204503240,"connected_time":2059000000000,"state":"active","ping":108},{"user_id":322,"name":"Eggs","steam_id":76561198060148916,"connected_time":3612000000000,"state":"active","ping":50},{"user_id":348,"name":"Drapph","steam_id":76561199384213314,"connected_time":17000000000,"state":"spawning","ping":96},{"user_id":350,"name":"Mocha Josie","steam_id":76561198066452726,"connected_time":14000000000,"state":"active","ping":51}]},{"server_id":112,"name":"Uncletopia | Los Angeles | 2 | All Maps","name_short":"lax-2","host":"lax-1.us.uncletopia.com","port":27025,"enabled":true,"region":"us-west","cc":"us","latitude":33.94279,"longitude":-118.41004,"reserved":0,"last_update":"0001-01-01T00:00:00Z","name_a2s":"Uncletopia | Los Angeles | 2 | All Maps","protocol":17,"map":"pl_goldrush","folder":"tf","game":"Team Fortress","app_id":440,"player_count":24,"max_players":24,"Bots":0,"server_type":"Dedicated","server_os":"Linux","password":true,"vac":true,"version":"7961495","steam_id":85568392924469992,"keywords":["nocrits","nodmgspread","payload","uncletopia"],"game_id":440,"stv_port":27026,"stv_name":"Uncletopia | Los Angeles | 2 | All Maps | STV","players":[{"user_id":561,"name":"TüCold","steam_id":76561198111278197,"connected_time":1144000000000,"state":"active","ping":60},{"user_id":567,"name":"Your Favorite Fearless Hero","steam_id":76561199127590316,"connected_time":499000000000,"state":"active","ping":65},{"user_id":555,"name":"whathashit69","steam_id":76561199013105760,"connected_time":1748000000000,"state":"active","ping":154},{"user_id":546,"name":"poopy joe","steam_id":76561198007742906,"connected_time":2670000000000,"state":"active","ping":40},{"user_id":563,"name":"okay sized language model","steam_id":76561198071110753,"connected_time":1085000000000,"state":"active","ping":45},{"user_id":568,"name":"The Boi","steam_id":76561198271774238,"connected_time":488000000000,"state":"active","ping":57},{"user_id":520,"name":"lol","steam_id":76561198026491738,"connected_time":3881000000000,"state":"active","ping":63},{"user_id":521,"name":"xD","steam_id":76561198149683030,"connected_time":3861000000000,"state":"active","ping":71},{"user_id":540,"name":"Soulja Boy","steam_id":76561198066091050,"connected_time":2890000000000,"state":"active","ping":79},{"user_id":566,"name":"Uprightmoss7528","steam_id":76561199200138486,"connected_time":532000000000,"state":"active","ping":61},{"user_id":529,"name":"cielael","steam_id":76561198043971956,"connected_time":3650000000000,"state":"active","ping":54},{"user_id":502,"name":"Lord","steam_id":76561198303081758,"connected_time":5171000000000,"state":"active","ping":39},{"user_id":538,"name":"anakin ballstomper","steam_id":76561198184814466,"connected_time":2924000000000,"state":"active","ping":67},{"user_id":554,"name":"Xexat","steam_id":76561198041668498,"connected_time":1829000000000,"state":"active","ping":73},{"user_id":564,"name":"Jubtice","steam_id":76561198995538396,"connected_time":1015000000000,"state":"active","ping":55},{"user_id":492,"name":"AAAAAAAAAAAAAAAAAAAAAAAAAAAAAAA","steam_id":76561198125467937,"connected_time":5790000000000,"state":"active","ping":69},{"user_id":494,"name":"Jazpy","steam_id":76561198036872545,"connected_time":5653000000000,"state":"active","ping":75},{"user_id":524,"name":"Ralph Kramden (Slim Charles)","steam_id":76561197981687895,"connected_time":3720000000000,"state":"active","ping":56},{"user_id":504,"name":"fresh prince of citadel","steam_id":76561198420237035,"connected_time":5167000000000,"state":"active","ping":63},{"user_id":565,"name":"Quon Grene for Vice Prez","steam_id":76561198127545817,"connected_time":927000000000,"state":"active","ping":69},{"user_id":547,"name":"Brain damage squirrel","steam_id":76561198846344452,"connected_time":2648000000000,"state":"active","ping":53},{"user_id":548,"name":"Titan Exodos","steam_id":76561198063852935,"connected_time":2644000000000,"state":"active","ping":89},{"user_id":532,"name":"DeratedDesign","steam_id":76561199078779967,"connected_time":3483000000000,"state":"active","ping":91},{"user_id":545,"name":"enveloped powertrip","steam_id":76561198011675372,"connected_time":2776000000000,"state":"active","ping":85}]},{"server_id":324,"name":"Uncletopia | Los Angeles | 3 | All Maps","name_short":"lax-3","host":"lax-1.us.uncletopia.com","port":27035,"enabled":true,"region":"us-west","cc":"us","latitude":33.94279,"longitude":-118.41004,"reserved":0,"last_update":"0001-01-01T00:00:00Z","name_a2s":"Uncletopia | Los Angeles | 3 | All Maps","protocol":17,"map":"koth_viaduct","folder":"tf","game":"Team Fortress","app_id":440,"player_count":3,"max_players":24,"Bots":0,"server_type":"Dedicated","server_os":"Linux","password":true,"vac":true,"version":"7961495","steam_id":85568392924510198,"keywords":["cp","nocrits","nodmgspread","uncletopia"],"game_id":440,"stv_port":27036,"stv_name":"Uncletopia | Los Angeles | 3 | All Maps | STV","players":[{"user_id":20,"name":"Toadwinter","steam_id":76561198329216601,"connected_time":249000000000,"state":"active","ping":54},{"user_id":19,"name":"NINJA WOLF","steam_id":76561199367386860,"connected_time":492000000000,"state":"active","ping":82},{"user_id":21,"name":"Agent Mania","steam_id":76561198029741272,"connected_time":214000000000,"state":"active","ping":41}]},{"server_id":25,"name":"Uncletopia | Los Angeles | 4 | Stopwatch","name_short":"lax-4","host":"lax-1.us.uncletopia.com","port":27045,"enabled":true,"region":"us-west","cc":"us","latitude":33.94279,"longitude":-118.41004,"reserved":0,"last_update":"0001-01-01T00:00:00Z","name_a2s":"Uncletopia | Los Angeles | 4 | Stopwatch","protocol":17,"map":"workshop/pl_badwater_pro_v12.ugc2142942074","folder":"tf","game":"Team Fortress","app_id":440,"player_count":0,"max_players":24,"Bots":0,"server_type":"Dedicated","server_os":"Linux","password":true,"vac":true,"version":"7961495","steam_id":85568392924510199,"keywords":["nocrits","nodmgspread","payload","uncletopia"],"game_id":440,"stv_port":27046,"stv_name":"Uncletopia | Los Angeles | 4 | Stopwatch | STV","players":null},{"server_id":11,"name":"Uncletopia | London | 1 | All Maps","name_short":"lon-1","host":"lon-1.uk.uncletopia.com","port":27015,"enabled":true,"region":"eu","cc":"gb","latitude":51.509865,"longitude":-0.118092,"reserved":0,"last_update":"0001-01-01T00:00:00Z","name_a2s":"Uncletopia | London | 1 | All Maps","protocol":17,"map":"koth_lakeside_final","folder":"tf","game":"Team Fortress","app_id":440,"player_count":0,"max_players":24,"Bots":0,"server_type":"Dedicated","server_os":"Linux","password":true,"vac":true,"version":"7961495","steam_id":85568392924367362,"keywords":["cp","nocrits","nodmgspread","uncletopia"],"game_id":440,"stv_port":27016,"stv_name":"Uncletopia | London | 1 | All Maps | STV","players":null},{"server_id":114,"name":"Uncletopia | London | 2 | All Maps","name_short":"lon-2","host":"lon-1.uk.uncletopia.com","port":27025,"enabled":true,"region":"eu","cc":"gb","latitude":51.509865,"longitude":-0.118092,"reserved":0,"last_update":"0001-01-01T00:00:00Z","name_a2s":"Uncletopia | London | 2 | All Maps","protocol":17,"map":"koth_viaduct","folder":"tf","game":"Team Fortress","app_id":440,"player_count":0,"max_players":24,"Bots":0,"server_type":"Dedicated","server_os":"Linux","password":true,"vac":true,"version":"7961495","steam_id":85568392924470941,"keywords":["cp","nocrits","nodmgspread","uncletopia"],"game_id":440,"stv_port":27026,"stv_name":"Uncletopia | London | 2 | All Maps | STV","players":null},{"server_id":320,"name":"Uncletopia | London | 3 | All Maps","name_short":"lon-3","host":"lon-1.uk.uncletopia.com","port":27035,"enabled":true,"region":"eu","cc":"gb","latitude":51.509865,"longitude":-0.118092,"reserved":0,"last_update":"0001-01-01T00:00:00Z","name_a2s":"Uncletopia | London | 3 | All Maps","protocol":17,"map":"pl_barnblitz","folder":"tf","game":"Team Fortress","app_id":440,"player_count":0,"max_players":24,"Bots":0,"server_type":"Dedicated","server_os":"Linux","password":true,"vac":true,"version":"7961495","steam_id":85568392924510192,"keywords":["nocrits","nodmgspread","payload","uncletopia"],"game_id":440,"stv_port":27036,"stv_name":"Uncletopia | London | 3 | All Maps | STV","players":null},{"server_id":321,"name":"Uncletopia | London | 4 | All Maps","name_short":"lon-4","host":"lon-1.uk.uncletopia.com","port":27045,"enabled":true,"region":"eu","cc":"gb","latitude":51.509865,"longitude":-0.118092,"reserved":0,"last_update":"0001-01-01T00:00:00Z","name_a2s":"Uncletopia | London | 4 | All Maps","protocol":17,"map":"koth_cascade","folder":"tf","game":"Team Fortress","app_id":440,"player_count":0,"max_players":24,"Bots":0,"server_type":"Dedicated","server_os":"Linux","password":true,"vac":true,"version":"7961495","steam_id":85568392924510193,"keywords":["cp","nocrits","nodmgspread","uncletopia"],"game_id":440,"stv_port":27046,"stv_name":"Uncletopia | London | 4 | All Maps | STV","players":null},{"server_id":21,"name":"Uncletopia | London | 5 | All Maps","name_short":"lon-5","host":"lon-1.uk.uncletopia.com","port":27055,"enabled":true,"region":"eu","cc":"gb","latitude":51.509865,"longitude":-0.118092,"reserved":0,"last_update":"0001-01-01T00:00:00Z","name_a2s":"Uncletopia | London | 5 | All Maps","protocol":17,"map":"pl_swiftwater_final1","folder":"tf","game":"Team Fortress","app_id":440,"player_count":0,"max_players":24,"Bots":0,"server_type":"Dedicated","server_os":"Linux","password":true,"vac":true,"version":"7961495","steam_id":85568392924742829,"keywords":["nocrits","nodmgspread","payload","uncletopia"],"game_id":440,"stv_port":27056,"stv_name":"Uncletopia | London | 5 | All Maps | STV","players":null},{"server_id":22,"name":"Uncletopia | London | 6 | All Maps","name_short":"lon-6","host":"lon-1.uk.uncletopia.com","port":27065,"enabled":true,"region":"eu","cc":"gb","latitude":51.509865,"longitude":-0.118092,"reserved":0,"last_update":"0001-01-01T00:00:00Z","name_a2s":"Uncletopia | London | 6 | All Maps","protocol":17,"map":"pl_borneo","folder":"tf","game":"Team Fortress","app_id":440,"player_count":0,"max_players":24,"Bots":0,"server_type":"Dedicated","server_os":"Linux","password":true,"vac":true,"version":"7961495","steam_id":85568392924742830,"keywords":["nocrits","nodmgspread","payload","uncletopia"],"game_id":440,"stv_port":27066,"stv_name":"Uncletopia | London | 6 | All Maps | STV","players":null},{"server_id":40,"name":"Uncletopia | London | 7 | Stopwatch","name_short":"lon-7","host":"lon-1.uk.uncletopia.com","port":27075,"enabled":true,"region":"eu","cc":"gb","latitude":51.509865,"longitude":-0.118092,"reserved":0,"last_update":"0001-01-01T00:00:00Z","name_a2s":"Uncletopia | London | 7 | Stopwatch","protocol":17,"map":"workshop/koth_ramjam_rc1.ugc459778887","folder":"tf","game":"Team Fortress","app_id":440,"player_count":0,"max_players":24,"Bots":0,"server_type":"Dedicated","server_os":"Linux","password":true,"vac":true,"version":"7961495","steam_id":85568392924964314,"keywords":["cp","nocrits","nodmgspread","uncletopia"],"game_id":440,"stv_port":27076,"stv_name":"Uncletopia | London | 7 | Stopwatch | STV","players":null},{"server_id":41,"name":"Uncletopia | London | 8 | Community","name_short":"lon-8","host":"lon-1.uk.uncletopia.com","port":27085,"enabled":true,"region":"eu","cc":"gb","latitude":51.509865,"longitude":-0.118092,"reserved":0,"last_update":"0001-01-01T00:00:00Z","name_a2s":"Uncletopia | London | 8 | Community","protocol":17,"map":"workshop/cp_caldera_rc2.ugc2834196889","folder":"tf","game":"Team Fortress","app_id":440,"player_count":0,"max_players":24,"Bots":0,"server_type":"Dedicated","server_os":"Linux","password":true,"vac":true,"version":"7961495","steam_id":85568392924964315,"keywords":["cp","nocrits","nodmgspread","uncletopia"],"game_id":440,"stv_port":27086,"stv_name":"Uncletopia | London | 8 | Community | STV","players":null},{"server_id":300,"name":"Uncletopia | Montréal | 1 | All Maps","name_short":"mtl-1","host":"mtl-1.ca.uncletopia.com","port":27015,"enabled":true,"region":"us-east","cc":"ca","latitude":45.50889,"longitude":-73.56167,"reserved":0,"last_update":"0001-01-01T00:00:00Z","name_a2s":"","protocol":0,"map":"","folder":"","game":"","app_id":0,"player_count":1,"max_players":0,"Bots":0,"server_type":"","server_os":"","password":false,"vac":false,"version":"","steam_id":0,"keywords":null,"game_id":0,"stv_port":0,"stv_name":"","players":[{"user_id":198,"name":"what","steam_id":76561198025347015,"connected_time":237000000000,"state":"connecting","ping":0}]},{"server_id":301,"name":"Uncletopia | Montréal | 2 | All Maps","name_short":"mtl-2","host":"mtl-1.ca.uncletopia.com","port":27025,"enabled":true,"region":"us-east","cc":"ca","latitude":45.50889,"longitude":-73.56167,"reserved":0,"last_update":"0001-01-01T00:00:00Z","name_a2s":"","protocol":0,"map":"","folder":"","game":"","app_id":0,"player_count":0,"max_players":0,"Bots":0,"server_type":"","server_os":"","password":false,"vac":false,"version":"","steam_id":0,"keywords":null,"game_id":0,"stv_port":0,"stv_name":"","players":null},{"server_id":302,"name":"Uncletopia | Montréal | 3 | All Maps","name_short":"mtl-3","host":"mtl-1.ca.uncletopia.com","port":27035,"enabled":true,"region":"us-east","cc":"ca","latitude":45.50889,"longitude":-73.56167,"reserved":0,"last_update":"0001-01-01T00:00:00Z","name_a2s":"","protocol":0,"map":"","folder":"","game":"","app_id":0,"player_count":0,"max_players":0,"Bots":0,"server_type":"","server_os":"","password":false,"vac":false,"version":"","steam_id":0,"keywords":null,"game_id":0,"stv_port":0,"stv_name":"","players":null},{"server_id":303,"name":"Uncletopia | Montréal | 4 | No Payload","name_short":"mtl-4","host":"mtl-1.ca.uncletopia.com","port":27045,"enabled":true,"region":"us-east","cc":"ca","latitude":45.50889,"longitude":-73.56167,"reserved":0,"last_update":"0001-01-01T00:00:00Z","name_a2s":"","protocol":0,"map":"","folder":"","game":"","app_id":0,"player_count":0,"max_players":0,"Bots":0,"server_type":"","server_os":"","password":false,"vac":false,"version":"","steam_id":0,"keywords":null,"game_id":0,"stv_port":0,"stv_name":"","players":null},{"server_id":13,"name":"Uncletopia | New York City | 1 | All Maps","name_short":"nyc-1","host":"nyc-1.us.uncletopia.com","port":27015,"enabled":true,"region":"us-east","cc":"us","latitude":40.73061,"longitude":-73.93524,"reserved":0,"last_update":"0001-01-01T00:00:00Z","name_a2s":"Uncletopia | New York City | 1 | All Maps","protocol":17,"map":"pl_upward","folder":"tf","game":"Team Fortress","app_id":440,"player_count":24,"max_players":24,"Bots":0,"server_type":"Dedicated","server_os":"Linux","password":true,"vac":true,"version":"7961495","steam_id":85568392924469993,"keywords":["nocrits","nodmgspread","payload","uncletopia"],"game_id":440,"stv_port":27016,"stv_name":"Uncletopia | New York City | 1 | All Maps | STV","players":[{"user_id":401,"name":"googa","steam_id":76561198133130452,"connected_time":13108000000000,"state":"active","ping":45},{"user_id":560,"name":"Zanthous","steam_id":76561198048969901,"connected_time":256000000000,"state":"active","ping":47},{"user_id":561,"name":"glioth","steam_id":76561198936093837,"connected_time":238000000000,"state":"active","ping":59},{"user_id":522,"name":"Trucks N' Cocaine","steam_id":76561198117286868,"connected_time":2981000000000,"state":"active","ping":169},{"user_id":553,"name":"Sekt Mafia","steam_id":76561198084334538,"connected_time":754000000000,"state":"active","ping":57},{"user_id":542,"name":"MrLonelySlayer","steam_id":76561198061793470,"connected_time":1219000000000,"state":"active","ping":55},{"user_id":552,"name":"Niicciiss","steam_id":76561198823039857,"connected_time":756000000000,"state":"active","ping":44},{"user_id":551,"name":"Dwayne Da Wok Jinsun","steam_id":76561198044506855,"connected_time":844000000000,"state":"active","ping":70},{"user_id":549,"name":"K. O. E.","steam_id":76561198025188490,"connected_time":961000000000,"state":"active","ping":76},{"user_id":543,"name":"Si1entSn1pa","steam_id":76561198170095479,"connected_time":1217000000000,"state":"active","ping":85},{"user_id":554,"name":"Unjxstly","steam_id":76561199471976339,"connected_time":750000000000,"state":"active","ping":86},{"user_id":507,"name":"Maxyyt","steam_id":76561198062309005,"connected_time":3541000000000,"state":"active","ping":49},{"user_id":562,"name":"Tosche Station Power Converter","steam_id":76561199431280503,"connected_time":233000000000,"state":"active","ping":59},{"user_id":558,"name":"Tony hawks pro skater 2 dlc","steam_id":76561198243387974,"connected_time":641000000000,"state":"active","ping":58},{"user_id":556,"name":"kogasira","steam_id":76561198094152516,"connected_time":720000000000,"state":"active","ping":53},{"user_id":563,"name":"goblin?","steam_id":76561198007192438,"connected_time":194000000000,"state":"active","ping":57},{"user_id":539,"name":"Relare","steam_id":76561198004059718,"connected_time":1704000000000,"state":"active","ping":79},{"user_id":512,"name":"Doofenshmirtz Evil Inc.","steam_id":76561198439793697,"connected_time":3315000000000,"state":"active","ping":85},{"user_id":527,"name":"GrahamisGood","steam_id":76561198988396980,"connected_time":2731000000000,"state":"active","ping":52},{"user_id":564,"name":"Doubie","steam_id":76561198104492019,"connected_time":178000000000,"state":"active","ping":67},{"user_id":567,"name":"mariano rivera","steam_id":76561198254871715,"connected_time":12000000000,"state":"active","ping":135},{"user_id":559,"name":"Deep Curly","steam_id":76561197981290558,"connected_time":489000000000,"state":"active","ping":58},{"user_id":557,"name":"Milk","steam_id":76561198796215640,"connected_time":701000000000,"state":"active","ping":120},{"user_id":566,"name":"roman","steam_id":76561198170066797,"connected_time":162000000000,"state":"active","ping":59}]},{"server_id":14,"name":"Uncletopia | New York City | 2 | All Maps","name_short":"nyc-2","host":"nyc-1.us.uncletopia.com","port":27025,"enabled":true,"region":"us-east","cc":"us","latitude":40.73061,"longitude":-73.93524,"reserved":0,"last_update":"0001-01-01T00:00:00Z","name_a2s":"Uncletopia | New York City | 2 | All Maps","protocol":17,"map":"pl_badwater","folder":"tf","game":"Team Fortress","app_id":440,"player_count":3,"max_players":24,"Bots":0,"server_type":"Dedicated","server_os":"Linux","password":true,"vac":true,"version":"7961495","steam_id":85568392924469994,"keywords":["nocrits","nodmgspread","payload","uncletopia"],"game_id":440,"stv_port":27026,"stv_name":"Uncletopia | New York City | 2 | All Maps | STV","players":[{"user_id":693,"name":"Santamen","steam_id":76561198119478199,"connected_time":1622000000000,"state":"active","ping":40},{"user_id":700,"name":"gamerroo","steam_id":76561199065347643,"connected_time":85000000000,"state":"active","ping":81},{"user_id":687,"name":"bleach65","steam_id":76561198115270571,"connected_time":2543000000000,"state":"active","ping":70}]},{"server_id":15,"name":"Uncletopia | New York City | 3 | Stopwatch","name_short":"nyc-3","host":"nyc-1.us.uncletopia.com","port":27035,"enabled":true,"region":"us-east","cc":"us","latitude":40.73061,"longitude":-73.93524,"reserved":0,"last_update":"0001-01-01T00:00:00Z","name_a2s":"Uncletopia | New York City | 3 | Stopwatch","protocol":17,"map":"cp_granary","folder":"tf","game":"Team Fortress","app_id":440,"player_count":0,"max_players":24,"Bots":0,"server_type":"Dedicated","server_os":"Linux","password":true,"vac":true,"version":"7961495","steam_id":85568392924742820,"keywords":["cp","nocrits","nodmgspread","uncletopia"],"game_id":440,"stv_port":27036,"stv_name":"Uncletopia | New York City | 3 | Stopwatch | STV","players":null},{"server_id":16,"name":"Uncletopia | New York City | 4 | Community","name_short":"nyc-4","host":"nyc-1.us.uncletopia.com","port":27045,"enabled":true,"region":"us-east","cc":"us","latitude":40.73061,"longitude":-73.93524,"reserved":0,"last_update":"0001-01-01T00:00:00Z","name_a2s":"Uncletopia | New York City | 4 | Community","protocol":17,"map":"workshop/cp_croissant_final.ugc458840209","folder":"tf","game":"Team Fortress","app_id":440,"player_count":0,"max_players":24,"Bots":0,"server_type":"Dedicated","server_os":"Linux","password":true,"vac":true,"version":"7961495","steam_id":85568392924742821,"keywords":["cp","nocrits","nodmgspread","uncletopia"],"game_id":440,"stv_port":27046,"stv_name":"Uncletopia | New York City | 4 | Community | STV","players":null},{"server_id":142,"name":"Uncletopia | São Paulo | 1 | All Maps","name_short":"sao-1","host":"sao-1.br.uncletopia.com","port":27015,"enabled":true,"region":"sa","cc":"br","latitude":-23.533773,"longitude":-46.62529,"reserved":0,"last_update":"0001-01-01T00:00:00Z","name_a2s":"Uncletopia | São Paulo | 1 | All Maps","protocol":17,"map":"koth_cascade","folder":"tf","game":"Team Fortress","app_id":440,"player_count":0,"max_players":24,"Bots":0,"server_type":"Dedicated","server_os":"Linux","password":true,"vac":true,"version":"7961495","steam_id":85568392924469996,"keywords":["cp","nocrits","nodmgspread","uncletopia"],"game_id":440,"stv_port":27016,"stv_name":"Uncletopia | São Paulo | 1 | All Maps | STV","players":null},{"server_id":143,"name":"Uncletopia | São Paulo | 2 | Community","name_short":"sao-2","host":"sao-2.br.uncletopia.com","port":27015,"enabled":true,"region":"sa","cc":"br","latitude":-23.533773,"longitude":-46.62529,"reserved":0,"last_update":"0001-01-01T00:00:00Z","name_a2s":"Uncletopia | São Paulo | 2 | Community","protocol":17,"map":"workshop/koth_ramjam_rc1.ugc459778887","folder":"tf","game":"Team Fortress","app_id":440,"player_count":0,"max_players":24,"Bots":0,"server_type":"Dedicated","server_os":"Linux","password":true,"vac":true,"version":"7961495","steam_id":85568392924485349,"keywords":["cp","nocrits","nodmgspread","uncletopia"],"game_id":440,"stv_port":27016,"stv_name":"Uncletopia | São Paulo | 2 | Community | STV","players":null},{"server_id":7,"name":"Uncletopia | Seattle | 1 | All Maps","name_short":"sea-1","host":"sea-1.us.uncletopia.com","port":27015,"enabled":true,"region":"us-west","cc":"us","latitude":47.608013,"longitude":-122.33517,"reserved":0,"last_update":"0001-01-01T00:00:00Z","name_a2s":"Uncletopia | Seattle | 1 | All Maps","protocol":17,"map":"pl_snowycoast","folder":"tf","game":"Team Fortress","app_id":440,"player_count":24,"max_players":24,"Bots":0,"server_type":"Dedicated","server_os":"Linux","password":true,"vac":true,"version":"7961495","steam_id":85568392924469997,"keywords":["nocrits","nodmgspread","payload","uncletopia"],"game_id":440,"stv_port":27016,"stv_name":"Uncletopia | Seattle | 1 | All Maps | STV","players":[{"user_id":741,"name":"Bocchi The Rock Johnson","steam_id":76561198216017952,"connected_time":2343000000000,"state":"active","ping":70},{"user_id":760,"name":"meat","steam_id":76561198209153291,"connected_time":738000000000,"state":"active","ping":81},{"user_id":747,"name":"SOS Brigade Member","steam_id":76561198331134294,"connected_time":1564000000000,"state":"active","ping":94},{"user_id":750,"name":"acid","steam_id":76561198044180341,"connected_time":1284000000000,"state":"active","ping":76},{"user_id":755,"name":"Yammie","steam_id":76561197987304489,"connected_time":761000000000,"state":"active","ping":45},{"user_id":759,"name":"level 7 firemancer","steam_id":76561198209571677,"connected_time":745000000000,"state":"active","ping":124},{"user_id":756,"name":"MxProf","steam_id":76561198044519572,"connected_time":760000000000,"state":"active","ping":58},{"user_id":757,"name":"Dr. Karl, the AUS Science Guy","steam_id":76561198031278747,"connected_time":758000000000,"state":"active","ping":49},{"user_id":696,"name":"Ayayayayayahuasca","steam_id":76561199002906056,"connected_time":6763000000000,"state":"active","ping":50},{"user_id":737,"name":"Ducks","steam_id":76561198130038345,"connected_time":2505000000000,"state":"active","ping":62},{"user_id":727,"name":"Flops","steam_id":76561197961030141,"connected_time":3592000000000,"state":"active","ping":50},{"user_id":732,"name":"Sniff","steam_id":76561198010270922,"connected_time":3112000000000,"state":"active","ping":55},{"user_id":744,"name":"lavender","steam_id":76561199069518286,"connected_time":1810000000000,"state":"active","ping":75},{"user_id":753,"name":"thunderous prophet","steam_id":76561198131166135,"connected_time":966000000000,"state":"active","ping":39},{"user_id":758,"name":"black mold farmer","steam_id":76561198169755734,"connected_time":749000000000,"state":"active","ping":68},{"user_id":749,"name":"onionman0106","steam_id":76561199067766868,"connected_time":1340000000000,"state":"active","ping":42},{"user_id":728,"name":"squash","steam_id":76561198150281353,"connected_time":3564000000000,"state":"active","ping":57},{"user_id":722,"name":"William P. Ennis","steam_id":76561198073464877,"connected_time":4547000000000,"state":"active","ping":104},{"user_id":748,"name":"dust | she/it","steam_id":76561198045218909,"connected_time":1370000000000,"state":"active","ping":41},{"user_id":743,"name":"jole","steam_id":76561198037292232,"connected_time":2132000000000,"state":"active","ping":133},{"user_id":640,"name":"Level 99 Mudcrab","steam_id":76561198077452771,"connected_time":8864000000000,"state":"active","ping":89},{"user_id":491,"name":"NEBULA","steam_id":76561198086878595,"connected_time":10757000000000,"state":"active","ping":75},{"user_id":761,"name":"geekin and tweakin","steam_id":76561198095480838,"connected_time":735000000000,"state":"active","ping":49},{"user_id":763,"name":"jorts","steam_id":76561199041179985,"connected_time":555000000000,"state":"active","ping":57}]},{"server_id":119,"name":"Uncletopia | Seattle | 2 | All Maps","name_short":"sea-2","host":"sea-1.us.uncletopia.com","port":27025,"enabled":true,"region":"us-west","cc":"us","latitude":47.608013,"longitude":-122.33517,"reserved":0,"last_update":"0001-01-01T00:00:00Z","name_a2s":"Uncletopia | Seattle | 2 | All Maps","protocol":17,"map":"cp_dustbowl","folder":"tf","game":"Team Fortress","app_id":440,"player_count":23,"max_players":24,"Bots":0,"server_type":"Dedicated","server_os":"Linux","password":true,"vac":true,"version":"7961495","steam_id":85568392924469998,"keywords":["cp","nocrits","nodmgspread","uncletopia"],"game_id":440,"stv_port":27026,"stv_name":"Uncletopia | Seattle | 2 | All Maps | STV","players":[{"user_id":352,"name":"ilun","steam_id":76561198042913843,"connected_time":190000000000,"state":"active","ping":58},{"user_id":353,"name":"Zonn","steam_id":76561198018306101,"connected_time":169000000000,"state":"active","ping":75},{"user_id":358,"name":"a cat plushie","steam_id":76561198080046542,"connected_time":61000000000,"state":"active","ping":46},{"user_id":350,"name":"kenZino","steam_id":76561197967971192,"connected_time":228000000000,"state":"active","ping":45},{"user_id":355,"name":"The_RainbowTrout","steam_id":76561199309554436,"connected_time":117000000000,"state":"active","ping":54},{"user_id":341,"name":"johnman gooberguy","steam_id":76561199014859764,"connected_time":1272000000000,"state":"active","ping":87},{"user_id":344,"name":"Trueno","steam_id":76561199080515661,"connected_time":656000000000,"state":"active","ping":50},{"user_id":300,"name":"PsyKe","steam_id":76561198055486345,"connected_time":5058000000000,"state":"active","ping":86},{"user_id":356,"name":"็","steam_id":76561198067666595,"connected_time":106000000000,"state":"active","ping":43},{"user_id":336,"name":"Roon","steam_id":76561198381478636,"connected_time":1645000000000,"state":"active","ping":84},{"user_id":317,"name":"wiwu","steam_id":76561198180189799,"connected_time":4015000000000,"state":"active","ping":36},{"user_id":273,"name":"The King of Piss World","steam_id":76561198082806956,"connected_time":9007000000000,"state":"active","ping":148},{"user_id":322,"name":"Otis the Winter Dog","steam_id":76561198023301866,"connected_time":3486000000000,"state":"active","ping":86},{"user_id":351,"name":"Wheaties","steam_id":76561198060909578,"connected_time":222000000000,"state":"active","ping":59},{"user_id":342,"name":"S Q U I S H E  T H A T  C A T","steam_id":76561198293865429,"connected_time":1079000000000,"state":"active","ping":30},{"user_id":246,"name":"mub","steam_id":76561197961943948,"connected_time":11363000000000,"state":"active","ping":50},{"user_id":319,"name":"Inflight","steam_id":76561198920049475,"connected_time":3645000000000,"state":"active","ping":113},{"user_id":277,"name":"dougrocks421","steam_id":76561198165063918,"connected_time":8458000000000,"state":"active","ping":38},{"user_id":304,"name":"STAROID","steam_id":76561198069740897,"connected_time":4740000000000,"state":"active","ping":91},{"user_id":347,"name":"dogface","steam_id":76561198074407897,"connected_time":612000000000,"state":"active","ping":132},{"user_id":305,"name":"General Fisticuffs","steam_id":76561198255721392,"connected_time":4694000000000,"state":"active","ping":136},{"user_id":348,"name":"Bestmaster202","steam_id":76561198235282680,"connected_time":602000000000,"state":"active","ping":79},{"user_id":357,"name":"Soda","steam_id":76561198219209367,"connected_time":96000000000,"state":"active","ping":57}]},{"server_id":406,"name":"Uncletopia | Seattle | 3 | Stopwatch","name_short":"sea-3","host":"sea-1.us.uncletopia.com","port":27035,"enabled":true,"region":"us-west","cc":"us","latitude":47.608013,"longitude":-122.33517,"reserved":0,"last_update":"0001-01-01T00:00:00Z","name_a2s":"Uncletopia | Seattle | 3 | Stopwatch","protocol":17,"map":"workshop/koth_ashville_final.ugc2130459942","folder":"tf","game":"Team Fortress","app_id":440,"player_count":0,"max_players":24,"Bots":0,"server_type":"Dedicated","server_os":"Linux","password":true,"vac":true,"version":"7961495","steam_id":85568392924515217,"keywords":["cp","nocrits","nodmgspread","uncletopia"],"game_id":440,"stv_port":27036,"stv_name":"Uncletopia | Seattle | 3 | Stopwatch | STV","players":null},{"server_id":17,"name":"Uncletopia | San Francisco | 1 | All Maps","name_short":"sfo-1","host":"sfo-1.us.uncletopia.com","port":27015,"enabled":true,"region":"us-west","cc":"us","latitude":37.77397,"longitude":-122.4313,"reserved":0,"last_update":"0001-01-01T00:00:00Z","name_a2s":"Uncletopia | San Francisco | 1 | All Maps","protocol":17,"map":"pl_borneo","folder":"tf","game":"Team Fortress","app_id":440,"player_count":24,"max_players":24,"Bots":0,"server_type":"Dedicated","server_os":"Linux","password":true,"vac":true,"version":"7961495","steam_id":85568392924469999,"keywords":["nocrits","nodmgspread","payload","uncletopia"],"game_id":440,"stv_port":27016,"stv_name":"Uncletopia | San Francisco | 1 | All Maps | STV","players":[{"user_id":368,"name":"Phyyrin","steam_id":76561198154532657,"connected_time":792000000000,"state":"active","ping":82},{"user_id":333,"name":"Meekz","steam_id":76561198012562373,"connected_time":3691000000000,"state":"active","ping":69},{"user_id":357,"name":"SanitysEdge","steam_id":76561198130732813,"connected_time":1640000000000,"state":"active","ping":52},{"user_id":350,"name":"A_BOMB_007","steam_id":76561198121384944,"connected_time":1782000000000,"state":"active","ping":68},{"user_id":374,"name":"TheFriendlyPybro","steam_id":76561198119425604,"connected_time":312000000000,"state":"active","ping":122},{"user_id":354,"name":"merlin","steam_id":76561198334511480,"connected_time":1676000000000,"state":"active","ping":79},{"user_id":355,"name":"O","steam_id":76561198450073779,"connected_time":1673000000000,"state":"active","ping":66},{"user_id":309,"name":"Higuma","steam_id":76561198375229012,"connected_time":5799000000000,"state":"active","ping":57},{"user_id":366,"name":"Weed Dealer","steam_id":76561198418604400,"connected_time":819000000000,"state":"active","ping":71},{"user_id":362,"name":"Infinite_Time","steam_id":76561198298699368,"connected_time":1153000000000,"state":"active","ping":61},{"user_id":258,"name":"paypur -rng","steam_id":76561198214370515,"connected_time":9379000000000,"state":"active","ping":109},{"user_id":364,"name":"hardfork","steam_id":76561197960958019,"connected_time":1124000000000,"state":"active","ping":71},{"user_id":337,"name":"Lumberjane37 (She/Her)","steam_id":76561198014841793,"connected_time":3069000000000,"state":"active","ping":79},{"user_id":320,"name":"Clorox Chugger 69","steam_id":76561198049508548,"connected_time":5333000000000,"state":"active","ping":69},{"user_id":375,"name":"Maribel Hearn Gaming","steam_id":76561198063315650,"connected_time":123000000000,"state":"active","ping":81},{"user_id":367,"name":"A UsedNom","steam_id":76561198402832756,"connected_time":818000000000,"state":"active","ping":43},{"user_id":369,"name":"GlorifiedAshy","steam_id":76561198382684727,"connected_time":790000000000,"state":"active","ping":110},{"user_id":377,"name":"father esteban","steam_id":76561197989058876,"connected_time":101000000000,"state":"active","ping":79},{"user_id":378,"name":"Sad Tony","steam_id":76561198053849851,"connected_time":47000000000,"state":"active","ping":57},{"user_id":334,"name":"The Smell of Jazz","steam_id":76561198005860388,"connected_time":3615000000000,"state":"active","ping":58},{"user_id":356,"name":"Creature","steam_id":76561198194585781,"connected_time":1653000000000,"state":"active","ping":57},{"user_id":372,"name":"adolf tickler","steam_id":76561198163120788,"connected_time":749000000000,"state":"active","ping":46},{"user_id":351,"name":"b","steam_id":76561198156336213,"connected_time":1752000000000,"state":"active","ping":57},{"user_id":360,"name":"Very_Dyslexic","steam_id":76561198255310705,"connected_time":1510000000000,"state":"active","ping":73}]},{"server_id":18,"name":"Uncletopia | San Francisco | 2 | All Maps","name_short":"sfo-2","host":"sfo-1.us.uncletopia.com","port":27025,"enabled":true,"region":"us-west","cc":"us","latitude":37.77397,"longitude":-122.4313,"reserved":0,"last_update":"0001-01-01T00:00:00Z","name_a2s":"Uncletopia | San Francisco | 2 | All Maps","protocol":17,"map":"pl_thundermountain","folder":"tf","game":"Team Fortress","app_id":440,"player_count":24,"max_players":24,"Bots":0,"server_type":"Dedicated","server_os":"Linux","password":true,"vac":true,"version":"7961495","steam_id":85568392924470000,"keywords":["nocrits","nodmgspread","payload","uncletopia"],"game_id":440,"stv_port":27026,"stv_name":"Uncletopia | San Francisco | 2 | All Maps | STV","players":[{"user_id":632,"name":"AceSea","steam_id":76561198851176490,"connected_time":795000000000,"state":"active","ping":38},{"user_id":532,"name":"ratthew","steam_id":76561198418172095,"connected_time":8633000000000,"state":"active","ping":84},{"user_id":624,"name":"Swag6","steam_id":76561198064110837,"connected_time":1659000000000,"state":"active","ping":45},{"user_id":602,"name":"Im Groot","steam_id":76561198294943420,"connected_time":4195000000000,"state":"active","ping":79},{"user_id":560,"name":"Fgtfv567","steam_id":76561198071022525,"connected_time":7580000000000,"state":"active","ping":54},{"user_id":625,"name":"Ahzain","steam_id":76561198035894333,"connected_time":1471000000000,"state":"active","ping":111},{"user_id":580,"name":"Tesman James","steam_id":76561199093793428,"connected_time":5655000000000,"state":"active","ping":113},{"user_id":615,"name":"(0.0)","steam_id":76561198217747041,"connected_time":2798000000000,"state":"active","ping":52},{"user_id":603,"name":"eBay","steam_id":76561198061214569,"connected_time":4189000000000,"state":"active","ping":85},{"user_id":635,"name":"Aeris","steam_id":76561198287271028,"connected_time":448000000000,"state":"active","ping":100},{"user_id":636,"name":"ScoutBox","steam_id":76561198111539895,"connected_time":353000000000,"state":"active","ping":58},{"user_id":618,"name":"Igrium","steam_id":76561198119549811,"connected_time":2127000000000,"state":"active","ping":61},{"user_id":484,"name":"Swag5","steam_id":76561198065311356,"connected_time":12672000000000,"state":"active","ping":50},{"user_id":620,"name":"Kawi","steam_id":76561198099696751,"connected_time":2041000000000,"state":"active","ping":78},{"user_id":586,"name":"Drive-By-Fish-Guy","steam_id":76561198105513652,"connected_time":5422000000000,"state":"active","ping":73},{"user_id":639,"name":"BigJosh","steam_id":76561198024314077,"connected_time":116000000000,"state":"active","ping":60},{"user_id":623,"name":"Dooper","steam_id":76561198154514320,"connected_time":1720000000000,"state":"active","ping":82},{"user_id":540,"name":"Blanke","steam_id":76561198064100364,"connected_time":8445000000000,"state":"active","ping":115},{"user_id":612,"name":"guy who stares at GOOD players","steam_id":76561198065662025,"connected_time":3058000000000,"state":"active","ping":51},{"user_id":621,"name":"Optimore","steam_id":76561198047662990,"connected_time":2027000000000,"state":"active","ping":57},{"user_id":637,"name":"mechanicvirus","steam_id":76561198038161480,"connected_time":298000000000,"state":"active","ping":71},{"user_id":600,"name":"WillieMakit","steam_id":76561197985391684,"connected_time":4225000000000,"state":"active","ping":99},{"user_id":610,"name":"Karg","steam_id":76561198091387866,"connected_time":3184000000000,"state":"active","ping":60},{"user_id":638,"name":"mafia is mafia","steam_id":76561198042574722,"connected_time":296000000000,"state":"active","ping":71}]},{"server_id":19,"name":"Uncletopia | San Francisco | 3 | Stopwatch","name_short":"sfo-3","host":"sfo-1.us.uncletopia.com","port":27035,"enabled":true,"region":"us-west","cc":"us","latitude":37.77397,"longitude":-122.4313,"reserved":0,"last_update":"0001-01-01T00:00:00Z","name_a2s":"Uncletopia | San Francisco | 3 | Stopwatch","protocol":17,"map":"cp_sunshine","folder":"tf","game":"Team Fortress","app_id":440,"player_count":0,"max_players":24,"Bots":0,"server_type":"Dedicated","server_os":"Linux","password":true,"vac":true,"version":"7961495","steam_id":85568392924742824,"keywords":["cp","nocrits","nodmgspread","uncletopia"],"game_id":440,"stv_port":27036,"stv_name":"Uncletopia | San Francisco | 3 | Stopwatch | STV","players":null},{"server_id":20,"name":"Uncletopia | San Francisco | 4 | Community","name_short":"sfo-4","host":"sfo-1.us.uncletopia.com","port":27045,"enabled":true,"region":"us-west","cc":"us","latitude":37.77397,"longitude":-122.4313,"reserved":0,"last_update":"0001-01-01T00:00:00Z","name_a2s":"Uncletopia | San Francisco | 4 | Community","protocol":17,"map":"workshop/cp_logjam_rc12.ugc454812035","folder":"tf","game":"Team Fortress","app_id":440,"player_count":0,"max_players":24,"Bots":0,"server_type":"Dedicated","server_os":"Linux","password":true,"vac":true,"version":"7961495","steam_id":85568392924742826,"keywords":["cp","nocrits","nodmgspread","uncletopia"],"game_id":440,"stv_port":27046,"stv_name":"Uncletopia | San Francisco | 4 | Community | STV","players":null},{"server_id":141,"name":"Uncletopia | Sydney | 1 | All Maps","name_short":"syd-1","host":"syd-1.au.uncletopia.com","port":27015,"enabled":true,"region":"au","cc":"au","latitude":-33.865143,"longitude":151.2099,"reserved":0,"last_update":"0001-01-01T00:00:00Z","name_a2s":"Uncletopia | Sydney | 1 | All Maps","protocol":17,"map":"pl_frontier_final","folder":"tf","game":"Team Fortress","app_id":440,"player_count":24,"max_players":24,"Bots":0,"server_type":"Dedicated","server_os":"Linux","password":true,"vac":true,"version":"7961495","steam_id":85568392924470001,"keywords":["nocrits","nodmgspread","payload","uncletopia"],"game_id":440,"stv_port":27016,"stv_name":"Uncletopia | Sydney | 1 | All Maps | STV","players":[{"user_id":136,"name":"Das Ist Scheisse","steam_id":76561198886094239,"connected_time":296000000000,"state":"active","ping":54},{"user_id":127,"name":"♥ ca7x3","steam_id":76561198181194862,"connected_time":1011000000000,"state":"active","ping":60},{"user_id":102,"name":"horrid webbon ᘛ⁐̤ᕐᐷ","steam_id":76561198061998379,"connected_time":3610000000000,"state":"active","ping":47},{"user_id":78,"name":"Nutri-Grain Scream Team","steam_id":76561198000568803,"connected_time":5492000000000,"state":"active","ping":45},{"user_id":137,"name":"Benji","steam_id":76561198158187293,"connected_time":296000000000,"state":"active","ping":79},{"user_id":83,"name":"lavanderpumpernickle(Del Davis)","steam_id":76561199093611800,"connected_time":5351000000000,"state":"active","ping":60},{"user_id":103,"name":"Saturn-Based Hooliganism","steam_id":76561198072845816,"connected_time":3530000000000,"state":"active","ping":53},{"user_id":135,"name":"Rizeo","steam_id":76561198147901488,"connected_time":459000000000,"state":"active","ping":78},{"user_id":41,"name":"make like a tree and Keith","steam_id":76561198301282416,"connected_time":8195000000000,"state":"active","ping":50},{"user_id":108,"name":"Calsaintski","steam_id":76561199081848498,"connected_time":2969000000000,"state":"active","ping":71},{"user_id":121,"name":"Bigrichard","steam_id":76561198032092945,"connected_time":1889000000000,"state":"active","ping":88},{"user_id":118,"name":"SIRROM12 (SIRR)","steam_id":76561198116738329,"connected_time":2141000000000,"state":"active","ping":79},{"user_id":138,"name":"Defs not chopped...","steam_id":76561198420572723,"connected_time":273000000000,"state":"active","ping":83},{"user_id":124,"name":"krandlez` (Any/All)","steam_id":76561198044839726,"connected_time":1333000000000,"state":"active","ping":43},{"user_id":130,"name":"♥ valerie","steam_id":76561198111538861,"connected_time":755000000000,"state":"active","ping":78},{"user_id":122,"name":"TimTam","steam_id":76561198158862578,"connected_time":1768000000000,"state":"active","ping":71},{"user_id":61,"name":"alqwnq","steam_id":76561198133867907,"connected_time":6593000000000,"state":"active","ping":69},{"user_id":139,"name":"SavageJacky","steam_id":76561198056465430,"connected_time":55000000000,"state":"spawning","ping":281},{"user_id":131,"name":"Selling Anti-Matter for $543","steam_id":76561198070708382,"connected_time":694000000000,"state":"active","ping":48},{"user_id":68,"name":"buggybones jones","steam_id":76561198025099660,"connected_time":6056000000000,"state":"active","ping":32},{"user_id":106,"name":"cosmic girl","steam_id":76561198151087184,"connected_time":3180000000000,"state":"active","ping":43},{"user_id":128,"name":"Frank","steam_id":76561198142635376,"connected_time":1011000000000,"state":"active","ping":54},{"user_id":101,"name":"JP","steam_id":76561198026221737,"connected_time":3626000000000,"state":"active","ping":49},{"user_id":120,"name":"Jeshī","steam_id":76561198105982416,"connected_time":1952000000000,"state":"active","ping":52}]},{"server_id":123,"name":"Uncletopia | Sydney | 2 | All Maps","name_short":"syd-2","host":"syd-1.au.uncletopia.com","port":27025,"enabled":true,"region":"au","cc":"au","latitude":-33.865143,"longitude":151.2099,"reserved":0,"last_update":"0001-01-01T00:00:00Z","name_a2s":"Uncletopia | Sydney | 2 | All Maps","protocol":17,"map":"koth_lakeside_final","folder":"tf","game":"Team Fortress","app_id":440,"player_count":0,"max_players":24,"Bots":0,"server_type":"Dedicated","server_os":"Linux","password":true,"vac":true,"version":"7961495","steam_id":85568392924470002,"keywords":["cp","nocrits","nodmgspread","uncletopia"],"game_id":440,"stv_port":27026,"stv_name":"Uncletopia | Sydney | 2 | All Maps | STV","players":null},{"server_id":395,"name":"Uncletopia | Sydney | 3 | All Maps","name_short":"syd-3","host":"syd-1.au.uncletopia.com","port":27035,"enabled":true,"region":"au","cc":"au","latitude":-33.865143,"longitude":151.2099,"reserved":0,"last_update":"0001-01-01T00:00:00Z","name_a2s":"Uncletopia | Sydney | 3 | All Maps","protocol":17,"map":"koth_lakeside_final","folder":"tf","game":"Team Fortress","app_id":440,"player_count":0,"max_players":24,"Bots":0,"server_type":"Dedicated","server_os":"Linux","password":true,"vac":true,"version":"7961495","steam_id":85568392925194467,"keywords":["cp","nocrits","nodmgspread","uncletopia"],"game_id":440,"stv_port":27036,"stv_name":"Uncletopia | Sydney | 3 | All Maps | STV","players":null},{"server_id":396,"name":"Uncletopia | Sydney | 4 | All Maps","name_short":"syd-4","host":"syd-1.au.uncletopia.com","port":27045,"enabled":true,"region":"au","cc":"au","latitude":-33.865143,"longitude":151.2099,"reserved":0,"last_update":"0001-01-01T00:00:00Z","name_a2s":"Uncletopia | Sydney | 4 | All Maps","protocol":17,"map":"koth_lakeside_final","folder":"tf","game":"Team Fortress","app_id":440,"player_count":0,"max_players":24,"Bots":0,"server_type":"Dedicated","server_os":"Linux","password":true,"vac":true,"version":"7961495","steam_id":85568392925397958,"keywords":["cp","nocrits","nodmgspread","uncletopia"],"game_id":440,"stv_port":27046,"stv_name":"Uncletopia | Sydney | 4 | All Maps | STV","players":null},{"server_id":58,"name":"Uncletopia | Sydney | 5 | Stopwatch","name_short":"syd-5","host":"syd-1.au.uncletopia.com","port":27055,"enabled":true,"region":"au","cc":"au","latitude":-33.865143,"longitude":151.2099,"reserved":0,"last_update":"0001-01-01T00:00:00Z","name_a2s":"Uncletopia | Sydney | 5 | Stopwatch","protocol":17,"map":"workshop/koth_ramjam_rc1.ugc459778887","folder":"tf","game":"Team Fortress","app_id":440,"player_count":0,"max_players":24,"Bots":0,"server_type":"Dedicated","server_os":"Linux","password":true,"vac":true,"version":"7961495","steam_id":85568392925397959,"keywords":["cp","nocrits","nodmgspread","uncletopia"],"game_id":440,"stv_port":27056,"stv_name":"Uncletopia | Sydney | 5 | Stopwatch | STV","players":null},{"server_id":59,"name":"Uncletopia | Sydney | 6 | Community","name_short":"syd-6","host":"syd-1.au.uncletopia.com","port":27065,"enabled":true,"region":"au","cc":"au","latitude":-33.865143,"longitude":151.2099,"reserved":0,"last_update":"0001-01-01T00:00:00Z","name_a2s":"Uncletopia | Sydney | 6 | Community","protocol":17,"map":"workshop/rd_asteroid_redux_b1.ugc2154902912","folder":"tf","game":"Team Fortress","app_id":440,"player_count":0,"max_players":24,"Bots":0,"server_type":"Dedicated","server_os":"Linux","password":true,"vac":true,"version":"7961495","steam_id":85568392925397960,"keywords":["beta","nocrits","nodmgspread","rd","uncletopia"],"game_id":440,"stv_port":27066,"stv_name":"Uncletopia | Sydney | 6 | Community | STV","players":null},{"server_id":49,"name":"Uncletopia | Warsaw | 1 | All Maps","name_short":"waw-1","host":"waw-1.pl.uncletopia.com","port":27015,"enabled":true,"region":"eu","cc":"pl","latitude":52.2297,"longitude":21.017532,"reserved":0,"last_update":"0001-01-01T00:00:00Z","name_a2s":"Uncletopia | Warsaw | 1 | All Maps","protocol":17,"map":"koth_lakeside_final","folder":"tf","game":"Team Fortress","app_id":440,"player_count":0,"max_players":24,"Bots":0,"server_type":"Dedicated","server_os":"Linux","password":true,"vac":true,"version":"7961495","steam_id":85568392925397850,"keywords":["cp","nocrits","nodmgspread","uncletopia"],"game_id":440,"stv_port":27016,"stv_name":"Uncletopia | Warsaw | 1 | All Maps | STV","players":null},{"server_id":50,"name":"Uncletopia | Warsaw | 2 | All Maps","name_short":"waw-2","host":"waw-1.pl.uncletopia.com","port":27025,"enabled":true,"region":"eu","cc":"pl","latitude":52.2297,"longitude":21.017532,"reserved":0,"last_update":"0001-01-01T00:00:00Z","name_a2s":"Uncletopia | Warsaw | 2 | All Maps","protocol":17,"map":"pl_borneo","folder":"tf","game":"Team Fortress","app_id":440,"player_count":0,"max_players":24,"Bots":0,"server_type":"Dedicated","server_os":"Linux","password":true,"vac":true,"version":"7961495","steam_id":85568392925397851,"keywords":["nocrits","nodmgspread","payload","uncletopia"],"game_id":440,"stv_port":27026,"stv_name":"Uncletopia | Warsaw | 2 | All Maps | STV","players":null},{"server_id":51,"name":"Uncletopia | Warsaw | 3 | All Maps","name_short":"waw-3","host":"waw-1.pl.uncletopia.com","port":27035,"enabled":true,"region":"eu","cc":"pl","latitude":52.2297,"longitude":21.017532,"reserved":0,"last_update":"0001-01-01T00:00:00Z","name_a2s":"Uncletopia | Warsaw | 3 | All Maps","protocol":17,"map":"pl_barnblitz","folder":"tf","game":"Team Fortress","app_id":440,"player_count":0,"max_players":24,"Bots":0,"server_type":"Dedicated","server_os":"Linux","password":true,"vac":true,"version":"7961495","steam_id":85568392925397852,"keywords":["nocrits","nodmgspread","payload","uncletopia"],"game_id":440,"stv_port":27036,"stv_name":"Uncletopia | Warsaw | 3 | All Maps | STV","players":null},{"server_id":52,"name":"Uncletopia | Warsaw | 4 | All Maps","name_short":"waw-4","host":"waw-1.pl.uncletopia.com","port":27045,"enabled":true,"region":"eu","cc":"pl","latitude":52.2297,"longitude":21.017532,"reserved":0,"last_update":"0001-01-01T00:00:00Z","name_a2s":"Uncletopia | Warsaw | 4 | All Maps","protocol":17,"map":"pl_borneo","folder":"tf","game":"Team Fortress","app_id":440,"player_count":0,"max_players":24,"Bots":0,"server_type":"Dedicated","server_os":"Linux","password":true,"vac":true,"version":"7961495","steam_id":85568392925397853,"keywords":["nocrits","nodmgspread","payload","uncletopia"],"game_id":440,"stv_port":27046,"stv_name":"Uncletopia | Warsaw | 4 | All Maps | STV","players":null},{"server_id":53,"name":"Uncletopia | Warsaw | 5 | Stopwatch","name_short":"waw-5","host":"waw-1.pl.uncletopia.com","port":27055,"enabled":true,"region":"eu","cc":"pl","latitude":52.2297,"longitude":21.017532,"reserved":0,"last_update":"0001-01-01T00:00:00Z","name_a2s":"Uncletopia | Warsaw | 5 | Stopwatch","protocol":17,"map":"pl_barnblitz","folder":"tf","game":"Team Fortress","app_id":440,"player_count":0,"max_players":24,"Bots":0,"server_type":"Dedicated","server_os":"Linux","password":true,"vac":true,"version":"7961495","steam_id":85568392925397854,"keywords":["nocrits","nodmgspread","payload","uncletopia"],"game_id":440,"stv_port":27056,"stv_name":"Uncletopia | Warsaw | 5 | Stopwatch | STV","players":null},{"server_id":54,"name":"Uncletopia | Warsaw | 6 | Community","name_short":"waw-6","host":"waw-1.pl.uncletopia.com","port":27065,"enabled":true,"region":"eu","cc":"pl","latitude":52.2297,"longitude":21.017532,"reserved":0,"last_update":"0001-01-01T00:00:00Z","name_a2s":"Uncletopia | Warsaw | 6 | Community","protocol":17,"map":"cp_altitude","folder":"tf","game":"Team Fortress","app_id":440,"player_count":0,"max_players":24,"Bots":0,"server_type":"Dedicated","server_os":"Linux","password":true,"vac":true,"version":"7961495","steam_id":85568392925397856,"keywords":["cp","nocrits","nodmgspread","uncletopia"],"game_id":440,"stv_port":27066,"stv_name":"Uncletopia | Warsaw | 6 | Community | STV","players":null}]}