{"status":true,"message":"","result":[{"server_id":9,"name":"Uncletopia | Atlanta | 1 | All Maps","name_short":"atl-1","host":"atl-1.us.uncletopia.com","port":27015,"enabled":true,"region":"us-east","cc":"us","latitude":33.753746,"longitude":-84.38633,"reserved":0,"last_update":"0001-01-01T00:00:00Z","name_a2s":"Uncletopia | Atlanta | 1 | All Maps","protocol":17,"map":"koth_lakeside_final","folder":"tf","game":"Team Fortress","app_id":440,"player_count":0,"max_players":24,"Bots":0,"server_type":"Dedicated","server_os":"Linux","password":true,"vac":true,"version":"7708610","steam_id":85568392924469982,"keywords":["cp","nocrits","nodmgspread","uncletopia"],"game_id":440,"stv_port":27016,"stv_name":"Uncletopia | Atlanta | 1 | All Maps | STV","players":null},{"server_id":400,"name":"Uncletopia | Atlanta | 3 | All Maps","name_short":"atl-3","host":"atl-1.us.uncletopia.com","port":27035,"enabled":true,"region":"us-east","cc":"us","latitude":33.753746,"longitude":-84.38633,"reserved":0,"last_update":"0001-01-01T00:00:00Z","name_a2s":"Uncletopia | Atlanta | 3 | All Maps","protocol":17,"map":"cp_snakewater_final1","folder":"tf","game":"Team Fortress","app_id":440,"player_count":22,"max_players":24,"Bots":0,"server_type":"Dedicated","server_os":"Linux","password":true,"vac":true,"version":"7708610","steam_id":85568392924515187,"keywords":["cp","nocrits","nodmgspread","uncletopia"],"game_id":440,"stv_port":27036,"stv_name":"Uncletopia | Atlanta | 3 | All Maps | STV","players":[{"user_id":702,"name":"¬°ayudame!","steam_id":76561198071421094,"connected_time":628000000000,"state":"active","ping":80},{"user_id":673,"name":"dog","steam_id":76561198263873491,"connected_time":1996000000000,"state":"active","ping":67},{"user_id":711,"name":"Anhkrehg","steam_id":76561197963201684,"connected_time":197000000000,"state":"active","ping":102},{"user_id":696,"name":"No Toast ( ¬∞‚ñ°¬∞Ôºâ Ô∏µ","steam_id":76561198062452835,"connected_time":1235000000000,"state":"active","ping":65},{"user_id":685,"name":"Samuel","steam_id":76561198045652639,"connected_time":1668000000000,"state":"active","ping":118},{"user_id":687,"name":"Smuggs","steam_id":76561197999456003,"connected_time":1632000000000,"state":"active","ping":130},{"user_id":558,"name":"Spoonastic","steam_id":76561198343838009,"connected_time":12995000000000,"state":"active","ping":115},{"user_id":708,"name":"Dingoid","steam_id":76561198065665995,"connected_time":250000000000,"state":"active","ping":81},{"user_id":703,"name":"st4rwave","steam_id":76561198092050894,"connected_time":621000000000,"state":"active","ping":89},{"user_id":694,"name":"machete mechanic","steam_id":76561198830293087,"connected_time":1441000000000,"state":"active","ping":63},{"user_id":699,"name":"ryan","steam_id":76561198083851689,"connected_time":1123000000000,"state":"active","ping":50},{"user_id":693,"name":"what'd you say","steam_id":76561198284992433,"connected_time":1490000000000,"state":"active","ping":61},{"user_id":688,"name":"Seayon","steam_id":76561198151688517,"connected_time":1630000000000,"state":"active","ping":69},{"user_id":705,"name":"Collin","steam_id":76561198341399913,"connected_time":427000000000,"state":"active","ping":58},{"user_id":697,"name":"maArk","steam_id":76561198200380143,"connected_time":1229000000000,"state":"active","ping":141},{"user_id":689,"name":"Wso1123","steam_id":76561198048040111,"connected_time":1629000000000,"state":"active","ping":104},{"user_id":700,"name":"sam","steam_id":76561198088504281,"connected_time":833000000000,"state":"active","ping":74},{"user_id":710,"name":"Chesh","steam_id":76561197990316722,"connected_time":211000000000,"state":"active","ping":70},{"user_id":698,"name":"akirajimbo","steam_id":76561197979960008,"connected_time":1164000000000,"state":"active","ping":78},{"user_id":491,"name":"A Puppy","steam_id":76561198828184456,"connected_time":18450000000000,"state":"active","ping":56},{"user_id":646,"name":"coolkid #sextf2","steam_id":76561198072600034,"connected_time":4402000000000,"state":"active","ping":97},{"user_id":683,"name":"shelz0r","steam_id":76561198002195754,"connected_time":1709000000000,"state":"active","ping":102}]},{"server_id":401,"name":"Uncletopia | Atlanta | 4 | No Payload","name_short":"atl-4","host":"atl-1.us.uncletopia.com","port":27045,"enabled":true,"region":"us-east","cc":"us","latitude":33.753746,"longitude":-84.38633,"reserved":0,"last_update":"0001-01-01T00:00:00Z","name_a2s":"Uncletopia | Atlanta | 4 | No Payload","protocol":17,"map":"ctf_well","folder":"tf","game":"Team Fortress","app_id":440,"player_count":0,"max_players":24,"Bots":0,"server_type":"Dedicated","server_os":"Linux","password":true,"vac":true,"version":"7708610","steam_id":85568392924515188,"keywords":["ctf","nocrits","nodmgspread","uncletopia"],"game_id":440,"stv_port":27046,"stv_name":"Uncletopia | Atlanta | 4 | No Payload | STV","players":null},{"server_id":2,"name":"Uncletopia | Chicago | 1 | All Maps","name_short":"chi-1","host":"chi-1.us.uncletopia.com","port":27015,"enabled":true,"region":"us-central","cc":"us","latitude":41.881832,"longitude":-87.62318,"reserved":0,"last_update":"0001-01-01T00:00:00Z","name_a2s":"Uncletopia | Chicago | 1 | All Maps","protocol":17,"map":"cp_altitude","folder":"tf","game":"Team Fortress","app_id":440,"player_count":18,"max_players":24,"Bots":0,"server_type":"Dedicated","server_os":"Linux","password":true,"vac":true,"version":"7708610","steam_id":85568392924469984,"keywords":["cp","nocrits","nodmgspread","uncletopia"],"game_id":440,"stv_port":27016,"stv_name":"Uncletopia | Chicago | 1 | All Maps | STV","players":[{"user_id":747,"name":"rtd user","steam_id":76561198163977665,"connected_time":571000000000,"state":"active","ping":75},{"user_id":757,"name":"Ziggy","steam_id":76561198086751319,"connected_time":134000000000,"state":"active","ping":80},{"user_id":749,"name":"Howoriginal","steam_id":76561197993701184,"connected_time":495000000000,"state":"active","ping":52},{"user_id":751,"name":"8Z","steam_id":76561198027025876,"connected_time":480000000000,"state":"active","ping":83},{"user_id":742,"name":"totally not a pile of beans","steam_id":76561198119851931,"connected_time":1147000000000,"state":"active","ping":74},{"user_id":762,"name":"Cliff Gremlin","steam_id":76561198409907417,"connected_time":73000000000,"state":"active","ping":95},{"user_id":758,"name":"ROGUE-PLANET","steam_id":76561198116023052,"connected_time":124000000000,"state":"active","ping":76},{"user_id":725,"name":"John Darksoul","steam_id":76561198031675881,"connected_time":2142000000000,"state":"active","ping":47},{"user_id":723,"name":"Jousty","steam_id":76561199162677853,"connected_time":2182000000000,"state":"active","ping":86},{"user_id":756,"name":"Shpadukin","steam_id":76561198160248914,"connected_time":223000000000,"state":"active","ping":90},{"user_id":689,"name":"Legion","steam_id":76561199036242643,"connected_time":4833000000000,"state":"active","ping":64},{"user_id":713,"name":"Bard","steam_id":76561199095024038,"connected_time":2748000000000,"state":"active","ping":147},{"user_id":726,"name":"tokemaster69","steam_id":76561198083996924,"connected_time":2137000000000,"state":"active","ping":65},{"user_id":741,"name":"Koishi","steam_id":76561198054541054,"connected_time":1233000000000,"state":"active","ping":56},{"user_id":759,"name":"wa","steam_id":76561198012945016,"connected_time":106000000000,"state":"active","ping":53},{"user_id":734,"name":"CANDICE","steam_id":76561198208496036,"connected_time":1769000000000,"state":"active","ping":75},{"user_id":642,"name":"TaiDni","steam_id":76561198087750392,"connected_time":10374000000000,"state":"active","ping":141},{"user_id":743,"name":"ATL1 | J O V A","steam_id":76561198090333536,"connected_time":1020000000000,"state":"active","ping":75}]},{"server_id":106,"name":"Uncletopia | Chicago | 2 | All Maps","name_short":"chi-2","host":"chi-1.us.uncletopia.com","port":27025,"enabled":true,"region":"us-central","cc":"us","latitude":41.881832,"longitude":-87.62318,"reserved":0,"last_update":"0001-01-01T00:00:00Z","name_a2s":"Uncletopia | Chicago | 2 | All Maps","protocol":17,"map":"pl_snowycoast","folder":"tf","game":"Team Fortress","app_id":440,"player_count":23,"max_players":24,"Bots":0,"server_type":"Dedicated","server_os":"Linux","password":true,"vac":true,"version":"7708610","steam_id":85568392924469985,"keywords":["nocrits","nodmgspread","payload","uncletopia"],"game_id":440,"stv_port":27026,"stv_name":"Uncletopia | Chicago | 2 | All Maps | STV","players":[{"user_id":602,"name":"OrangeShoes","steam_id":76561197971249940,"connected_time":500000000000,"state":"active","ping":73},{"user_id":592,"name":"Lore","steam_id":76561198098407538,"connected_time":1086000000000,"state":"active","ping":49},{"user_id":570,"name":"a garbage can","steam_id":76561198403626105,"connected_time":3263000000000,"state":"active","ping":47},{"user_id":591,"name":"Papa Squat","steam_id":76561198045011208,"connected_time":1192000000000,"state":"active","ping":71},{"user_id":598,"name":"pandora da king","steam_id":76561198075490385,"connected_time":955000000000,"state":"active","ping":101},{"user_id":579,"name":"‚ä∞Aero‚ä±","steam_id":76561198084648457,"connected_time":2891000000000,"state":"active","ping":62},{"user_id":599,"name":"jello","steam_id":76561198094320477,"connected_time":951000000000,"state":"active","ping":76},{"user_id":580,"name":"DJ Screw Enjoyer","steam_id":76561198026393621,"connected_time":2878000000000,"state":"active","ping":82},{"user_id":595,"name":"GuyGoom","steam_id":76561198254522178,"connected_time":1082000000000,"state":"active","ping":54},{"user_id":561,"name":"$$$","steam_id":76561198218897541,"connected_time":4525000000000,"state":"active","ping":64},{"user_id":530,"name":"ailee","steam_id":76561198284326069,"connected_time":8160000000000,"state":"active","ping":56},{"user_id":292,"name":"brappy","steam_id":76561198024958319,"connected_time":26750000000000,"state":"active","ping":57},{"user_id":574,"name":"manslaughter","steam_id":76561198257531708,"connected_time":3153000000000,"state":"active","ping":58},{"user_id":590,"name":"Donk x2","steam_id":76561198406895347,"connected_time":1407000000000,"state":"active","ping":67},{"user_id":585,"name":"Xmas Xtar","steam_id":76561198301774048,"connected_time":2289000000000,"state":"active","ping":112},{"user_id":586,"name":"ClericsRose","steam_id":76561198011013806,"connected_time":2275000000000,"state":"active","ping":78},{"user_id":603,"name":"DustBowl TF2","steam_id":76561199171572966,"connected_time":472000000000,"state":"active","ping":38},{"user_id":589,"name":"RichardV","steam_id":76561197985772809,"connected_time":1767000000000,"state":"active","ping":56},{"user_id":605,"name":"‚ù§ Ashley ‚ù§","steam_id":76561198056428303,"connected_time":149000000000,"state":"active","ping":105},{"user_id":596,"name":"Sicko Mode (Chris Pratt Cover)","steam_id":76561198315786174,"connected_time":1046000000000,"state":"active","ping":69},{"user_id":545,"name":"King Cotton","steam_id":76561198292444376,"connected_time":5820000000000,"state":"active","ping":82},{"user_id":575,"name":"manicure","steam_id":76561198255308126,"connected_time":3131000000000,"state":"active","ping":75},{"user_id":597,"name":"majo","steam_id":76561199443511982,"connected_time":1046000000000,"state":"active","ping":68}]},{"server_id":402,"name":"Uncletopia | Chicago | 3 | All Maps","name_short":"chi-3","host":"chi-1.us.uncletopia.com","port":27035,"enabled":true,"region":"us-central","cc":"us","latitude":41.881832,"longitude":-87.62318,"reserved":0,"last_update":"0001-01-01T00:00:00Z","name_a2s":"Uncletopia | Chicago | 3 | All Maps","protocol":17,"map":"cp_altitude","folder":"tf","game":"Team Fortress","app_id":440,"player_count":0,"max_players":24,"Bots":0,"server_type":"Dedicated","server_os":"Linux","password":true,"vac":true,"version":"7708610","steam_id":85568392924515191,"keywords":["cp","nocrits","nodmgspread","uncletopia"],"game_id":440,"stv_port":27036,"stv_name":"Uncletopia | Chicago | 3 | All Maps | STV","players":null},{"server_id":403,"name":"Uncletopia | Chicago | 4 | All Maps","name_short":"chi-4","host":"chi-1.us.uncletopia.com","port":27045,"enabled":true,"region":"us-central","cc":"us","latitude":41.881832,"longitude":-87.62318,"reserved":0,"last_update":"0001-01-01T00:00:00Z","name_a2s":"Uncletopia | Chicago | 4 | All Maps","protocol":17,"map":"pl_frontier_final","folder":"tf","game":"Team Fortress","app_id":440,"player_count":24,"max_players":24,"Bots":0,"server_type":"Dedicated","server_os":"Linux","password":true,"vac":true,"version":"7708610","steam_id":85568392924515193,"keywords":["nocrits","nodmgspread","payload","uncletopia"],"game_id":440,"stv_port":27046,"stv_name":"Uncletopia | Chicago | 4 | All Maps | STV","players":[{"user_id":581,"name":"Xx_True gamer_xX","steam_id":76561199210541615,"connected_time":1695000000000,"state":"active","ping":76},{"user_id":598,"name":"TomosconesYT","steam_id":76561198813586588,"connected_time":969000000000,"state":"active","ping":108},{"user_id":616,"name":"Artic_Ryuu","steam_id":76561198182194918,"connected_time":108000000000,"state":"active","ping":91},{"user_id":614,"name":"Knightshade","steam_id":76561198047225393,"connected_time":158000000000,"state":"active","ping":63},{"user_id":569,"name":"deltuh","steam_id":76561198121067719,"connected_time":2336000000000,"state":"active","ping":56},{"user_id":575,"name":"Cooldogjoe","steam_id":76561198105543698,"connected_time":1973000000000,"state":"active","ping":53},{"user_id":570,"name":"OrionKid","steam_id":76561198359094901,"connected_time":2253000000000,"state":"active","ping":80},{"user_id":573,"name":"Incredible Donk","steam_id":76561198427360423,"connected_time":2061000000000,"state":"active","ping":99},{"user_id":571,"name":"Eshie","steam_id":76561197983106498,"connected_time":2228000000000,"state":"active","ping":67},{"user_id":584,"name":"John","steam_id":76561198070700732,"connected_time":1564000000000,"state":"active","ping":95},{"user_id":611,"name":"Slug Warrior","steam_id":76561197996052704,"connected_time":417000000000,"state":"active","ping":77},{"user_id":588,"name":"TAQ","steam_id":76561198127818784,"connected_time":1428000000000,"state":"active","ping":87},{"user_id":615,"name":"gimme benzos","steam_id":76561199223514262,"connected_time":126000000000,"state":"active","ping":74},{"user_id":617,"name":"Triarii","steam_id":76561198058383303,"connected_time":107000000000,"state":"active","ping":58},{"user_id":585,"name":"Ripley","steam_id":76561198080766916,"connected_time":1519000000000,"state":"active","ping":66},{"user_id":586,"name":"Festive Joe","steam_id":76561198271907916,"connected_time":1495000000000,"state":"active","ping":56},{"user_id":587,"name":"Nebularized","steam_id":76561199232647775,"connected_time":1445000000000,"state":"active","ping":91},{"user_id":589,"name":"Medeev","steam_id":76561198165381710,"connected_time":1399000000000,"state":"active","ping":66},{"user_id":599,"name":"mommy claus","steam_id":76561199230929836,"connected_time":832000000000,"state":"active","ping":75},{"user_id":613,"name":"Cthuwu","steam_id":76561198272014414,"connected_time":271000000000,"state":"active","ping":70},{"user_id":609,"name":"BIG HOG","steam_id":76561198079923652,"connected_time":714000000000,"state":"active","ping":79},{"user_id":593,"name":"Uber","steam_id":76561198139793532,"connected_time":1353000000000,"state":"active","ping":61},{"user_id":610,"name":"The Creature From The Abyss","steam_id":76561198129044043,"connected_time":638000000000,"state":"active","ping":65},{"user_id":612,"name":":]","steam_id":76561198018947778,"connected_time":375000000000,"state":"active","ping":106}]},{"server_id":36,"name":"Uncletopia | Chicago | 5 | All Maps","name_short":"chi-5","host":"chi-2.us.uncletopia.com","port":27015,"enabled":true,"region":"us-central","cc":"us","latitude":41.881832,"longitude":-87.62318,"reserved":0,"last_update":"0001-01-01T00:00:00Z","name_a2s":"Uncletopia | Chicago | 5 | All Maps","protocol":17,"map":"pl_frontier_final","folder":"tf","game":"Team Fortress","app_id":440,"player_count":24,"max_players":24,"Bots":0,"server_type":"Dedicated","server_os":"Linux","password":true,"vac":true,"version":"7708610","steam_id":85568392924866362,"keywords":["nocrits","nodmgspread","payload","uncletopia"],"game_id":440,"stv_port":27016,"stv_name":"Uncletopia | Chicago | 5 | All Maps | STV","players":[{"user_id":371,"name":"Fantastic","steam_id":76561198079088978,"connected_time":919000000000,"state":"active","ping":45},{"user_id":256,"name":"Pi Guy","steam_id":76561199071784224,"connected_time":11689000000000,"state":"active","ping":64},{"user_id":384,"name":"zzz","steam_id":76561198351895498,"connected_time":156000000000,"state":"active","ping":62},{"user_id":381,"name":"The Animated Gamer","steam_id":76561198120639995,"connected_time":613000000000,"state":"active","ping":130},{"user_id":358,"name":"raduski","steam_id":76561198795699119,"connected_time":1111000000000,"state":"active","ping":89},{"user_id":379,"name":"The Super Mario Bros. Movie","steam_id":76561198871692156,"connected_time":645000000000,"state":"active","ping":101},{"user_id":294,"name":"Zigadox","steam_id":76561198079813479,"connected_time":7615000000000,"state":"active","ping":80},{"user_id":383,"name":"Antonio Molonio","steam_id":76561198038929334,"connected_time":393000000000,"state":"active","ping":60},{"user_id":372,"name":"MFB","steam_id":76561198170923095,"connected_time":884000000000,"state":"active","ping":68},{"user_id":374,"name":"DavidBowiesPackage","steam_id":76561198148729253,"connected_time":858000000000,"state":"active","ping":84},{"user_id":368,"name":"Boggerung","steam_id":76561198111417325,"connected_time":1004000000000,"state":"active","ping":57},{"user_id":360,"name":"Belloq","steam_id":76561198060279052,"connected_time":1090000000000,"state":"active","ping":50},{"user_id":373,"name":"Yeshie the Dragon Layer","steam_id":76561198080214214,"connected_time":884000000000,"state":"active","ping":38},{"user_id":356,"name":"AnalConquest666","steam_id":76561198218558897,"connected_time":1351000000000,"state":"active","ping":135},{"user_id":361,"name":"Pourpel","steam_id":76561198059125470,"connected_time":1087000000000,"state":"active","ping":71},{"user_id":362,"name":"maniacalcoast0","steam_id":76561198982540746,"connected_time":1086000000000,"state":"active","ping":76},{"user_id":366,"name":"yo-yo","steam_id":76561198163450048,"connected_time":1031000000000,"state":"active","ping":66},{"user_id":367,"name":"Im Just A Lost Chicken","steam_id":76561198393764807,"connected_time":1021000000000,"state":"active","ping":62},{"user_id":363,"name":"herb","steam_id":76561198185980055,"connected_time":1078000000000,"state":"active","ping":60},{"user_id":378,"name":"Jazz2T","steam_id":76561198154418867,"connected_time":696000000000,"state":"active","ping":101},{"user_id":347,"name":"Aspxts","steam_id":76561199125254746,"connected_time":2246000000000,"state":"active","ping":59},{"user_id":345,"name":"-=Bits=-Dinkleberg","steam_id":76561198080367616,"connected_time":2736000000000,"state":"active","ping":82},{"user_id":364,"name":"Missing Minus","steam_id":76561198120822928,"connected_time":1070000000000,"state":"active","ping":66},{"user_id":350,"name":"Sleepy Brady","steam_id":76561198867378129,"connected_time":2104000000000,"state":"active","ping":70}]},{"server_id":37,"name":"Uncletopia | Chicago | 6 | All Maps","name_short":"chi-6","host":"chi-2.us.uncletopia.com","port":27025,"enabled":true,"region":"us-central","cc":"us","latitude":41.881832,"longitude":-87.62318,"reserved":0,"last_update":"0001-01-01T00:00:00Z","name_a2s":"Uncletopia | Chicago | 6 | All Maps","protocol":17,"map":"pl_badwater","folder":"tf","game":"Team Fortress","app_id":440,"player_count":7,"max_players":24,"Bots":0,"server_type":"Dedicated","server_os":"Linux","password":true,"vac":true,"version":"7708610","steam_id":85568392924866363,"keywords":["nocrits","nodmgspread","payload","uncletopia"],"game_id":440,"stv_port":27026,"stv_name":"Uncletopia | Chicago | 6 | All Maps | STV","players":[{"user_id":328,"name":"Quick-Fix Fan","steam_id":76561198872845740,"connected_time":100000000000,"state":"active","ping":69},{"user_id":271,"name":"d","steam_id":76561199107117533,"connected_time":3556000000000,"state":"active","ping":45},{"user_id":282,"name":"Sock Monkey Palooza","steam_id":76561198049483143,"connected_time":3039000000000,"state":"active","ping":88},{"user_id":329,"name":"Wutville Enjoyer","steam_id":76561199174579733,"connected_time":82000000000,"state":"active","ping":325},{"user_id":283,"name":"methanar/brandon","steam_id":76561198049489349,"connected_time":2944000000000,"state":"active","ping":98},{"user_id":316,"name":"Spare(8)Ball","steam_id":76561197982432995,"connected_time":1145000000000,"state":"active","ping":96},{"user_id":292,"name":"sour gummy lesbian :)","steam_id":76561198036358709,"connected_time":2029000000000,"state":"active","ping":94}]},{"server_id":38,"name":"Uncletopia | Chicago | 7 | No Payload","name_short":"chi-7","host":"chi-2.us.uncletopia.com","port":27035,"enabled":true,"region":"us-central","cc":"us","latitude":41.881832,"longitude":-87.62318,"reserved":0,"last_update":"0001-01-01T00:00:00Z","name_a2s":"Uncletopia | Chicago | 7 | No Payload","protocol":17,"map":"koth_lazarus","folder":"tf","game":"Team Fortress","app_id":440,"player_count":0,"max_players":24,"Bots":0,"server_type":"Dedicated","server_os":"Linux","password":true,"vac":true,"version":"7708610","steam_id":85568392924866364,"keywords":["cp","nocrits","nodmgspread","uncletopia"],"game_id":440,"stv_port":27036,"stv_name":"Uncletopia | Chicago | 7 | No Payload | STV","players":null},{"server_id":39,"name":"Uncletopia | Chicago | 8 | Community","name_short":"chi-8","host":"chi-2.us.uncletopia.com","port":27045,"enabled":true,"region":"us-central","cc":"us","latitude":41.881832,"longitude":-87.62318,"reserved":0,"last_update":"0001-01-01T00:00:00Z","name_a2s":"Uncletopia | Chicago | 8 | Community","protocol":17,"map":"workshop/koth_bagel_rc5.ugc2514036946","folder":"tf","game":"Team Fortress","app_id":440,"player_count":0,"max_players":24,"Bots":0,"server_type":"Dedicated","server_os":"Linux","password":true,"vac":true,"version":"7708610","steam_id":85568392924866365,"keywords":["cp","nocrits","nodmgspread","uncletopia"],"game_id":440,"stv_port":27046,"stv_name":"Uncletopia | Chicago | 8 | Community | STV","players":null},{"server_id":8,"name":"Uncletopia | Dallas | 1 | All Maps","name_short":"dal-1","host":"dal-1.us.uncletopia.com","port":27015,"enabled":true,"region":"us-central","cc":"us","latitude":32.779167,"longitude":-96.80889,"reserved":0,"last_update":"0001-01-01T00:00:00Z","name_a2s":"Uncletopia | Dallas | 1 | All Maps","protocol":17,"map":"cp_dustbowl","folder":"tf","game":"Team Fortress","app_id":440,"player_count":24,"max_players":24,"Bots":0,"server_type":"Dedicated","server_os":"Linux","password":true,"vac":true,"version":"7708610","steam_id":85568392924469986,"keywords":["cp","nocrits","nodmgspread","uncletopia"],"game_id":440,"stv_port":27016,"stv_name":"Uncletopia | Dallas | 1 | All Maps | STV","players":[{"user_id":751,"name":"SDiamond29","steam_id":76561198439665901,"connected_time":2121000000000,"state":"active","ping":93},{"user_id":684,"name":"KORF","steam_id":76561197981904410,"connected_time":8449000000000,"state":"active","ping":76},{"user_id":754,"name":"supcupman","steam_id":76561198051513866,"connected_time":2114000000000,"state":"active","ping":96},{"user_id":743,"name":"Pinetree w/ apples.","steam_id":76561198105411709,"connected_time":3112000000000,"state":"active","ping":100},{"user_id":682,"name":"r0ck","steam_id":76561198141716764,"connected_time":8533000000000,"state":"active","ping":88},{"user_id":774,"name":"NeoN‚Ñ¢","steam_id":76561198117608366,"connected_time":592000000000,"state":"active","ping":79},{"user_id":727,"name":"SpinnerSpecial","steam_id":76561198065661869,"connected_time":4286000000000,"state":"active","ping":104},{"user_id":562,"name":"dobby","steam_id":76561198012274834,"connected_time":16303000000000,"state":"active","ping":63},{"user_id":768,"name":"üê∫-Iwky-ü¶ä","steam_id":76561198185616311,"connected_time":902000000000,"state":"active","ping":57},{"user_id":766,"name":"Huge","steam_id":76561199030987614,"connected_time":1726000000000,"state":"active","ping":116},{"user_id":758,"name":"DrD","steam_id":76561198067266383,"connected_time":1992000000000,"state":"active","ping":79},{"user_id":753,"name":"backwards shitter sitter","steam_id":76561198021308963,"connected_time":2117000000000,"state":"active","ping":68},{"user_id":712,"name":"Skelebob","steam_id":76561198880649335,"connected_time":5090000000000,"state":"active","ping":69},{"user_id":674,"name":"meh","steam_id":76561198136808129,"connected_time":9003000000000,"state":"active","ping":70},{"user_id":767,"name":"stump","steam_id":76561198012653832,"connected_time":1087000000000,"state":"active","ping":76},{"user_id":769,"name":"BlueRikoroo","steam_id":76561198031865740,"connected_time":748000000000,"state":"active","ping":57},{"user_id":770,"name":"root","steam_id":76561198001727518,"connected_time":709000000000,"state":"active","ping":90},{"user_id":772,"name":"NT9V","steam_id":76561198047118166,"connected_time":684000000000,"state":"active","ping":88},{"user_id":672,"name":"broc","steam_id":76561199161322235,"connected_time":9089000000000,"state":"active","ping":61},{"user_id":734,"name":"Batso","steam_id":76561198106589452,"connected_time":3928000000000,"state":"active","ping":78},{"user_id":762,"name":"BLOOD !","steam_id":76561198004400850,"connected_time":1875000000000,"state":"active","ping":46},{"user_id":763,"name":"Snakeye3490","steam_id":76561198197060503,"connected_time":1870000000000,"state":"active","ping":51},{"user_id":765,"name":"GarretGood","steam_id":76561198071881495,"connected_time":1832000000000,"state":"active","ping":80},{"user_id":773,"name":"BRK.","steam_id":76561198079634017,"connected_time":668000000000,"state":"active","ping":72}]},{"server_id":108,"name":"Uncletopia | Dallas | 2 | All Maps","name_short":"dal-2","host":"dal-1.us.uncletopia.com","port":27025,"enabled":true,"region":"us-central","cc":"us","latitude":32.779167,"longitude":-96.80889,"reserved":0,"last_update":"0001-01-01T00:00:00Z","name_a2s":"Uncletopia | Dallas | 2 | All Maps","protocol":17,"map":"cp_egypt_final","folder":"tf","game":"Team Fortress","app_id":440,"player_count":18,"max_players":24,"Bots":0,"server_type":"Dedicated","server_os":"Linux","password":true,"vac":true,"version":"7708610","steam_id":85568392924469988,"keywords":["cp","nocrits","nodmgspread","uncletopia"],"game_id":440,"stv_port":27026,"stv_name":"Uncletopia | Dallas | 2 | All Maps | STV","players":[{"user_id":608,"name":"YCheck137","steam_id":76561198099444879,"connected_time":727000000000,"state":"active","ping":89},{"user_id":607,"name":"Discovery","steam_id":76561198841844093,"connected_time":811000000000,"state":"active","ping":75},{"user_id":525,"name":"ultra","steam_id":76561198327686189,"connected_time":7580000000000,"state":"active","ping":43},{"user_id":424,"name":"[K.Y.L.L.]Drone #0432 (they/it)","steam_id":76561198027321950,"connected_time":13500000000000,"state":"active","ping":90},{"user_id":594,"name":"CreativeUsername","steam_id":76561198186045503,"connected_time":1576000000000,"state":"active","ping":75},{"user_id":595,"name":"Satori Komeiji","steam_id":76561198158211423,"connected_time":1397000000000,"state":"active","ping":63},{"user_id":609,"name":"‚ôî Regular Tetragon","steam_id":76561198040366189,"connected_time":718000000000,"state":"active","ping":96},{"user_id":606,"name":"BrendenMad","steam_id":76561198031250581,"connected_time":937000000000,"state":"active","ping":60},{"user_id":600,"name":"Stillkill","steam_id":76561198065069057,"connected_time":1300000000000,"state":"active","ping":33},{"user_id":610,"name":"Wubslin","steam_id":76561198035864057,"connected_time":713000000000,"state":"active","ping":75},{"user_id":611,"name":"Jean Supreme","steam_id":76561198041024577,"connected_time":710000000000,"state":"active","ping":107},{"user_id":586,"name":"PoltergussyLordoftheAsstralVoid","steam_id":76561199195004708,"connected_time":2632000000000,"state":"active","ping":76},{"user_id":615,"name":"Sugercrash","steam_id":76561199187685119,"connected_time":198000000000,"state":"active","ping":70},{"user_id":601,"name":"Gelliterate","steam_id":76561198107233070,"connected_time":1299000000000,"state":"active","ping":45},{"user_id":613,"name":"SPOON MAN","steam_id":76561199028500370,"connected_time":528000000000,"state":"active","ping":80},{"user_id":531,"name":"A Can of Arizona Green Tea","steam_id":76561198062481133,"connected_time":7049000000000,"state":"active","ping":71},{"user_id":614,"name":"facade","steam_id":76561199157009256,"connected_time":325000000000,"state":"active","ping":75},{"user_id":604,"name":"GusyPls","steam_id":76561198058423925,"connected_time":1135000000000,"state":"active","ping":72}]},{"server_id":5,"name":"Uncletopia | Frankfurt | 1 | All Maps","name_short":"frk-1","host":"frk-1.de.uncletopia.com","port":27015,"enabled":true,"region":"eu","cc":"de","latitude":50.110924,"longitude":8.682127,"reserved":0,"last_update":"0001-01-01T00:00:00Z","name_a2s":"Uncletopia | Frankfurt | 1 | All Maps","protocol":17,"map":"pl_swiftwater_final1","folder":"tf","game":"Team Fortress","app_id":440,"player_count":0,"max_players":24,"Bots":0,"server_type":"Dedicated","server_os":"Linux","password":true,"vac":true,"version":"7708610","steam_id":85568392924469989,"keywords":["nocrits","nodmgspread","payload","uncletopia"],"game_id":440,"stv_port":27016,"stv_name":"Uncletopia | Frankfurt | 1 | All Maps | STV","players":null},{"server_id":110,"name":"Uncletopia | Frankfurt | 2 | All Maps","name_short":"frk-2","host":"frk-1.de.uncletopia.com","port":27025,"enabled":true,"region":"eu","cc":"de","latitude":50.110924,"longitude":8.682127,"reserved":0,"last_update":"0001-01-01T00:00:00Z","name_a2s":"Uncletopia | Frankfurt | 2 | All Maps","protocol":17,"map":"pl_pier","folder":"tf","game":"Team Fortress","app_id":440,"player_count":0,"max_players":24,"Bots":0,"server_type":"Dedicated","server_os":"Linux","password":true,"vac":true,"version":"7708610","steam_id":85568392924469990,"keywords":["nocrits","nodmgspread","payload","uncletopia"],"game_id":440,"stv_port":0,"stv_name":"","players":null},{"server_id":308,"name":"Uncletopia | Frankfurt | 3 | All Maps","name_short":"frk-3","host":"frk-1.de.uncletopia.com","port":27035,"enabled":true,"region":"eu","cc":"de","latitude":50.110924,"longitude":8.682127,"reserved":0,"last_update":"0001-01-01T00:00:00Z","name_a2s":"Uncletopia | Frankfurt | 3 | All Maps","protocol":17,"map":"koth_cascade","folder":"tf","game":"Team Fortress","app_id":440,"player_count":0,"max_players":24,"Bots":0,"server_type":"Dedicated","server_os":"Linux","password":true,"vac":true,"version":"7708610","steam_id":85568392924504274,"keywords":["cp","nocrits","nodmgspread","uncletopia"],"game_id":440,"stv_port":0,"stv_name":"","players":null},{"server_id":309,"name":"Uncletopia | Frankfurt | 4 | All Maps","name_short":"frk-4","host":"frk-1.de.uncletopia.com","port":27045,"enabled":true,"region":"eu","cc":"de","latitude":50.110924,"longitude":8.682127,"reserved":0,"last_update":"0001-01-01T00:00:00Z","name_a2s":"Uncletopia | Frankfurt | 4 | All Maps","protocol":17,"map":"pl_swiftwater_final1","folder":"tf","game":"Team Fortress","app_id":440,"player_count":0,"max_players":24,"Bots":0,"server_type":"Dedicated","server_os":"Linux","password":true,"vac":true,"version":"7708610","steam_id":85568392924504275,"keywords":["nocrits","nodmgspread","payload","uncletopia"],"game_id":440,"stv_port":0,"stv_name":"","players":null},{"server_id":310,"name":"Uncletopia | Frankfurt | 5 | All Maps","name_short":"frk-5","host":"frk-1.de.uncletopia.com","port":27055,"enabled":true,"region":"eu","cc":"de","latitude":50.110924,"longitude":8.682127,"reserved":0,"last_update":"0001-01-01T00:00:00Z","name_a2s":"Uncletopia | Frankfurt | 5 | All Maps","protocol":17,"map":"koth_cascade","folder":"tf","game":"Team Fortress","app_id":440,"player_count":0,"max_players":24,"Bots":0,"server_type":"Dedicated","server_os":"Linux","password":true,"vac":true,"version":"7708610","steam_id":85568392924504277,"keywords":["cp","nocrits","nodmgspread","uncletopia"],"game_id":440,"stv_port":0,"stv_name":"","players":null},{"server_id":311,"name":"Uncletopia | Frankfurt | 6 | All Maps","name_short":"frk-6","host":"frk-1.de.uncletopia.com","port":27065,"enabled":true,"region":"eu","cc":"de","latitude":50.110924,"longitude":8.682127,"reserved":0,"last_update":"0001-01-01T00:00:00Z","name_a2s":"Uncletopia | Frankfurt | 6 | All Maps","protocol":17,"map":"koth_lakeside_final","folder":"tf","game":"Team Fortress","app_id":440,"player_count":0,"max_players":24,"Bots":0,"server_type":"Dedicated","server_os":"Linux","password":true,"vac":true,"version":"7708610","steam_id":85568392924504278,"keywords":["cp","nocrits","nodmgspread","uncletopia"],"game_id":440,"stv_port":0,"stv_name":"","players":null},{"server_id":23,"name":"Uncletopia | Frankfurt | 7 | No Payload","name_short":"frk-7","host":"frk-1.de.uncletopia.com","port":27075,"enabled":true,"region":"eu","cc":"de","latitude":50.110924,"longitude":8.682127,"reserved":0,"last_update":"0001-01-01T00:00:00Z","name_a2s":"Uncletopia | Frankfurt | 7 | No Payload","protocol":17,"map":"pl_frontier_final","folder":"tf","game":"Team Fortress","app_id":440,"player_count":0,"max_players":24,"Bots":0,"server_type":"Dedicated","server_os":"Linux","password":true,"vac":true,"version":"7708610","steam_id":85568392924742827,"keywords":["nocrits","nodmgspread","payload","uncletopia"],"game_id":440,"stv_port":0,"stv_name":"","players":null},{"server_id":24,"name":"Uncletopia | Frankfurt | 8 | Community","name_short":"frk-8","host":"frk-1.de.uncletopia.com","port":27085,"enabled":true,"region":"eu","cc":"de","latitude":50.110924,"longitude":8.682127,"reserved":0,"last_update":"0001-01-01T00:00:00Z","name_a2s":"Uncletopia | Frankfurt | 8 | Community","protocol":17,"map":"workshop/koth_ashville_final.ugc2130459942","folder":"tf","game":"Team Fortress","app_id":440,"player_count":0,"max_players":24,"Bots":0,"server_type":"Dedicated","server_os":"Linux","password":true,"vac":true,"version":"7708610","steam_id":85568392924742828,"keywords":["cp","nocrits","nodmgspread","uncletopia"],"game_id":440,"stv_port":27086,"stv_name":"Uncletopia | Frankfurt | 8 | Community | STV","players":null},{"server_id":202,"name":"Uncletopia | Hong Kong | 1 | All Maps","name_short":"hgk-1","host":"hgk-1.hk.uncletopia.com","port":27015,"enabled":true,"region":"asia","cc":"hk","latitude":22.302711,"longitude":114.177216,"reserved":0,"last_update":"0001-01-01T00:00:00Z","name_a2s":"Uncletopia | Hong Kong | 1 | All Maps","protocol":17,"map":"pl_pier","folder":"tf","game":"Team Fortress","app_id":440,"player_count":24,"max_players":24,"Bots":0,"server_type":"Dedicated","server_os":"Linux","password":true,"vac":true,"version":"7708610","steam_id":85568392924494504,"keywords":["nocrits","nodmgspread","payload","uncletopia"],"game_id":440,"stv_port":27016,"stv_name":"Uncletopia | Hong Kong | 1 | All Maps | STV","players":[{"user_id":164,"name":"the sex","steam_id":76561198129661272,"connected_time":2417000000000,"state":"active","ping":71},{"user_id":196,"name":"brizzard","steam_id":76561198048438653,"connected_time":1631000000000,"state":"active","ping":45},{"user_id":219,"name":"Pillboi","steam_id":76561198011172886,"connected_time":534000000000,"state":"active","ping":45},{"user_id":207,"name":"Raz","steam_id":76561199219625644,"connected_time":1473000000000,"state":"active","ping":94},{"user_id":220,"name":"tiden2000","steam_id":76561198092969425,"connected_time":442000000000,"state":"active","ping":65},{"user_id":129,"name":"Èõ™„Éé‰∏ãÈõ™‰πÉ„ÅÆoppai","steam_id":76561198008307645,"connected_time":6408000000000,"state":"active","ping":82},{"user_id":126,"name":"Nimbus","steam_id":76561198877713016,"connected_time":6504000000000,"state":"active","ping":102},{"user_id":161,"name":"Michael Scott","steam_id":76561198023082794,"connected_time":2467000000000,"state":"active","ping":46},{"user_id":139,"name":"cjp","steam_id":76561198081702190,"connected_time":5335000000000,"state":"active","ping":86},{"user_id":212,"name":"SunShine","steam_id":76561198323642446,"connected_time":1444000000000,"state":"active","ping":93},{"user_id":206,"name":"Milk‚ù§","steam_id":76561198163911560,"connected_time":1480000000000,"state":"active","ping":103},{"user_id":143,"name":"Rocketmaster","steam_id":76561198291383989,"connected_time":5038000000000,"state":"active","ping":109},{"user_id":92,"name":"Noyour","steam_id":76561198323259830,"connected_time":10327000000000,"state":"active","ping":114},{"user_id":210,"name":"bakabazooka(merrychrismas)","steam_id":76561198061628689,"connected_time":1467000000000,"state":"active","ping":51},{"user_id":213,"name":"idiot normie","steam_id":76561198397662124,"connected_time":1343000000000,"state":"active","ping":74},{"user_id":50,"name":"bonito borzoi","steam_id":76561198230213828,"connected_time":13274000000000,"state":"active","ping":74},{"user_id":132,"name":"ÁÖôÊµ∑ | Enkai","steam_id":76561198050460825,"connected_time":5961000000000,"state":"active","ping":86},{"user_id":218,"name":"Batbob","steam_id":76561198999413123,"connected_time":741000000000,"state":"active","ping":72},{"user_id":214,"name":"paga","steam_id":76561198296718007,"connected_time":1062000000000,"state":"active","ping":107},{"user_id":114,"name":"ogey","steam_id":76561198074339034,"connected_time":7937000000000,"state":"active","ping":81},{"user_id":211,"name":"IRA car dealership","steam_id":76561199224577498,"connected_time":1461000000000,"state":"active","ping":73},{"user_id":222,"name":"MS PowerPoint","steam_id":76561198369523192,"connected_time":66000000000,"state":"active","ping":67},{"user_id":183,"name":"r","steam_id":76561198811024417,"connected_time":1998000000000,"state":"active","ping":74},{"user_id":195,"name":"Wx","steam_id":76561199217780897,"connected_time":1727000000000,"state":"active","ping":69}]},{"server_id":1,"name":"Uncletopia | Los Angeles | 1 | All Maps","name_short":"lax-1","host":"lax-1.us.uncletopia.com","port":27015,"enabled":true,"region":"us-west","cc":"us","latitude":33.94279,"longitude":-118.41004,"reserved":0,"last_update":"0001-01-01T00:00:00Z","name_a2s":"Uncletopia | Los Angeles | 1 | All Maps","protocol":17,"map":"cp_gravelpit_snowy","folder":"tf","game":"Team Fortress","app_id":440,"player_count":24,"max_players":24,"Bots":0,"server_type":"Dedicated","server_os":"Linux","password":true,"vac":true,"version":"7708610","steam_id":85568392924469991,"keywords":["cp","nocrits","nodmgspread","uncletopia"],"game_id":440,"stv_port":27016,"stv_name":"Uncletopia | Los Angeles | 1 | All Maps | STV","players":[{"user_id":86,"name":"Ian","steam_id":76561198159334435,"connected_time":3409000000000,"state":"active","ping":170},{"user_id":95,"name":"The Caretaker","steam_id":76561198125241411,"connected_time":2101000000000,"state":"active","ping":70},{"user_id":61,"name":"Moonflower ‚ú¶","steam_id":76561198191782483,"connected_time":5566000000000,"state":"active","ping":53},{"user_id":103,"name":"festive jester","steam_id":76561198079609974,"connected_time":1926000000000,"state":"active","ping":52},{"user_id":42,"name":"Super Mighty G","steam_id":76561198020932806,"connected_time":6508000000000,"state":"active","ping":47},{"user_id":121,"name":"Jammers","steam_id":76561198064546814,"connected_time":27000000000,"state":"spawning","ping":54},{"user_id":34,"name":"lol","steam_id":76561198026491738,"connected_time":6766000000000,"state":"active","ping":62},{"user_id":35,"name":"Black Adam","steam_id":76561198066091050,"connected_time":6756000000000,"state":"active","ping":75},{"user_id":120,"name":"cookieing","steam_id":76561198441283796,"connected_time":87000000000,"state":"active","ping":45},{"user_id":119,"name":"Pink_Mingo","steam_id":76561197970944856,"connected_time":100000000000,"state":"active","ping":68},{"user_id":96,"name":"RobloxFan2016","steam_id":76561198864845171,"connected_time":2092000000000,"state":"active","ping":52},{"user_id":93,"name":"ChoccyMiltank","steam_id":76561198981474284,"connected_time":2160000000000,"state":"active","ping":36},{"user_id":74,"name":"sun sugar","steam_id":76561198385085005,"connected_time":5131000000000,"state":"active","ping":51},{"user_id":85,"name":"gamer (derogatory)","steam_id":76561198334059206,"connected_time":3579000000000,"state":"active","ping":54},{"user_id":110,"name":"Nez","steam_id":76561197963109059,"connected_time":1560000000000,"state":"active","ping":64},{"user_id":107,"name":"bong hits for jesus","steam_id":76561198093276401,"connected_time":1737000000000,"state":"active","ping":59},{"user_id":118,"name":"bronto","steam_id":76561198043363119,"connected_time":279000000000,"state":"active","ping":45},{"user_id":100,"name":"‚òÅChaoscist","steam_id":76561198133707355,"connected_time":1994000000000,"state":"active","ping":46},{"user_id":109,"name":"yah yeet","steam_id":76561198073021173,"connected_time":1628000000000,"state":"active","ping":60},{"user_id":113,"name":"VIRGINIA!!","steam_id":76561198036066855,"connected_time":1445000000000,"state":"active","ping":79},{"user_id":112,"name":"Strength!!","steam_id":76561198001241984,"connected_time":1469000000000,"state":"active","ping":82},{"user_id":105,"name":"Lambchop","steam_id":76561198043900363,"connected_time":1887000000000,"state":"active","ping":68},{"user_id":73,"name":"Ultra\u003c3","steam_id":76561198352021493,"connected_time":5265000000000,"state":"active","ping":84},{"user_id":89,"name":"ThatOneHermit","steam_id":76561199030898903,"connected_time":3267000000000,"state":"active","ping":93}]},{"server_id":112,"name":"Uncletopia | Los Angeles | 2 | All Maps","name_short":"lax-2","host":"lax-1.us.uncletopia.com","port":27025,"enabled":true,"region":"us-west","cc":"us","latitude":33.94279,"longitude":-118.41004,"reserved":0,"last_update":"0001-01-01T00:00:00Z","name_a2s":"Uncletopia | Los Angeles | 2 | All Maps","protocol":17,"map":"koth_viaduct","folder":"tf","game":"Team Fortress","app_id":440,"player_count":0,"max_players":24,"Bots":0,"server_type":"Dedicated","server_os":"Linux","password":true,"vac":true,"version":"7708610","steam_id":85568392924469992,"keywords":["cp","nocrits","nodmgspread","uncletopia"],"game_id":440,"stv_port":27026,"stv_name":"Uncletopia | Los Angeles | 2 | All Maps | STV","players":null},{"server_id":324,"name":"Uncletopia | Los Angeles | 3 | All Maps","name_short":"lax-3","host":"lax-1.us.uncletopia.com","port":27035,"enabled":true,"region":"us-west","cc":"us","latitude":33.94279,"longitude":-118.41004,"reserved":0,"last_update":"0001-01-01T00:00:00Z","name_a2s":"Uncletopia | Los Angeles | 3 | All Maps","protocol":17,"map":"pl_snowycoast","folder":"tf","game":"Team Fortress","app_id":440,"player_count":0,"max_players":24,"Bots":0,"server_type":"Dedicated","server_os":"Linux","password":true,"vac":true,"version":"7708610","steam_id":85568392924510198,"keywords":["nocrits","nodmgspread","payload","uncletopia"],"game_id":440,"stv_port":27036,"stv_name":"Uncletopia | Los Angeles | 3 | All Maps | STV","players":null},{"server_id":25,"name":"Uncletopia | Los Angeles | 4 | No Payload","name_short":"lax-4","host":"lax-1.us.uncletopia.com","port":27045,"enabled":true,"region":"us-west","cc":"us","latitude":33.94279,"longitude":-118.41004,"reserved":0,"last_update":"0001-01-01T00:00:00Z","name_a2s":"Uncletopia | Los Angeles | 4 | No Payload","protocol":17,"map":"plr_pipeline","folder":"tf","game":"Team Fortress","app_id":440,"player_count":0,"max_players":24,"Bots":0,"server_type":"Dedicated","server_os":"Linux","password":true,"vac":true,"version":"7708610","steam_id":85568392924510199,"keywords":["nocrits","nodmgspread","payload","uncletopia"],"game_id":440,"stv_port":27046,"stv_name":"Uncletopia | Los Angeles | 4 | No Payload | STV","players":null},{"server_id":11,"name":"Uncletopia | London | 1 | All Maps","name_short":"lon-1","host":"lon-1.uk.uncletopia.com","port":27015,"enabled":true,"region":"eu","cc":"gb","latitude":51.509865,"longitude":-0.118092,"reserved":0,"last_update":"0001-01-01T00:00:00Z","name_a2s":"Uncletopia | London | 1 | All Maps","protocol":17,"map":"koth_viaduct","folder":"tf","game":"Team Fortress","app_id":440,"player_count":19,"max_players":24,"Bots":0,"server_type":"Dedicated","server_os":"Linux","password":true,"vac":true,"version":"7708610","steam_id":85568392924367362,"keywords":["cp","nocrits","nodmgspread","uncletopia"],"game_id":440,"stv_port":0,"stv_name":"","players":[{"user_id":2,"name":"Control Point Commando","steam_id":76561198119439177,"connected_time":1002000000000,"state":"active","ping":74},{"user_id":3,"name":"pl_badwater","steam_id":76561198152184280,"connected_time":999000000000,"state":"active","ping":46},{"user_id":4,"name":"got that right","steam_id":76561198064656601,"connected_time":998000000000,"state":"active","ping":48},{"user_id":5,"name":"peruna","steam_id":76561198000721196,"connected_time":988000000000,"state":"active","ping":75},{"user_id":6,"name":"pl_z≈Çawoda","steam_id":76561198040588109,"connected_time":985000000000,"state":"active","ping":85},{"user_id":21,"name":"PyroHam","steam_id":76561198206285837,"connected_time":646000000000,"state":"active","ping":74},{"user_id":16,"name":"Taha","steam_id":76561199259524970,"connected_time":952000000000,"state":"active","ping":92},{"user_id":10,"name":"Lena ^^","steam_id":76561199435586696,"connected_time":977000000000,"state":"active","ping":98},{"user_id":11,"name":"french mafia","steam_id":76561198878687605,"connected_time":976000000000,"state":"active","ping":102},{"user_id":12,"name":"sid","steam_id":76561198093613358,"connected_time":975000000000,"state":"active","ping":92},{"user_id":13,"name":"Schmax_zockt603","steam_id":76561198397898616,"connected_time":972000000000,"state":"active","ping":61},{"user_id":14,"name":"lvl. 50 honkler","steam_id":76561198061688660,"connected_time":972000000000,"state":"active","ping":107},{"user_id":19,"name":"2-D (secretly undercover)","steam_id":76561198287344223,"connected_time":900000000000,"state":"active","ping":89},{"user_id":17,"name":"scout gaming","steam_id":76561199380974466,"connected_time":950000000000,"state":"active","ping":84},{"user_id":22,"name":"marijuana enjoyer","steam_id":76561198056905953,"connected_time":618000000000,"state":"active","ping":122},{"user_id":23,"name":"Mr. Huntsman","steam_id":76561197981910397,"connected_time":557000000000,"state":"active","ping":62},{"user_id":24,"name":"–ø–µ—Ç—Ä–æ—Ñ—É–∫–∏","steam_id":76561199001392573,"connected_time":486000000000,"state":"active","ping":91},{"user_id":25,"name":"ÀôBot 32","steam_id":76561198006471925,"connected_time":428000000000,"state":"active","ping":83},{"user_id":26,"name":"M X","steam_id":76561198074667742,"connected_time":268000000000,"state":"active","ping":69}]},{"server_id":114,"name":"Uncletopia | London | 2 | All Maps","name_short":"lon-2","host":"lon-1.uk.uncletopia.com","port":27025,"enabled":true,"region":"eu","cc":"gb","latitude":51.509865,"longitude":-0.118092,"reserved":0,"last_update":"0001-01-01T00:00:00Z","name_a2s":"Uncletopia | London | 2 | All Maps","protocol":17,"map":"cp_snakewater_final1","folder":"tf","game":"Team Fortress","app_id":440,"player_count":0,"max_players":24,"Bots":0,"server_type":"Dedicated","server_os":"Linux","password":true,"vac":true,"version":"7708610","steam_id":85568392924470941,"keywords":["cp","nocrits","nodmgspread","uncletopia"],"game_id":440,"stv_port":0,"stv_name":"","players":null},{"server_id":320,"name":"Uncletopia | London | 3 | All Maps","name_short":"lon-3","host":"lon-1.uk.uncletopia.com","port":27035,"enabled":true,"region":"eu","cc":"gb","latitude":51.509865,"longitude":-0.118092,"reserved":0,"last_update":"0001-01-01T00:00:00Z","name_a2s":"Uncletopia | London | 3 | All Maps","protocol":17,"map":"cp_altitude","folder":"tf","game":"Team Fortress","app_id":440,"player_count":0,"max_players":24,"Bots":0,"server_type":"Dedicated","server_os":"Linux","password":true,"vac":true,"version":"7708610","steam_id":85568392924510192,"keywords":["cp","nocrits","nodmgspread","uncletopia"],"game_id":440,"stv_port":0,"stv_name":"","players":null},{"server_id":321,"name":"Uncletopia | London | 4 | All Maps","name_short":"lon-4","host":"lon-1.uk.uncletopia.com","port":27045,"enabled":true,"region":"eu","cc":"gb","latitude":51.509865,"longitude":-0.118092,"reserved":0,"last_update":"0001-01-01T00:00:00Z","name_a2s":"Uncletopia | London | 4 | All Maps","protocol":17,"map":"koth_viaduct","folder":"tf","game":"Team Fortress","app_id":440,"player_count":0,"max_players":24,"Bots":0,"server_type":"Dedicated","server_os":"Linux","password":true,"vac":true,"version":"7708610","steam_id":85568392924510193,"keywords":["cp","nocrits","nodmgspread","uncletopia"],"game_id":440,"stv_port":0,"stv_name":"","players":null},{"server_id":21,"name":"Uncletopia | London | 5 | All Maps","name_short":"lon-5","host":"lon-1.uk.uncletopia.com","port":27055,"enabled":true,"region":"eu","cc":"gb","latitude":51.509865,"longitude":-0.118092,"reserved":0,"last_update":"0001-01-01T00:00:00Z","name_a2s":"Uncletopia | London | 5 | All Maps","protocol":17,"map":"koth_lakeside_final","folder":"tf","game":"Team Fortress","app_id":440,"player_count":0,"max_players":24,"Bots":0,"server_type":"Dedicated","server_os":"Linux","password":true,"vac":true,"version":"7708610","steam_id":85568392924742829,"keywords":["cp","nocrits","nodmgspread","uncletopia"],"game_id":440,"stv_port":0,"stv_name":"","players":null},{"server_id":22,"name":"Uncletopia | London | 6 | All Maps","name_short":"lon-6","host":"lon-1.uk.uncletopia.com","port":27065,"enabled":true,"region":"eu","cc":"gb","latitude":51.509865,"longitude":-0.118092,"reserved":0,"last_update":"0001-01-01T00:00:00Z","name_a2s":"Uncletopia | London | 6 | All Maps","protocol":17,"map":"koth_viaduct","folder":"tf","game":"Team Fortress","app_id":440,"player_count":0,"max_players":24,"Bots":0,"server_type":"Dedicated","server_os":"Linux","password":true,"vac":true,"version":"7708610","steam_id":85568392924742830,"keywords":["cp","nocrits","nodmgspread","uncletopia"],"game_id":440,"stv_port":0,"stv_name":"","players":null},{"server_id":40,"name":"Uncletopia | London | 7 | No Payload","name_short":"lon-7","host":"lon-1.uk.uncletopia.com","port":27075,"enabled":true,"region":"eu","cc":"gb","latitude":51.509865,"longitude":-0.118092,"reserved":0,"last_update":"0001-01-01T00:00:00Z","name_a2s":"Uncletopia | London | 7 | No Payload","protocol":17,"map":"cp_snakewater_final1","folder":"tf","game":"Team Fortress","app_id":440,"player_count":0,"max_players":24,"Bots":0,"server_type":"Dedicated","server_os":"Linux","password":true,"vac":true,"version":"7708610","steam_id":85568392924964314,"keywords":["cp","nocrits","nodmgspread","uncletopia"],"game_id":440,"stv_port":0,"stv_name":"","players":null},{"server_id":41,"name":"Uncletopia | London | 8 | Community","name_short":"lon-8","host":"lon-1.uk.uncletopia.com","port":27085,"enabled":true,"region":"eu","cc":"gb","latitude":51.509865,"longitude":-0.118092,"reserved":0,"last_update":"0001-01-01T00:00:00Z","name_a2s":"Uncletopia | London | 8 | Community","protocol":17,"map":"cp_snakewater_final1","folder":"tf","game":"Team Fortress","app_id":440,"player_count":0,"max_players":24,"Bots":0,"server_type":"Dedicated","server_os":"Linux","password":true,"vac":true,"version":"7708610","steam_id":85568392924964315,"keywords":["cp","nocrits","nodmgspread","uncletopia"],"game_id":440,"stv_port":0,"stv_name":"","players":null},{"server_id":300,"name":"Uncletopia | Montr√©al | 1 | All Maps","name_short":"mtl-1","host":"mtl-1.ca.uncletopia.com","port":27015,"enabled":true,"region":"us-east","cc":"ca","latitude":45.50889,"longitude":-73.56167,"reserved":0,"last_update":"0001-01-01T00:00:00Z","name_a2s":"Uncletopia | Montr√©al | 1 | All Maps","protocol":17,"map":"koth_viaduct","folder":"tf","game":"Team Fortress","app_id":440,"player_count":0,"max_players":24,"Bots":0,"server_type":"Dedicated","server_os":"Linux","password":true,"vac":true,"version":"7708610","steam_id":85568392924500087,"keywords":["cp","nocrits","nodmgspread","uncletopia"],"game_id":440,"stv_port":27016,"stv_name":"Uncletopia | Montr√©al | 1 | All Maps | STV","players":null},{"server_id":301,"name":"Uncletopia | Montr√©al | 2 | All Maps","name_short":"mtl-2","host":"mtl-1.ca.uncletopia.com","port":27025,"enabled":true,"region":"us-east","cc":"ca","latitude":45.50889,"longitude":-73.56167,"reserved":0,"last_update":"0001-01-01T00:00:00Z","name_a2s":"Uncletopia | Montr√©al | 2 | All Maps","protocol":17,"map":"koth_lakeside_final","folder":"tf","game":"Team Fortress","app_id":440,"player_count":1,"max_players":24,"Bots":0,"server_type":"Dedicated","server_os":"Linux","password":true,"vac":true,"version":"7708610","steam_id":85568392924500088,"keywords":["cp","nocrits","nodmgspread","uncletopia"],"game_id":440,"stv_port":27026,"stv_name":"Uncletopia | Montr√©al | 2 | All Maps | STV","players":[{"user_id":7,"name":"lazymadlad","steam_id":76561199379651901,"connected_time":2957000000000,"state":"active","ping":127}]},{"server_id":302,"name":"Uncletopia | Montr√©al | 3 | All Maps","name_short":"mtl-3","host":"mtl-1.ca.uncletopia.com","port":27035,"enabled":true,"region":"us-east","cc":"ca","latitude":45.50889,"longitude":-73.56167,"reserved":0,"last_update":"0001-01-01T00:00:00Z","name_a2s":"Uncletopia | Montr√©al | 3 | All Maps","protocol":17,"map":"koth_cascade","folder":"tf","game":"Team Fortress","app_id":440,"player_count":0,"max_players":24,"Bots":0,"server_type":"Dedicated","server_os":"Linux","password":true,"vac":true,"version":"7708610","steam_id":85568392924500089,"keywords":["cp","nocrits","nodmgspread","uncletopia"],"game_id":440,"stv_port":27036,"stv_name":"Uncletopia | Montr√©al | 3 | All Maps | STV","players":null},{"server_id":303,"name":"Uncletopia | Montr√©al | 4 | No Payload","name_short":"mtl-4","host":"mtl-1.ca.uncletopia.com","port":27045,"enabled":true,"region":"us-east","cc":"ca","latitude":45.50889,"longitude":-73.56167,"reserved":0,"last_update":"0001-01-01T00:00:00Z","name_a2s":"Uncletopia | Montr√©al | 4 | No Payload","protocol":17,"map":"koth_brazil","folder":"tf","game":"Team Fortress","app_id":440,"player_count":0,"max_players":24,"Bots":0,"server_type":"Dedicated","server_os":"Linux","password":true,"vac":true,"version":"7708610","steam_id":85568392924500090,"keywords":["cp","nocrits","nodmgspread","uncletopia"],"game_id":440,"stv_port":27046,"stv_name":"Uncletopia | Montr√©al | 4 | No Payload | STV","players":null},{"server_id":13,"name":"Uncletopia | New York City | 1 | All Maps","name_short":"nyc-1","host":"nyc-1.us.uncletopia.com","port":27015,"enabled":true,"region":"us-east","cc":"us","latitude":40.73061,"longitude":-73.93524,"reserved":0,"last_update":"0001-01-01T00:00:00Z","name_a2s":"Uncletopia | New York City | 1 | All Maps","protocol":17,"map":"cp_altitude","folder":"tf","game":"Team Fortress","app_id":440,"player_count":0,"max_players":24,"Bots":0,"server_type":"Dedicated","server_os":"Linux","password":true,"vac":true,"version":"7708610","steam_id":85568392924469993,"keywords":["cp","nocrits","nodmgspread","uncletopia"],"game_id":440,"stv_port":27016,"stv_name":"Uncletopia | New York City | 1 | All Maps | STV","players":null},{"server_id":14,"name":"Uncletopia | New York City | 2 | All Maps","name_short":"nyc-2","host":"nyc-1.us.uncletopia.com","port":27025,"enabled":true,"region":"us-east","cc":"us","latitude":40.73061,"longitude":-73.93524,"reserved":0,"last_update":"0001-01-01T00:00:00Z","name_a2s":"Uncletopia | New York City | 2 | All Maps","protocol":17,"map":"koth_viaduct","folder":"tf","game":"Team Fortress","app_id":440,"player_count":0,"max_players":24,"Bots":0,"server_type":"Dedicated","server_os":"Linux","password":true,"vac":true,"version":"7708610","steam_id":85568392924469994,"keywords":["cp","nocrits","nodmgspread","uncletopia"],"game_id":440,"stv_port":27026,"stv_name":"Uncletopia | New York City | 2 | All Maps | STV","players":null},{"server_id":15,"name":"Uncletopia | New York City | 3 | All Maps","name_short":"nyc-3","host":"nyc-1.us.uncletopia.com","port":27035,"enabled":true,"region":"us-east","cc":"us","latitude":40.73061,"longitude":-73.93524,"reserved":0,"last_update":"0001-01-01T00:00:00Z","name_a2s":"Uncletopia | New York City | 3 | All Maps","protocol":17,"map":"pl_pier","folder":"tf","game":"Team Fortress","app_id":440,"player_count":24,"max_players":24,"Bots":0,"server_type":"Dedicated","server_os":"Linux","password":true,"vac":true,"version":"7708610","steam_id":85568392924742820,"keywords":["nocrits","nodmgspread","payload","uncletopia"],"game_id":440,"stv_port":27036,"stv_name":"Uncletopia | New York City | 3 | All Maps | STV","players":[{"user_id":416,"name":"gromit","steam_id":76561198037746805,"connected_time":1194000000000,"state":"active","ping":59},{"user_id":417,"name":"starer","steam_id":76561199229966290,"connected_time":1024000000000,"state":"active","ping":78},{"user_id":413,"name":"Wique","steam_id":76561198071217597,"connected_time":1386000000000,"state":"active","ping":65},{"user_id":415,"name":"Spike","steam_id":76561198141356571,"connected_time":1224000000000,"state":"active","ping":40},{"user_id":410,"name":"Shun Rosen","steam_id":76561198012823909,"connected_time":2133000000000,"state":"active","ping":62},{"user_id":432,"name":"Nihplod_","steam_id":76561199010320094,"connected_time":84000000000,"state":"active","ping":51},{"user_id":376,"name":"Doomz","steam_id":76561198029147860,"connected_time":4214000000000,"state":"active","ping":69},{"user_id":404,"name":"blargo","steam_id":76561198073304260,"connected_time":2418000000000,"state":"active","ping":73},{"user_id":418,"name":"Mr. Bubs","steam_id":76561198130283080,"connected_time":990000000000,"state":"active","ping":114},{"user_id":405,"name":"Casual Costanza","steam_id":76561198024409325,"connected_time":2393000000000,"state":"active","ping":63},{"user_id":380,"name":"shroomish enjoyer","steam_id":76561198149775502,"connected_time":3960000000000,"state":"active","ping":57},{"user_id":429,"name":"nauts salt","steam_id":76561198045832398,"connected_time":234000000000,"state":"active","ping":81},{"user_id":420,"name":"Dilpined","steam_id":76561199073920597,"connected_time":804000000000,"state":"active","ping":48},{"user_id":421,"name":"senake","steam_id":76561199053879737,"connected_time":668000000000,"state":"active","ping":91},{"user_id":411,"name":"Geraldo","steam_id":76561198046596619,"connected_time":1977000000000,"state":"active","ping":179},{"user_id":390,"name":"Among Us VR Booster Pack","steam_id":76561198352909489,"connected_time":3470000000000,"state":"active","ping":144},{"user_id":393,"name":"Rainrunner","steam_id":76561198378234350,"connected_time":2978000000000,"state":"active","ping":84},{"user_id":388,"name":"Among Us Booster Pack","steam_id":76561198068538473,"connected_time":3683000000000,"state":"active","ping":90},{"user_id":430,"name":"Deeg","steam_id":76561198175970806,"connected_time":226000000000,"state":"active","ping":48},{"user_id":408,"name":"Chubo Kuay","steam_id":76561198095550617,"connected_time":2357000000000,"state":"active","ping":79},{"user_id":423,"name":"Leagueminer6446","steam_id":76561198170661038,"connected_time":582000000000,"state":"active","ping":52},{"user_id":425,"name":"Bali","steam_id":76561198038693845,"connected_time":523000000000,"state":"active","ping":91},{"user_id":427,"name":"Creme Frase","steam_id":76561198114957073,"connected_time":380000000000,"state":"active","ping":133},{"user_id":431,"name":"MAXIMUS","steam_id":76561198085809453,"connected_time":197000000000,"state":"active","ping":73}]},{"server_id":16,"name":"Uncletopia | New York City | 4 | Community","name_short":"nyc-4","host":"nyc-1.us.uncletopia.com","port":27045,"enabled":true,"region":"us-east","cc":"us","latitude":40.73061,"longitude":-73.93524,"reserved":0,"last_update":"0001-01-01T00:00:00Z","name_a2s":"Uncletopia | New York City | 4 | Community","protocol":17,"map":"workshop/cp_reckoner_rc6.ugc674719999","folder":"tf","game":"Team Fortress","app_id":440,"player_count":0,"max_players":24,"Bots":0,"server_type":"Dedicated","server_os":"Linux","password":true,"vac":true,"version":"7708610","steam_id":85568392924742821,"keywords":["cp","nocrits","nodmgspread","uncletopia"],"game_id":440,"stv_port":27046,"stv_name":"Uncletopia | New York City | 4 | Community | STV","players":null},{"server_id":142,"name":"Uncletopia | S√£o Paulo | 1 | All Maps","name_short":"sao-1","host":"sao-1.br.uncletopia.com","port":27015,"enabled":true,"region":"sa","cc":"br","latitude":-23.533773,"longitude":-46.62529,"reserved":0,"last_update":"0001-01-01T00:00:00Z","name_a2s":"Uncletopia | S√£o Paulo | 1 | All Maps","protocol":17,"map":"cp_process_final","folder":"tf","game":"Team Fortress","app_id":440,"player_count":0,"max_players":24,"Bots":0,"server_type":"Dedicated","server_os":"Linux","password":true,"vac":true,"version":"7708610","steam_id":85568392924469996,"keywords":["cp","nocrits","nodmgspread","uncletopia"],"game_id":440,"stv_port":27016,"stv_name":"Uncletopia | S√£o Paulo | 1 | All Maps | STV","players":null},{"server_id":143,"name":"Uncletopia | S√£o Paulo | 2 | All Maps","name_short":"sao-2","host":"sao-2.br.uncletopia.com","port":27015,"enabled":true,"region":"sa","cc":"br","latitude":-23.533773,"longitude":-46.62529,"reserved":0,"last_update":"0001-01-01T00:00:00Z","name_a2s":"Uncletopia | S√£o Paulo | 2 | All Maps","protocol":17,"map":"koth_cascade","folder":"tf","game":"Team Fortress","app_id":440,"player_count":0,"max_players":24,"Bots":0,"server_type":"Dedicated","server_os":"Linux","password":true,"vac":true,"version":"7708610","steam_id":85568392924485349,"keywords":["cp","nocrits","nodmgspread","uncletopia"],"game_id":440,"stv_port":27016,"stv_name":"Uncletopia | S√£o Paulo | 2 | All Maps | STV","players":null},{"server_id":7,"name":"Uncletopia | Seattle | 1 | All Maps","name_short":"sea-1","host":"sea-1.us.uncletopia.com","port":27015,"enabled":true,"region":"us-west","cc":"us","latitude":47.608013,"longitude":-122.33517,"reserved":0,"last_update":"0001-01-01T00:00:00Z","name_a2s":"Uncletopia | Seattle | 1 | All Maps","protocol":17,"map":"cp_5gorge","folder":"tf","game":"Team Fortress","app_id":440,"player_count":23,"max_players":24,"Bots":0,"server_type":"Dedicated","server_os":"Linux","password":true,"vac":true,"version":"7708610","steam_id":85568392924469997,"keywords":["nocrits","nodmgspread","payload","uncletopia"],"game_id":440,"stv_port":27016,"stv_name":"Uncletopia | Seattle | 1 | All Maps | STV","players":[{"user_id":694,"name":"‚ô¶‚ô£Quadric‚ô•‚ô†","steam_id":76561198061003853,"connected_time":3623000000000,"state":"active","ping":112},{"user_id":819,"name":"LeTonzy","steam_id":76561198005806699,"connected_time":904000000000,"state":"active","ping":83},{"user_id":580,"name":"AceSea","steam_id":76561198851176490,"connected_time":5653000000000,"state":"active","ping":47},{"user_id":508,"name":"Ayayahuasca","steam_id":76561199002906056,"connected_time":6739000000000,"state":"active","ping":48},{"user_id":487,"name":"ikuyo","steam_id":76561198996950205,"connected_time":7893000000000,"state":"active","ping":70},{"user_id":852,"name":"„Çª„Ç§„Éê„Éº","steam_id":76561198169223408,"connected_time":287000000000,"state":"active","ping":58},{"user_id":828,"name":"Yatchi.","steam_id":76561198878073232,"connected_time":787000000000,"state":"active","ping":91},{"user_id":833,"name":"helloyes_123","steam_id":76561198184669555,"connected_time":663000000000,"state":"active","ping":70},{"user_id":770,"name":".didntnoagoodname.","steam_id":76561198031988564,"connected_time":2013000000000,"state":"active","ping":117},{"user_id":834,"name":"Dragonpow23","steam_id":76561198158997881,"connected_time":662000000000,"state":"active","ping":117},{"user_id":474,"name":"MY WIFE BEATS ME","steam_id":76561199025513044,"connected_time":7955000000000,"state":"active","ping":79},{"user_id":835,"name":"wegamingfishbruh69_ttv","steam_id":76561198347001548,"connected_time":649000000000,"state":"active","ping":67},{"user_id":728,"name":"Phaze","steam_id":76561198025267071,"connected_time":3085000000000,"state":"active","ping":82},{"user_id":811,"name":"Thanks Ants","steam_id":76561197966221018,"connected_time":1208000000000,"state":"active","ping":42},{"user_id":854,"name":"Aardappel","steam_id":76561198030894676,"connected_time":190000000000,"state":"active","ping":71},{"user_id":808,"name":"Wormy Getting Coal","steam_id":76561198054539200,"connected_time":1293000000000,"state":"active","ping":54},{"user_id":774,"name":"SquirrelAway‚Ñ¢","steam_id":76561197998828619,"connected_time":1942000000000,"state":"active","ping":82},{"user_id":825,"name":"soda pop","steam_id":76561199403530076,"connected_time":835000000000,"state":"active","ping":93},{"user_id":776,"name":"Harold","steam_id":76561198057317770,"connected_time":1920000000000,"state":"active","ping":66},{"user_id":836,"name":"El Gato Paranoico","steam_id":76561198116567116,"connected_time":575000000000,"state":"active","ping":119},{"user_id":787,"name":"‡∏∏","steam_id":76561198084134025,"connected_time":1757000000000,"state":"active","ping":66},{"user_id":838,"name":"parangatang","steam_id":76561198050311948,"connected_time":515000000000,"state":"active","ping":96},{"user_id":851,"name":"Skoad","steam_id":76561198104650528,"connected_time":300000000000,"state":"active","ping":57}]},{"server_id":119,"name":"Uncletopia | Seattle | 2 | All Maps","name_short":"sea-2","host":"sea-1.us.uncletopia.com","port":27025,"enabled":true,"region":"us-west","cc":"us","latitude":47.608013,"longitude":-122.33517,"reserved":0,"last_update":"0001-01-01T00:00:00Z","name_a2s":"Uncletopia | Seattle | 2 | All Maps","protocol":17,"map":"cp_steel","folder":"tf","game":"Team Fortress","app_id":440,"player_count":22,"max_players":24,"Bots":0,"server_type":"Dedicated","server_os":"Linux","password":true,"vac":true,"version":"7708610","steam_id":85568392924469998,"keywords":["cp","nocrits","nodmgspread","uncletopia"],"game_id":440,"stv_port":27026,"stv_name":"Uncletopia | Seattle | 2 | All Maps | STV","players":[{"user_id":470,"name":"Mr. Blubber","steam_id":76561198338906916,"connected_time":5686000000000,"state":"active","ping":73},{"user_id":548,"name":"vieodmsgea","steam_id":76561198025295263,"connected_time":961000000000,"state":"active","ping":102},{"user_id":528,"name":"Greskrendtregk","steam_id":76561197969553142,"connected_time":2104000000000,"state":"active","ping":64},{"user_id":537,"name":"Cuno Doesn't Care!","steam_id":76561198007372782,"connected_time":1233000000000,"state":"active","ping":65},{"user_id":560,"name":"Nugakku","steam_id":76561198082346219,"connected_time":139000000000,"state":"active","ping":88},{"user_id":561,"name":"Mesotec „ÄéÏºÄÏßÄÏïÑ„Äè","steam_id":76561198135499719,"connected_time":12000000000,"state":"spawning","ping":135},{"user_id":547,"name":"Incredible Donk","steam_id":76561198427360423,"connected_time":995000000000,"state":"active","ping":111},{"user_id":538,"name":"Spearit5464","steam_id":76561199241807676,"connected_time":1181000000000,"state":"active","ping":56},{"user_id":503,"name":"Illitha","steam_id":76561199135491898,"connected_time":3870000000000,"state":"active","ping":93},{"user_id":549,"name":"w+m2","steam_id":76561198409907417,"connected_time":953000000000,"state":"active","ping":89},{"user_id":516,"name":"Koopa Paratroopa","steam_id":76561198035448426,"connected_time":2880000000000,"state":"active","ping":56},{"user_id":517,"name":"Oberynne","steam_id":76561198081868308,"connected_time":2878000000000,"state":"active","ping":48},{"user_id":534,"name":"Vem","steam_id":76561198117273112,"connected_time":1271000000000,"state":"active","ping":118},{"user_id":550,"name":"Oscidor","steam_id":76561198362839738,"connected_time":929000000000,"state":"active","ping":75},{"user_id":562,"name":"oil","steam_id":76561198099980149,"connected_time":4000000000,"state":"spawning","ping":89},{"user_id":553,"name":"emy","steam_id":76561198089691679,"connected_time":897000000000,"state":"active","ping":114},{"user_id":526,"name":"Karl Gerat2015","steam_id":76561199061625972,"connected_time":2315000000000,"state":"active","ping":87},{"user_id":545,"name":"PoltergussyLordoftheAsstralVoid","steam_id":76561199195004708,"connected_time":1037000000000,"state":"active","ping":76},{"user_id":520,"name":"[Bandit]","steam_id":76561197986919852,"connected_time":2850000000000,"state":"active","ping":54},{"user_id":558,"name":"small little tiny guy","steam_id":76561198116726318,"connected_time":379000000000,"state":"active","ping":106},{"user_id":559,"name":"SesataPomang","steam_id":76561198145133059,"connected_time":255000000000,"state":"active","ping":92},{"user_id":555,"name":"OxOoxen841","steam_id":76561198297981993,"connected_time":804000000000,"state":"active","ping":96}]},{"server_id":17,"name":"Uncletopia | San Francisco | 1 | All Maps","name_short":"sfo-1","host":"sfo-1.us.uncletopia.com","port":27015,"enabled":true,"region":"us-west","cc":"us","latitude":37.77397,"longitude":-122.4313,"reserved":0,"last_update":"0001-01-01T00:00:00Z","name_a2s":"Uncletopia | San Francisco | 1 | All Maps","protocol":17,"map":"koth_cascade","folder":"tf","game":"Team Fortress","app_id":440,"player_count":0,"max_players":24,"Bots":0,"server_type":"Dedicated","server_os":"Linux","password":true,"vac":true,"version":"7708610","steam_id":85568392924469999,"keywords":["cp","nocrits","nodmgspread","uncletopia"],"game_id":440,"stv_port":27016,"stv_name":"Uncletopia | San Francisco | 1 | All Maps | STV","players":null},{"server_id":18,"name":"Uncletopia | San Francisco | 2 | All Maps","name_short":"sfo-2","host":"sfo-1.us.uncletopia.com","port":27025,"enabled":true,"region":"us-west","cc":"us","latitude":37.77397,"longitude":-122.4313,"reserved":0,"last_update":"0001-01-01T00:00:00Z","name_a2s":"Uncletopia | San Francisco | 2 | All Maps","protocol":17,"map":"cp_process_final","folder":"tf","game":"Team Fortress","app_id":440,"player_count":24,"max_players":24,"Bots":0,"server_type":"Dedicated","server_os":"Linux","password":true,"vac":true,"version":"7708610","steam_id":85568392924470000,"keywords":["cp","nocrits","nodmgspread","uncletopia"],"game_id":440,"stv_port":27026,"stv_name":"Uncletopia | San Francisco | 2 | All Maps | STV","players":[{"user_id":272,"name":"Frank","steam_id":76561198126681511,"connected_time":312000000000,"state":"active","ping":59},{"user_id":254,"name":"Bob the Builder","steam_id":76561199069029812,"connected_time":1653000000000,"state":"active","ping":53},{"user_id":255,"name":"moe","steam_id":76561198929586245,"connected_time":1641000000000,"state":"active","ping":55},{"user_id":265,"name":"CatLike Pigeon","steam_id":76561198171716030,"connected_time":1144000000000,"state":"active","ping":76},{"user_id":218,"name":"MORE BOUNCE TO THE OUNCE","steam_id":76561198243399336,"connected_time":4647000000000,"state":"active","ping":56},{"user_id":187,"name":"Underscore","steam_id":76561198374209415,"connected_time":7265000000000,"state":"active","ping":88},{"user_id":266,"name":"Trips","steam_id":76561198054581597,"connected_time":855000000000,"state":"active","ping":44},{"user_id":267,"name":"An00bissmas","steam_id":76561198044084508,"connected_time":783000000000,"state":"active","ping":60},{"user_id":188,"name":"General Fisticuffs","steam_id":76561198255721392,"connected_time":7200000000000,"state":"active","ping":100},{"user_id":244,"name":"azureglxy","steam_id":76561198861388315,"connected_time":2792000000000,"state":"active","ping":50},{"user_id":264,"name":"Frongus","steam_id":76561197979056451,"connected_time":1276000000000,"state":"active","ping":65},{"user_id":260,"name":"MantisTobboggan","steam_id":76561197969447887,"connected_time":1400000000000,"state":"active","ping":85},{"user_id":240,"name":"tweet","steam_id":76561198166515735,"connected_time":3073000000000,"state":"active","ping":48},{"user_id":249,"name":"BernardBull","steam_id":76561198036138813,"connected_time":2096000000000,"state":"active","ping":80},{"user_id":239,"name":"I eat cold Mac \u0026 Cheese","steam_id":76561198100385184,"connected_time":3121000000000,"state":"active","ping":55},{"user_id":269,"name":"but why though?","steam_id":76561198091871087,"connected_time":740000000000,"state":"active","ping":44},{"user_id":241,"name":"Damo","steam_id":76561197979442728,"connected_time":3065000000000,"state":"active","ping":55},{"user_id":237,"name":"Livin' Like Larry","steam_id":76561198313360974,"connected_time":3368000000000,"state":"active","ping":35},{"user_id":262,"name":"Genius Meme","steam_id":76561198162911254,"connected_time":1366000000000,"state":"active","ping":79},{"user_id":243,"name":"Agent Q","steam_id":76561198830829003,"connected_time":2890000000000,"state":"active","ping":79},{"user_id":246,"name":"pt","steam_id":76561198143023330,"connected_time":2787000000000,"state":"active","ping":50},{"user_id":271,"name":"oil","steam_id":76561198099980149,"connected_time":386000000000,"state":"active","ping":56},{"user_id":185,"name":"chlo√©","steam_id":76561198858926895,"connected_time":7827000000000,"state":"active","ping":57},{"user_id":268,"name":"SomeRandomMail","steam_id":76561199002913110,"connected_time":782000000000,"state":"active","ping":46}]},{"server_id":19,"name":"Uncletopia | San Francisco | 3 | No Payload","name_short":"sfo-3","host":"sfo-1.us.uncletopia.com","port":27035,"enabled":true,"region":"us-west","cc":"us","latitude":37.77397,"longitude":-122.4313,"reserved":0,"last_update":"0001-01-01T00:00:00Z","name_a2s":"Uncletopia | San Francisco | 3 | No Payload","protocol":17,"map":"cp_altitude","folder":"tf","game":"Team Fortress","app_id":440,"player_count":0,"max_players":24,"Bots":0,"server_type":"Dedicated","server_os":"Linux","password":true,"vac":true,"version":"7708610","steam_id":85568392924742824,"keywords":["cp","nocrits","nodmgspread","uncletopia"],"game_id":440,"stv_port":27036,"stv_name":"Uncletopia | San Francisco | 3 | No Payload | STV","players":null},{"server_id":20,"name":"Uncletopia | San Francisco | 4 | Community","name_short":"sfo-4","host":"sfo-1.us.uncletopia.com","port":27045,"enabled":true,"region":"us-west","cc":"us","latitude":37.77397,"longitude":-122.4313,"reserved":0,"last_update":"0001-01-01T00:00:00Z","name_a2s":"Uncletopia | San Francisco | 4 | Community","protocol":17,"map":"workshop/koth_ramjam_v2_b2.ugc2865676487","folder":"tf","game":"Team Fortress","app_id":440,"player_count":0,"max_players":24,"Bots":0,"server_type":"Dedicated","server_os":"Linux","password":true,"vac":true,"version":"7708610","steam_id":85568392924742826,"keywords":["cp","nocrits","nodmgspread","uncletopia"],"game_id":440,"stv_port":27046,"stv_name":"Uncletopia | San Francisco | 4 | Community | STV","players":null},{"server_id":141,"name":"Uncletopia | Sydney | 1 | All Maps","name_short":"syd-1","host":"syd-1.au.uncletopia.com","port":27015,"enabled":true,"region":"au","cc":"au","latitude":-33.865143,"longitude":151.2099,"reserved":0,"last_update":"0001-01-01T00:00:00Z","name_a2s":"Uncletopia | Sydney | 1 | All Maps","protocol":17,"map":"cp_badlands","folder":"tf","game":"Team Fortress","app_id":440,"player_count":24,"max_players":24,"Bots":0,"server_type":"Dedicated","server_os":"Linux","password":true,"vac":true,"version":"7708610","steam_id":85568392924470001,"keywords":["cp","nocrits","nodmgspread","uncletopia"],"game_id":440,"stv_port":27016,"stv_name":"Uncletopia | Sydney | 1 | All Maps | STV","players":[{"user_id":419,"name":"RR Mups","steam_id":76561198344833209,"connected_time":69000000000,"state":"active","ping":57},{"user_id":401,"name":"abcdef","steam_id":76561198083700749,"connected_time":1000000000000,"state":"active","ping":45},{"user_id":420,"name":"RR D0n","steam_id":76561199171436009,"connected_time":53000000000,"state":"active","ping":54},{"user_id":403,"name":"Rashid Of The Dank Memes","steam_id":76561198281398078,"connected_time":920000000000,"state":"active","ping":65},{"user_id":365,"name":"chewy marmot","steam_id":76561198005340350,"connected_time":2513000000000,"state":"active","ping":77},{"user_id":404,"name":"Branko","steam_id":76561199262196710,"connected_time":889000000000,"state":"active","ping":33},{"user_id":421,"name":"RR Nah","steam_id":76561198869190432,"connected_time":47000000000,"state":"active","ping":57},{"user_id":409,"name":"–í–õ–ê–î–ï–õ–ò–¶–ê","steam_id":76561198855684280,"connected_time":551000000000,"state":"active","ping":80},{"user_id":326,"name":"Gasoline","steam_id":76561198879023728,"connected_time":6912000000000,"state":"active","ping":75},{"user_id":319,"name":"East","steam_id":76561197998179587,"connected_time":7273000000000,"state":"active","ping":100},{"user_id":394,"name":"problade10","steam_id":76561199219056674,"connected_time":1299000000000,"state":"active","ping":88},{"user_id":408,"name":"yons","steam_id":76561198083920784,"connected_time":644000000000,"state":"active","ping":59},{"user_id":407,"name":"bweegus wagoogus glumbus","steam_id":76561198063481761,"connected_time":677000000000,"state":"active","ping":45},{"user_id":410,"name":"Cam","steam_id":76561198175992019,"connected_time":541000000000,"state":"active","ping":35},{"user_id":417,"name":"Dnewberry24","steam_id":76561198111943364,"connected_time":360000000000,"state":"active","ping":71},{"user_id":412,"name":"stabber","steam_id":76561198310550094,"connected_time":480000000000,"state":"active","ping":57},{"user_id":302,"name":"EpicGuy4227","steam_id":76561198094132328,"connected_time":8250000000000,"state":"active","ping":54},{"user_id":382,"name":"Hally","steam_id":76561198045236233,"connected_time":1868000000000,"state":"active","ping":59},{"user_id":418,"name":"Captain Canadia","steam_id":76561198167967735,"connected_time":231000000000,"state":"active","ping":48},{"user_id":414,"name":"Spiffing","steam_id":76561199020105540,"connected_time":470000000000,"state":"active","ping":80},{"user_id":415,"name":"Rogue (Anti-fire)","steam_id":76561198055404248,"connected_time":466000000000,"state":"active","ping":45},{"user_id":337,"name":"Nylk","steam_id":76561198033625169,"connected_time":5535000000000,"state":"active","ping":37},{"user_id":385,"name":"APVC","steam_id":76561199090168813,"connected_time":1800000000000,"state":"active","ping":47},{"user_id":400,"name":"Tiger_Tan","steam_id":76561198221733844,"connected_time":1017000000000,"state":"active","ping":67}]},{"server_id":123,"name":"Uncletopia | Sydney | 2 | All Maps","name_short":"syd-2","host":"syd-1.au.uncletopia.com","port":27025,"enabled":true,"region":"au","cc":"au","latitude":-33.865143,"longitude":151.2099,"reserved":0,"last_update":"0001-01-01T00:00:00Z","name_a2s":"Uncletopia | Sydney | 2 | All Maps","protocol":17,"map":"cp_dustbowl","folder":"tf","game":"Team Fortress","app_id":440,"player_count":24,"max_players":24,"Bots":0,"server_type":"Dedicated","server_os":"Linux","password":true,"vac":true,"version":"7708610","steam_id":85568392924470002,"keywords":["cp","nocrits","nodmgspread","uncletopia"],"game_id":440,"stv_port":27026,"stv_name":"Uncletopia | Sydney | 2 | All Maps | STV","players":[{"user_id":15,"name":"can of beans","steam_id":76561199005815714,"connected_time":11224000000000,"state":"active","ping":61},{"user_id":126,"name":"clout","steam_id":76561198073310502,"connected_time":741000000000,"state":"active","ping":75},{"user_id":84,"name":"Onii","steam_id":76561198973917900,"connected_time":4131000000000,"state":"active","ping":94},{"user_id":56,"name":"CheeseFlag126","steam_id":76561199262769917,"connected_time":6325000000000,"state":"active","ping":59},{"user_id":118,"name":"Pompadouraus","steam_id":76561198327530525,"connected_time":1854000000000,"state":"active","ping":75},{"user_id":71,"name":"Pizzaray","steam_id":76561198005075102,"connected_time":5852000000000,"state":"active","ping":32},{"user_id":80,"name":"Tricka ‚Ä¢","steam_id":76561197968440123,"connected_time":4588000000000,"state":"active","ping":46},{"user_id":88,"name":"sweet","steam_id":76561198075311236,"connected_time":3860000000000,"state":"active","ping":44},{"user_id":119,"name":"michael","steam_id":76561198052848358,"connected_time":1851000000000,"state":"active","ping":60},{"user_id":130,"name":"‡∏∏bifcheg","steam_id":76561198319806610,"connected_time":144000000000,"state":"active","ping":61},{"user_id":127,"name":"this is the fuckin news","steam_id":76561198062288797,"connected_time":534000000000,"state":"active","ping":64},{"user_id":128,"name":"penis muncher","steam_id":76561198288259746,"connected_time":211000000000,"state":"active","ping":55},{"user_id":110,"name":"cedrick highsmith","steam_id":76561198380568764,"connected_time":2677000000000,"state":"active","ping":68},{"user_id":91,"name":"little raw meat boy","steam_id":76561199248254676,"connected_time":3728000000000,"state":"active","ping":53},{"user_id":117,"name":"SoyBoy","steam_id":76561197992447102,"connected_time":1872000000000,"state":"active","ping":50},{"user_id":113,"name":"ye na ye","steam_id":76561198040088686,"connected_time":2454000000000,"state":"active","ping":74},{"user_id":132,"name":"Dr Barry Mundy PhD","steam_id":76561198034512686,"connected_time":57000000000,"state":"active","ping":43},{"user_id":124,"name":"Bing Bong","steam_id":76561198066571616,"connected_time":1252000000000,"state":"active","ping":109},{"user_id":101,"name":"fido dido","steam_id":76561198017390541,"connected_time":3133000000000,"state":"active","ping":44},{"user_id":120,"name":"Top G","steam_id":76561198001134675,"connected_time":1831000000000,"state":"active","ping":34},{"user_id":104,"name":"DIY Miracle","steam_id":76561198046228152,"connected_time":3004000000000,"state":"active","ping":50},{"user_id":105,"name":"CeartV","steam_id":76561198180645323,"connected_time":2974000000000,"state":"active","ping":55},{"user_id":131,"name":"Hydraulic Foreskin","steam_id":76561198195563143,"connected_time":117000000000,"state":"active","ping":72},{"user_id":129,"name":"silent","steam_id":76561199020436724,"connected_time":161000000000,"state":"active","ping":73}]},{"server_id":395,"name":"Uncletopia | Sydney | 3 | All Maps","name_short":"syd-3","host":"syd-1.au.uncletopia.com","port":27035,"enabled":true,"region":"au","cc":"au","latitude":-33.865143,"longitude":151.2099,"reserved":0,"last_update":"0001-01-01T00:00:00Z","name_a2s":"Uncletopia | Sydney | 3 | All Maps","protocol":17,"map":"koth_lakeside_final","folder":"tf","game":"Team Fortress","app_id":440,"player_count":0,"max_players":24,"Bots":0,"server_type":"Dedicated","server_os":"Linux","password":true,"vac":true,"version":"7708610","steam_id":85568392925194467,"keywords":["cp","nocrits","nodmgspread","uncletopia"],"game_id":440,"stv_port":27036,"stv_name":"Uncletopia | Sydney | 3 | All Maps | STV","players":null},{"server_id":396,"name":"Uncletopia | Sydney | 4 | All Maps","name_short":"syd-4","host":"syd-1.au.uncletopia.com","port":27045,"enabled":true,"region":"au","cc":"au","latitude":-33.865143,"longitude":151.2099,"reserved":0,"last_update":"0001-01-01T00:00:00Z","name_a2s":"Uncletopia | Sydney | 4 | All Maps","protocol":17,"map":"koth_lakeside_final","folder":"tf","game":"Team Fortress","app_id":440,"player_count":0,"max_players":24,"Bots":0,"server_type":"Dedicated","server_os":"Linux","password":true,"vac":true,"version":"7708610","steam_id":85568392925397958,"keywords":["cp","nocrits","nodmgspread","uncletopia"],"game_id":440,"stv_port":0,"stv_name":"","players":null},{"server_id":58,"name":"Uncletopia | Sydney | 5 | No Payload","name_short":"syd-5","host":"syd-1.au.uncletopia.com","port":27055,"enabled":true,"region":"au","cc":"au","latitude":-33.865143,"longitude":151.2099,"reserved":0,"last_update":"0001-01-01T00:00:00Z","name_a2s":"Uncletopia | Sydney | 5 | No Payload","protocol":17,"map":"koth_cascade","folder":"tf","game":"Team Fortress","app_id":440,"player_count":0,"max_players":24,"Bots":0,"server_type":"Dedicated","server_os":"Linux","password":true,"vac":true,"version":"7708610","steam_id":85568392925397959,"keywords":["cp","nocrits","nodmgspread","uncletopia"],"game_id":440,"stv_port":0,"stv_name":"","players":null},{"server_id":59,"name":"Uncletopia | Sydney | 6 | Community","name_short":"syd-6","host":"syd-1.au.uncletopia.com","port":27065,"enabled":true,"region":"au","cc":"au","latitude":-33.865143,"longitude":151.2099,"reserved":0,"last_update":"0001-01-01T00:00:00Z","name_a2s":"Uncletopia | Sydney | 6 | Community","protocol":17,"map":"workshop/pl_cactuscanyon_redux_rc4b.ugc2579644293","folder":"tf","game":"Team Fortress","app_id":440,"player_count":0,"max_players":24,"Bots":0,"server_type":"Dedicated","server_os":"Linux","password":true,"vac":true,"version":"7708610","steam_id":85568392925397960,"keywords":["nocrits","nodmgspread","payload","uncletopia"],"game_id":440,"stv_port":27066,"stv_name":"Uncletopia | Sydney | 6 | Community | STV","players":null},{"server_id":49,"name":"Uncletopia | Warsaw | 1 | All Maps","name_short":"waw-1","host":"waw-1.pl.uncletopia.com","port":27015,"enabled":true,"region":"eu","cc":"pl","latitude":52.2297,"longitude":21.017532,"reserved":0,"last_update":"0001-01-01T00:00:00Z","name_a2s":"Uncletopia | Warsaw | 1 | All Maps","protocol":17,"map":"cp_mountainlab","folder":"tf","game":"Team Fortress","app_id":440,"player_count":0,"max_players":24,"Bots":0,"server_type":"Dedicated","server_os":"Linux","password":true,"vac":true,"version":"7708610","steam_id":85568392925397850,"keywords":["cp","nocrits","nodmgspread","uncletopia"],"game_id":440,"stv_port":0,"stv_name":"","players":null},{"server_id":50,"name":"Uncletopia | Warsaw | 2 | All Maps","name_short":"waw-2","host":"waw-1.pl.uncletopia.com","port":27025,"enabled":true,"region":"eu","cc":"pl","latitude":52.2297,"longitude":21.017532,"reserved":0,"last_update":"0001-01-01T00:00:00Z","name_a2s":"Uncletopia | Warsaw | 2 | All Maps","protocol":17,"map":"pl_badwater","folder":"tf","game":"Team Fortress","app_id":440,"player_count":0,"max_players":24,"Bots":0,"server_type":"Dedicated","server_os":"Linux","password":true,"vac":true,"version":"7708610","steam_id":85568392925397851,"keywords":["nocrits","nodmgspread","payload","uncletopia"],"game_id":440,"stv_port":0,"stv_name":"","players":null},{"server_id":51,"name":"Uncletopia | Warsaw | 3 | All Maps","name_short":"waw-3","host":"waw-1.pl.uncletopia.com","port":27035,"enabled":true,"region":"eu","cc":"pl","latitude":52.2297,"longitude":21.017532,"reserved":0,"last_update":"0001-01-01T00:00:00Z","name_a2s":"Uncletopia | Warsaw | 3 | All Maps","protocol":17,"map":"koth_cascade","folder":"tf","game":"Team Fortress","app_id":440,"player_count":0,"max_players":24,"Bots":0,"server_type":"Dedicated","server_os":"Linux","password":true,"vac":true,"version":"7708610","steam_id":85568392925397852,"keywords":["cp","nocrits","nodmgspread","uncletopia"],"game_id":440,"stv_port":0,"stv_name":"","players":null},{"server_id":52,"name":"Uncletopia | Warsaw | 4 | All Maps","name_short":"waw-4","host":"waw-1.pl.uncletopia.com","port":27045,"enabled":true,"region":"eu","cc":"pl","latitude":52.2297,"longitude":21.017532,"reserved":0,"last_update":"0001-01-01T00:00:00Z","name_a2s":"Uncletopia | Warsaw | 4 | All Maps","protocol":17,"map":"cp_mountainlab","folder":"tf","game":"Team Fortress","app_id":440,"player_count":0,"max_players":24,"Bots":0,"server_type":"Dedicated","server_os":"Linux","password":true,"vac":true,"version":"7708610","steam_id":85568392925397853,"keywords":["cp","nocrits","nodmgspread","uncletopia"],"game_id":440,"stv_port":0,"stv_name":"","players":null},{"server_id":53,"name":"Uncletopia | Warsaw | 5 | No Payload","name_short":"waw-5","host":"waw-1.pl.uncletopia.com","port":27055,"enabled":true,"region":"eu","cc":"pl","latitude":52.2297,"longitude":21.017532,"reserved":0,"last_update":"0001-01-01T00:00:00Z","name_a2s":"Uncletopia | Warsaw | 5 | No Payload","protocol":17,"map":"cp_dustbowl","folder":"tf","game":"Team Fortress","app_id":440,"player_count":0,"max_players":24,"Bots":0,"server_type":"Dedicated","server_os":"Linux","password":true,"vac":true,"version":"7708610","steam_id":85568392925397854,"keywords":["cp","nocrits","nodmgspread","uncletopia"],"game_id":440,"stv_port":0,"stv_name":"","players":null},{"server_id":54,"name":"Uncletopia | Warsaw | 6 | Community","name_short":"waw-6","host":"waw-1.pl.uncletopia.com","port":27065,"enabled":true,"region":"eu","cc":"pl","latitude":52.2297,"longitude":21.017532,"reserved":0,"last_update":"0001-01-01T00:00:00Z","name_a2s":"Uncletopia | Warsaw | 6 | Community","protocol":17,"map":"koth_highpass","folder":"tf","game":"Team Fortress","app_id":440,"player_count":0,"max_players":24,"Bots":0,"server_type":"Dedicated","server_os":"Linux","password":true,"vac":true,"version":"7708610","steam_id":85568392925397856,"keywords":["cp","nocrits","nodmgspread","uncletopia"],"game_id":440,"stv_port":0,"stv_name":"","players":null}]}