{"status":true,"message":"","result":[{"server_id":9,"name":"Uncletopia | Atlanta | 1 | All Maps","name_short":"atl-1","host":"atl-1.us.uncletopia.com","port":27015,"enabled":true,"region":"us-east","cc":"us","latitude":33.753746,"longitude":-84.38633,"reserved":0,"last_update":"0001-01-01T00:00:00Z","name_a2s":"Uncletopia | Atlanta | 1 | All Maps","protocol":17,"map":"pl_upward","folder":"tf","game":"Team Fortress","app_id":440,"player_count":24,"max_players":24,"Bots":0,"server_type":"Dedicated","server_os":"Linux","password":true,"vac":true,"version":"7757534","steam_id":85568392924469982,"keywords":["nocrits","nodmgspread","payload","uncletopia"],"game_id":440,"stv_port":27016,"stv_name":"Uncletopia | Atlanta | 1 | All Maps | STV","players":[{"user_id":375,"name":"Monster","steam_id":76561198189429665,"connected_time":3142000000000,"state":"active","ping":60},{"user_id":401,"name":"The Pope","steam_id":76561198313560302,"connected_time":1487000000000,"state":"active","ping":40},{"user_id":403,"name":"ATL1 | to4st","steam_id":76561198960183175,"connected_time":1223000000000,"state":"active","ping":90},{"user_id":420,"name":"Zamich","steam_id":76561198087033116,"connected_time":75000000000,"state":"active","ping":61},{"user_id":409,"name":"FilthyMrFilth","steam_id":76561199176454086,"connected_time":1011000000000,"state":"active","ping":59},{"user_id":418,"name":"Higgle Poggers","steam_id":76561198043960257,"connected_time":348000000000,"state":"active","ping":78},{"user_id":397,"name":"ATL1 | Lancer Fan Club","steam_id":76561198355495948,"connected_time":1782000000000,"state":"active","ping":67},{"user_id":384,"name":"Inky (Coolest)","steam_id":76561198968337022,"connected_time":3099000000000,"state":"active","ping":53},{"user_id":414,"name":"Bali","steam_id":76561198038693845,"connected_time":608000000000,"state":"active","ping":109},{"user_id":399,"name":"PaP√° Soulzune„ÉÖ","steam_id":76561198139615052,"connected_time":1765000000000,"state":"active","ping":84},{"user_id":406,"name":"Rio\u003c3","steam_id":76561198299175965,"connected_time":1058000000000,"state":"active","ping":61},{"user_id":419,"name":"uzr","steam_id":76561198799343084,"connected_time":217000000000,"state":"active","ping":105},{"user_id":398,"name":"iluvtoust","steam_id":76561198869269207,"connected_time":1782000000000,"state":"active","ping":67},{"user_id":400,"name":"mayhem","steam_id":76561199246637881,"connected_time":1765000000000,"state":"active","ping":56},{"user_id":412,"name":"cyclops","steam_id":76561197970370198,"connected_time":824000000000,"state":"active","ping":86},{"user_id":417,"name":"Click on DvD by Adam Sandler","steam_id":76561199009151946,"connected_time":368000000000,"state":"active","ping":72},{"user_id":369,"name":"The Sydney Sleeper Itself","steam_id":76561198180251763,"connected_time":3759000000000,"state":"active","ping":71},{"user_id":366,"name":"Jeeper","steam_id":76561198155583692,"connected_time":4065000000000,"state":"active","ping":66},{"user_id":404,"name":"Shame","steam_id":76561198100490994,"connected_time":1222000000000,"state":"active","ping":59},{"user_id":373,"name":"O'Keearns","steam_id":76561198042213797,"connected_time":3533000000000,"state":"active","ping":45},{"user_id":405,"name":"com lag","steam_id":76561198019019392,"connected_time":1212000000000,"state":"active","ping":61},{"user_id":390,"name":"the doo doo man","steam_id":76561198057076267,"connected_time":2551000000000,"state":"active","ping":70},{"user_id":408,"name":"Intro Bonito","steam_id":76561198119478838,"connected_time":1026000000000,"state":"active","ping":45},{"user_id":396,"name":"ATL1 | Bandi","steam_id":76561198432036026,"connected_time":1973000000000,"state":"active","ping":55}]},{"server_id":104,"name":"Uncletopia | Atlanta | 2 | All Maps","name_short":"atl-2","host":"atl-1.us.uncletopia.com","port":27025,"enabled":true,"region":"us-east","cc":"us","latitude":33.753746,"longitude":-84.38633,"reserved":0,"last_update":"0001-01-01T00:00:00Z","name_a2s":"Uncletopia | Atlanta | 2 | All Maps","protocol":17,"map":"cp_steel","folder":"tf","game":"Team Fortress","app_id":440,"player_count":24,"max_players":24,"Bots":0,"server_type":"Dedicated","server_os":"Linux","password":true,"vac":true,"version":"7757534","steam_id":85568392924469983,"keywords":["cp","nocrits","nodmgspread","uncletopia"],"game_id":440,"stv_port":27026,"stv_name":"Uncletopia | Atlanta | 2 | All Maps | STV","players":[{"user_id":234,"name":"Simply Mystic","steam_id":76561198055495647,"connected_time":1890000000000,"state":"active","ping":78},{"user_id":203,"name":"Hoofuyu","steam_id":76561199022142345,"connected_time":4431000000000,"state":"active","ping":66},{"user_id":245,"name":"lexrit18","steam_id":76561198343554822,"connected_time":326000000000,"state":"active","ping":75},{"user_id":197,"name":"Sableye","steam_id":76561198061247147,"connected_time":4550000000000,"state":"active","ping":75},{"user_id":180,"name":"Shrek Forever After","steam_id":76561198023152320,"connected_time":5936000000000,"state":"active","ping":48},{"user_id":218,"name":"Uganda Knuckles lll","steam_id":76561199121276474,"connected_time":3229000000000,"state":"active","ping":85},{"user_id":219,"name":"Doppelpunkt","steam_id":76561198102137730,"connected_time":3220000000000,"state":"active","ping":60},{"user_id":214,"name":"crouton","steam_id":76561198828709358,"connected_time":3526000000000,"state":"active","ping":61},{"user_id":237,"name":"jandajanda","steam_id":76561198235722476,"connected_time":1648000000000,"state":"active","ping":51},{"user_id":246,"name":"chilis baby back ribs","steam_id":76561198813516435,"connected_time":307000000000,"state":"active","ping":105},{"user_id":241,"name":"Prestoneon003","steam_id":76561198348279581,"connected_time":1189000000000,"state":"active","ping":38},{"user_id":228,"name":"Emails","steam_id":76561198836919458,"connected_time":1917000000000,"state":"active","ping":70},{"user_id":239,"name":"I hang out with Pear","steam_id":76561198975752686,"connected_time":1494000000000,"state":"active","ping":92},{"user_id":244,"name":"kametro4","steam_id":76561198835430429,"connected_time":422000000000,"state":"active","ping":86},{"user_id":226,"name":"Kaboob","steam_id":76561199121870665,"connected_time":1970000000000,"state":"active","ping":75},{"user_id":243,"name":"give me your baby faces blaster","steam_id":76561199013442982,"connected_time":509000000000,"state":"active","ping":70},{"user_id":230,"name":"Pig master","steam_id":76561199388075545,"connected_time":1907000000000,"state":"active","ping":129},{"user_id":216,"name":"Eins","steam_id":76561199030343810,"connected_time":3311000000000,"state":"active","ping":46},{"user_id":247,"name":"Captain Dusk","steam_id":76561199093333752,"connected_time":239000000000,"state":"active","ping":53},{"user_id":232,"name":"HeisenBurger","steam_id":76561198040632080,"connected_time":1900000000000,"state":"active","ping":73},{"user_id":233,"name":"TV","steam_id":76561198177326926,"connected_time":1896000000000,"state":"active","ping":70},{"user_id":222,"name":"Soul_Intern","steam_id":76561198310238109,"connected_time":3209000000000,"state":"active","ping":98},{"user_id":189,"name":"‚ô•Noble‚ô•","steam_id":76561198427370124,"connected_time":5140000000000,"state":"active","ping":73},{"user_id":242,"name":"Wiggee","steam_id":76561197972792989,"connected_time":692000000000,"state":"active","ping":62}]},{"server_id":400,"name":"Uncletopia | Atlanta | 3 | Community","name_short":"atl-3","host":"atl-1.us.uncletopia.com","port":27035,"enabled":true,"region":"us-east","cc":"us","latitude":33.753746,"longitude":-84.38633,"reserved":0,"last_update":"0001-01-01T00:00:00Z","name_a2s":"Uncletopia | Atlanta | 3 | Community","protocol":17,"map":"workshop/koth_product_final.ugc454272353","folder":"tf","game":"Team Fortress","app_id":440,"player_count":0,"max_players":24,"Bots":0,"server_type":"Dedicated","server_os":"Linux","password":true,"vac":true,"version":"7757534","steam_id":85568392924515187,"keywords":["cp","nocrits","nodmgspread","uncletopia"],"game_id":440,"stv_port":27036,"stv_name":"Uncletopia | Atlanta | 3 | Community | STV","players":null},{"server_id":401,"name":"Uncletopia | Atlanta | 4 | No Payload","name_short":"atl-4","host":"atl-1.us.uncletopia.com","port":27045,"enabled":true,"region":"us-east","cc":"us","latitude":33.753746,"longitude":-84.38633,"reserved":0,"last_update":"0001-01-01T00:00:00Z","name_a2s":"","protocol":0,"map":"","folder":"","game":"","app_id":0,"player_count":0,"max_players":0,"Bots":0,"server_type":"","server_os":"","password":false,"vac":false,"version":"","steam_id":0,"keywords":null,"game_id":0,"stv_port":0,"stv_name":"","players":null},{"server_id":2,"name":"Uncletopia | Chicago | 1 | All Maps","name_short":"chi-1","host":"chi-1.us.uncletopia.com","port":27015,"enabled":true,"region":"us-central","cc":"us","latitude":41.881832,"longitude":-87.62318,"reserved":0,"last_update":"0001-01-01T00:00:00Z","name_a2s":"Uncletopia | Chicago | 1 | All Maps","protocol":17,"map":"pl_snowycoast","folder":"tf","game":"Team Fortress","app_id":440,"player_count":24,"max_players":24,"Bots":0,"server_type":"Dedicated","server_os":"Linux","password":true,"vac":true,"version":"7757534","steam_id":85568392924469984,"keywords":["nocrits","nodmgspread","payload","uncletopia"],"game_id":440,"stv_port":27016,"stv_name":"Uncletopia | Chicago | 1 | All Maps | STV","players":[{"user_id":385,"name":"[GUT] RiDiK¬Æ","steam_id":76561197969756446,"connected_time":2278000000000,"state":"active","ping":55},{"user_id":340,"name":"Liquid Oxycodone","steam_id":76561198154162664,"connected_time":4267000000000,"state":"active","ping":66},{"user_id":210,"name":"Bobato Chaps","steam_id":76561198065103552,"connected_time":13545000000000,"state":"active","ping":45},{"user_id":357,"name":"FooFLit","steam_id":76561198236967080,"connected_time":3882000000000,"state":"active","ping":85},{"user_id":362,"name":"Raniel Dicciardo","steam_id":76561198053859538,"connected_time":3390000000000,"state":"active","ping":67},{"user_id":372,"name":"blakejack226","steam_id":76561199128917566,"connected_time":2674000000000,"state":"active","ping":83},{"user_id":376,"name":"hud_saytext_time 0","steam_id":76561198010327228,"connected_time":2415000000000,"state":"active","ping":159},{"user_id":363,"name":"Cube","steam_id":76561198136312932,"connected_time":3359000000000,"state":"active","ping":63},{"user_id":400,"name":"DocLucky","steam_id":76561199093899249,"connected_time":108000000000,"state":"active","ping":162},{"user_id":389,"name":"SCATTER","steam_id":76561198405168492,"connected_time":1687000000000,"state":"active","ping":79},{"user_id":393,"name":"cow farmer","steam_id":76561198249206656,"connected_time":810000000000,"state":"active","ping":89},{"user_id":321,"name":"Piss Champion","steam_id":76561198059362878,"connected_time":4964000000000,"state":"active","ping":46},{"user_id":365,"name":"2003 Honda Civic","steam_id":76561198401205345,"connected_time":3350000000000,"state":"active","ping":74},{"user_id":379,"name":"gas prices:","steam_id":76561198098781227,"connected_time":2393000000000,"state":"active","ping":103},{"user_id":370,"name":"Hampter","steam_id":76561198066227736,"connected_time":2953000000000,"state":"active","ping":50},{"user_id":367,"name":"Jax_Y","steam_id":76561198436807464,"connected_time":3282000000000,"state":"active","ping":71},{"user_id":383,"name":"RandyPickleshoes [BEC]","steam_id":76561198064139260,"connected_time":2309000000000,"state":"active","ping":69},{"user_id":368,"name":"Crows!","steam_id":76561198150086324,"connected_time":3282000000000,"state":"active","ping":59},{"user_id":391,"name":"Ehttri","steam_id":76561198170138667,"connected_time":1030000000000,"state":"active","ping":88},{"user_id":386,"name":"SirJellyRolls","steam_id":76561198119277244,"connected_time":1880000000000,"state":"active","ping":75},{"user_id":390,"name":"Cottontail","steam_id":76561198213634567,"connected_time":1676000000000,"state":"active","ping":97},{"user_id":396,"name":"Evil babies (with guns)","steam_id":76561198085815757,"connected_time":331000000000,"state":"active","ping":74},{"user_id":326,"name":"mio","steam_id":76561198239286750,"connected_time":4914000000000,"state":"active","ping":76},{"user_id":398,"name":"Lilac","steam_id":76561198977523626,"connected_time":330000000000,"state":"active","ping":68}]},{"server_id":106,"name":"Uncletopia | Chicago | 2 | All Maps","name_short":"chi-2","host":"chi-1.us.uncletopia.com","port":27025,"enabled":true,"region":"us-central","cc":"us","latitude":41.881832,"longitude":-87.62318,"reserved":0,"last_update":"0001-01-01T00:00:00Z","name_a2s":"Uncletopia | Chicago | 2 | All Maps","protocol":17,"map":"cp_altitude","folder":"tf","game":"Team Fortress","app_id":440,"player_count":24,"max_players":24,"Bots":0,"server_type":"Dedicated","server_os":"Linux","password":true,"vac":true,"version":"7757534","steam_id":85568392924469985,"keywords":["cp","nocrits","nodmgspread","uncletopia"],"game_id":440,"stv_port":27026,"stv_name":"Uncletopia | Chicago | 2 | All Maps | STV","players":[{"user_id":232,"name":"Richard","steam_id":76561198044115685,"connected_time":2235000000000,"state":"active","ping":58},{"user_id":239,"name":"whitneyscience1","steam_id":76561199405650048,"connected_time":1204000000000,"state":"active","ping":115},{"user_id":260,"name":"Bluedot","steam_id":76561198019909639,"connected_time":364000000000,"state":"active","ping":63},{"user_id":266,"name":"willem dafoe basketball","steam_id":76561199161322235,"connected_time":35000000000,"state":"active","ping":65},{"user_id":259,"name":"pim","steam_id":76561198095163441,"connected_time":420000000000,"state":"active","ping":67},{"user_id":243,"name":"CeigeBirb","steam_id":76561198068538473,"connected_time":847000000000,"state":"active","ping":78},{"user_id":246,"name":"Zombiehunter11","steam_id":76561198237517830,"connected_time":838000000000,"state":"active","ping":83},{"user_id":234,"name":"etl","steam_id":76561198205062367,"connected_time":1826000000000,"state":"active","ping":38},{"user_id":194,"name":"Ziath","steam_id":76561198094009164,"connected_time":4513000000000,"state":"active","ping":62},{"user_id":236,"name":"Wubbzy","steam_id":76561199121565505,"connected_time":1725000000000,"state":"active","ping":152},{"user_id":177,"name":"Cotton-eye-JOE","steam_id":76561198115714484,"connected_time":5491000000000,"state":"active","ping":107},{"user_id":264,"name":"Sunvaar","steam_id":76561198852679851,"connected_time":119000000000,"state":"active","ping":69},{"user_id":244,"name":"Fluffeline","steam_id":76561198352909489,"connected_time":842000000000,"state":"active","ping":180},{"user_id":225,"name":"the biggest bird","steam_id":76561198361999761,"connected_time":2492000000000,"state":"active","ping":105},{"user_id":261,"name":"SaltyPants","steam_id":76561198184339690,"connected_time":348000000000,"state":"active","ping":61},{"user_id":251,"name":"Mastercheif","steam_id":76561198935642457,"connected_time":770000000000,"state":"active","ping":72},{"user_id":258,"name":"Raku","steam_id":76561198271338819,"connected_time":481000000000,"state":"active","ping":121},{"user_id":240,"name":"Pawn Cushman","steam_id":76561198221635676,"connected_time":1183000000000,"state":"active","ping":64},{"user_id":265,"name":"foot bag","steam_id":76561198070923665,"connected_time":89000000000,"state":"active","ping":75},{"user_id":253,"name":"Eliastar_","steam_id":76561198965030150,"connected_time":707000000000,"state":"active","ping":107},{"user_id":162,"name":"Vial of Throbb","steam_id":76561198348095996,"connected_time":6885000000000,"state":"active","ping":50},{"user_id":252,"name":"JustLooking","steam_id":76561198207877387,"connected_time":743000000000,"state":"active","ping":60},{"user_id":255,"name":"Bottom feeder","steam_id":76561198181298169,"connected_time":646000000000,"state":"active","ping":60}]},{"server_id":402,"name":"Uncletopia | Chicago | 3 | All Maps","name_short":"chi-3","host":"chi-1.us.uncletopia.com","port":27035,"enabled":true,"region":"us-central","cc":"us","latitude":41.881832,"longitude":-87.62318,"reserved":0,"last_update":"0001-01-01T00:00:00Z","name_a2s":"Uncletopia | Chicago | 3 | All Maps","protocol":17,"map":"koth_cascade","folder":"tf","game":"Team Fortress","app_id":440,"player_count":0,"max_players":24,"Bots":0,"server_type":"Dedicated","server_os":"Linux","password":true,"vac":true,"version":"7757534","steam_id":85568392924515191,"keywords":["cp","nocrits","nodmgspread","uncletopia"],"game_id":440,"stv_port":27036,"stv_name":"Uncletopia | Chicago | 3 | All Maps | STV","players":null},{"server_id":403,"name":"Uncletopia | Chicago | 4 | All Maps","name_short":"chi-4","host":"chi-1.us.uncletopia.com","port":27045,"enabled":true,"region":"us-central","cc":"us","latitude":41.881832,"longitude":-87.62318,"reserved":0,"last_update":"0001-01-01T00:00:00Z","name_a2s":"Uncletopia | Chicago | 4 | All Maps","protocol":17,"map":"koth_lakeside_final","folder":"tf","game":"Team Fortress","app_id":440,"player_count":0,"max_players":24,"Bots":0,"server_type":"Dedicated","server_os":"Linux","password":true,"vac":true,"version":"7757534","steam_id":85568392924515193,"keywords":["cp","nocrits","nodmgspread","uncletopia"],"game_id":440,"stv_port":27046,"stv_name":"Uncletopia | Chicago | 4 | All Maps | STV","players":null},{"server_id":36,"name":"Uncletopia | Chicago | 5 | All Maps","name_short":"chi-5","host":"chi-2.us.uncletopia.com","port":27015,"enabled":true,"region":"us-central","cc":"us","latitude":41.881832,"longitude":-87.62318,"reserved":0,"last_update":"0001-01-01T00:00:00Z","name_a2s":"Uncletopia | Chicago | 5 | All Maps","protocol":17,"map":"pl_upward","folder":"tf","game":"Team Fortress","app_id":440,"player_count":24,"max_players":24,"Bots":0,"server_type":"Dedicated","server_os":"Linux","password":true,"vac":true,"version":"7757534","steam_id":85568392924866362,"keywords":["nocrits","nodmgspread","payload","uncletopia"],"game_id":440,"stv_port":27016,"stv_name":"Uncletopia | Chicago | 5 | All Maps | STV","players":[{"user_id":248,"name":"Hauntedtoaster","steam_id":76561198034655610,"connected_time":768000000000,"state":"active","ping":96},{"user_id":249,"name":"‚ù§ Ashley ‚ù§","steam_id":76561198056428303,"connected_time":768000000000,"state":"active","ping":92},{"user_id":250,"name":"‚ù§‚ô°ÔΩ•ÔæüBubblesÔΩ•Ôæü‚ô°‚ù§","steam_id":76561198041057042,"connected_time":735000000000,"state":"active","ping":60},{"user_id":182,"name":"Dogfobo","steam_id":76561199093572928,"connected_time":2200000000000,"state":"active","ping":86},{"user_id":268,"name":"Pancreas Enjoyer","steam_id":76561199438598904,"connected_time":62000000000,"state":"active","ping":96},{"user_id":186,"name":"warrior","steam_id":76561198074500319,"connected_time":2149000000000,"state":"active","ping":100},{"user_id":167,"name":"God's Cutest Twink","steam_id":76561198053164901,"connected_time":3042000000000,"state":"active","ping":60},{"user_id":266,"name":"Acro Banwagon","steam_id":76561198092451804,"connected_time":308000000000,"state":"active","ping":68},{"user_id":175,"name":"grimp gromp","steam_id":76561199267535506,"connected_time":2431000000000,"state":"active","ping":77},{"user_id":263,"name":"Cousin Corn on the Cob","steam_id":76561198049837377,"connected_time":460000000000,"state":"active","ping":46},{"user_id":251,"name":"Vorce","steam_id":76561198998082956,"connected_time":660000000000,"state":"active","ping":57},{"user_id":192,"name":"Razz","steam_id":76561198158027533,"connected_time":2064000000000,"state":"active","ping":45},{"user_id":135,"name":"RandomInternetUser","steam_id":76561199230027049,"connected_time":4882000000000,"state":"active","ping":70},{"user_id":246,"name":"Kelmer","steam_id":76561198272075572,"connected_time":830000000000,"state":"active","ping":87},{"user_id":214,"name":"bash -lc ./asshat.sh","steam_id":76561198004584315,"connected_time":1490000000000,"state":"active","ping":61},{"user_id":267,"name":"supcupman","steam_id":76561198051513866,"connected_time":81000000000,"state":"active","ping":104},{"user_id":85,"name":"Synergy","steam_id":76561198098630198,"connected_time":8229000000000,"state":"active","ping":102},{"user_id":254,"name":"El grande 2","steam_id":76561198429949450,"connected_time":641000000000,"state":"active","ping":73},{"user_id":139,"name":"smuffy","steam_id":76561198091459506,"connected_time":4817000000000,"state":"active","ping":62},{"user_id":90,"name":"im BLASTING phonk","steam_id":76561198277163301,"connected_time":8158000000000,"state":"active","ping":65},{"user_id":180,"name":"mau","steam_id":76561198354473513,"connected_time":2256000000000,"state":"active","ping":58},{"user_id":125,"name":"DiscoTraveler","steam_id":76561199240168088,"connected_time":5932000000000,"state":"active","ping":64},{"user_id":217,"name":"Bee","steam_id":76561198074681324,"connected_time":1416000000000,"state":"active","ping":62},{"user_id":190,"name":"Wilhelmktx","steam_id":76561198158102295,"connected_time":2100000000000,"state":"active","ping":61}]},{"server_id":37,"name":"Uncletopia | Chicago | 6 | All Maps","name_short":"chi-6","host":"chi-2.us.uncletopia.com","port":27025,"enabled":true,"region":"us-central","cc":"us","latitude":41.881832,"longitude":-87.62318,"reserved":0,"last_update":"0001-01-01T00:00:00Z","name_a2s":"Uncletopia | Chicago | 6 | All Maps","protocol":17,"map":"koth_highpass","folder":"tf","game":"Team Fortress","app_id":440,"player_count":0,"max_players":24,"Bots":0,"server_type":"Dedicated","server_os":"Linux","password":true,"vac":true,"version":"7757534","steam_id":85568392924866363,"keywords":["cp","nocrits","nodmgspread","uncletopia"],"game_id":440,"stv_port":27026,"stv_name":"Uncletopia | Chicago | 6 | All Maps | STV","players":null},{"server_id":38,"name":"Uncletopia | Chicago | 7 | Stopwatch Beta","name_short":"chi-7","host":"chi-2.us.uncletopia.com","port":27035,"enabled":true,"region":"us-central","cc":"us","latitude":41.881832,"longitude":-87.62318,"reserved":0,"last_update":"0001-01-01T00:00:00Z","name_a2s":"Uncletopia | Chicago | 7 | Stopwatch Beta","protocol":17,"map":"cp_metalworks","folder":"tf","game":"Team Fortress","app_id":440,"player_count":23,"max_players":24,"Bots":0,"server_type":"Dedicated","server_os":"Linux","password":true,"vac":true,"version":"7757534","steam_id":85568392924866364,"keywords":["cp","nocrits","nodmgspread","uncletopia"],"game_id":440,"stv_port":27036,"stv_name":"Uncletopia | Chicago | 7 | Stopwatch Beta | STV","players":[{"user_id":6,"name":"Fresh Lychee","steam_id":76561198045399559,"connected_time":5361000000000,"state":"active","ping":47},{"user_id":40,"name":"FULCRUM faded than a ho","steam_id":76561198274959371,"connected_time":2702000000000,"state":"active","ping":65},{"user_id":91,"name":"Rose Wolf","steam_id":76561198437084762,"connected_time":325000000000,"state":"active","ping":84},{"user_id":59,"name":"Mer Mer","steam_id":76561197967143665,"connected_time":2134000000000,"state":"active","ping":63},{"user_id":98,"name":"moonage72","steam_id":76561199187008629,"connected_time":37000000000,"state":"active","ping":60},{"user_id":68,"name":"shadow6","steam_id":76561197979807910,"connected_time":1693000000000,"state":"active","ping":156},{"user_id":49,"name":"rumes","steam_id":76561198349219467,"connected_time":2483000000000,"state":"active","ping":88},{"user_id":99,"name":"Mr Toxic","steam_id":76561198040057167,"connected_time":32000000000,"state":"active","ping":79},{"user_id":54,"name":"Bully Maguire","steam_id":76561199081621029,"connected_time":2301000000000,"state":"active","ping":99},{"user_id":89,"name":"Trevj1012","steam_id":76561198107906712,"connected_time":617000000000,"state":"active","ping":85},{"user_id":88,"name":"davescoz","steam_id":76561198860990381,"connected_time":786000000000,"state":"active","ping":132},{"user_id":58,"name":"fox","steam_id":76561198079646701,"connected_time":2236000000000,"state":"active","ping":85},{"user_id":64,"name":"epec gaymer","steam_id":76561198274274539,"connected_time":1897000000000,"state":"active","ping":104},{"user_id":79,"name":"toastman","steam_id":76561198207073088,"connected_time":1351000000000,"state":"active","ping":98},{"user_id":66,"name":"Traffic Cone Collector","steam_id":76561199021463213,"connected_time":1874000000000,"state":"active","ping":127},{"user_id":43,"name":"Cat snack","steam_id":76561199477091791,"connected_time":2671000000000,"state":"active","ping":101},{"user_id":94,"name":"November","steam_id":76561198131631865,"connected_time":251000000000,"state":"active","ping":80},{"user_id":80,"name":"IanTheAwsm","steam_id":76561198093031738,"connected_time":1347000000000,"state":"active","ping":70},{"user_id":97,"name":"a mass hallucination","steam_id":76561198259092181,"connected_time":102000000000,"state":"active","ping":64},{"user_id":96,"name":"Poop Deck Joe","steam_id":76561198271397568,"connected_time":116000000000,"state":"active","ping":91},{"user_id":100,"name":"AP","steam_id":76561198202273263,"connected_time":3000000000,"state":"spawning","ping":43},{"user_id":93,"name":"GPLv2","steam_id":76561198113096772,"connected_time":261000000000,"state":"active","ping":128},{"user_id":81,"name":"Aeris","steam_id":76561198287271028,"connected_time":1336000000000,"state":"active","ping":59}]},{"server_id":39,"name":"Uncletopia | Chicago | 8 | Community","name_short":"chi-8","host":"chi-2.us.uncletopia.com","port":27045,"enabled":true,"region":"us-central","cc":"us","latitude":41.881832,"longitude":-87.62318,"reserved":0,"last_update":"0001-01-01T00:00:00Z","name_a2s":"Uncletopia | Chicago | 8 | Community","protocol":17,"map":"koth_cascade","folder":"tf","game":"Team Fortress","app_id":440,"player_count":0,"max_players":24,"Bots":0,"server_type":"Dedicated","server_os":"Linux","password":true,"vac":true,"version":"7757534","steam_id":85568392924866365,"keywords":["cp","nocrits","nodmgspread","uncletopia"],"game_id":440,"stv_port":27046,"stv_name":"Uncletopia | Chicago | 8 | Community | STV","players":null},{"server_id":8,"name":"Uncletopia | Dallas | 1 | All Maps","name_short":"dal-1","host":"dal-1.us.uncletopia.com","port":27015,"enabled":true,"region":"us-central","cc":"us","latitude":32.779167,"longitude":-96.80889,"reserved":0,"last_update":"0001-01-01T00:00:00Z","name_a2s":"Uncletopia | Dallas | 1 | All Maps","protocol":17,"map":"pl_swiftwater_final1","folder":"tf","game":"Team Fortress","app_id":440,"player_count":24,"max_players":24,"Bots":0,"server_type":"Dedicated","server_os":"Linux","password":true,"vac":true,"version":"7757534","steam_id":85568392924469986,"keywords":["nocrits","nodmgspread","payload","uncletopia"],"game_id":440,"stv_port":27016,"stv_name":"Uncletopia | Dallas | 1 | All Maps | STV","players":[{"user_id":128,"name":"Arrluk","steam_id":76561198396679452,"connected_time":2866000000000,"state":"active","ping":63},{"user_id":111,"name":"Pope","steam_id":76561198053768137,"connected_time":3926000000000,"state":"active","ping":45},{"user_id":154,"name":"Snugboo","steam_id":76561198147970327,"connected_time":898000000000,"state":"active","ping":75},{"user_id":132,"name":"Ritzy","steam_id":76561198381955342,"connected_time":2777000000000,"state":"active","ping":162},{"user_id":134,"name":"StealthyLlama24","steam_id":76561198045551474,"connected_time":2546000000000,"state":"active","ping":62},{"user_id":161,"name":"HeRBieToKeS420","steam_id":76561199061380038,"connected_time":20000000000,"state":"active","ping":74},{"user_id":102,"name":"=7Cav=SGT.Smith.V","steam_id":76561198104044042,"connected_time":4743000000000,"state":"active","ping":74},{"user_id":56,"name":"Ghoul of Fool","steam_id":76561197973274983,"connected_time":8610000000000,"state":"active","ping":75},{"user_id":122,"name":"deech","steam_id":76561198066429444,"connected_time":2940000000000,"state":"active","ping":85},{"user_id":136,"name":"The Booboo Giver","steam_id":76561198021649180,"connected_time":2326000000000,"state":"active","ping":81},{"user_id":80,"name":"a bucket of chicken","steam_id":76561198023710042,"connected_time":6129000000000,"state":"active","ping":48},{"user_id":149,"name":"Whopper Enjoyer","steam_id":76561199163263543,"connected_time":1387000000000,"state":"active","ping":103},{"user_id":153,"name":"Jarvis from Avengers","steam_id":76561198164035863,"connected_time":917000000000,"state":"active","ping":79},{"user_id":160,"name":"Terratomere","steam_id":76561198067716320,"connected_time":54000000000,"state":"active","ping":114},{"user_id":121,"name":"ShukSama","steam_id":76561198322357608,"connected_time":2944000000000,"state":"active","ping":75},{"user_id":156,"name":"[glue-sn1fferz] Astro","steam_id":76561199012496747,"connected_time":443000000000,"state":"active","ping":72},{"user_id":142,"name":"MonkeyWithPowerTools","steam_id":76561198030291655,"connected_time":1587000000000,"state":"active","ping":70},{"user_id":157,"name":"Amelia OwO","steam_id":76561198353387222,"connected_time":435000000000,"state":"active","ping":71},{"user_id":155,"name":"nick.hines","steam_id":76561198975207983,"connected_time":625000000000,"state":"active","ping":46},{"user_id":127,"name":"Fresh0c0","steam_id":76561198271933283,"connected_time":2892000000000,"state":"active","ping":81},{"user_id":130,"name":"Aeonspassed","steam_id":76561198014016451,"connected_time":2848000000000,"state":"active","ping":103},{"user_id":97,"name":"ÔºîÔºê Ôº¶Ôº∞Ôº≥","steam_id":76561198272394965,"connected_time":5003000000000,"state":"active","ping":151},{"user_id":120,"name":"Axelpars [B.A.L.S]","steam_id":76561198830510901,"connected_time":2965000000000,"state":"active","ping":47},{"user_id":131,"name":"fnewland","steam_id":76561197986051713,"connected_time":2848000000000,"state":"active","ping":98}]},{"server_id":108,"name":"Uncletopia | Dallas | 2 | All Maps","name_short":"dal-2","host":"dal-1.us.uncletopia.com","port":27025,"enabled":true,"region":"us-central","cc":"us","latitude":32.779167,"longitude":-96.80889,"reserved":0,"last_update":"0001-01-01T00:00:00Z","name_a2s":"Uncletopia | Dallas | 2 | All Maps","protocol":17,"map":"cp_powerhouse","folder":"tf","game":"Team Fortress","app_id":440,"player_count":23,"max_players":24,"Bots":0,"server_type":"Dedicated","server_os":"Linux","password":true,"vac":true,"version":"7757534","steam_id":85568392924469988,"keywords":["cp","nocrits","nodmgspread","uncletopia"],"game_id":440,"stv_port":27026,"stv_name":"Uncletopia | Dallas | 2 | All Maps | STV","players":[{"user_id":125,"name":"Gaming in the Clinton Years","steam_id":76561198111259720,"connected_time":1175000000000,"state":"active","ping":77},{"user_id":80,"name":"witty 2024","steam_id":76561198165567310,"connected_time":4656000000000,"state":"active","ping":64},{"user_id":137,"name":"Goblin Merchant (50 OFF)","steam_id":76561199323707429,"connected_time":18000000000,"state":"active","ping":88},{"user_id":138,"name":"Smart Fella","steam_id":76561198397662124,"connected_time":5000000000,"state":"spawning","ping":154},{"user_id":139,"name":"Try Gardening","steam_id":76561198120311340,"connected_time":2000000000,"state":"spawning","ping":67},{"user_id":79,"name":"Unreliable Narrator","steam_id":76561198021303959,"connected_time":4826000000000,"state":"active","ping":68},{"user_id":94,"name":"Marijuana is MK ULTRA","steam_id":76561198091111592,"connected_time":3745000000000,"state":"active","ping":67},{"user_id":131,"name":"TheSecretNewbie","steam_id":76561198194671218,"connected_time":433000000000,"state":"active","ping":60},{"user_id":107,"name":"wezeer","steam_id":76561198407577922,"connected_time":2694000000000,"state":"active","ping":86},{"user_id":134,"name":"Mr. Bixby","steam_id":76561198868839264,"connected_time":203000000000,"state":"active","ping":45},{"user_id":113,"name":"Ex-Phlogger","steam_id":76561198400058665,"connected_time":2374000000000,"state":"active","ping":82},{"user_id":116,"name":"ImNotPete","steam_id":76561199354935347,"connected_time":1775000000000,"state":"active","ping":86},{"user_id":114,"name":"mola","steam_id":76561198036283992,"connected_time":2191000000000,"state":"active","ping":71},{"user_id":120,"name":"silly girl","steam_id":76561198186390474,"connected_time":1418000000000,"state":"active","ping":108},{"user_id":130,"name":"Mort Strudel","steam_id":76561198041024295,"connected_time":487000000000,"state":"active","ping":105},{"user_id":126,"name":"pixl","steam_id":76561198159732718,"connected_time":1121000000000,"state":"active","ping":72},{"user_id":133,"name":"kratom-bro","steam_id":76561198171087158,"connected_time":307000000000,"state":"active","ping":91},{"user_id":135,"name":"momb","steam_id":76561198142234038,"connected_time":30000000000,"state":"active","ping":84},{"user_id":122,"name":"cremeoner","steam_id":76561198372332251,"connected_time":1390000000000,"state":"active","ping":75},{"user_id":129,"name":"Rifter","steam_id":76561198077430698,"connected_time":549000000000,"state":"active","ping":54},{"user_id":112,"name":"That Guy","steam_id":76561198798973444,"connected_time":2448000000000,"state":"active","ping":91},{"user_id":61,"name":"nav","steam_id":76561198872608266,"connected_time":6452000000000,"state":"active","ping":86},{"user_id":136,"name":"Cable_tz","steam_id":76561199078745117,"connected_time":29000000000,"state":"active","ping":92}]},{"server_id":5,"name":"Uncletopia | Frankfurt | 1 | All Maps","name_short":"frk-1","host":"frk-1.de.uncletopia.com","port":27015,"enabled":true,"region":"eu","cc":"de","latitude":50.110924,"longitude":8.682127,"reserved":0,"last_update":"0001-01-01T00:00:00Z","name_a2s":"Uncletopia | Frankfurt | 1 | All Maps","protocol":17,"map":"pl_snowycoast","folder":"tf","game":"Team Fortress","app_id":440,"player_count":24,"max_players":24,"Bots":0,"server_type":"Dedicated","server_os":"Linux","password":true,"vac":true,"version":"7757534","steam_id":85568392924469989,"keywords":["nocrits","nodmgspread","payload","uncletopia"],"game_id":440,"stv_port":27016,"stv_name":"Uncletopia | Frankfurt | 1 | All Maps | STV","players":[{"user_id":234,"name":"Ecton","steam_id":76561198025103720,"connected_time":1088000000000,"state":"active","ping":60},{"user_id":208,"name":"Mr_Pulse_","steam_id":76561198095001602,"connected_time":3287000000000,"state":"active","ping":92},{"user_id":241,"name":"Lordware","steam_id":76561198022011299,"connected_time":580000000000,"state":"active","ping":112},{"user_id":231,"name":"Adrenaline","steam_id":76561197970852048,"connected_time":1359000000000,"state":"active","ping":60},{"user_id":210,"name":"Dog ?","steam_id":76561198347020945,"connected_time":2898000000000,"state":"active","ping":77},{"user_id":249,"name":"Ôº≠ÔΩÅÔΩÉÔΩâÔΩéÔΩîÔΩèÔΩìÔΩà","steam_id":76561198074294565,"connected_time":451000000000,"state":"active","ping":80},{"user_id":242,"name":"christmas with weezer","steam_id":76561198863788240,"connected_time":575000000000,"state":"active","ping":71},{"user_id":232,"name":"Sylbar","steam_id":76561198065379590,"connected_time":1106000000000,"state":"active","ping":61},{"user_id":204,"name":"Ebola","steam_id":76561198147828459,"connected_time":3600000000000,"state":"active","ping":80},{"user_id":171,"name":"John Noob","steam_id":76561197999170026,"connected_time":5419000000000,"state":"active","ping":88},{"user_id":220,"name":"Urfangonultasadana","steam_id":76561199389286151,"connected_time":2416000000000,"state":"active","ping":110},{"user_id":235,"name":"Husk","steam_id":76561198271808519,"connected_time":1074000000000,"state":"active","ping":55},{"user_id":221,"name":"knees","steam_id":76561198005924647,"connected_time":2361000000000,"state":"active","ping":70},{"user_id":243,"name":"O¬¥Connor","steam_id":76561198271977086,"connected_time":570000000000,"state":"active","ping":102},{"user_id":226,"name":"Charged","steam_id":76561199127215130,"connected_time":1998000000000,"state":"active","ping":89},{"user_id":244,"name":"Ander Escobar","steam_id":76561198335366902,"connected_time":569000000000,"state":"active","ping":97},{"user_id":251,"name":"Reisen","steam_id":76561199174579733,"connected_time":307000000000,"state":"active","ping":137},{"user_id":246,"name":"jones","steam_id":76561198044434971,"connected_time":568000000000,"state":"active","ping":60},{"user_id":239,"name":"Gio'sMonkey","steam_id":76561198892432223,"connected_time":851000000000,"state":"active","ping":81},{"user_id":224,"name":"Largo","steam_id":76561198844368927,"connected_time":2044000000000,"state":"active","ping":60},{"user_id":200,"name":"Waltcha","steam_id":76561198007691468,"connected_time":4218000000000,"state":"active","ping":61},{"user_id":247,"name":"üÉî Nugg1t(sme/lly)","steam_id":76561198065652251,"connected_time":546000000000,"state":"active","ping":45},{"user_id":237,"name":"Yoto Hime","steam_id":76561198171569702,"connected_time":1043000000000,"state":"active","ping":92},{"user_id":202,"name":"Kolanciasty ‚ô•","steam_id":76561198020042179,"connected_time":4126000000000,"state":"active","ping":86}]},{"server_id":110,"name":"Uncletopia | Frankfurt | 2 | All Maps","name_short":"frk-2","host":"frk-1.de.uncletopia.com","port":27025,"enabled":true,"region":"eu","cc":"de","latitude":50.110924,"longitude":8.682127,"reserved":0,"last_update":"0001-01-01T00:00:00Z","name_a2s":"Uncletopia | Frankfurt | 2 | All Maps","protocol":17,"map":"pl_borneo","folder":"tf","game":"Team Fortress","app_id":440,"player_count":23,"max_players":24,"Bots":0,"server_type":"Dedicated","server_os":"Linux","password":true,"vac":true,"version":"7757534","steam_id":85568392924469990,"keywords":["nocrits","nodmgspread","payload","uncletopia"],"game_id":440,"stv_port":27026,"stv_name":"Uncletopia | Frankfurt | 2 | All Maps | STV","players":[{"user_id":132,"name":"Ricky Dicky Grimes","steam_id":76561198065506317,"connected_time":415000000000,"state":"active","ping":62},{"user_id":126,"name":"wickEd_","steam_id":76561198048068999,"connected_time":1195000000000,"state":"active","ping":136},{"user_id":78,"name":"G6 sherlock","steam_id":76561198802967796,"connected_time":4345000000000,"state":"active","ping":123},{"user_id":116,"name":"2BCD","steam_id":76561198178254946,"connected_time":1705000000000,"state":"active","ping":69},{"user_id":51,"name":"ParussMan","steam_id":76561198446245146,"connected_time":5110000000000,"state":"active","ping":104},{"user_id":118,"name":"Mr.Schnittlauch","steam_id":76561198295868113,"connected_time":1570000000000,"state":"active","ping":67},{"user_id":98,"name":"night.s","steam_id":76561198326287823,"connected_time":2752000000000,"state":"active","ping":76},{"user_id":123,"name":"lqmabalz","steam_id":76561198034264020,"connected_time":1270000000000,"state":"active","ping":119},{"user_id":125,"name":"Syll","steam_id":76561198040736202,"connected_time":1203000000000,"state":"active","ping":88},{"user_id":120,"name":"Dispenser (Lopata)","steam_id":76561198820264239,"connected_time":1543000000000,"state":"active","ping":89},{"user_id":110,"name":"ÀêujelÀê","steam_id":76561198106995292,"connected_time":1997000000000,"state":"active","ping":87},{"user_id":129,"name":"malink√Ω","steam_id":76561198048683488,"connected_time":504000000000,"state":"active","ping":58},{"user_id":112,"name":"g3l3ntix","steam_id":76561198146386653,"connected_time":1953000000000,"state":"active","ping":82},{"user_id":69,"name":"SocialistBacon","steam_id":76561198055872267,"connected_time":4706000000000,"state":"active","ping":74},{"user_id":134,"name":"MAKENTAKEN","steam_id":76561199127359587,"connected_time":61000000000,"state":"active","ping":93},{"user_id":91,"name":"XPullaHiiri","steam_id":76561198031652375,"connected_time":3353000000000,"state":"active","ping":87},{"user_id":113,"name":"Markein","steam_id":76561198360754280,"connected_time":1898000000000,"state":"active","ping":45},{"user_id":107,"name":"giclure :;","steam_id":76561197986362828,"connected_time":2208000000000,"state":"active","ping":111},{"user_id":71,"name":"Noob_with_source","steam_id":76561198870362103,"connected_time":4690000000000,"state":"active","ping":63},{"user_id":105,"name":"RiX","steam_id":76561197969053733,"connected_time":2400000000000,"state":"active","ping":73},{"user_id":87,"name":"we drainin","steam_id":76561199195985387,"connected_time":3904000000000,"state":"active","ping":79},{"user_id":77,"name":"Typical italian girl","steam_id":76561199134200785,"connected_time":4484000000000,"state":"active","ping":68},{"user_id":131,"name":"Shelk0","steam_id":76561198153349968,"connected_time":422000000000,"state":"active","ping":85}]},{"server_id":308,"name":"Uncletopia | Frankfurt | 3 | All Maps","name_short":"frk-3","host":"frk-1.de.uncletopia.com","port":27035,"enabled":true,"region":"eu","cc":"de","latitude":50.110924,"longitude":8.682127,"reserved":0,"last_update":"0001-01-01T00:00:00Z","name_a2s":"Uncletopia | Frankfurt | 3 | All Maps","protocol":17,"map":"cp_granary","folder":"tf","game":"Team Fortress","app_id":440,"player_count":0,"max_players":24,"Bots":0,"server_type":"Dedicated","server_os":"Linux","password":true,"vac":true,"version":"7757534","steam_id":85568392924504274,"keywords":["cp","nocrits","nodmgspread","uncletopia"],"game_id":440,"stv_port":27036,"stv_name":"Uncletopia | Frankfurt | 3 | All Maps | STV","players":null},{"server_id":309,"name":"Uncletopia | Frankfurt | 4 | All Maps","name_short":"frk-4","host":"frk-1.de.uncletopia.com","port":27045,"enabled":true,"region":"eu","cc":"de","latitude":50.110924,"longitude":8.682127,"reserved":0,"last_update":"0001-01-01T00:00:00Z","name_a2s":"Uncletopia | Frankfurt | 4 | All Maps","protocol":17,"map":"cp_metalworks","folder":"tf","game":"Team Fortress","app_id":440,"player_count":21,"max_players":24,"Bots":0,"server_type":"Dedicated","server_os":"Linux","password":true,"vac":true,"version":"7757534","steam_id":85568392924504275,"keywords":["cp","nocrits","nodmgspread","uncletopia"],"game_id":440,"stv_port":27046,"stv_name":"Uncletopia | Frankfurt | 4 | All Maps | STV","players":[{"user_id":555,"name":"o","steam_id":76561198066799770,"connected_time":138000000000,"state":"active","ping":67},{"user_id":548,"name":"phntom","steam_id":76561198811143648,"connected_time":784000000000,"state":"active","ping":86},{"user_id":505,"name":"Fran","steam_id":76561199070516960,"connected_time":4390000000000,"state":"active","ping":60},{"user_id":554,"name":"typicalcrimson","steam_id":76561198295439747,"connected_time":330000000000,"state":"active","ping":63},{"user_id":519,"name":"teslatruck","steam_id":76561199477495923,"connected_time":3118000000000,"state":"active","ping":61},{"user_id":562,"name":"Aimrow","steam_id":76561198023275245,"connected_time":14000000000,"state":"spawning","ping":79},{"user_id":551,"name":"nicco","steam_id":76561198046217866,"connected_time":446000000000,"state":"active","ping":39},{"user_id":502,"name":"Most Palone","steam_id":76561198267612598,"connected_time":4557000000000,"state":"active","ping":95},{"user_id":536,"name":"–±–ª–∏–Ω!","steam_id":76561198808819694,"connected_time":1329000000000,"state":"active","ping":47},{"user_id":525,"name":"DaBro","steam_id":76561198842870459,"connected_time":2869000000000,"state":"active","ping":137},{"user_id":563,"name":"pippis!","steam_id":76561198264553801,"connected_time":10000000000,"state":"spawning","ping":178},{"user_id":459,"name":"StabbyKnife","steam_id":76561198094010004,"connected_time":8739000000000,"state":"active","ping":84},{"user_id":482,"name":"JC","steam_id":76561198029213352,"connected_time":6012000000000,"state":"active","ping":45},{"user_id":526,"name":"GamingCarp","steam_id":76561198285235511,"connected_time":2776000000000,"state":"active","ping":58},{"user_id":564,"name":"makin' piss","steam_id":76561198052136478,"connected_time":7000000000,"state":"spawning","ping":85},{"user_id":543,"name":"akakez","steam_id":76561198095432821,"connected_time":1133000000000,"state":"active","ping":134},{"user_id":560,"name":"lofimonkeyjazz","steam_id":76561198117059662,"connected_time":77000000000,"state":"active","ping":79},{"user_id":545,"name":"Malik794","steam_id":76561198967164437,"connected_time":1016000000000,"state":"active","ping":111},{"user_id":507,"name":"The Punch","steam_id":76561198212488780,"connected_time":4135000000000,"state":"active","ping":58},{"user_id":546,"name":"hodeiraeta","steam_id":76561198954369215,"connected_time":996000000000,"state":"active","ping":90},{"user_id":552,"name":"Maru","steam_id":76561198030931030,"connected_time":442000000000,"state":"active","ping":69}]},{"server_id":310,"name":"Uncletopia | Frankfurt | 5 | All Maps","name_short":"frk-5","host":"frk-1.de.uncletopia.com","port":27055,"enabled":true,"region":"eu","cc":"de","latitude":50.110924,"longitude":8.682127,"reserved":0,"last_update":"0001-01-01T00:00:00Z","name_a2s":"Uncletopia | Frankfurt | 5 | All Maps","protocol":17,"map":"koth_lakeside_final","folder":"tf","game":"Team Fortress","app_id":440,"player_count":0,"max_players":24,"Bots":0,"server_type":"Dedicated","server_os":"Linux","password":true,"vac":true,"version":"7757534","steam_id":85568392924504277,"keywords":["cp","nocrits","nodmgspread","uncletopia"],"game_id":440,"stv_port":27056,"stv_name":"Uncletopia | Frankfurt | 5 | All Maps | STV","players":null},{"server_id":311,"name":"Uncletopia | Frankfurt | 6 | All Maps","name_short":"frk-6","host":"frk-1.de.uncletopia.com","port":27065,"enabled":true,"region":"eu","cc":"de","latitude":50.110924,"longitude":8.682127,"reserved":0,"last_update":"0001-01-01T00:00:00Z","name_a2s":"Uncletopia | Frankfurt | 6 | All Maps","protocol":17,"map":"pl_badwater","folder":"tf","game":"Team Fortress","app_id":440,"player_count":24,"max_players":24,"Bots":0,"server_type":"Dedicated","server_os":"Linux","password":true,"vac":true,"version":"7757534","steam_id":85568392924504278,"keywords":["nocrits","nodmgspread","payload","uncletopia"],"game_id":440,"stv_port":27066,"stv_name":"Uncletopia | Frankfurt | 6 | All Maps | STV","players":[{"user_id":475,"name":"2023","steam_id":76561198857712172,"connected_time":804000000000,"state":"active","ping":54},{"user_id":482,"name":"Lep≈°√≠ zavolat Saulovi","steam_id":76561199057576622,"connected_time":315000000000,"state":"active","ping":74},{"user_id":453,"name":"David \"Crash\" Murphy","steam_id":76561198292845505,"connected_time":3077000000000,"state":"active","ping":102},{"user_id":455,"name":"noodlehairronaldoprime","steam_id":76561199471954402,"connected_time":3041000000000,"state":"active","ping":58},{"user_id":432,"name":"galaxy","steam_id":76561198164819022,"connected_time":3821000000000,"state":"active","ping":68},{"user_id":476,"name":"ÊÇ™","steam_id":76561198095879087,"connected_time":784000000000,"state":"active","ping":60},{"user_id":477,"name":"goktwoxd","steam_id":76561198065114415,"connected_time":770000000000,"state":"active","ping":75},{"user_id":454,"name":"Turtle Fuckers 2","steam_id":76561198071938027,"connected_time":3068000000000,"state":"active","ping":50},{"user_id":478,"name":"stonebum","steam_id":76561198057004606,"connected_time":728000000000,"state":"active","ping":52},{"user_id":439,"name":"pardner","steam_id":76561198451471161,"connected_time":3627000000000,"state":"active","ping":68},{"user_id":421,"name":"chidory41","steam_id":76561199404844130,"connected_time":4738000000000,"state":"active","ping":85},{"user_id":444,"name":"FOREST","steam_id":76561198180871554,"connected_time":3480000000000,"state":"active","ping":114},{"user_id":479,"name":"gosi","steam_id":76561198084111532,"connected_time":713000000000,"state":"active","ping":59},{"user_id":447,"name":"etc","steam_id":76561197998394797,"connected_time":3395000000000,"state":"active","ping":56},{"user_id":483,"name":"Tri-","steam_id":76561198133524794,"connected_time":3000000000,"state":"spawning","ping":48},{"user_id":470,"name":"Gearless","steam_id":76561198362367074,"connected_time":1724000000000,"state":"active","ping":69},{"user_id":468,"name":"Bob Sacamano","steam_id":76561198085610701,"connected_time":2228000000000,"state":"active","ping":91},{"user_id":413,"name":"Pico","steam_id":76561198063552545,"connected_time":5439000000000,"state":"active","ping":92},{"user_id":480,"name":"kreeekz","steam_id":76561198014431602,"connected_time":684000000000,"state":"active","ping":72},{"user_id":466,"name":"EEEEEH","steam_id":76561198126717413,"connected_time":2348000000000,"state":"active","ping":82},{"user_id":472,"name":"Lord of the Thumbs","steam_id":76561198203140640,"connected_time":1374000000000,"state":"active","ping":84},{"user_id":458,"name":"Drazmax","steam_id":76561198116750395,"connected_time":2671000000000,"state":"active","ping":79},{"user_id":469,"name":"GuSkand","steam_id":76561198043775605,"connected_time":1855000000000,"state":"active","ping":81},{"user_id":467,"name":"Riel","steam_id":76561198066017633,"connected_time":2326000000000,"state":"active","ping":75}]},{"server_id":23,"name":"Uncletopia | Frankfurt | 7 | Stopwatch Beta","name_short":"frk-7","host":"frk-1.de.uncletopia.com","port":27075,"enabled":true,"region":"eu","cc":"de","latitude":50.110924,"longitude":8.682127,"reserved":0,"last_update":"0001-01-01T00:00:00Z","name_a2s":"Uncletopia | Frankfurt | 7 | Stopwatch Beta","protocol":17,"map":"workshop/koth_bagel_rc6.ugc2514036946","folder":"tf","game":"Team Fortress","app_id":440,"player_count":22,"max_players":24,"Bots":0,"server_type":"Dedicated","server_os":"Linux","password":true,"vac":true,"version":"7757534","steam_id":85568392924742827,"keywords":["cp","nocrits","nodmgspread","uncletopia"],"game_id":440,"stv_port":27076,"stv_name":"Uncletopia | Frankfurt | 7 | Stopwatch Beta | STV","players":[{"user_id":349,"name":"Jonathan","steam_id":76561198087988880,"connected_time":7277000000000,"state":"active","ping":45},{"user_id":416,"name":"Farmercy","steam_id":76561198000038039,"connected_time":1816000000000,"state":"active","ping":60},{"user_id":412,"name":"pond","steam_id":76561198214849363,"connected_time":2064000000000,"state":"active","ping":77},{"user_id":431,"name":"Momovsky","steam_id":76561198005738407,"connected_time":889000000000,"state":"active","ping":86},{"user_id":373,"name":"Zox","steam_id":76561198214232577,"connected_time":5088000000000,"state":"active","ping":52},{"user_id":438,"name":"JAMES \"JIM\" COURIER","steam_id":76561198847048146,"connected_time":57000000000,"state":"active","ping":74},{"user_id":419,"name":"rodeokuchen","steam_id":76561198061435102,"connected_time":1705000000000,"state":"active","ping":56},{"user_id":437,"name":"Theo","steam_id":76561198144205951,"connected_time":197000000000,"state":"active","ping":104},{"user_id":327,"name":"PizzaPete123","steam_id":76561198089478290,"connected_time":9756000000000,"state":"active","ping":59},{"user_id":434,"name":"Lukas","steam_id":76561198009118452,"connected_time":601000000000,"state":"active","ping":60},{"user_id":384,"name":"Fat Pigeon","steam_id":76561198817940142,"connected_time":3835000000000,"state":"active","ping":53},{"user_id":394,"name":"silicon based life form","steam_id":76561199127121346,"connected_time":3551000000000,"state":"active","ping":69},{"user_id":340,"name":"X-tis","steam_id":76561198043837480,"connected_time":8014000000000,"state":"active","ping":75},{"user_id":436,"name":"Danctor_","steam_id":76561198172384885,"connected_time":385000000000,"state":"active","ping":68},{"user_id":429,"name":"Rigby","steam_id":76561198021552128,"connected_time":1348000000000,"state":"active","ping":101},{"user_id":424,"name":"Quartzy","steam_id":76561198313301520,"connected_time":1510000000000,"state":"active","ping":46},{"user_id":425,"name":"Arti","steam_id":76561197983352845,"connected_time":1468000000000,"state":"active","ping":72},{"user_id":147,"name":"Welder","steam_id":76561198355300561,"connected_time":21353000000000,"state":"active","ping":67},{"user_id":430,"name":"Topme","steam_id":76561198091734693,"connected_time":1164000000000,"state":"active","ping":77},{"user_id":427,"name":"Minimi","steam_id":76561198873850443,"connected_time":1461000000000,"state":"active","ping":64},{"user_id":428,"name":"The Bread Bringer","steam_id":76561198264079743,"connected_time":1414000000000,"state":"active","ping":45},{"user_id":330,"name":"Fish 'n' Chips","steam_id":76561198033476886,"connected_time":9737000000000,"state":"active","ping":45}]},{"server_id":24,"name":"Uncletopia | Frankfurt | 8 | Community","name_short":"frk-8","host":"frk-1.de.uncletopia.com","port":27085,"enabled":true,"region":"eu","cc":"de","latitude":50.110924,"longitude":8.682127,"reserved":0,"last_update":"0001-01-01T00:00:00Z","name_a2s":"Uncletopia | Frankfurt | 8 | Community","protocol":17,"map":"workshop/koth_slaughter_rc1.ugc1712845210","folder":"tf","game":"Team Fortress","app_id":440,"player_count":0,"max_players":24,"Bots":0,"server_type":"Dedicated","server_os":"Linux","password":true,"vac":true,"version":"7757534","steam_id":85568392924742828,"keywords":["cp","nocrits","nodmgspread","uncletopia"],"game_id":440,"stv_port":27086,"stv_name":"Uncletopia | Frankfurt | 8 | Community | STV","players":null},{"server_id":202,"name":"Uncletopia | Hong Kong | 1 | All Maps","name_short":"hgk-1","host":"hgk-1.hk.uncletopia.com","port":27015,"enabled":true,"region":"asia","cc":"hk","latitude":22.302711,"longitude":114.177216,"reserved":0,"last_update":"0001-01-01T00:00:00Z","name_a2s":"Uncletopia | Hong Kong | 1 | All Maps","protocol":17,"map":"koth_cascade","folder":"tf","game":"Team Fortress","app_id":440,"player_count":0,"max_players":24,"Bots":0,"server_type":"Dedicated","server_os":"Linux","password":true,"vac":true,"version":"7757534","steam_id":85568392924494504,"keywords":["cp","nocrits","nodmgspread","uncletopia"],"game_id":440,"stv_port":27016,"stv_name":"Uncletopia | Hong Kong | 1 | All Maps | STV","players":null},{"server_id":1,"name":"Uncletopia | Los Angeles | 1 | All Maps","name_short":"lax-1","host":"lax-1.us.uncletopia.com","port":27015,"enabled":true,"region":"us-west","cc":"us","latitude":33.94279,"longitude":-118.41004,"reserved":0,"last_update":"0001-01-01T00:00:00Z","name_a2s":"Uncletopia | Los Angeles | 1 | All Maps","protocol":17,"map":"koth_lakeside_final","folder":"tf","game":"Team Fortress","app_id":440,"player_count":0,"max_players":24,"Bots":0,"server_type":"Dedicated","server_os":"Linux","password":true,"vac":true,"version":"7757534","steam_id":85568392924469991,"keywords":["cp","nocrits","nodmgspread","uncletopia"],"game_id":440,"stv_port":27016,"stv_name":"Uncletopia | Los Angeles | 1 | All Maps | STV","players":null},{"server_id":112,"name":"Uncletopia | Los Angeles | 2 | All Maps","name_short":"lax-2","host":"lax-1.us.uncletopia.com","port":27025,"enabled":true,"region":"us-west","cc":"us","latitude":33.94279,"longitude":-118.41004,"reserved":0,"last_update":"0001-01-01T00:00:00Z","name_a2s":"Uncletopia | Los Angeles | 2 | All Maps","protocol":17,"map":"pl_barnblitz","folder":"tf","game":"Team Fortress","app_id":440,"player_count":13,"max_players":24,"Bots":0,"server_type":"Dedicated","server_os":"Linux","password":true,"vac":true,"version":"7757534","steam_id":85568392924469992,"keywords":["nocrits","nodmgspread","payload","uncletopia"],"game_id":440,"stv_port":27026,"stv_name":"Uncletopia | Los Angeles | 2 | All Maps | STV","players":[{"user_id":12,"name":"Granlet","steam_id":76561199244312225,"connected_time":2564000000000,"state":"active","ping":61},{"user_id":16,"name":"goongremlin","steam_id":76561198278196215,"connected_time":1615000000000,"state":"active","ping":55},{"user_id":13,"name":"copium addict","steam_id":76561199401665282,"connected_time":2432000000000,"state":"active","ping":233},{"user_id":14,"name":"CrackedSanity","steam_id":76561198279841251,"connected_time":2428000000000,"state":"active","ping":45},{"user_id":23,"name":"Satori Komeiji","steam_id":76561198158211423,"connected_time":863000000000,"state":"active","ping":42},{"user_id":20,"name":"Andreshatesmondays","steam_id":76561198889349797,"connected_time":954000000000,"state":"active","ping":42},{"user_id":21,"name":"nothowon","steam_id":76561198937601452,"connected_time":942000000000,"state":"active","ping":102},{"user_id":22,"name":"MegaBitmap","steam_id":76561198086027059,"connected_time":930000000000,"state":"active","ping":82},{"user_id":26,"name":"Mr. Blubber","steam_id":76561198338906916,"connected_time":293000000000,"state":"active","ping":46},{"user_id":28,"name":"CopperBox","steam_id":76561198068217248,"connected_time":148000000000,"state":"active","ping":59},{"user_id":29,"name":"Daemon","steam_id":76561198007015109,"connected_time":127000000000,"state":"active","ping":181},{"user_id":30,"name":"Psychobanana","steam_id":76561199142143339,"connected_time":117000000000,"state":"active","ping":62},{"user_id":31,"name":"Damiano","steam_id":76561198065585796,"connected_time":92000000000,"state":"active","ping":35}]},{"server_id":324,"name":"Uncletopia | Los Angeles | 3 | All Maps","name_short":"lax-3","host":"lax-1.us.uncletopia.com","port":27035,"enabled":true,"region":"us-west","cc":"us","latitude":33.94279,"longitude":-118.41004,"reserved":0,"last_update":"0001-01-01T00:00:00Z","name_a2s":"Uncletopia | Los Angeles | 3 | All Maps","protocol":17,"map":"pl_barnblitz","folder":"tf","game":"Team Fortress","app_id":440,"player_count":0,"max_players":24,"Bots":0,"server_type":"Dedicated","server_os":"Linux","password":true,"vac":true,"version":"7757534","steam_id":85568392924510198,"keywords":["nocrits","nodmgspread","payload","uncletopia"],"game_id":440,"stv_port":27036,"stv_name":"Uncletopia | Los Angeles | 3 | All Maps | STV","players":null},{"server_id":25,"name":"Uncletopia | Los Angeles | 4 | Stopwatch Beta","name_short":"lax-4","host":"lax-1.us.uncletopia.com","port":27045,"enabled":true,"region":"us-west","cc":"us","latitude":33.94279,"longitude":-118.41004,"reserved":0,"last_update":"0001-01-01T00:00:00Z","name_a2s":"Uncletopia | Los Angeles | 4 | Stopwatch Beta","protocol":17,"map":"pl_swiftwater_final1","folder":"tf","game":"Team Fortress","app_id":440,"player_count":0,"max_players":24,"Bots":0,"server_type":"Dedicated","server_os":"Linux","password":true,"vac":true,"version":"7757534","steam_id":85568392924510199,"keywords":["nocrits","nodmgspread","payload","uncletopia"],"game_id":440,"stv_port":27046,"stv_name":"Uncletopia | Los Angeles | 4 | Stopwatch Beta | STV","players":null},{"server_id":11,"name":"Uncletopia | London | 1 | All Maps","name_short":"lon-1","host":"lon-1.uk.uncletopia.com","port":27015,"enabled":true,"region":"eu","cc":"gb","latitude":51.509865,"longitude":-0.118092,"reserved":0,"last_update":"0001-01-01T00:00:00Z","name_a2s":"Uncletopia | London | 1 | All Maps","protocol":17,"map":"koth_harvest_final","folder":"tf","game":"Team Fortress","app_id":440,"player_count":24,"max_players":24,"Bots":0,"server_type":"Dedicated","server_os":"Linux","password":true,"vac":true,"version":"7757534","steam_id":85568392924367362,"keywords":["cp","nocrits","nodmgspread","uncletopia"],"game_id":440,"stv_port":27016,"stv_name":"Uncletopia | London | 1 | All Maps | STV","players":[{"user_id":549,"name":"sacha","steam_id":76561198098065932,"connected_time":322000000000,"state":"active","ping":46},{"user_id":550,"name":"reino76","steam_id":76561198068943733,"connected_time":322000000000,"state":"active","ping":85},{"user_id":460,"name":"Sirzen","steam_id":76561198170155434,"connected_time":2200000000000,"state":"active","ping":46},{"user_id":360,"name":"Spetse","steam_id":76561197990649972,"connected_time":9014000000000,"state":"active","ping":90},{"user_id":436,"name":"Soph","steam_id":76561198131688853,"connected_time":3245000000000,"state":"active","ping":51},{"user_id":437,"name":"Son Goku","steam_id":76561199383437138,"connected_time":3236000000000,"state":"active","ping":133},{"user_id":564,"name":"raz","steam_id":76561198086124865,"connected_time":147000000000,"state":"active","ping":59},{"user_id":461,"name":"Jofiah/TTV","steam_id":76561197977233962,"connected_time":2173000000000,"state":"active","ping":43},{"user_id":440,"name":"Best Boy In Illinois","steam_id":76561198063876068,"connected_time":3209000000000,"state":"active","ping":148},{"user_id":451,"name":"Chef Magpie","steam_id":76561198043926401,"connected_time":2814000000000,"state":"active","ping":119},{"user_id":557,"name":"Desj","steam_id":76561198114212636,"connected_time":299000000000,"state":"active","ping":45},{"user_id":469,"name":"killer of noob, winner of game","steam_id":76561198190583242,"connected_time":1319000000000,"state":"active","ping":75},{"user_id":556,"name":"Lyra","steam_id":76561198043601838,"connected_time":303000000000,"state":"active","ping":61},{"user_id":367,"name":"dec","steam_id":76561198009660168,"connected_time":8131000000000,"state":"active","ping":53},{"user_id":442,"name":"ike","steam_id":76561198039845647,"connected_time":3169000000000,"state":"active","ping":61},{"user_id":563,"name":"Oxy:*","steam_id":76561198275120049,"connected_time":211000000000,"state":"active","ping":74},{"user_id":447,"name":"Testosterone","steam_id":76561198060012688,"connected_time":2971000000000,"state":"active","ping":62},{"user_id":464,"name":"nyanezt","steam_id":76561198253734265,"connected_time":2124000000000,"state":"active","ping":114},{"user_id":470,"name":"Specialluxurytouring2007","steam_id":76561198236015392,"connected_time":1253000000000,"state":"active","ping":119},{"user_id":559,"name":"Aaron","steam_id":76561197990046953,"connected_time":294000000000,"state":"active","ping":50},{"user_id":566,"name":"Slash #SaveTF2","steam_id":76561199047081427,"connected_time":130000000000,"state":"active","ping":57},{"user_id":504,"name":"zog","steam_id":76561198285862099,"connected_time":824000000000,"state":"active","ping":38},{"user_id":567,"name":"skill","steam_id":76561198106012909,"connected_time":78000000000,"state":"active","ping":80},{"user_id":519,"name":"mid goth creachur","steam_id":76561198118989010,"connected_time":697000000000,"state":"active","ping":48}]},{"server_id":114,"name":"Uncletopia | London | 2 | All Maps","name_short":"lon-2","host":"lon-1.uk.uncletopia.com","port":27025,"enabled":true,"region":"eu","cc":"gb","latitude":51.509865,"longitude":-0.118092,"reserved":0,"last_update":"0001-01-01T00:00:00Z","name_a2s":"Uncletopia | London | 2 | All Maps","protocol":17,"map":"pl_snowycoast","folder":"tf","game":"Team Fortress","app_id":440,"player_count":24,"max_players":24,"Bots":0,"server_type":"Dedicated","server_os":"Linux","password":true,"vac":true,"version":"7757534","steam_id":85568392924470941,"keywords":["nocrits","nodmgspread","payload","uncletopia"],"game_id":440,"stv_port":27026,"stv_name":"Uncletopia | London | 2 | All Maps | STV","players":[{"user_id":539,"name":"Fridge","steam_id":76561198071665589,"connected_time":840000000000,"state":"active","ping":105},{"user_id":549,"name":"anti","steam_id":76561198313440475,"connected_time":138000000000,"state":"active","ping":82},{"user_id":524,"name":"KillerQueen (he/they/she)","steam_id":76561199019399725,"connected_time":1385000000000,"state":"active","ping":46},{"user_id":540,"name":"Magic","steam_id":76561198401602586,"connected_time":759000000000,"state":"active","ping":89},{"user_id":538,"name":"‚ú™ qua ‚ú™","steam_id":76561198066408333,"connected_time":889000000000,"state":"active","ping":75},{"user_id":526,"name":"hipster_doofus","steam_id":76561197970902697,"connected_time":1370000000000,"state":"active","ping":59},{"user_id":453,"name":"Whiter Wlat","steam_id":76561198408012164,"connected_time":6930000000000,"state":"active","ping":76},{"user_id":513,"name":"P Diddy","steam_id":76561198829344838,"connected_time":1974000000000,"state":"active","ping":38},{"user_id":547,"name":"HilldogGaming","steam_id":76561198082209322,"connected_time":141000000000,"state":"active","ping":75},{"user_id":527,"name":"WinsomeYapper9","steam_id":76561199275285546,"connected_time":1364000000000,"state":"active","ping":99},{"user_id":464,"name":"Sloneczku","steam_id":76561198032886890,"connected_time":5760000000000,"state":"active","ping":85},{"user_id":543,"name":"Night Fury","steam_id":76561197995207032,"connected_time":568000000000,"state":"active","ping":83},{"user_id":517,"name":"Shovelhalfrusty","steam_id":76561198346447513,"connected_time":1820000000000,"state":"active","ping":70},{"user_id":545,"name":"dunduu","steam_id":76561198875240717,"connected_time":450000000000,"state":"active","ping":83},{"user_id":461,"name":"Apathy","steam_id":76561199308784371,"connected_time":6019000000000,"state":"active","ping":60},{"user_id":556,"name":"kojitori","steam_id":76561198838072150,"connected_time":83000000000,"state":"active","ping":46},{"user_id":550,"name":"panakid","steam_id":76561198364121077,"connected_time":136000000000,"state":"active","ping":93},{"user_id":541,"name":"meriones","steam_id":76561198034234373,"connected_time":699000000000,"state":"active","ping":43},{"user_id":557,"name":"SpilledMilk","steam_id":76561198174123971,"connected_time":77000000000,"state":"active","ping":62},{"user_id":553,"name":"NukePigg","steam_id":76561198131324143,"connected_time":123000000000,"state":"active","ping":55},{"user_id":546,"name":"Bulgur","steam_id":76561198015064675,"connected_time":245000000000,"state":"active","ping":59},{"user_id":554,"name":"he's here for what?","steam_id":76561198139303045,"connected_time":120000000000,"state":"active","ping":93},{"user_id":558,"name":"iamhereforgaming","steam_id":76561199372555988,"connected_time":55000000000,"state":"active","ping":87},{"user_id":535,"name":"Dr.Sees [F2P]","steam_id":76561199219233587,"connected_time":1265000000000,"state":"active","ping":74}]},{"server_id":320,"name":"Uncletopia | London | 3 | All Maps","name_short":"lon-3","host":"lon-1.uk.uncletopia.com","port":27035,"enabled":true,"region":"eu","cc":"gb","latitude":51.509865,"longitude":-0.118092,"reserved":0,"last_update":"0001-01-01T00:00:00Z","name_a2s":"Uncletopia | London | 3 | All Maps","protocol":17,"map":"pl_swiftwater_final1","folder":"tf","game":"Team Fortress","app_id":440,"player_count":24,"max_players":24,"Bots":0,"server_type":"Dedicated","server_os":"Linux","password":true,"vac":true,"version":"7757534","steam_id":85568392924510192,"keywords":["nocrits","nodmgspread","payload","uncletopia"],"game_id":440,"stv_port":27036,"stv_name":"Uncletopia | London | 3 | All Maps | STV","players":[{"user_id":338,"name":"Maupa","steam_id":76561198080738838,"connected_time":343000000000,"state":"active","ping":74},{"user_id":303,"name":"FluoducK","steam_id":76561198158175778,"connected_time":1821000000000,"state":"active","ping":71},{"user_id":327,"name":"Don","steam_id":76561198440393742,"connected_time":595000000000,"state":"active","ping":108},{"user_id":301,"name":"weleenkerk","steam_id":76561198143969491,"connected_time":1853000000000,"state":"active","ping":68},{"user_id":328,"name":"TheBeardedM1G","steam_id":76561198040208946,"connected_time":481000000000,"state":"active","ping":51},{"user_id":313,"name":"Pacanaz","steam_id":76561198011514552,"connected_time":1163000000000,"state":"active","ping":90},{"user_id":340,"name":"the catboy","steam_id":76561198236015506,"connected_time":302000000000,"state":"active","ping":111},{"user_id":325,"name":"Ted Kaczynski","steam_id":76561198064795519,"connected_time":629000000000,"state":"active","ping":62},{"user_id":240,"name":"Floppa-z","steam_id":76561199385382550,"connected_time":4229000000000,"state":"active","ping":119},{"user_id":277,"name":"Ixsus\u003c3","steam_id":76561198094756869,"connected_time":2707000000000,"state":"active","ping":63},{"user_id":308,"name":"Storm's Foreshadow","steam_id":76561198098462526,"connected_time":1597000000000,"state":"active","ping":74},{"user_id":330,"name":"Bromoneto","steam_id":76561198876695014,"connected_time":476000000000,"state":"active","ping":77},{"user_id":297,"name":"Xydran","steam_id":76561198042397402,"connected_time":2079000000000,"state":"active","ping":72},{"user_id":326,"name":"bimgus","steam_id":76561198208045069,"connected_time":606000000000,"state":"active","ping":45},{"user_id":319,"name":"Victoria Wood (as seen on TV)","steam_id":76561198066243851,"connected_time":911000000000,"state":"active","ping":57},{"user_id":317,"name":"gabagool","steam_id":76561198307111838,"connected_time":1106000000000,"state":"active","ping":52},{"user_id":302,"name":"Cosmetic brain","steam_id":76561198055936410,"connected_time":1852000000000,"state":"active","ping":83},{"user_id":331,"name":"sun on a stick","steam_id":76561198273681447,"connected_time":467000000000,"state":"active","ping":90},{"user_id":234,"name":"Abhorrent","steam_id":76561198056338288,"connected_time":4982000000000,"state":"active","ping":47},{"user_id":335,"name":"HiiamAngel","steam_id":76561198240499888,"connected_time":401000000000,"state":"active","ping":84},{"user_id":333,"name":"Will or Mole","steam_id":76561198046415938,"connected_time":415000000000,"state":"active","ping":59},{"user_id":300,"name":"Bob.","steam_id":76561198330093822,"connected_time":1983000000000,"state":"active","ping":84},{"user_id":336,"name":"YaG-10 (29-K)","steam_id":76561198112012468,"connected_time":394000000000,"state":"active","ping":84},{"user_id":337,"name":"SaltyCupcakes","steam_id":76561198256386417,"connected_time":388000000000,"state":"active","ping":45}]},{"server_id":321,"name":"Uncletopia | London | 4 | All Maps","name_short":"lon-4","host":"lon-1.uk.uncletopia.com","port":27045,"enabled":true,"region":"eu","cc":"gb","latitude":51.509865,"longitude":-0.118092,"reserved":0,"last_update":"0001-01-01T00:00:00Z","name_a2s":"Uncletopia | London | 4 | All Maps","protocol":17,"map":"cp_sunshine","folder":"tf","game":"Team Fortress","app_id":440,"player_count":24,"max_players":24,"Bots":0,"server_type":"Dedicated","server_os":"Linux","password":true,"vac":true,"version":"7757534","steam_id":85568392924510193,"keywords":["cp","nocrits","nodmgspread","uncletopia"],"game_id":440,"stv_port":27046,"stv_name":"Uncletopia | London | 4 | All Maps | STV","players":[{"user_id":407,"name":"bixigu","steam_id":76561198007425793,"connected_time":605000000000,"state":"active","ping":91},{"user_id":325,"name":"A Pigeon","steam_id":76561198114090555,"connected_time":5396000000000,"state":"active","ping":80},{"user_id":419,"name":"moon","steam_id":76561199006635865,"connected_time":264000000000,"state":"active","ping":81},{"user_id":416,"name":"Sexcism Gaming","steam_id":76561199173393396,"connected_time":394000000000,"state":"active","ping":87},{"user_id":340,"name":"Acey","steam_id":76561198114457284,"connected_time":4499000000000,"state":"active","ping":76},{"user_id":394,"name":"Demonic Cipher","steam_id":76561198066082088,"connected_time":1706000000000,"state":"active","ping":146},{"user_id":409,"name":"Nithle","steam_id":76561198025372740,"connected_time":571000000000,"state":"active","ping":31},{"user_id":411,"name":"Mizu","steam_id":76561198258422204,"connected_time":536000000000,"state":"active","ping":105},{"user_id":396,"name":"chimpynoise","steam_id":76561198415253659,"connected_time":1666000000000,"state":"active","ping":160},{"user_id":418,"name":"Lapis","steam_id":76561198275915939,"connected_time":295000000000,"state":"active","ping":53},{"user_id":413,"name":"SoapySophie","steam_id":76561198902894934,"connected_time":528000000000,"state":"active","ping":115},{"user_id":319,"name":"Walter Griffin","steam_id":76561199415989636,"connected_time":6018000000000,"state":"active","ping":104},{"user_id":417,"name":"Lag","steam_id":76561198159360376,"connected_time":347000000000,"state":"active","ping":49},{"user_id":399,"name":"Big They/Them is watching YOU","steam_id":76561198307598168,"connected_time":1463000000000,"state":"active","ping":61},{"user_id":398,"name":"chocolate flavoured femboy","steam_id":76561198819353867,"connected_time":1580000000000,"state":"active","ping":40},{"user_id":405,"name":"Lessoz","steam_id":76561199211572036,"connected_time":742000000000,"state":"active","ping":90},{"user_id":355,"name":"FluffWuff | civilnetworks.net","steam_id":76561198971523563,"connected_time":3943000000000,"state":"active","ping":73},{"user_id":414,"name":"Spy Gaming","steam_id":76561198257225296,"connected_time":501000000000,"state":"active","ping":75},{"user_id":384,"name":"Ape","steam_id":76561198322703872,"connected_time":2314000000000,"state":"active","ping":65},{"user_id":386,"name":"outlaw","steam_id":76561198323805289,"connected_time":2262000000000,"state":"active","ping":30},{"user_id":357,"name":"gRUBY","steam_id":76561198040429367,"connected_time":3938000000000,"state":"active","ping":112},{"user_id":402,"name":"disposablesuperbread","steam_id":76561199074703607,"connected_time":1155000000000,"state":"active","ping":107},{"user_id":406,"name":"chocolateflavor-femboy","steam_id":76561199169607968,"connected_time":650000000000,"state":"active","ping":48},{"user_id":415,"name":"I have aids","steam_id":76561198860347851,"connected_time":484000000000,"state":"active","ping":127}]},{"server_id":21,"name":"Uncletopia | London | 5 | All Maps","name_short":"lon-5","host":"lon-1.uk.uncletopia.com","port":27055,"enabled":true,"region":"eu","cc":"gb","latitude":51.509865,"longitude":-0.118092,"reserved":0,"last_update":"0001-01-01T00:00:00Z","name_a2s":"Uncletopia | London | 5 | All Maps","protocol":17,"map":"pl_snowycoast","folder":"tf","game":"Team Fortress","app_id":440,"player_count":8,"max_players":24,"Bots":0,"server_type":"Dedicated","server_os":"Linux","password":true,"vac":true,"version":"7757534","steam_id":85568392924742829,"keywords":["nocrits","nodmgspread","payload","uncletopia"],"game_id":440,"stv_port":27056,"stv_name":"Uncletopia | London | 5 | All Maps | STV","players":[{"user_id":582,"name":"The Demoman","steam_id":76561199027981643,"connected_time":332000000000,"state":"active","ping":140},{"user_id":576,"name":"fedeguti2009","steam_id":76561199109647630,"connected_time":1214000000000,"state":"active","ping":74},{"user_id":577,"name":"K.V. #RemoveRandomCrits","steam_id":76561197994832993,"connected_time":1112000000000,"state":"active","ping":75},{"user_id":586,"name":"Weeb exterminator","steam_id":76561198078964973,"connected_time":147000000000,"state":"active","ping":73},{"user_id":585,"name":"be gay do crime","steam_id":76561198254450468,"connected_time":164000000000,"state":"active","ping":89},{"user_id":588,"name":"kornetov.vitalya","steam_id":76561199286034833,"connected_time":20000000000,"state":"active","ping":101},{"user_id":561,"name":"Slendy","steam_id":76561199121774011,"connected_time":2635000000000,"state":"active","ping":74},{"user_id":584,"name":"germinator","steam_id":76561199387893648,"connected_time":226000000000,"state":"active","ping":98}]},{"server_id":22,"name":"Uncletopia | London | 6 | All Maps","name_short":"lon-6","host":"lon-1.uk.uncletopia.com","port":27065,"enabled":true,"region":"eu","cc":"gb","latitude":51.509865,"longitude":-0.118092,"reserved":0,"last_update":"0001-01-01T00:00:00Z","name_a2s":"Uncletopia | London | 6 | All Maps","protocol":17,"map":"cp_process_final","folder":"tf","game":"Team Fortress","app_id":440,"player_count":21,"max_players":24,"Bots":0,"server_type":"Dedicated","server_os":"Linux","password":true,"vac":true,"version":"7757534","steam_id":85568392924742830,"keywords":["cp","nocrits","nodmgspread","uncletopia"],"game_id":440,"stv_port":27066,"stv_name":"Uncletopia | London | 6 | All Maps | STV","players":[{"user_id":263,"name":"Jon","steam_id":76561198148858397,"connected_time":677000000000,"state":"active","ping":60},{"user_id":228,"name":"Just Navlis","steam_id":76561198090479609,"connected_time":3824000000000,"state":"active","ping":58},{"user_id":271,"name":"dotdotdot","steam_id":76561198057628751,"connected_time":214000000000,"state":"active","ping":64},{"user_id":244,"name":"blazeeight","steam_id":76561198159456502,"connected_time":2535000000000,"state":"active","ping":48},{"user_id":132,"name":"Atomic Fart","steam_id":76561198276210041,"connected_time":9369000000000,"state":"active","ping":176},{"user_id":255,"name":"Spamster","steam_id":76561198042229052,"connected_time":1589000000000,"state":"active","ping":54},{"user_id":253,"name":"Pilaarius","steam_id":76561198120273212,"connected_time":1970000000000,"state":"active","ping":105},{"user_id":233,"name":"Kvicha Kvaratskhelia","steam_id":76561198179339326,"connected_time":3324000000000,"state":"active","ping":90},{"user_id":256,"name":"GEP Gun","steam_id":76561197981821003,"connected_time":1468000000000,"state":"active","ping":48},{"user_id":267,"name":"Udinese Dion","steam_id":76561198067931573,"connected_time":300000000000,"state":"active","ping":55},{"user_id":247,"name":"EagleFire","steam_id":76561198352938403,"connected_time":2511000000000,"state":"active","ping":60},{"user_id":194,"name":"Pyro","steam_id":76561198860424456,"connected_time":5571000000000,"state":"active","ping":66},{"user_id":274,"name":"Silva_mlon","steam_id":76561199310242047,"connected_time":175000000000,"state":"active","ping":60},{"user_id":163,"name":"Charrky","steam_id":76561198054398642,"connected_time":7157000000000,"state":"active","ping":60},{"user_id":249,"name":"Misterz","steam_id":76561198282994518,"connected_time":2486000000000,"state":"active","ping":94},{"user_id":272,"name":"nik","steam_id":76561198210482280,"connected_time":209000000000,"state":"active","ping":49},{"user_id":251,"name":"Markos","steam_id":76561198815203446,"connected_time":2470000000000,"state":"active","ping":102},{"user_id":276,"name":"LANGERS","steam_id":76561198046966693,"connected_time":148000000000,"state":"active","ping":48},{"user_id":229,"name":"Snortman","steam_id":76561199012566222,"connected_time":3579000000000,"state":"active","ping":61},{"user_id":268,"name":"Magirby","steam_id":76561198818777390,"connected_time":235000000000,"state":"active","ping":112},{"user_id":114,"name":"player","steam_id":76561198054474684,"connected_time":10211000000000,"state":"active","ping":84}]},{"server_id":40,"name":"Uncletopia | London | 7 | No Payload","name_short":"lon-7","host":"lon-1.uk.uncletopia.com","port":27075,"enabled":true,"region":"eu","cc":"gb","latitude":51.509865,"longitude":-0.118092,"reserved":0,"last_update":"0001-01-01T00:00:00Z","name_a2s":"Uncletopia | London | 7 | No Payload","protocol":17,"map":"cp_steel","folder":"tf","game":"Team Fortress","app_id":440,"player_count":0,"max_players":24,"Bots":0,"server_type":"Dedicated","server_os":"Linux","password":true,"vac":true,"version":"7757534","steam_id":85568392924964314,"keywords":["cp","nocrits","nodmgspread","uncletopia"],"game_id":440,"stv_port":27076,"stv_name":"Uncletopia | London | 7 | No Payload | STV","players":null},{"server_id":41,"name":"Uncletopia | London | 8 | Community","name_short":"lon-8","host":"lon-1.uk.uncletopia.com","port":27085,"enabled":true,"region":"eu","cc":"gb","latitude":51.509865,"longitude":-0.118092,"reserved":0,"last_update":"0001-01-01T00:00:00Z","name_a2s":"Uncletopia | London | 8 | Community","protocol":17,"map":"workshop/rd_asteroid_redux_b1.ugc2154902912","folder":"tf","game":"Team Fortress","app_id":440,"player_count":10,"max_players":24,"Bots":0,"server_type":"Dedicated","server_os":"Linux","password":true,"vac":true,"version":"7757534","steam_id":85568392924964315,"keywords":["beta","nocrits","nodmgspread","rd","uncletopia"],"game_id":440,"stv_port":27086,"stv_name":"Uncletopia | London | 8 | Community | STV","players":[{"user_id":21,"name":"Truegr","steam_id":76561198811912339,"connected_time":1403000000000,"state":"active","ping":64},{"user_id":19,"name":"LVIXX","steam_id":76561198188767928,"connected_time":2194000000000,"state":"active","ping":62},{"user_id":20,"name":":D","steam_id":76561198304902462,"connected_time":1811000000000,"state":"active","ping":61},{"user_id":34,"name":"feador300","steam_id":76561198072752769,"connected_time":57000000000,"state":"active","ping":82},{"user_id":27,"name":"race car driver jerry","steam_id":76561198054047446,"connected_time":734000000000,"state":"active","ping":65},{"user_id":28,"name":"Irbynx","steam_id":76561197980421195,"connected_time":308000000000,"state":"active","ping":90},{"user_id":29,"name":"iSnack","steam_id":76561198001268659,"connected_time":297000000000,"state":"active","ping":89},{"user_id":26,"name":"Marketplier","steam_id":76561199156481059,"connected_time":916000000000,"state":"active","ping":79},{"user_id":30,"name":"GamliRaudur1","steam_id":76561199179181105,"connected_time":232000000000,"state":"active","ping":85},{"user_id":31,"name":"El Goblino","steam_id":76561198232877396,"connected_time":225000000000,"state":"active","ping":86}]},{"server_id":300,"name":"Uncletopia | Montr√©al | 1 | All Maps","name_short":"mtl-1","host":"mtl-1.ca.uncletopia.com","port":27015,"enabled":true,"region":"us-east","cc":"ca","latitude":45.50889,"longitude":-73.56167,"reserved":0,"last_update":"0001-01-01T00:00:00Z","name_a2s":"Uncletopia | Montr√©al | 1 | All Maps","protocol":17,"map":"pl_upward","folder":"tf","game":"Team Fortress","app_id":440,"player_count":0,"max_players":24,"Bots":0,"server_type":"Dedicated","server_os":"Linux","password":true,"vac":true,"version":"7757534","steam_id":85568392924500087,"keywords":["nocrits","nodmgspread","payload","uncletopia"],"game_id":440,"stv_port":27016,"stv_name":"Uncletopia | Montr√©al | 1 | All Maps | STV","players":null},{"server_id":301,"name":"Uncletopia | Montr√©al | 2 | All Maps","name_short":"mtl-2","host":"mtl-1.ca.uncletopia.com","port":27025,"enabled":true,"region":"us-east","cc":"ca","latitude":45.50889,"longitude":-73.56167,"reserved":0,"last_update":"0001-01-01T00:00:00Z","name_a2s":"Uncletopia | Montr√©al | 2 | All Maps","protocol":17,"map":"pl_pier","folder":"tf","game":"Team Fortress","app_id":440,"player_count":0,"max_players":24,"Bots":0,"server_type":"Dedicated","server_os":"Linux","password":true,"vac":true,"version":"7757534","steam_id":85568392924500088,"keywords":["nocrits","nodmgspread","payload","uncletopia"],"game_id":440,"stv_port":27026,"stv_name":"Uncletopia | Montr√©al | 2 | All Maps | STV","players":null},{"server_id":302,"name":"Uncletopia | Montr√©al | 3 | All Maps","name_short":"mtl-3","host":"mtl-1.ca.uncletopia.com","port":27035,"enabled":true,"region":"us-east","cc":"ca","latitude":45.50889,"longitude":-73.56167,"reserved":0,"last_update":"0001-01-01T00:00:00Z","name_a2s":"Uncletopia | Montr√©al | 3 | All Maps","protocol":17,"map":"pl_upward","folder":"tf","game":"Team Fortress","app_id":440,"player_count":0,"max_players":24,"Bots":0,"server_type":"Dedicated","server_os":"Linux","password":true,"vac":true,"version":"7757534","steam_id":85568392924500089,"keywords":["nocrits","nodmgspread","payload","uncletopia"],"game_id":440,"stv_port":27036,"stv_name":"Uncletopia | Montr√©al | 3 | All Maps | STV","players":null},{"server_id":303,"name":"Uncletopia | Montr√©al | 4 | No Payload","name_short":"mtl-4","host":"mtl-1.ca.uncletopia.com","port":27045,"enabled":true,"region":"us-east","cc":"ca","latitude":45.50889,"longitude":-73.56167,"reserved":0,"last_update":"0001-01-01T00:00:00Z","name_a2s":"Uncletopia | Montr√©al | 4 | No Payload","protocol":17,"map":"pl_pier","folder":"tf","game":"Team Fortress","app_id":440,"player_count":0,"max_players":24,"Bots":0,"server_type":"Dedicated","server_os":"Linux","password":true,"vac":true,"version":"7757534","steam_id":85568392924500090,"keywords":["nocrits","nodmgspread","payload","uncletopia"],"game_id":440,"stv_port":27046,"stv_name":"Uncletopia | Montr√©al | 4 | No Payload | STV","players":null},{"server_id":13,"name":"Uncletopia | New York City | 1 | All Maps","name_short":"nyc-1","host":"nyc-1.us.uncletopia.com","port":27015,"enabled":true,"region":"us-east","cc":"us","latitude":40.73061,"longitude":-73.93524,"reserved":0,"last_update":"0001-01-01T00:00:00Z","name_a2s":"Uncletopia | New York City | 1 | All Maps","protocol":17,"map":"cp_dustbowl","folder":"tf","game":"Team Fortress","app_id":440,"player_count":24,"max_players":24,"Bots":0,"server_type":"Dedicated","server_os":"Linux","password":true,"vac":true,"version":"7757534","steam_id":85568392924469993,"keywords":["cp","nocrits","nodmgspread","uncletopia"],"game_id":440,"stv_port":27016,"stv_name":"Uncletopia | New York City | 1 | All Maps | STV","players":[{"user_id":147,"name":"INFINITE","steam_id":76561197971285557,"connected_time":1458000000000,"state":"active","ping":53},{"user_id":74,"name":"Cheese Sandwich","steam_id":76561198154238064,"connected_time":6550000000000,"state":"active","ping":129},{"user_id":10,"name":"Cuntslinger","steam_id":76561198303948269,"connected_time":11719000000000,"state":"active","ping":87},{"user_id":170,"name":"Biggie Cheese","steam_id":76561198030835586,"connected_time":610000000000,"state":"active","ping":55},{"user_id":172,"name":"ShadowWasUhOh","steam_id":76561198400361935,"connected_time":150000000000,"state":"active","ping":67},{"user_id":140,"name":"faxxy","steam_id":76561198079621240,"connected_time":1852000000000,"state":"active","ping":84},{"user_id":133,"name":"LOITUMA","steam_id":76561198105669920,"connected_time":2519000000000,"state":"active","ping":120},{"user_id":173,"name":"gghfgfgfg","steam_id":76561198064823861,"connected_time":103000000000,"state":"active","ping":48},{"user_id":88,"name":"Fine Wine","steam_id":76561198125528334,"connected_time":4618000000000,"state":"active","ping":59},{"user_id":156,"name":"crack crisis","steam_id":76561198332519926,"connected_time":952000000000,"state":"active","ping":86},{"user_id":145,"name":"Uncle Majic the Hip Hop Magicia","steam_id":76561198107924303,"connected_time":1552000000000,"state":"active","ping":38},{"user_id":139,"name":"milk","steam_id":76561198813251405,"connected_time":1881000000000,"state":"active","ping":53},{"user_id":159,"name":"Punished Kong","steam_id":76561198973620882,"connected_time":922000000000,"state":"active","ping":79},{"user_id":161,"name":"Lud3n","steam_id":76561198155847627,"connected_time":916000000000,"state":"active","ping":161},{"user_id":165,"name":"∆ê’å—¥∆≥","steam_id":76561198099470277,"connected_time":876000000000,"state":"active","ping":85},{"user_id":127,"name":"ThePacBruno","steam_id":76561198046084545,"connected_time":2956000000000,"state":"active","ping":178},{"user_id":169,"name":"StatesideSnake","steam_id":76561198272957048,"connected_time":651000000000,"state":"active","ping":110},{"user_id":144,"name":"MinusSoup918","steam_id":76561198060902773,"connected_time":1575000000000,"state":"active","ping":132},{"user_id":167,"name":"Sour Grapes Radio Hour","steam_id":76561198121372198,"connected_time":792000000000,"state":"active","ping":82},{"user_id":171,"name":"bagel_man","steam_id":76561198164640460,"connected_time":243000000000,"state":"active","ping":99},{"user_id":162,"name":"I dont wipe","steam_id":76561198825563040,"connected_time":893000000000,"state":"active","ping":100},{"user_id":168,"name":"JacripspyVulcano","steam_id":76561198966980576,"connected_time":695000000000,"state":"active","ping":42},{"user_id":166,"name":"Tommy Pickles (Very Cool)","steam_id":76561198391261463,"connected_time":863000000000,"state":"active","ping":98},{"user_id":132,"name":"Kxmi","steam_id":76561198192730827,"connected_time":2783000000000,"state":"active","ping":83}]},{"server_id":14,"name":"Uncletopia | New York City | 2 | All Maps","name_short":"nyc-2","host":"nyc-1.us.uncletopia.com","port":27025,"enabled":true,"region":"us-east","cc":"us","latitude":40.73061,"longitude":-73.93524,"reserved":0,"last_update":"0001-01-01T00:00:00Z","name_a2s":"Uncletopia | New York City | 2 | All Maps","protocol":17,"map":"cp_steel","folder":"tf","game":"Team Fortress","app_id":440,"player_count":23,"max_players":24,"Bots":0,"server_type":"Dedicated","server_os":"Linux","password":true,"vac":true,"version":"7757534","steam_id":85568392924469994,"keywords":["cp","nocrits","nodmgspread","uncletopia"],"game_id":440,"stv_port":27026,"stv_name":"Uncletopia | New York City | 2 | All Maps | STV","players":[{"user_id":355,"name":"pinkissocool {f2p}","steam_id":76561198989599828,"connected_time":714000000000,"state":"active","ping":45},{"user_id":332,"name":"seems_fishy","steam_id":76561199028846656,"connected_time":1919000000000,"state":"active","ping":47},{"user_id":368,"name":"Cheese4Everyone","steam_id":76561198022333985,"connected_time":306000000000,"state":"active","ping":55},{"user_id":378,"name":"Freshwater Waterfall","steam_id":76561198969601240,"connected_time":70000000000,"state":"active","ping":72},{"user_id":363,"name":"Cuttle's Fish","steam_id":76561198280483257,"connected_time":435000000000,"state":"active","ping":73},{"user_id":346,"name":"custodian","steam_id":76561198058793778,"connected_time":1293000000000,"state":"active","ping":52},{"user_id":337,"name":"Goober Gaming","steam_id":76561198095550617,"connected_time":1674000000000,"state":"active","ping":78},{"user_id":359,"name":"swooce","steam_id":76561198156232484,"connected_time":567000000000,"state":"active","ping":50},{"user_id":364,"name":"Draco6257","steam_id":76561199147322448,"connected_time":375000000000,"state":"active","ping":34},{"user_id":366,"name":"Shou Toramaru real","steam_id":76561199120845371,"connected_time":327000000000,"state":"active","ping":64},{"user_id":327,"name":"Speedy","steam_id":76561198080761661,"connected_time":2326000000000,"state":"active","ping":80},{"user_id":375,"name":"ThatOneLatiasUser","steam_id":76561198968544387,"connected_time":178000000000,"state":"active","ping":124},{"user_id":369,"name":"Alpha Goose","steam_id":76561198038927852,"connected_time":291000000000,"state":"active","ping":82},{"user_id":314,"name":"PileofPolygons","steam_id":76561199321343460,"connected_time":3886000000000,"state":"active","ping":72},{"user_id":354,"name":"Gummie","steam_id":76561198807069433,"connected_time":888000000000,"state":"active","ping":85},{"user_id":377,"name":"Toasty Gyro","steam_id":76561198001026643,"connected_time":121000000000,"state":"active","ping":71},{"user_id":372,"name":"Neoplix","steam_id":76561199012756422,"connected_time":243000000000,"state":"active","ping":66},{"user_id":379,"name":"Byte9291","steam_id":76561198044313374,"connected_time":5000000000,"state":"spawning","ping":77},{"user_id":373,"name":"Goose of Wisdom","steam_id":76561198233465044,"connected_time":232000000000,"state":"active","ping":85},{"user_id":339,"name":"Pow","steam_id":76561198417295769,"connected_time":1636000000000,"state":"active","ping":84},{"user_id":376,"name":"nilftb","steam_id":76561198161952186,"connected_time":163000000000,"state":"active","ping":55},{"user_id":320,"name":"Cornelius","steam_id":76561198123447388,"connected_time":3779000000000,"state":"active","ping":68},{"user_id":351,"name":"SomeRandomCat","steam_id":76561199107044061,"connected_time":1192000000000,"state":"active","ping":75}]},{"server_id":15,"name":"Uncletopia | New York City | 3 | Stopwatch Beta","name_short":"nyc-3","host":"nyc-1.us.uncletopia.com","port":27035,"enabled":true,"region":"us-east","cc":"us","latitude":40.73061,"longitude":-73.93524,"reserved":0,"last_update":"0001-01-01T00:00:00Z","name_a2s":"Uncletopia | New York City | 3 | Stopwatch Beta","protocol":17,"map":"workshop/koth_ashville_final.ugc2130459942","folder":"tf","game":"Team Fortress","app_id":440,"player_count":0,"max_players":24,"Bots":0,"server_type":"Dedicated","server_os":"Linux","password":true,"vac":true,"version":"7757534","steam_id":85568392924742820,"keywords":["cp","nocrits","nodmgspread","uncletopia"],"game_id":440,"stv_port":27036,"stv_name":"Uncletopia | New York City | 3 | Stopwatch Beta | STV","players":null},{"server_id":16,"name":"Uncletopia | New York City | 4 | Community","name_short":"nyc-4","host":"nyc-1.us.uncletopia.com","port":27045,"enabled":true,"region":"us-east","cc":"us","latitude":40.73061,"longitude":-73.93524,"reserved":0,"last_update":"0001-01-01T00:00:00Z","name_a2s":"Uncletopia | New York City | 4 | Community","protocol":17,"map":"workshop/pl_eruption_b9a.ugc2807898013","folder":"tf","game":"Team Fortress","app_id":440,"player_count":1,"max_players":24,"Bots":0,"server_type":"Dedicated","server_os":"Linux","password":true,"vac":true,"version":"7757534","steam_id":85568392924742821,"keywords":["nocrits","nodmgspread","payload","uncletopia"],"game_id":440,"stv_port":27046,"stv_name":"Uncletopia | New York City | 4 | Community | STV","players":[{"user_id":15,"name":"Combatspok","steam_id":76561197971598115,"connected_time":15000000000,"state":"spawning","ping":125}]},{"server_id":142,"name":"Uncletopia | S√£o Paulo | 1 | All Maps","name_short":"sao-1","host":"sao-1.br.uncletopia.com","port":27015,"enabled":true,"region":"sa","cc":"br","latitude":-23.533773,"longitude":-46.62529,"reserved":0,"last_update":"0001-01-01T00:00:00Z","name_a2s":"Uncletopia | S√£o Paulo | 1 | All Maps","protocol":17,"map":"koth_highpass","folder":"tf","game":"Team Fortress","app_id":440,"player_count":1,"max_players":24,"Bots":0,"server_type":"Dedicated","server_os":"Linux","password":true,"vac":true,"version":"7757534","steam_id":85568392924469996,"keywords":["cp","nocrits","nodmgspread","uncletopia"],"game_id":440,"stv_port":27016,"stv_name":"Uncletopia | S√£o Paulo | 1 | All Maps | STV","players":[{"user_id":19,"name":"Death_Pow","steam_id":76561198312958718,"connected_time":2321000000000,"state":"active","ping":47}]},{"server_id":143,"name":"Uncletopia | S√£o Paulo | 2 | All Maps","name_short":"sao-2","host":"sao-2.br.uncletopia.com","port":27015,"enabled":true,"region":"sa","cc":"br","latitude":-23.533773,"longitude":-46.62529,"reserved":0,"last_update":"0001-01-01T00:00:00Z","name_a2s":"Uncletopia | S√£o Paulo | 2 | All Maps","protocol":17,"map":"pl_upward","folder":"tf","game":"Team Fortress","app_id":440,"player_count":0,"max_players":24,"Bots":0,"server_type":"Dedicated","server_os":"Linux","password":true,"vac":true,"version":"7757534","steam_id":85568392924485349,"keywords":["nocrits","nodmgspread","payload","uncletopia"],"game_id":440,"stv_port":27016,"stv_name":"Uncletopia | S√£o Paulo | 2 | All Maps | STV","players":null},{"server_id":7,"name":"Uncletopia | Seattle | 1 | All Maps","name_short":"sea-1","host":"sea-1.us.uncletopia.com","port":27015,"enabled":true,"region":"us-west","cc":"us","latitude":47.608013,"longitude":-122.33517,"reserved":0,"last_update":"0001-01-01T00:00:00Z","name_a2s":"Uncletopia | Seattle | 1 | All Maps","protocol":17,"map":"cp_egypt_final","folder":"tf","game":"Team Fortress","app_id":440,"player_count":24,"max_players":24,"Bots":0,"server_type":"Dedicated","server_os":"Linux","password":true,"vac":true,"version":"7757534","steam_id":85568392924469997,"keywords":["cp","nocrits","nodmgspread","uncletopia"],"game_id":440,"stv_port":27016,"stv_name":"Uncletopia | Seattle | 1 | All Maps | STV","players":[{"user_id":286,"name":"greens beans","steam_id":76561198153611491,"connected_time":54000000000,"state":"active","ping":42},{"user_id":267,"name":"casius","steam_id":76561197998361649,"connected_time":662000000000,"state":"active","ping":114},{"user_id":277,"name":"Backpack","steam_id":76561198037121083,"connected_time":265000000000,"state":"active","ping":75},{"user_id":270,"name":"Danny Fentanyl","steam_id":76561197970791798,"connected_time":533000000000,"state":"active","ping":44},{"user_id":275,"name":"A Duck With Socks","steam_id":76561198018844227,"connected_time":301000000000,"state":"active","ping":57},{"user_id":177,"name":"Syn_Contamino5311","steam_id":76561199454661432,"connected_time":6337000000000,"state":"active","ping":61},{"user_id":289,"name":"Madness_fish„ÉÉ","steam_id":76561199158191946,"connected_time":0,"state":"spawning","ping":0},{"user_id":249,"name":"FrogStompers","steam_id":76561198138977097,"connected_time":1559000000000,"state":"active","ping":48},{"user_id":210,"name":"makeshift_burrito","steam_id":76561198042510825,"connected_time":4810000000000,"state":"active","ping":69},{"user_id":252,"name":"Waylen","steam_id":76561198945724920,"connected_time":1379000000000,"state":"active","ping":156},{"user_id":276,"name":"Sheev Palpatine","steam_id":76561198252332430,"connected_time":292000000000,"state":"active","ping":97},{"user_id":278,"name":"Hi_ThisIsMyName","steam_id":76561198812205846,"connected_time":236000000000,"state":"active","ping":55},{"user_id":244,"name":"Tech Deck","steam_id":76561199070437675,"connected_time":2382000000000,"state":"active","ping":85},{"user_id":225,"name":"Fh","steam_id":76561198000903511,"connected_time":3494000000000,"state":"active","ping":68},{"user_id":269,"name":"Username","steam_id":76561198855586261,"connected_time":657000000000,"state":"active","ping":60},{"user_id":285,"name":"laxy","steam_id":76561198141469778,"connected_time":67000000000,"state":"active","ping":137},{"user_id":196,"name":"my monitor is off","steam_id":76561198074499537,"connected_time":5595000000000,"state":"active","ping":76},{"user_id":280,"name":"tacofever","steam_id":76561198010966507,"connected_time":203000000000,"state":"active","ping":81},{"user_id":255,"name":"Shin Tae Il's Lighter","steam_id":76561198984360849,"connected_time":1367000000000,"state":"active","ping":73},{"user_id":241,"name":"Xbox Live 30-Day Free Trial","steam_id":76561199231369792,"connected_time":2516000000000,"state":"active","ping":195},{"user_id":281,"name":"Skabbety","steam_id":76561198168044257,"connected_time":187000000000,"state":"active","ping":39},{"user_id":195,"name":"Zero","steam_id":76561199383267408,"connected_time":5655000000000,"state":"active","ping":109},{"user_id":287,"name":"S O L I D","steam_id":76561198086095072,"connected_time":43000000000,"state":"active","ping":112},{"user_id":284,"name":"HighJingo","steam_id":76561198846814390,"connected_time":102000000000,"state":"active","ping":105}]},{"server_id":119,"name":"Uncletopia | Seattle | 2 | All Maps","name_short":"sea-2","host":"sea-1.us.uncletopia.com","port":27025,"enabled":true,"region":"us-west","cc":"us","latitude":47.608013,"longitude":-122.33517,"reserved":0,"last_update":"0001-01-01T00:00:00Z","name_a2s":"Uncletopia | Seattle | 2 | All Maps","protocol":17,"map":"cp_snakewater_final1","folder":"tf","game":"Team Fortress","app_id":440,"player_count":17,"max_players":24,"Bots":0,"server_type":"Dedicated","server_os":"Linux","password":true,"vac":true,"version":"7757534","steam_id":85568392924469998,"keywords":["cp","nocrits","nodmgspread","uncletopia"],"game_id":440,"stv_port":27026,"stv_name":"Uncletopia | Seattle | 2 | All Maps | STV","players":[{"user_id":116,"name":"Little Linguine","steam_id":76561198816986370,"connected_time":4962000000000,"state":"active","ping":57},{"user_id":181,"name":"MisterManne","steam_id":76561198106598600,"connected_time":169000000000,"state":"active","ping":53},{"user_id":133,"name":"Juanelo","steam_id":76561199096390505,"connected_time":3182000000000,"state":"active","ping":104},{"user_id":180,"name":"garfield","steam_id":76561198114119308,"connected_time":206000000000,"state":"active","ping":105},{"user_id":126,"name":"toodles","steam_id":76561198025463883,"connected_time":3670000000000,"state":"active","ping":52},{"user_id":184,"name":"1jem","steam_id":76561198088407407,"connected_time":19000000000,"state":"active","ping":300},{"user_id":183,"name":"SomeFuckingGuy #SAVETF2","steam_id":76561199239165015,"connected_time":54000000000,"state":"active","ping":101},{"user_id":101,"name":"shy guy","steam_id":76561198151246059,"connected_time":5867000000000,"state":"active","ping":61},{"user_id":174,"name":"Combustionaut","steam_id":76561198164877813,"connected_time":478000000000,"state":"active","ping":52},{"user_id":172,"name":"My Gamer Totoro","steam_id":76561199068382726,"connected_time":578000000000,"state":"active","ping":117},{"user_id":169,"name":"Mister Fister","steam_id":76561199059653595,"connected_time":626000000000,"state":"active","ping":42},{"user_id":173,"name":"omugai_","steam_id":76561198086481768,"connected_time":546000000000,"state":"active","ping":64},{"user_id":178,"name":"Feldspaten","steam_id":76561199122059102,"connected_time":307000000000,"state":"active","ping":141},{"user_id":161,"name":"McSpazatron","steam_id":76561198955942148,"connected_time":1426000000000,"state":"active","ping":77},{"user_id":97,"name":"TheCowledWiz","steam_id":76561198016735868,"connected_time":6379000000000,"state":"active","ping":46},{"user_id":151,"name":"Nightlygalad","steam_id":76561198170693990,"connected_time":2145000000000,"state":"active","ping":76},{"user_id":176,"name":"Chicken soup","steam_id":76561198820390472,"connected_time":444000000000,"state":"active","ping":84}]},{"server_id":406,"name":"Uncletopia | Seattle | 3 | Stopwatch Beta","name_short":"sea-3","host":"sea-1.us.uncletopia.com","port":27035,"enabled":true,"region":"us-west","cc":"us","latitude":47.608013,"longitude":-122.33517,"reserved":0,"last_update":"0001-01-01T00:00:00Z","name_a2s":"Uncletopia | Seattle | 3 | Stopwatch Beta","protocol":17,"map":"workshop/koth_ramjam_rc1.ugc459778887","folder":"tf","game":"Team Fortress","app_id":440,"player_count":0,"max_players":24,"Bots":0,"server_type":"Dedicated","server_os":"Linux","password":true,"vac":true,"version":"7757534","steam_id":85568392924515217,"keywords":["cp","nocrits","nodmgspread","uncletopia"],"game_id":440,"stv_port":27036,"stv_name":"Uncletopia | Seattle | 3 | Stopwatch Beta | STV","players":null},{"server_id":17,"name":"Uncletopia | San Francisco | 1 | All Maps","name_short":"sfo-1","host":"sfo-1.us.uncletopia.com","port":27015,"enabled":true,"region":"us-west","cc":"us","latitude":37.77397,"longitude":-122.4313,"reserved":0,"last_update":"0001-01-01T00:00:00Z","name_a2s":"Uncletopia | San Francisco | 1 | All Maps","protocol":17,"map":"pl_barnblitz","folder":"tf","game":"Team Fortress","app_id":440,"player_count":24,"max_players":24,"Bots":0,"server_type":"Dedicated","server_os":"Linux","password":true,"vac":true,"version":"7757534","steam_id":85568392924469999,"keywords":["nocrits","nodmgspread","payload","uncletopia"],"game_id":440,"stv_port":27016,"stv_name":"Uncletopia | San Francisco | 1 | All Maps | STV","players":[{"user_id":258,"name":"flycargodash1010","steam_id":76561199456589841,"connected_time":745000000000,"state":"active","ping":72},{"user_id":267,"name":"Frank Accardi","steam_id":76561198017275707,"connected_time":120000000000,"state":"active","ping":75},{"user_id":207,"name":"Pseudotriangle","steam_id":76561198058247667,"connected_time":3539000000000,"state":"active","ping":142},{"user_id":259,"name":"Cactus‚Ñ¢ ‚ô•","steam_id":76561198036441270,"connected_time":678000000000,"state":"active","ping":89},{"user_id":230,"name":"Gonzo","steam_id":76561198861349393,"connected_time":2748000000000,"state":"active","ping":45},{"user_id":260,"name":"SanitysEdge","steam_id":76561198130732813,"connected_time":674000000000,"state":"active","ping":54},{"user_id":251,"name":"The Notorious RBG","steam_id":76561198014275148,"connected_time":1319000000000,"state":"active","ping":128},{"user_id":255,"name":"my palisman would be a polarbea","steam_id":76561199060224916,"connected_time":1174000000000,"state":"active","ping":61},{"user_id":243,"name":"WalkinMan","steam_id":76561198047941142,"connected_time":1632000000000,"state":"active","ping":39},{"user_id":256,"name":"NotAStreamer.ttv","steam_id":76561198079982776,"connected_time":1138000000000,"state":"active","ping":141},{"user_id":253,"name":"Brother Raf","steam_id":76561198110585400,"connected_time":1246000000000,"state":"active","ping":99},{"user_id":228,"name":"TransWomanGaming","steam_id":76561198809645656,"connected_time":2772000000000,"state":"active","ping":101},{"user_id":237,"name":"Sakisano","steam_id":76561198245814880,"connected_time":2205000000000,"state":"active","ping":97},{"user_id":257,"name":"CDI_FrEAk","steam_id":76561198004708244,"connected_time":938000000000,"state":"active","ping":74},{"user_id":232,"name":"Roxxy","steam_id":76561198015279513,"connected_time":2399000000000,"state":"active","ping":63},{"user_id":264,"name":"June","steam_id":76561198141803658,"connected_time":274000000000,"state":"active","ping":57},{"user_id":245,"name":"Padre Pat","steam_id":76561198392985381,"connected_time":1572000000000,"state":"active","ping":77},{"user_id":165,"name":"tf2 sex update","steam_id":76561198081284664,"connected_time":6322000000000,"state":"active","ping":55},{"user_id":265,"name":"Kush","steam_id":76561198021243202,"connected_time":273000000000,"state":"active","ping":45},{"user_id":226,"name":"golia","steam_id":76561198000264266,"connected_time":3114000000000,"state":"active","ping":56},{"user_id":262,"name":"Kobold","steam_id":76561199192622130,"connected_time":665000000000,"state":"active","ping":114},{"user_id":227,"name":"chloe","steam_id":76561199058642571,"connected_time":2928000000000,"state":"active","ping":122},{"user_id":241,"name":"Aryze #SaveTF2","steam_id":76561198119561581,"connected_time":2067000000000,"state":"active","ping":41},{"user_id":229,"name":"ari","steam_id":76561198157303631,"connected_time":2772000000000,"state":"active","ping":91}]},{"server_id":18,"name":"Uncletopia | San Francisco | 2 | All Maps","name_short":"sfo-2","host":"sfo-1.us.uncletopia.com","port":27025,"enabled":true,"region":"us-west","cc":"us","latitude":37.77397,"longitude":-122.4313,"reserved":0,"last_update":"0001-01-01T00:00:00Z","name_a2s":"Uncletopia | San Francisco | 2 | All Maps","protocol":17,"map":"koth_highpass","folder":"tf","game":"Team Fortress","app_id":440,"player_count":0,"max_players":24,"Bots":0,"server_type":"Dedicated","server_os":"Linux","password":true,"vac":true,"version":"7757534","steam_id":85568392924470000,"keywords":["cp","nocrits","nodmgspread","uncletopia"],"game_id":440,"stv_port":27026,"stv_name":"Uncletopia | San Francisco | 2 | All Maps | STV","players":null},{"server_id":19,"name":"Uncletopia | San Francisco | 3 | Stopwatch Beta","name_short":"sfo-3","host":"sfo-1.us.uncletopia.com","port":27035,"enabled":true,"region":"us-west","cc":"us","latitude":37.77397,"longitude":-122.4313,"reserved":0,"last_update":"0001-01-01T00:00:00Z","name_a2s":"Uncletopia | San Francisco | 3 | Stopwatch Beta","protocol":17,"map":"koth_lakeside_final","folder":"tf","game":"Team Fortress","app_id":440,"player_count":0,"max_players":24,"Bots":0,"server_type":"Dedicated","server_os":"Linux","password":true,"vac":true,"version":"7757534","steam_id":85568392924742824,"keywords":["cp","nocrits","nodmgspread","uncletopia"],"game_id":440,"stv_port":27036,"stv_name":"Uncletopia | San Francisco | 3 | Stopwatch Beta | STV","players":null},{"server_id":20,"name":"Uncletopia | San Francisco | 4 | Community","name_short":"sfo-4","host":"sfo-1.us.uncletopia.com","port":27045,"enabled":true,"region":"us-west","cc":"us","latitude":37.77397,"longitude":-122.4313,"reserved":0,"last_update":"0001-01-01T00:00:00Z","name_a2s":"Uncletopia | San Francisco | 4 | Community","protocol":17,"map":"workshop/cp_mannbase_rc2a.ugc1900737467","folder":"tf","game":"Team Fortress","app_id":440,"player_count":0,"max_players":24,"Bots":0,"server_type":"Dedicated","server_os":"Linux","password":true,"vac":true,"version":"7757534","steam_id":85568392924742826,"keywords":["cp","nocrits","nodmgspread","uncletopia"],"game_id":440,"stv_port":27046,"stv_name":"Uncletopia | San Francisco | 4 | Community | STV","players":null},{"server_id":141,"name":"Uncletopia | Sydney | 1 | All Maps","name_short":"syd-1","host":"syd-1.au.uncletopia.com","port":27015,"enabled":true,"region":"au","cc":"au","latitude":-33.865143,"longitude":151.2099,"reserved":0,"last_update":"0001-01-01T00:00:00Z","name_a2s":"Uncletopia | Sydney | 1 | All Maps","protocol":17,"map":"koth_viaduct","folder":"tf","game":"Team Fortress","app_id":440,"player_count":0,"max_players":24,"Bots":0,"server_type":"Dedicated","server_os":"Linux","password":true,"vac":true,"version":"7757534","steam_id":85568392924470001,"keywords":["cp","nocrits","nodmgspread","uncletopia"],"game_id":440,"stv_port":27016,"stv_name":"Uncletopia | Sydney | 1 | All Maps | STV","players":null},{"server_id":123,"name":"Uncletopia | Sydney | 2 | All Maps","name_short":"syd-2","host":"syd-1.au.uncletopia.com","port":27025,"enabled":true,"region":"au","cc":"au","latitude":-33.865143,"longitude":151.2099,"reserved":0,"last_update":"0001-01-01T00:00:00Z","name_a2s":"Uncletopia | Sydney | 2 | All Maps","protocol":17,"map":"cp_process_final","folder":"tf","game":"Team Fortress","app_id":440,"player_count":0,"max_players":24,"Bots":0,"server_type":"Dedicated","server_os":"Linux","password":true,"vac":true,"version":"7757534","steam_id":85568392924470002,"keywords":["cp","nocrits","nodmgspread","uncletopia"],"game_id":440,"stv_port":27026,"stv_name":"Uncletopia | Sydney | 2 | All Maps | STV","players":null},{"server_id":395,"name":"Uncletopia | Sydney | 3 | All Maps","name_short":"syd-3","host":"syd-1.au.uncletopia.com","port":27035,"enabled":true,"region":"au","cc":"au","latitude":-33.865143,"longitude":151.2099,"reserved":0,"last_update":"0001-01-01T00:00:00Z","name_a2s":"Uncletopia | Sydney | 3 | All Maps","protocol":17,"map":"pl_swiftwater_final1","folder":"tf","game":"Team Fortress","app_id":440,"player_count":0,"max_players":24,"Bots":0,"server_type":"Dedicated","server_os":"Linux","password":true,"vac":true,"version":"7757534","steam_id":85568392925194467,"keywords":["nocrits","nodmgspread","payload","uncletopia"],"game_id":440,"stv_port":27036,"stv_name":"Uncletopia | Sydney | 3 | All Maps | STV","players":null},{"server_id":396,"name":"Uncletopia | Sydney | 4 | All Maps","name_short":"syd-4","host":"syd-1.au.uncletopia.com","port":27045,"enabled":true,"region":"au","cc":"au","latitude":-33.865143,"longitude":151.2099,"reserved":0,"last_update":"0001-01-01T00:00:00Z","name_a2s":"Uncletopia | Sydney | 4 | All Maps","protocol":17,"map":"koth_highpass","folder":"tf","game":"Team Fortress","app_id":440,"player_count":0,"max_players":24,"Bots":0,"server_type":"Dedicated","server_os":"Linux","password":true,"vac":true,"version":"7757534","steam_id":85568392925397958,"keywords":["cp","nocrits","nodmgspread","uncletopia"],"game_id":440,"stv_port":27046,"stv_name":"Uncletopia | Sydney | 4 | All Maps | STV","players":null},{"server_id":58,"name":"Uncletopia | Sydney | 5 | Stopwatch Beta","name_short":"syd-5","host":"syd-1.au.uncletopia.com","port":27055,"enabled":true,"region":"au","cc":"au","latitude":-33.865143,"longitude":151.2099,"reserved":0,"last_update":"0001-01-01T00:00:00Z","name_a2s":"Uncletopia | Sydney | 5 | Stopwatch Beta","protocol":17,"map":"koth_cascade","folder":"tf","game":"Team Fortress","app_id":440,"player_count":0,"max_players":24,"Bots":0,"server_type":"Dedicated","server_os":"Linux","password":true,"vac":true,"version":"7757534","steam_id":85568392925397959,"keywords":["cp","nocrits","nodmgspread","uncletopia"],"game_id":440,"stv_port":27056,"stv_name":"Uncletopia | Sydney | 5 | Stopwatch Beta | STV","players":null},{"server_id":59,"name":"Uncletopia | Sydney | 6 | Community","name_short":"syd-6","host":"syd-1.au.uncletopia.com","port":27065,"enabled":true,"region":"au","cc":"au","latitude":-33.865143,"longitude":151.2099,"reserved":0,"last_update":"0001-01-01T00:00:00Z","name_a2s":"Uncletopia | Sydney | 6 | Community","protocol":17,"map":"cp_snakewater_final1","folder":"tf","game":"Team Fortress","app_id":440,"player_count":0,"max_players":24,"Bots":0,"server_type":"Dedicated","server_os":"Linux","password":true,"vac":true,"version":"7757534","steam_id":85568392925397960,"keywords":["cp","nocrits","nodmgspread","uncletopia"],"game_id":440,"stv_port":27066,"stv_name":"Uncletopia | Sydney | 6 | Community | STV","players":null},{"server_id":49,"name":"Uncletopia | Warsaw | 1 | All Maps","name_short":"waw-1","host":"waw-1.pl.uncletopia.com","port":27015,"enabled":true,"region":"eu","cc":"pl","latitude":52.2297,"longitude":21.017532,"reserved":0,"last_update":"0001-01-01T00:00:00Z","name_a2s":"","protocol":0,"map":"","folder":"","game":"","app_id":0,"player_count":0,"max_players":0,"Bots":0,"server_type":"","server_os":"","password":false,"vac":false,"version":"","steam_id":0,"keywords":null,"game_id":0,"stv_port":0,"stv_name":"","players":null},{"server_id":50,"name":"Uncletopia | Warsaw | 2 | All Maps","name_short":"waw-2","host":"waw-1.pl.uncletopia.com","port":27025,"enabled":true,"region":"eu","cc":"pl","latitude":52.2297,"longitude":21.017532,"reserved":0,"last_update":"0001-01-01T00:00:00Z","name_a2s":"Uncletopia | Warsaw | 2 | All Maps","protocol":17,"map":"koth_viaduct","folder":"tf","game":"Team Fortress","app_id":440,"player_count":0,"max_players":24,"Bots":0,"server_type":"Dedicated","server_os":"Linux","password":true,"vac":true,"version":"7757534","steam_id":85568392925397851,"keywords":["cp","nocrits","nodmgspread","uncletopia"],"game_id":440,"stv_port":27026,"stv_name":"Uncletopia | Warsaw | 2 | All Maps | STV","players":null},{"server_id":51,"name":"Uncletopia | Warsaw | 3 | All Maps","name_short":"waw-3","host":"waw-1.pl.uncletopia.com","port":27035,"enabled":true,"region":"eu","cc":"pl","latitude":52.2297,"longitude":21.017532,"reserved":0,"last_update":"0001-01-01T00:00:00Z","name_a2s":"Uncletopia | Warsaw | 3 | All Maps","protocol":17,"map":"koth_viaduct","folder":"tf","game":"Team Fortress","app_id":440,"player_count":0,"max_players":24,"Bots":0,"server_type":"Dedicated","server_os":"Linux","password":true,"vac":true,"version":"7757534","steam_id":85568392925397852,"keywords":["cp","nocrits","nodmgspread","uncletopia"],"game_id":440,"stv_port":27036,"stv_name":"Uncletopia | Warsaw | 3 | All Maps | STV","players":null},{"server_id":52,"name":"Uncletopia | Warsaw | 4 | All Maps","name_short":"waw-4","host":"waw-1.pl.uncletopia.com","port":27045,"enabled":true,"region":"eu","cc":"pl","latitude":52.2297,"longitude":21.017532,"reserved":0,"last_update":"0001-01-01T00:00:00Z","name_a2s":"Uncletopia | Warsaw | 4 | All Maps","protocol":17,"map":"koth_lakeside_final","folder":"tf","game":"Team Fortress","app_id":440,"player_count":0,"max_players":24,"Bots":0,"server_type":"Dedicated","server_os":"Linux","password":true,"vac":true,"version":"7757534","steam_id":85568392925397853,"keywords":["cp","nocrits","nodmgspread","uncletopia"],"game_id":440,"stv_port":27046,"stv_name":"Uncletopia | Warsaw | 4 | All Maps | STV","players":null},{"server_id":53,"name":"Uncletopia | Warsaw | 5 | Stopwatch Beta","name_short":"waw-5","host":"waw-1.pl.uncletopia.com","port":27055,"enabled":true,"region":"eu","cc":"pl","latitude":52.2297,"longitude":21.017532,"reserved":0,"last_update":"0001-01-01T00:00:00Z","name_a2s":"Uncletopia | Warsaw | 5 | Stopwatch Beta","protocol":17,"map":"pl_borneo","folder":"tf","game":"Team Fortress","app_id":440,"player_count":0,"max_players":24,"Bots":0,"server_type":"Dedicated","server_os":"Linux","password":true,"vac":true,"version":"7757534","steam_id":85568392925397854,"keywords":["nocrits","nodmgspread","payload","uncletopia"],"game_id":440,"stv_port":27056,"stv_name":"Uncletopia | Warsaw | 5 | Stopwatch Beta | STV","players":null},{"server_id":54,"name":"Uncletopia | Warsaw | 6 | Community","name_short":"waw-6","host":"waw-1.pl.uncletopia.com","port":27065,"enabled":true,"region":"eu","cc":"pl","latitude":52.2297,"longitude":21.017532,"reserved":0,"last_update":"0001-01-01T00:00:00Z","name_a2s":"Uncletopia | Warsaw | 6 | Community","protocol":17,"map":"koth_lakeside_final","folder":"tf","game":"Team Fortress","app_id":440,"player_count":0,"max_players":24,"Bots":0,"server_type":"Dedicated","server_os":"Linux","password":true,"vac":true,"version":"7757534","steam_id":85568392925397856,"keywords":["cp","nocrits","nodmgspread","uncletopia"],"game_id":440,"stv_port":27066,"stv_name":"Uncletopia | Warsaw | 6 | Community | STV","players":null}]}