{"status":true,"message":"","result":[{"server_id":9,"name":"Uncletopia | Atlanta | 1 | All Maps","name_short":"atl-1","host":"atl-1.us.uncletopia.com","port":27015,"enabled":true,"region":"us-east","cc":"us","latitude":33.753746,"longitude":-84.38633,"reserved":0,"last_update":"0001-01-01T00:00:00Z","name_a2s":"Uncletopia | Atlanta | 1 | All Maps","protocol":17,"map":"pl_borneo","folder":"tf","game":"Team Fortress","app_id":440,"player_count":24,"max_players":24,"Bots":0,"server_type":"Dedicated","server_os":"Linux","password":true,"vac":true,"version":"7961495","steam_id":85568392924469982,"keywords":["nocrits","nodmgspread","payload","uncletopia"],"game_id":440,"stv_port":27016,"stv_name":"Uncletopia | Atlanta | 1 | All Maps | STV","players":[{"user_id":355,"name":"ash","steam_id":76561198127890645,"connected_time":2369000000000,"state":"active","ping":60},{"user_id":371,"name":"Boneless Blithen","steam_id":76561197989955619,"connected_time":851000000000,"state":"active","ping":112},{"user_id":372,"name":"Sucsubot","steam_id":76561198106456128,"connected_time":671000000000,"state":"active","ping":59},{"user_id":270,"name":"Heathcliff","steam_id":76561198044288534,"connected_time":7558000000000,"state":"active","ping":60},{"user_id":320,"name":"Cyclops_672","steam_id":76561198080169497,"connected_time":5325000000000,"state":"active","ping":42},{"user_id":377,"name":"bottl","steam_id":76561198119873148,"connected_time":225000000000,"state":"active","ping":65},{"user_id":335,"name":"Albino Jellyfish","steam_id":76561198208561097,"connected_time":3797000000000,"state":"active","ping":52},{"user_id":366,"name":"SnazzyCelestial","steam_id":76561198328763813,"connected_time":1448000000000,"state":"active","ping":57},{"user_id":373,"name":"Ashes!","steam_id":76561197998475441,"connected_time":635000000000,"state":"active","ping":66},{"user_id":356,"name":"Lilith","steam_id":76561198125102885,"connected_time":2255000000000,"state":"active","ping":64},{"user_id":365,"name":"Big Black Zack","steam_id":76561198079770247,"connected_time":1528000000000,"state":"active","ping":35},{"user_id":379,"name":"Vee (very cool)","steam_id":76561198330432889,"connected_time":158000000000,"state":"active","ping":65},{"user_id":338,"name":"PigPig","steam_id":76561198068190834,"connected_time":3731000000000,"state":"active","ping":118},{"user_id":374,"name":"HARRY B HOLE","steam_id":76561198842067238,"connected_time":480000000000,"state":"active","ping":67},{"user_id":380,"name":"freyja","steam_id":76561198249206656,"connected_time":128000000000,"state":"active","ping":85},{"user_id":271,"name":"Brown_Dream","steam_id":76561198975766145,"connected_time":7558000000000,"state":"active","ping":57},{"user_id":281,"name":"lil hog","steam_id":76561199230929836,"connected_time":6869000000000,"state":"active","ping":87},{"user_id":358,"name":"HarryjusttHarry","steam_id":76561198982810452,"connected_time":2254000000000,"state":"active","ping":86},{"user_id":367,"name":"Wingm4n","steam_id":76561198064127012,"connected_time":1030000000000,"state":"active","ping":49},{"user_id":362,"name":"com lag","steam_id":76561198019019392,"connected_time":1687000000000,"state":"active","ping":60},{"user_id":375,"name":"icyy","steam_id":76561198968001329,"connected_time":478000000000,"state":"active","ping":47},{"user_id":376,"name":"Avo","steam_id":76561197993340494,"connected_time":477000000000,"state":"active","ping":47},{"user_id":359,"name":"krabby","steam_id":76561199072773402,"connected_time":2250000000000,"state":"active","ping":71},{"user_id":256,"name":"Bunt","steam_id":76561198124477567,"connected_time":9143000000000,"state":"active","ping":45}]},{"server_id":104,"name":"Uncletopia | Atlanta | 2 | All Maps","name_short":"atl-2","host":"atl-1.us.uncletopia.com","port":27025,"enabled":true,"region":"us-east","cc":"us","latitude":33.753746,"longitude":-84.38633,"reserved":0,"last_update":"0001-01-01T00:00:00Z","name_a2s":"Uncletopia | Atlanta | 2 | All Maps","protocol":17,"map":"koth_cascade","folder":"tf","game":"Team Fortress","app_id":440,"player_count":0,"max_players":24,"Bots":0,"server_type":"Dedicated","server_os":"Linux","password":true,"vac":true,"version":"7961495","steam_id":85568392924469983,"keywords":["cp","nocrits","nodmgspread","uncletopia"],"game_id":440,"stv_port":27026,"stv_name":"Uncletopia | Atlanta | 2 | All Maps | STV","players":null},{"server_id":400,"name":"Uncletopia | Atlanta | 3 | Stopwatch","name_short":"atl-3","host":"atl-1.us.uncletopia.com","port":27035,"enabled":true,"region":"us-east","cc":"us","latitude":33.753746,"longitude":-84.38633,"reserved":0,"last_update":"0001-01-01T00:00:00Z","name_a2s":"Uncletopia | Atlanta | 3 | Stopwatch","protocol":17,"map":"cp_metalworks","folder":"tf","game":"Team Fortress","app_id":440,"player_count":0,"max_players":24,"Bots":0,"server_type":"Dedicated","server_os":"Linux","password":true,"vac":true,"version":"7961495","steam_id":85568392924515187,"keywords":["cp","nocrits","nodmgspread","uncletopia"],"game_id":440,"stv_port":27036,"stv_name":"Uncletopia | Atlanta | 3 | Stopwatch | STV","players":null},{"server_id":401,"name":"Uncletopia | Atlanta | 4 | Community","name_short":"atl-4","host":"atl-1.us.uncletopia.com","port":27045,"enabled":true,"region":"us-east","cc":"us","latitude":33.753746,"longitude":-84.38633,"reserved":0,"last_update":"0001-01-01T00:00:00Z","name_a2s":"Uncletopia | Atlanta | 4 | Community","protocol":17,"map":"workshop/koth_kemptown_rc1.ugc767410655","folder":"tf","game":"Team Fortress","app_id":440,"player_count":23,"max_players":24,"Bots":0,"server_type":"Dedicated","server_os":"Linux","password":true,"vac":true,"version":"7961495","steam_id":85568392924515188,"keywords":["cp","nocrits","nodmgspread","uncletopia"],"game_id":440,"stv_port":27046,"stv_name":"Uncletopia | Atlanta | 4 | Community | STV","players":[{"user_id":312,"name":"bunga_grunga","steam_id":76561199127325952,"connected_time":1480000000000,"state":"active","ping":90},{"user_id":299,"name":"TerracottaP","steam_id":76561199402983168,"connected_time":2811000000000,"state":"spawning","ping":1210},{"user_id":339,"name":"Serene Salamander","steam_id":76561198001094770,"connected_time":640000000000,"state":"active","ping":109},{"user_id":340,"name":"Emnize","steam_id":76561198330950019,"connected_time":399000000000,"state":"spawning","ping":132},{"user_id":244,"name":"AmC","steam_id":76561198109731140,"connected_time":5735000000000,"state":"active","ping":120},{"user_id":327,"name":"Kawaii Cat","steam_id":76561198075974585,"connected_time":1052000000000,"state":"active","ping":45},{"user_id":266,"name":"melon soda","steam_id":76561198066748230,"connected_time":4573000000000,"state":"active","ping":63},{"user_id":305,"name":"Brave Eagle","steam_id":76561198276535127,"connected_time":2161000000000,"state":"active","ping":72},{"user_id":324,"name":"JambaJuice","steam_id":76561198806736231,"connected_time":1190000000000,"state":"active","ping":81},{"user_id":328,"name":"Chimpo","steam_id":76561198066228209,"connected_time":1041000000000,"state":"active","ping":85},{"user_id":343,"name":"CroutonCriminal","steam_id":76561198252145166,"connected_time":5000000000,"state":"spawning","ping":82},{"user_id":330,"name":"Bagel","steam_id":76561198159482198,"connected_time":982000000000,"state":"active","ping":33},{"user_id":319,"name":"vvichael","steam_id":76561198238148528,"connected_time":1308000000000,"state":"active","ping":63},{"user_id":320,"name":"Natsuki the Scunt","steam_id":76561199175922684,"connected_time":1280000000000,"state":"active","ping":114},{"user_id":337,"name":"BananaMangoFestival2013","steam_id":76561198218558897,"connected_time":764000000000,"state":"active","ping":139},{"user_id":310,"name":"✨ Rarity ✨","steam_id":76561199172206856,"connected_time":2004000000000,"state":"active","ping":73},{"user_id":301,"name":"Zoawsome","steam_id":76561198018758753,"connected_time":2599000000000,"state":"active","ping":75},{"user_id":332,"name":"collacot","steam_id":76561198243248798,"connected_time":944000000000,"state":"active","ping":58},{"user_id":170,"name":"chikin.sauce","steam_id":76561198042464635,"connected_time":11327000000000,"state":"active","ping":91},{"user_id":294,"name":"cbv ksdljiostutvherjib","steam_id":76561198304661367,"connected_time":3270000000000,"state":"active","ping":59},{"user_id":342,"name":"mothra","steam_id":76561198994634058,"connected_time":94000000000,"state":"active","ping":75},{"user_id":338,"name":"The Sex Monster (45th POTUS)","steam_id":76561198310874055,"connected_time":700000000000,"state":"active","ping":90},{"user_id":335,"name":"hayes","steam_id":76561198057101042,"connected_time":910000000000,"state":"active","ping":73}]},{"server_id":2,"name":"Uncletopia | Chicago | 1 | All Maps","name_short":"chi-1","host":"chi-1.us.uncletopia.com","port":27015,"enabled":true,"region":"us-central","cc":"us","latitude":41.881832,"longitude":-87.62318,"reserved":0,"last_update":"0001-01-01T00:00:00Z","name_a2s":"Uncletopia | Chicago | 1 | All Maps","protocol":17,"map":"pl_borneo","folder":"tf","game":"Team Fortress","app_id":440,"player_count":24,"max_players":24,"Bots":0,"server_type":"Dedicated","server_os":"Linux","password":true,"vac":true,"version":"7961495","steam_id":85568392924469984,"keywords":["nocrits","nodmgspread","payload","uncletopia"],"game_id":440,"stv_port":27016,"stv_name":"Uncletopia | Chicago | 1 | All Maps | STV","players":[{"user_id":481,"name":"Adderall Admiral","steam_id":76561198034212160,"connected_time":1841000000000,"state":"active","ping":93},{"user_id":496,"name":"Gene Takovic","steam_id":76561198881039861,"connected_time":767000000000,"state":"active","ping":41},{"user_id":473,"name":"muhammed","steam_id":76561198872251615,"connected_time":2624000000000,"state":"active","ping":79},{"user_id":469,"name":"FattSucc","steam_id":76561198009500503,"connected_time":2793000000000,"state":"active","ping":83},{"user_id":495,"name":"e doctor","steam_id":76561198081851446,"connected_time":890000000000,"state":"active","ping":45},{"user_id":479,"name":"him/her","steam_id":76561198122238340,"connected_time":1964000000000,"state":"active","ping":76},{"user_id":460,"name":"troll","steam_id":76561198082680563,"connected_time":3228000000000,"state":"active","ping":59},{"user_id":497,"name":"Mentally Ill Woman","steam_id":76561198072030567,"connected_time":571000000000,"state":"active","ping":48},{"user_id":455,"name":"PickleHater13","steam_id":76561198259380127,"connected_time":3480000000000,"state":"active","ping":52},{"user_id":494,"name":"DragonHaert","steam_id":76561198132516061,"connected_time":930000000000,"state":"active","ping":52},{"user_id":487,"name":"leaf","steam_id":76561198061516523,"connected_time":1282000000000,"state":"active","ping":59},{"user_id":489,"name":"marlow","steam_id":76561198094408360,"connected_time":1234000000000,"state":"active","ping":77},{"user_id":485,"name":"JOOOOOOOOOOOOO!!!!!!","steam_id":76561199101638460,"connected_time":1307000000000,"state":"active","ping":81},{"user_id":492,"name":"BigPapaBrogan","steam_id":76561199012814165,"connected_time":1013000000000,"state":"active","ping":70},{"user_id":486,"name":"gamerfan539","steam_id":76561198803527852,"connected_time":1297000000000,"state":"active","ping":65},{"user_id":454,"name":"BOT Fred","steam_id":76561198367664346,"connected_time":3510000000000,"state":"active","ping":58},{"user_id":463,"name":"elpful","steam_id":76561198189659530,"connected_time":3181000000000,"state":"active","ping":78},{"user_id":465,"name":"TƎC","steam_id":76561198237180318,"connected_time":2931000000000,"state":"active","ping":69},{"user_id":453,"name":"CheeseCake488","steam_id":76561199407617942,"connected_time":3804000000000,"state":"active","ping":114},{"user_id":490,"name":"FranckyFox2468","steam_id":76561198037679126,"connected_time":1234000000000,"state":"active","ping":70},{"user_id":498,"name":"corntent","steam_id":76561198824847948,"connected_time":448000000000,"state":"active","ping":61},{"user_id":491,"name":"Scarceblue","steam_id":76561198107882998,"connected_time":1196000000000,"state":"active","ping":61},{"user_id":493,"name":"Rex","steam_id":76561198138365053,"connected_time":1010000000000,"state":"active","ping":133},{"user_id":478,"name":"fusioN","steam_id":76561198079179612,"connected_time":2442000000000,"state":"active","ping":60}]},{"server_id":106,"name":"Uncletopia | Chicago | 2 | All Maps","name_short":"chi-2","host":"chi-1.us.uncletopia.com","port":27025,"enabled":true,"region":"us-central","cc":"us","latitude":41.881832,"longitude":-87.62318,"reserved":0,"last_update":"0001-01-01T00:00:00Z","name_a2s":"Uncletopia | Chicago | 2 | All Maps","protocol":17,"map":"cp_metalworks","folder":"tf","game":"Team Fortress","app_id":440,"player_count":24,"max_players":24,"Bots":0,"server_type":"Dedicated","server_os":"Linux","password":true,"vac":true,"version":"7961495","steam_id":85568392924469985,"keywords":["cp","nocrits","nodmgspread","uncletopia"],"game_id":440,"stv_port":27026,"stv_name":"Uncletopia | Chicago | 2 | All Maps | STV","players":[{"user_id":573,"name":"Harry S. Truman","steam_id":76561197993339757,"connected_time":1651000000000,"state":"active","ping":63},{"user_id":590,"name":"Texas Red","steam_id":76561198832095246,"connected_time":607000000000,"state":"active","ping":71},{"user_id":575,"name":"Boolinbanana","steam_id":76561198815674774,"connected_time":1519000000000,"state":"active","ping":61},{"user_id":583,"name":"Oh, it's Zach","steam_id":76561198103309672,"connected_time":1094000000000,"state":"active","ping":56},{"user_id":586,"name":"STOCKBROKER GOBLIN","steam_id":76561199209782011,"connected_time":775000000000,"state":"active","ping":67},{"user_id":539,"name":"You got the Dud!","steam_id":76561198131576005,"connected_time":4929000000000,"state":"active","ping":61},{"user_id":598,"name":"Admiral Crumbs","steam_id":76561198108791583,"connected_time":448000000000,"state":"active","ping":60},{"user_id":537,"name":"Pinhead Dipshit","steam_id":76561198320121171,"connected_time":5021000000000,"state":"active","ping":66},{"user_id":600,"name":"pizzaroger2003","steam_id":76561198179785873,"connected_time":351000000000,"state":"active","ping":61},{"user_id":582,"name":"princess fern \u003c3333","steam_id":76561198881792140,"connected_time":1131000000000,"state":"active","ping":67},{"user_id":593,"name":"14 INCH TGIRL SCHLONG","steam_id":76561198122059018,"connected_time":552000000000,"state":"active","ping":47},{"user_id":594,"name":"Lish","steam_id":76561198447356180,"connected_time":547000000000,"state":"active","ping":62},{"user_id":453,"name":"Lennu","steam_id":76561198060730154,"connected_time":10835000000000,"state":"active","ping":70},{"user_id":571,"name":"Whens Radiohead Start","steam_id":76561198110355408,"connected_time":1905000000000,"state":"active","ping":75},{"user_id":578,"name":"Do Online Now Guys","steam_id":76561198120551862,"connected_time":1297000000000,"state":"active","ping":57},{"user_id":565,"name":"Hey","steam_id":76561198447517893,"connected_time":2544000000000,"state":"active","ping":75},{"user_id":595,"name":"RestingImmortal","steam_id":76561198254240564,"connected_time":543000000000,"state":"active","ping":61},{"user_id":569,"name":"TheoLynwood","steam_id":76561198079596878,"connected_time":2314000000000,"state":"active","ping":58},{"user_id":580,"name":"SleepiestCrow","steam_id":76561198042018679,"connected_time":1272000000000,"state":"active","ping":51},{"user_id":561,"name":"Ghetto Smosh","steam_id":76561198880396651,"connected_time":2704000000000,"state":"active","ping":73},{"user_id":596,"name":"The Scringler","steam_id":76561199016537311,"connected_time":543000000000,"state":"active","ping":71},{"user_id":597,"name":"Fantastibad","steam_id":76561199087329262,"connected_time":515000000000,"state":"active","ping":76},{"user_id":599,"name":"MethJew","steam_id":76561198084581397,"connected_time":426000000000,"state":"active","ping":49},{"user_id":465,"name":"QweX_","steam_id":76561198051250642,"connected_time":9999000000000,"state":"active","ping":94}]},{"server_id":402,"name":"Uncletopia | Chicago | 3 | All Maps","name_short":"chi-3","host":"chi-1.us.uncletopia.com","port":27035,"enabled":true,"region":"us-central","cc":"us","latitude":41.881832,"longitude":-87.62318,"reserved":0,"last_update":"0001-01-01T00:00:00Z","name_a2s":"Uncletopia | Chicago | 3 | All Maps","protocol":17,"map":"pl_frontier_final","folder":"tf","game":"Team Fortress","app_id":440,"player_count":24,"max_players":24,"Bots":0,"server_type":"Dedicated","server_os":"Linux","password":true,"vac":true,"version":"7961495","steam_id":85568392924515191,"keywords":["nocrits","nodmgspread","payload","uncletopia"],"game_id":440,"stv_port":27036,"stv_name":"Uncletopia | Chicago | 3 | All Maps | STV","players":[{"user_id":475,"name":"Wescool121","steam_id":76561198351313234,"connected_time":738000000000,"state":"active","ping":115},{"user_id":465,"name":"subdromeda","steam_id":76561198884351860,"connected_time":1087000000000,"state":"active","ping":64},{"user_id":474,"name":"☆Nebula-Belt☆","steam_id":76561198151250806,"connected_time":881000000000,"state":"active","ping":80},{"user_id":445,"name":"GibbusGod","steam_id":76561199232436690,"connected_time":2305000000000,"state":"active","ping":64},{"user_id":459,"name":"sidhaktheguy","steam_id":76561198306006593,"connected_time":1771000000000,"state":"active","ping":54},{"user_id":413,"name":"choppa wednesday","steam_id":76561199389283507,"connected_time":5271000000000,"state":"active","ping":59},{"user_id":446,"name":"mrpineapple070","steam_id":76561199088278757,"connected_time":2283000000000,"state":"active","ping":86},{"user_id":457,"name":"He rolls his own","steam_id":76561198058162684,"connected_time":1936000000000,"state":"active","ping":67},{"user_id":442,"name":"pupper","steam_id":76561198145921847,"connected_time":2745000000000,"state":"active","ping":75},{"user_id":400,"name":"Nostic","steam_id":76561199508767541,"connected_time":5806000000000,"state":"active","ping":63},{"user_id":477,"name":"Nefy","steam_id":76561198030017316,"connected_time":32000000000,"state":"active","ping":78},{"user_id":427,"name":"sock","steam_id":76561199117597830,"connected_time":4114000000000,"state":"active","ping":67},{"user_id":356,"name":"JohnFMX","steam_id":76561198175608097,"connected_time":8061000000000,"state":"active","ping":67},{"user_id":464,"name":"UnraveledCape24","steam_id":76561198189101857,"connected_time":1093000000000,"state":"active","ping":64},{"user_id":468,"name":"Sergeant Snowflake","steam_id":76561198041474489,"connected_time":1044000000000,"state":"active","ping":47},{"user_id":449,"name":"My main goal is to blow up","steam_id":76561198271907916,"connected_time":2252000000000,"state":"active","ping":58},{"user_id":469,"name":"uegue","steam_id":76561198254639173,"connected_time":1024000000000,"state":"active","ping":115},{"user_id":450,"name":"RhinoBeetle1","steam_id":76561199001783102,"connected_time":2251000000000,"state":"active","ping":101},{"user_id":463,"name":"Asha'man","steam_id":76561198057913763,"connected_time":1285000000000,"state":"active","ping":60},{"user_id":473,"name":"mrnicenoob","steam_id":76561199245550387,"connected_time":964000000000,"state":"active","ping":43},{"user_id":470,"name":"SPC Ham Sandwich","steam_id":76561198035752185,"connected_time":1022000000000,"state":"active","ping":71},{"user_id":453,"name":"Profile Name","steam_id":76561198404517128,"connected_time":2174000000000,"state":"active","ping":91},{"user_id":466,"name":"chaffy","steam_id":76561198021754567,"connected_time":1081000000000,"state":"active","ping":60},{"user_id":432,"name":"benjamator67","steam_id":76561198209002860,"connected_time":3318000000000,"state":"active","ping":43}]},{"server_id":403,"name":"Uncletopia | Chicago | 4 | All Maps","name_short":"chi-4","host":"chi-1.us.uncletopia.com","port":27045,"enabled":true,"region":"us-central","cc":"us","latitude":41.881832,"longitude":-87.62318,"reserved":0,"last_update":"0001-01-01T00:00:00Z","name_a2s":"Uncletopia | Chicago | 4 | All Maps","protocol":17,"map":"koth_harvest_final","folder":"tf","game":"Team Fortress","app_id":440,"player_count":24,"max_players":24,"Bots":0,"server_type":"Dedicated","server_os":"Linux","password":true,"vac":true,"version":"7961495","steam_id":85568392924515193,"keywords":["cp","nocrits","nodmgspread","uncletopia"],"game_id":440,"stv_port":27046,"stv_name":"Uncletopia | Chicago | 4 | All Maps | STV","players":[{"user_id":218,"name":"Argo","steam_id":76561198353725622,"connected_time":2909000000000,"state":"active","ping":76},{"user_id":265,"name":"JobsDone2","steam_id":76561198159158870,"connected_time":126000000000,"state":"active","ping":57},{"user_id":219,"name":"Lia_Rein","steam_id":76561198151569597,"connected_time":2687000000000,"state":"active","ping":158},{"user_id":234,"name":"TacoMan4Life","steam_id":76561198832562728,"connected_time":2231000000000,"state":"active","ping":101},{"user_id":242,"name":"ifuruna","steam_id":76561199506882366,"connected_time":1463000000000,"state":"active","ping":137},{"user_id":255,"name":"Cabbage","steam_id":76561198405573530,"connected_time":841000000000,"state":"active","ping":54},{"user_id":243,"name":"Muselk, but mexican","steam_id":76561199289676387,"connected_time":1451000000000,"state":"active","ping":82},{"user_id":262,"name":"Jerk Tryhard (roleplay)","steam_id":76561199470538309,"connected_time":496000000000,"state":"active","ping":54},{"user_id":239,"name":"roger roger","steam_id":76561198130032444,"connected_time":1847000000000,"state":"active","ping":90},{"user_id":266,"name":"SPF420","steam_id":76561198083991705,"connected_time":61000000000,"state":"active","ping":48},{"user_id":241,"name":"Hankel Tom (The Hankeler)","steam_id":76561199446367874,"connected_time":1467000000000,"state":"active","ping":40},{"user_id":258,"name":"MW3bloodmoney","steam_id":76561198294390264,"connected_time":718000000000,"state":"active","ping":102},{"user_id":238,"name":"DRACO$","steam_id":76561198389198223,"connected_time":1977000000000,"state":"active","ping":82},{"user_id":207,"name":"Bagel","steam_id":76561198167747447,"connected_time":3765000000000,"state":"active","ping":66},{"user_id":247,"name":"Give hugs do drugs","steam_id":76561198821487551,"connected_time":1300000000000,"state":"active","ping":42},{"user_id":252,"name":"mister slippery","steam_id":76561198057076267,"connected_time":959000000000,"state":"active","ping":93},{"user_id":259,"name":"Surfing Garchomp","steam_id":76561199107236884,"connected_time":717000000000,"state":"active","ping":102},{"user_id":254,"name":"thecal","steam_id":76561198307893384,"connected_time":863000000000,"state":"active","ping":57},{"user_id":246,"name":"Chadmander","steam_id":76561197974136337,"connected_time":1398000000000,"state":"active","ping":41},{"user_id":263,"name":"hboflexin","steam_id":76561198323411839,"connected_time":246000000000,"state":"active","ping":68},{"user_id":163,"name":"Great Value Rice Crispers","steam_id":76561198211512619,"connected_time":5950000000000,"state":"active","ping":80},{"user_id":261,"name":"00Lemon","steam_id":76561198068014451,"connected_time":669000000000,"state":"active","ping":87},{"user_id":264,"name":"Laventhey","steam_id":76561198977523626,"connected_time":232000000000,"state":"active","ping":75},{"user_id":195,"name":"draining to stay happy","steam_id":76561198797823116,"connected_time":4656000000000,"state":"active","ping":63}]},{"server_id":36,"name":"Uncletopia | Chicago | 5 | All Maps","name_short":"chi-5","host":"chi-2.us.uncletopia.com","port":27015,"enabled":true,"region":"us-central","cc":"us","latitude":41.881832,"longitude":-87.62318,"reserved":0,"last_update":"0001-01-01T00:00:00Z","name_a2s":"Uncletopia | Chicago | 5 | All Maps","protocol":17,"map":"pl_pier","folder":"tf","game":"Team Fortress","app_id":440,"player_count":2,"max_players":24,"Bots":0,"server_type":"Dedicated","server_os":"Linux","password":true,"vac":true,"version":"7961495","steam_id":85568392924866362,"keywords":["nocrits","nodmgspread","payload","uncletopia"],"game_id":440,"stv_port":27016,"stv_name":"Uncletopia | Chicago | 5 | All Maps | STV","players":[{"user_id":14,"name":"NotNewbie","steam_id":76561198164645568,"connected_time":126000000000,"state":"active","ping":46},{"user_id":15,"name":"Stalker91107","steam_id":76561198044128234,"connected_time":114000000000,"state":"active","ping":47}]},{"server_id":37,"name":"Uncletopia | Chicago | 6 | All Maps","name_short":"chi-6","host":"chi-2.us.uncletopia.com","port":27025,"enabled":true,"region":"us-central","cc":"us","latitude":41.881832,"longitude":-87.62318,"reserved":0,"last_update":"0001-01-01T00:00:00Z","name_a2s":"Uncletopia | Chicago | 6 | All Maps","protocol":17,"map":"pl_barnblitz","folder":"tf","game":"Team Fortress","app_id":440,"player_count":23,"max_players":24,"Bots":0,"server_type":"Dedicated","server_os":"Linux","password":true,"vac":true,"version":"7961495","steam_id":85568392924866363,"keywords":["nocrits","nodmgspread","payload","uncletopia"],"game_id":440,"stv_port":27026,"stv_name":"Uncletopia | Chicago | 6 | All Maps | STV","players":[{"user_id":32,"name":"minecraft_2.0","steam_id":76561198391819120,"connected_time":2721000000000,"state":"active","ping":100},{"user_id":46,"name":"JJ","steam_id":76561198115405064,"connected_time":1145000000000,"state":"active","ping":91},{"user_id":47,"name":"lilac brooch...","steam_id":76561198333718916,"connected_time":1133000000000,"state":"active","ping":69},{"user_id":52,"name":"The Idiot","steam_id":76561198049837377,"connected_time":854000000000,"state":"active","ping":59},{"user_id":27,"name":"artemisjackson2","steam_id":76561199094686268,"connected_time":3434000000000,"state":"active","ping":67},{"user_id":37,"name":"Dr. Nobotnik","steam_id":76561198357339092,"connected_time":1844000000000,"state":"active","ping":79},{"user_id":38,"name":"bcharlton","steam_id":76561199007186253,"connected_time":1729000000000,"state":"active","ping":52},{"user_id":67,"name":"Penis Man Balls Funny","steam_id":76561198207718944,"connected_time":272000000000,"state":"active","ping":67},{"user_id":40,"name":"Rylan","steam_id":76561198318862129,"connected_time":1488000000000,"state":"active","ping":50},{"user_id":49,"name":"blizzard","steam_id":76561198066056920,"connected_time":1111000000000,"state":"active","ping":85},{"user_id":66,"name":"Banana_Boy_07","steam_id":76561198103183142,"connected_time":336000000000,"state":"active","ping":145},{"user_id":50,"name":"101_the_Robot","steam_id":76561198331039848,"connected_time":1083000000000,"state":"active","ping":90},{"user_id":51,"name":"IlikeChowMien","steam_id":76561199466131782,"connected_time":998000000000,"state":"active","ping":82},{"user_id":53,"name":"gIBBY","steam_id":76561198080099598,"connected_time":767000000000,"state":"active","ping":66},{"user_id":59,"name":"Pigzilla","steam_id":76561198373968267,"connected_time":625000000000,"state":"active","ping":60},{"user_id":56,"name":"chaoticAnomaly","steam_id":76561198186799367,"connected_time":654000000000,"state":"active","ping":77},{"user_id":58,"name":"be nice im new","steam_id":76561199227557263,"connected_time":637000000000,"state":"active","ping":105},{"user_id":60,"name":"GregGaming098","steam_id":76561198882415360,"connected_time":621000000000,"state":"active","ping":94},{"user_id":61,"name":"IS3BITEL","steam_id":76561199178060325,"connected_time":612000000000,"state":"active","ping":160},{"user_id":62,"name":"thatoneguy_8","steam_id":76561199195276428,"connected_time":612000000000,"state":"active","ping":90},{"user_id":63,"name":"IEatCrayons","steam_id":76561198361029815,"connected_time":579000000000,"state":"active","ping":56},{"user_id":64,"name":"augs","steam_id":76561199120607417,"connected_time":577000000000,"state":"active","ping":70},{"user_id":65,"name":"chrissweep","steam_id":76561198072826791,"connected_time":556000000000,"state":"active","ping":77}]},{"server_id":38,"name":"Uncletopia | Chicago | 7 | Stopwatch","name_short":"chi-7","host":"chi-2.us.uncletopia.com","port":27035,"enabled":true,"region":"us-central","cc":"us","latitude":41.881832,"longitude":-87.62318,"reserved":0,"last_update":"0001-01-01T00:00:00Z","name_a2s":"Uncletopia | Chicago | 7 | Stopwatch","protocol":17,"map":"cp_sunshine","folder":"tf","game":"Team Fortress","app_id":440,"player_count":0,"max_players":24,"Bots":0,"server_type":"Dedicated","server_os":"Linux","password":true,"vac":true,"version":"7961495","steam_id":85568392924866364,"keywords":["cp","nocrits","nodmgspread","uncletopia"],"game_id":440,"stv_port":27036,"stv_name":"Uncletopia | Chicago | 7 | Stopwatch | STV","players":null},{"server_id":39,"name":"Uncletopia | Chicago | 8 | Community","name_short":"chi-8","host":"chi-2.us.uncletopia.com","port":27045,"enabled":true,"region":"us-central","cc":"us","latitude":41.881832,"longitude":-87.62318,"reserved":0,"last_update":"0001-01-01T00:00:00Z","name_a2s":"Uncletopia | Chicago | 8 | Community","protocol":17,"map":"workshop/koth_slaughter_rc1.ugc1712845210","folder":"tf","game":"Team Fortress","app_id":440,"player_count":0,"max_players":24,"Bots":0,"server_type":"Dedicated","server_os":"Linux","password":true,"vac":true,"version":"7961495","steam_id":85568392924866365,"keywords":["cp","nocrits","nodmgspread","uncletopia"],"game_id":440,"stv_port":27046,"stv_name":"Uncletopia | Chicago | 8 | Community | STV","players":null},{"server_id":8,"name":"Uncletopia | Dallas | 1 | All Maps","name_short":"dal-1","host":"dal-1.us.uncletopia.com","port":27015,"enabled":true,"region":"us-central","cc":"us","latitude":32.779167,"longitude":-96.80889,"reserved":0,"last_update":"0001-01-01T00:00:00Z","name_a2s":"Uncletopia | Dallas | 1 | All Maps","protocol":17,"map":"pl_upward","folder":"tf","game":"Team Fortress","app_id":440,"player_count":24,"max_players":24,"Bots":0,"server_type":"Dedicated","server_os":"Linux","password":true,"vac":true,"version":"7961495","steam_id":85568392924469986,"keywords":["nocrits","nodmgspread","payload","uncletopia"],"game_id":440,"stv_port":27016,"stv_name":"Uncletopia | Dallas | 1 | All Maps | STV","players":[{"user_id":409,"name":"SEGNO","steam_id":76561198102780113,"connected_time":530000000000,"state":"active","ping":62},{"user_id":410,"name":"I eat chicken","steam_id":76561198008757172,"connected_time":506000000000,"state":"active","ping":89},{"user_id":411,"name":"Frosty","steam_id":76561198393876351,"connected_time":502000000000,"state":"active","ping":54},{"user_id":344,"name":"Dry-guy","steam_id":76561199387729966,"connected_time":4392000000000,"state":"active","ping":79},{"user_id":407,"name":"bomber5001","steam_id":76561199139670106,"connected_time":960000000000,"state":"active","ping":77},{"user_id":367,"name":"corviraptor (certified failgirl","steam_id":76561198058284392,"connected_time":3270000000000,"state":"active","ping":48},{"user_id":403,"name":"nefarious criminal","steam_id":76561198077506415,"connected_time":1506000000000,"state":"active","ping":79},{"user_id":404,"name":"Dude Bronson","steam_id":76561198310453894,"connected_time":1256000000000,"state":"active","ping":83},{"user_id":419,"name":"Serenue","steam_id":76561199040361250,"connected_time":257000000000,"state":"active","ping":104},{"user_id":408,"name":"SadChicken λ","steam_id":76561198082458968,"connected_time":594000000000,"state":"active","ping":74},{"user_id":389,"name":"Ryzema","steam_id":76561198165594229,"connected_time":2329000000000,"state":"active","ping":76},{"user_id":416,"name":"Jin Mu-Won","steam_id":76561198414122318,"connected_time":373000000000,"state":"active","ping":98},{"user_id":420,"name":"Steven","steam_id":76561198143826450,"connected_time":181000000000,"state":"active","ping":68},{"user_id":414,"name":"(Ô)Ô)Wandering Singer(Ô(Ô)","steam_id":76561198126477141,"connected_time":443000000000,"state":"active","ping":94},{"user_id":415,"name":"SmokeyGalaxy","steam_id":76561198118780516,"connected_time":415000000000,"state":"active","ping":60},{"user_id":370,"name":"HeroOfTime","steam_id":76561199096218001,"connected_time":3112000000000,"state":"active","ping":90},{"user_id":417,"name":"Ivory","steam_id":76561198978827841,"connected_time":369000000000,"state":"active","ping":67},{"user_id":418,"name":"dree","steam_id":76561198079178866,"connected_time":368000000000,"state":"active","ping":92},{"user_id":400,"name":"Pinetree w/ apples.","steam_id":76561198105411709,"connected_time":1946000000000,"state":"active","ping":101},{"user_id":379,"name":"Wompta The Great","steam_id":76561199151398882,"connected_time":2823000000000,"state":"active","ping":98},{"user_id":401,"name":"Draco6257","steam_id":76561199147322448,"connected_time":1936000000000,"state":"active","ping":69},{"user_id":393,"name":"Satan's Salad","steam_id":76561198043965827,"connected_time":2140000000000,"state":"active","ping":76},{"user_id":314,"name":"Monte","steam_id":76561198097499917,"connected_time":6895000000000,"state":"active","ping":75},{"user_id":406,"name":"Dragorf2010","steam_id":76561199238402270,"connected_time":1080000000000,"state":"active","ping":83}]},{"server_id":108,"name":"Uncletopia | Dallas | 2 | All Maps","name_short":"dal-2","host":"dal-1.us.uncletopia.com","port":27025,"enabled":true,"region":"us-central","cc":"us","latitude":32.779167,"longitude":-96.80889,"reserved":0,"last_update":"0001-01-01T00:00:00Z","name_a2s":"Uncletopia | Dallas | 2 | All Maps","protocol":17,"map":"pl_barnblitz","folder":"tf","game":"Team Fortress","app_id":440,"player_count":24,"max_players":24,"Bots":0,"server_type":"Dedicated","server_os":"Linux","password":true,"vac":true,"version":"7961495","steam_id":85568392924469988,"keywords":["nocrits","nodmgspread","payload","uncletopia"],"game_id":440,"stv_port":27026,"stv_name":"Uncletopia | Dallas | 2 | All Maps | STV","players":[{"user_id":195,"name":"The Notorious RBG","steam_id":76561198014275148,"connected_time":739000000000,"state":"active","ping":84},{"user_id":188,"name":"RockMan","steam_id":76561199228684720,"connected_time":969000000000,"state":"active","ping":59},{"user_id":125,"name":"ุ","steam_id":76561198170624701,"connected_time":4453000000000,"state":"active","ping":80},{"user_id":207,"name":"Butters","steam_id":76561199255653942,"connected_time":212000000000,"state":"active","ping":92},{"user_id":118,"name":"Jakey","steam_id":76561198227381104,"connected_time":4872000000000,"state":"active","ping":89},{"user_id":123,"name":"lobster","steam_id":76561198147417707,"connected_time":4530000000000,"state":"active","ping":75},{"user_id":200,"name":"Bullwinkle J. Moose","steam_id":76561198075977196,"connected_time":488000000000,"state":"active","ping":62},{"user_id":172,"name":"room temp IQ","steam_id":76561198018724712,"connected_time":1868000000000,"state":"active","ping":41},{"user_id":176,"name":"rickyrickyricky","steam_id":76561198041765918,"connected_time":1455000000000,"state":"active","ping":66},{"user_id":202,"name":"JAKandBEL","steam_id":76561198213060931,"connected_time":266000000000,"state":"active","ping":67},{"user_id":171,"name":"gaminpanda52","steam_id":76561199090922778,"connected_time":1888000000000,"state":"active","ping":86},{"user_id":196,"name":"Wild Meep","steam_id":76561198199271438,"connected_time":715000000000,"state":"active","ping":97},{"user_id":193,"name":"Paulktw1","steam_id":76561198362380245,"connected_time":839000000000,"state":"active","ping":176},{"user_id":175,"name":"spot","steam_id":76561198151135298,"connected_time":1758000000000,"state":"active","ping":70},{"user_id":203,"name":"The Real Ninja Fortnite","steam_id":76561198127097632,"connected_time":265000000000,"state":"active","ping":134},{"user_id":83,"name":"smolcof","steam_id":76561198977085657,"connected_time":6401000000000,"state":"active","ping":61},{"user_id":204,"name":"Derblitz","steam_id":76561198040953176,"connected_time":264000000000,"state":"active","ping":80},{"user_id":186,"name":"heyCharn","steam_id":76561198058641350,"connected_time":1060000000000,"state":"active","ping":69},{"user_id":205,"name":"Killerfish360","steam_id":76561198115029584,"connected_time":236000000000,"state":"active","ping":92},{"user_id":206,"name":"Glitch","steam_id":76561199089194317,"connected_time":233000000000,"state":"active","ping":76},{"user_id":197,"name":"Dubious Adubio","steam_id":76561198442369067,"connected_time":677000000000,"state":"active","ping":63},{"user_id":198,"name":"CoziestGlobe","steam_id":76561198199237735,"connected_time":669000000000,"state":"active","ping":90},{"user_id":178,"name":"schmuck","steam_id":76561198143789773,"connected_time":1377000000000,"state":"active","ping":54},{"user_id":199,"name":"K2f","steam_id":76561198049600563,"connected_time":661000000000,"state":"active","ping":84}]},{"server_id":404,"name":"Uncletopia | Dallas | 3 | All Maps","name_short":"dal-3","host":"dal-1.us.uncletopia.com","port":27035,"enabled":true,"region":"us-central","cc":"us","latitude":32.779167,"longitude":-96.80889,"reserved":0,"last_update":"0001-01-01T00:00:00Z","name_a2s":"Uncletopia | Dallas | 3 | All Maps","protocol":17,"map":"pl_upward","folder":"tf","game":"Team Fortress","app_id":440,"player_count":24,"max_players":24,"Bots":0,"server_type":"Dedicated","server_os":"Linux","password":true,"vac":true,"version":"7961495","steam_id":85568392924515219,"keywords":["nocrits","nodmgspread","payload","uncletopia"],"game_id":440,"stv_port":27036,"stv_name":"Uncletopia | Dallas | 3 | All Maps | STV","players":[{"user_id":354,"name":"lonely fortnite gamer girl","steam_id":76561198272948471,"connected_time":4755000000000,"state":"active","ping":76},{"user_id":373,"name":"Intrepid","steam_id":76561198125321034,"connected_time":2998000000000,"state":"active","ping":80},{"user_id":394,"name":"Rukks","steam_id":76561197993918954,"connected_time":1401000000000,"state":"active","ping":88},{"user_id":407,"name":"HUMBY","steam_id":76561198065045867,"connected_time":577000000000,"state":"active","ping":75},{"user_id":409,"name":"TheSecretNewbie","steam_id":76561198194671218,"connected_time":388000000000,"state":"active","ping":56},{"user_id":359,"name":"Female Gamer","steam_id":76561199366482682,"connected_time":4625000000000,"state":"active","ping":100},{"user_id":375,"name":"most.epic.brony.2002","steam_id":76561198075510786,"connected_time":2990000000000,"state":"active","ping":61},{"user_id":366,"name":"ElitePoopotter","steam_id":76561199201963028,"connected_time":3931000000000,"state":"active","ping":50},{"user_id":405,"name":"tenebris","steam_id":76561198192203545,"connected_time":624000000000,"state":"active","ping":106},{"user_id":389,"name":"caberknight tf2  (f2p-ish)","steam_id":76561199273882768,"connected_time":1649000000000,"state":"active","ping":66},{"user_id":403,"name":"MantisToboggan","steam_id":76561197969447887,"connected_time":694000000000,"state":"active","ping":132},{"user_id":324,"name":"ark","steam_id":76561198041066271,"connected_time":7551000000000,"state":"active","ping":69},{"user_id":408,"name":"monke","steam_id":76561199058172687,"connected_time":454000000000,"state":"active","ping":87},{"user_id":390,"name":"Waesel","steam_id":76561198069188177,"connected_time":1635000000000,"state":"active","ping":76},{"user_id":396,"name":"JellyParrot","steam_id":76561199190990163,"connected_time":1153000000000,"state":"active","ping":63},{"user_id":367,"name":"GUH","steam_id":76561199013202758,"connected_time":3931000000000,"state":"active","ping":61},{"user_id":391,"name":"blossomybat542","steam_id":76561199078403037,"connected_time":1631000000000,"state":"active","ping":80},{"user_id":397,"name":"Salt","steam_id":76561198418001135,"connected_time":1148000000000,"state":"active","ping":70},{"user_id":410,"name":"Kung fu MUNGUS","steam_id":76561198069281556,"connected_time":380000000000,"state":"active","ping":75},{"user_id":398,"name":"Grify","steam_id":76561198012292317,"connected_time":1141000000000,"state":"active","ping":90},{"user_id":393,"name":"Mr. Chicken nipples","steam_id":76561198040907706,"connected_time":1600000000000,"state":"active","ping":85},{"user_id":357,"name":"mcdonald's cashier","steam_id":76561198064631164,"connected_time":4743000000000,"state":"active","ping":75},{"user_id":406,"name":"Big Cat","steam_id":76561198115695203,"connected_time":618000000000,"state":"active","ping":61},{"user_id":412,"name":"Harley [Ramiel]","steam_id":76561198079510840,"connected_time":208000000000,"state":"active","ping":102}]},{"server_id":405,"name":"Uncletopia | Dallas | 4 | Community","name_short":"dal-4","host":"dal-1.us.uncletopia.com","port":27045,"enabled":true,"region":"us-central","cc":"us","latitude":32.779167,"longitude":-96.80889,"reserved":0,"last_update":"0001-01-01T00:00:00Z","name_a2s":"Uncletopia | Dallas | 4 | Community","protocol":17,"map":"workshop/koth_synthetic_rc6a.ugc1549817316","folder":"tf","game":"Team Fortress","app_id":440,"player_count":1,"max_players":24,"Bots":0,"server_type":"Dedicated","server_os":"Linux","password":true,"vac":true,"version":"7961495","steam_id":85568392924515220,"keywords":["cp","nocrits","nodmgspread","uncletopia"],"game_id":440,"stv_port":27046,"stv_name":"Uncletopia | Dallas | 4 | Community | STV","players":[{"user_id":5,"name":"DmacE","steam_id":76561199138963471,"connected_time":148000000000,"state":"active","ping":47}]},{"server_id":5,"name":"Uncletopia | Frankfurt | 1 | All Maps","name_short":"frk-1","host":"frk-1.de.uncletopia.com","port":27015,"enabled":true,"region":"eu","cc":"de","latitude":50.110924,"longitude":8.682127,"reserved":0,"last_update":"0001-01-01T00:00:00Z","name_a2s":"Uncletopia | Frankfurt | 1 | All Maps","protocol":17,"map":"cp_fastlane","folder":"tf","game":"Team Fortress","app_id":440,"player_count":0,"max_players":24,"Bots":0,"server_type":"Dedicated","server_os":"Linux","password":true,"vac":true,"version":"7961495","steam_id":85568392924469989,"keywords":["cp","nocrits","nodmgspread","uncletopia"],"game_id":440,"stv_port":27016,"stv_name":"Uncletopia | Frankfurt | 1 | All Maps | STV","players":null},{"server_id":110,"name":"Uncletopia | Frankfurt | 2 | All Maps","name_short":"frk-2","host":"frk-1.de.uncletopia.com","port":27025,"enabled":true,"region":"eu","cc":"de","latitude":50.110924,"longitude":8.682127,"reserved":0,"last_update":"0001-01-01T00:00:00Z","name_a2s":"Uncletopia | Frankfurt | 2 | All Maps","protocol":17,"map":"cp_steel","folder":"tf","game":"Team Fortress","app_id":440,"player_count":24,"max_players":24,"Bots":0,"server_type":"Dedicated","server_os":"Linux","password":true,"vac":true,"version":"7961495","steam_id":85568392924469990,"keywords":["cp","nocrits","nodmgspread","uncletopia"],"game_id":440,"stv_port":27026,"stv_name":"Uncletopia | Frankfurt | 2 | All Maps | STV","players":[{"user_id":719,"name":"Bing Bop Boop","steam_id":76561198344190563,"connected_time":4132000000000,"state":"active","ping":46},{"user_id":725,"name":"Redsy","steam_id":76561198360088412,"connected_time":2740000000000,"state":"active","ping":138},{"user_id":735,"name":"meriones","steam_id":76561198034234373,"connected_time":2251000000000,"state":"active","ping":58},{"user_id":747,"name":"KittyKate ❤","steam_id":76561198116340817,"connected_time":976000000000,"state":"active","ping":61},{"user_id":746,"name":"swagmeester","steam_id":76561198045828392,"connected_time":1059000000000,"state":"active","ping":56},{"user_id":718,"name":"azzy","steam_id":76561198061293740,"connected_time":4302000000000,"state":"active","ping":78},{"user_id":748,"name":"new folder","steam_id":76561198035125667,"connected_time":973000000000,"state":"active","ping":71},{"user_id":749,"name":"orphan smeller","steam_id":76561198107876224,"connected_time":968000000000,"state":"active","ping":45},{"user_id":755,"name":"dd","steam_id":76561198257836694,"connected_time":767000000000,"state":"active","ping":51},{"user_id":745,"name":"fem","steam_id":76561199103444466,"connected_time":1159000000000,"state":"active","ping":75},{"user_id":760,"name":"Renolox","steam_id":76561198036590182,"connected_time":58000000000,"state":"active","ping":56},{"user_id":737,"name":"Cocsam","steam_id":76561198050827179,"connected_time":2016000000000,"state":"active","ping":51},{"user_id":744,"name":"Sup","steam_id":76561198959835348,"connected_time":1235000000000,"state":"active","ping":59},{"user_id":750,"name":"Economic crisis","steam_id":76561198063562843,"connected_time":963000000000,"state":"active","ping":48},{"user_id":758,"name":"Bobirulez","steam_id":76561198009125458,"connected_time":146000000000,"state":"active","ping":75},{"user_id":751,"name":"BuzzBees ❤","steam_id":76561198101502273,"connected_time":936000000000,"state":"active","ping":60},{"user_id":716,"name":"G.L.O.R.I.","steam_id":76561198134414380,"connected_time":4443000000000,"state":"active","ping":62},{"user_id":743,"name":"Jedunahoru","steam_id":76561199508744635,"connected_time":1317000000000,"state":"active","ping":60},{"user_id":722,"name":"proph","steam_id":76561197998803950,"connected_time":2757000000000,"state":"active","ping":45},{"user_id":759,"name":"cora","steam_id":76561199474154775,"connected_time":130000000000,"state":"active","ping":55},{"user_id":742,"name":"S4LV4G3","steam_id":76561198130314779,"connected_time":1445000000000,"state":"active","ping":60},{"user_id":732,"name":"tube sock","steam_id":76561198073576350,"connected_time":2491000000000,"state":"active","ping":71},{"user_id":753,"name":"JujuBalu","steam_id":76561198207253071,"connected_time":876000000000,"state":"active","ping":47},{"user_id":757,"name":"tonium (tone' (real))","steam_id":76561198055552635,"connected_time":662000000000,"state":"active","ping":57}]},{"server_id":308,"name":"Uncletopia | Frankfurt | 3 | All Maps","name_short":"frk-3","host":"frk-1.de.uncletopia.com","port":27035,"enabled":true,"region":"eu","cc":"de","latitude":50.110924,"longitude":8.682127,"reserved":0,"last_update":"0001-01-01T00:00:00Z","name_a2s":"Uncletopia | Frankfurt | 3 | All Maps","protocol":17,"map":"koth_brazil","folder":"tf","game":"Team Fortress","app_id":440,"player_count":0,"max_players":24,"Bots":0,"server_type":"Dedicated","server_os":"Linux","password":true,"vac":true,"version":"7961495","steam_id":85568392924504274,"keywords":["cp","nocrits","nodmgspread","uncletopia"],"game_id":440,"stv_port":27036,"stv_name":"Uncletopia | Frankfurt | 3 | All Maps | STV","players":null},{"server_id":309,"name":"Uncletopia | Frankfurt | 4 | All Maps","name_short":"frk-4","host":"frk-1.de.uncletopia.com","port":27045,"enabled":true,"region":"eu","cc":"de","latitude":50.110924,"longitude":8.682127,"reserved":0,"last_update":"0001-01-01T00:00:00Z","name_a2s":"Uncletopia | Frankfurt | 4 | All Maps","protocol":17,"map":"cp_process_final","folder":"tf","game":"Team Fortress","app_id":440,"player_count":0,"max_players":24,"Bots":0,"server_type":"Dedicated","server_os":"Linux","password":true,"vac":true,"version":"7961495","steam_id":85568392924504275,"keywords":["cp","nocrits","nodmgspread","uncletopia"],"game_id":440,"stv_port":27046,"stv_name":"Uncletopia | Frankfurt | 4 | All Maps | STV","players":null},{"server_id":310,"name":"Uncletopia | Frankfurt | 5 | All Maps","name_short":"frk-5","host":"frk-1.de.uncletopia.com","port":27055,"enabled":true,"region":"eu","cc":"de","latitude":50.110924,"longitude":8.682127,"reserved":0,"last_update":"0001-01-01T00:00:00Z","name_a2s":"Uncletopia | Frankfurt | 5 | All Maps","protocol":17,"map":"cp_dustbowl","folder":"tf","game":"Team Fortress","app_id":440,"player_count":0,"max_players":24,"Bots":0,"server_type":"Dedicated","server_os":"Linux","password":true,"vac":true,"version":"7961495","steam_id":85568392924504277,"keywords":["cp","nocrits","nodmgspread","uncletopia"],"game_id":440,"stv_port":27056,"stv_name":"Uncletopia | Frankfurt | 5 | All Maps | STV","players":null},{"server_id":311,"name":"Uncletopia | Frankfurt | 6 | All Maps","name_short":"frk-6","host":"frk-1.de.uncletopia.com","port":27065,"enabled":true,"region":"eu","cc":"de","latitude":50.110924,"longitude":8.682127,"reserved":0,"last_update":"0001-01-01T00:00:00Z","name_a2s":"Uncletopia | Frankfurt | 6 | All Maps","protocol":17,"map":"pl_thundermountain","folder":"tf","game":"Team Fortress","app_id":440,"player_count":0,"max_players":24,"Bots":0,"server_type":"Dedicated","server_os":"Linux","password":true,"vac":true,"version":"7961495","steam_id":85568392924504278,"keywords":["nocrits","nodmgspread","payload","uncletopia"],"game_id":440,"stv_port":27066,"stv_name":"Uncletopia | Frankfurt | 6 | All Maps | STV","players":null},{"server_id":23,"name":"Uncletopia | Frankfurt | 7 | Stopwatch","name_short":"frk-7","host":"frk-1.de.uncletopia.com","port":27075,"enabled":true,"region":"eu","cc":"de","latitude":50.110924,"longitude":8.682127,"reserved":0,"last_update":"0001-01-01T00:00:00Z","name_a2s":"Uncletopia | Frankfurt | 7 | Stopwatch","protocol":17,"map":"workshop/koth_product_final.ugc454272353","folder":"tf","game":"Team Fortress","app_id":440,"player_count":0,"max_players":24,"Bots":0,"server_type":"Dedicated","server_os":"Linux","password":true,"vac":true,"version":"7961495","steam_id":85568392924742827,"keywords":["cp","nocrits","nodmgspread","uncletopia"],"game_id":440,"stv_port":27076,"stv_name":"Uncletopia | Frankfurt | 7 | Stopwatch | STV","players":null},{"server_id":24,"name":"Uncletopia | Frankfurt | 8 | Community","name_short":"frk-8","host":"frk-1.de.uncletopia.com","port":27085,"enabled":true,"region":"eu","cc":"de","latitude":50.110924,"longitude":8.682127,"reserved":0,"last_update":"0001-01-01T00:00:00Z","name_a2s":"Uncletopia | Frankfurt | 8 | Community","protocol":17,"map":"workshop/rd_asteroid_redux_b1.ugc2154902912","folder":"tf","game":"Team Fortress","app_id":440,"player_count":0,"max_players":24,"Bots":0,"server_type":"Dedicated","server_os":"Linux","password":true,"vac":true,"version":"7961495","steam_id":85568392924742828,"keywords":["beta","nocrits","nodmgspread","rd","uncletopia"],"game_id":440,"stv_port":27086,"stv_name":"Uncletopia | Frankfurt | 8 | Community | STV","players":null},{"server_id":202,"name":"Uncletopia | Hong Kong | 1 | All Maps","name_short":"hgk-1","host":"hgk-1.hk.uncletopia.com","port":27015,"enabled":true,"region":"asia","cc":"hk","latitude":22.302711,"longitude":114.177216,"reserved":0,"last_update":"0001-01-01T00:00:00Z","name_a2s":"Uncletopia | Hong Kong | 1 | All Maps","protocol":17,"map":"cp_gravelpit","folder":"tf","game":"Team Fortress","app_id":440,"player_count":0,"max_players":24,"Bots":0,"server_type":"Dedicated","server_os":"Linux","password":true,"vac":true,"version":"7961495","steam_id":85568392924494504,"keywords":["cp","nocrits","nodmgspread","uncletopia"],"game_id":440,"stv_port":27016,"stv_name":"Uncletopia | Hong Kong | 1 | All Maps | STV","players":null},{"server_id":1,"name":"Uncletopia | Los Angeles | 1 | All Maps","name_short":"lax-1","host":"lax-1.us.uncletopia.com","port":27015,"enabled":true,"region":"us-west","cc":"us","latitude":33.94279,"longitude":-118.41004,"reserved":0,"last_update":"0001-01-01T00:00:00Z","name_a2s":"Uncletopia | Los Angeles | 1 | All Maps","protocol":17,"map":"pl_swiftwater_final1","folder":"tf","game":"Team Fortress","app_id":440,"player_count":0,"max_players":24,"Bots":0,"server_type":"Dedicated","server_os":"Linux","password":true,"vac":true,"version":"7961495","steam_id":85568392924469991,"keywords":["nocrits","nodmgspread","payload","uncletopia"],"game_id":440,"stv_port":27016,"stv_name":"Uncletopia | Los Angeles | 1 | All Maps | STV","players":null},{"server_id":112,"name":"Uncletopia | Los Angeles | 2 | All Maps","name_short":"lax-2","host":"lax-1.us.uncletopia.com","port":27025,"enabled":true,"region":"us-west","cc":"us","latitude":33.94279,"longitude":-118.41004,"reserved":0,"last_update":"0001-01-01T00:00:00Z","name_a2s":"Uncletopia | Los Angeles | 2 | All Maps","protocol":17,"map":"cp_process_final","folder":"tf","game":"Team Fortress","app_id":440,"player_count":24,"max_players":24,"Bots":0,"server_type":"Dedicated","server_os":"Linux","password":true,"vac":true,"version":"7961495","steam_id":85568392924469992,"keywords":["cp","nocrits","nodmgspread","uncletopia"],"game_id":440,"stv_port":27026,"stv_name":"Uncletopia | Los Angeles | 2 | All Maps | STV","players":[{"user_id":245,"name":"indie rock cliches","steam_id":76561198131833567,"connected_time":1176000000000,"state":"active","ping":62},{"user_id":244,"name":"Phosk","steam_id":76561198065495431,"connected_time":1214000000000,"state":"active","ping":51},{"user_id":229,"name":"DoublestD","steam_id":76561198856899173,"connected_time":1585000000000,"state":"active","ping":62},{"user_id":252,"name":"daze","steam_id":76561198799159218,"connected_time":11000000000,"state":"spawning","ping":131},{"user_id":226,"name":"cringy","steam_id":76561198323000455,"connected_time":1627000000000,"state":"active","ping":52},{"user_id":251,"name":"Punished Jeff #NeverSimpAgain","steam_id":76561198304252584,"connected_time":249000000000,"state":"active","ping":60},{"user_id":183,"name":"Synergy","steam_id":76561198098630198,"connected_time":4512000000000,"state":"active","ping":71},{"user_id":237,"name":"A UsedNom","steam_id":76561198402832756,"connected_time":1445000000000,"state":"active","ping":44},{"user_id":246,"name":"mentos14","steam_id":76561198097993629,"connected_time":942000000000,"state":"active","ping":55},{"user_id":175,"name":"D(b) Hell","steam_id":76561198067869016,"connected_time":5175000000000,"state":"active","ping":100},{"user_id":223,"name":"Lord Scrubling","steam_id":76561198263744445,"connected_time":1899000000000,"state":"active","ping":81},{"user_id":235,"name":"Etoilelun","steam_id":76561198106568214,"connected_time":1469000000000,"state":"active","ping":57},{"user_id":172,"name":"Mr.Rogers","steam_id":76561198043878683,"connected_time":5226000000000,"state":"active","ping":47},{"user_id":230,"name":"nav","steam_id":76561198872608266,"connected_time":1584000000000,"state":"active","ping":120},{"user_id":253,"name":"beezer","steam_id":76561199049160726,"connected_time":4000000000,"state":"spawning","ping":36},{"user_id":214,"name":"Squiliam","steam_id":76561198025278006,"connected_time":2266000000000,"state":"active","ping":72},{"user_id":247,"name":"RatBastard","steam_id":76561198837804866,"connected_time":771000000000,"state":"active","ping":58},{"user_id":231,"name":"slasher4713","steam_id":76561199033532858,"connected_time":1568000000000,"state":"active","ping":105},{"user_id":216,"name":"Hobbes","steam_id":76561198087956236,"connected_time":2153000000000,"state":"active","ping":46},{"user_id":243,"name":"Dr. Bodacious","steam_id":76561199122205825,"connected_time":1261000000000,"state":"active","ping":60},{"user_id":250,"name":"Fomp","steam_id":76561199082966874,"connected_time":420000000000,"state":"active","ping":69},{"user_id":233,"name":"theDestructor_008","steam_id":76561199438220220,"connected_time":1549000000000,"state":"active","ping":53},{"user_id":239,"name":"Rock Kickass","steam_id":76561198450510841,"connected_time":1440000000000,"state":"active","ping":71},{"user_id":242,"name":"mendokusai","steam_id":76561197965022076,"connected_time":1304000000000,"state":"active","ping":105}]},{"server_id":324,"name":"Uncletopia | Los Angeles | 3 | All Maps","name_short":"lax-3","host":"lax-1.us.uncletopia.com","port":27035,"enabled":true,"region":"us-west","cc":"us","latitude":33.94279,"longitude":-118.41004,"reserved":0,"last_update":"0001-01-01T00:00:00Z","name_a2s":"Uncletopia | Los Angeles | 3 | All Maps","protocol":17,"map":"pl_hoodoo_final","folder":"tf","game":"Team Fortress","app_id":440,"player_count":0,"max_players":24,"Bots":0,"server_type":"Dedicated","server_os":"Linux","password":true,"vac":true,"version":"7961495","steam_id":85568392924510198,"keywords":["nocrits","nodmgspread","payload","uncletopia"],"game_id":440,"stv_port":27036,"stv_name":"Uncletopia | Los Angeles | 3 | All Maps | STV","players":null},{"server_id":25,"name":"Uncletopia | Los Angeles | 4 | Stopwatch","name_short":"lax-4","host":"lax-1.us.uncletopia.com","port":27045,"enabled":true,"region":"us-west","cc":"us","latitude":33.94279,"longitude":-118.41004,"reserved":0,"last_update":"0001-01-01T00:00:00Z","name_a2s":"Uncletopia | Los Angeles | 4 | Stopwatch","protocol":17,"map":"pl_upward","folder":"tf","game":"Team Fortress","app_id":440,"player_count":0,"max_players":24,"Bots":0,"server_type":"Dedicated","server_os":"Linux","password":true,"vac":true,"version":"7961495","steam_id":85568392924510199,"keywords":["nocrits","nodmgspread","payload","uncletopia"],"game_id":440,"stv_port":27046,"stv_name":"Uncletopia | Los Angeles | 4 | Stopwatch | STV","players":null},{"server_id":11,"name":"Uncletopia | London | 1 | All Maps","name_short":"lon-1","host":"lon-1.uk.uncletopia.com","port":27015,"enabled":true,"region":"eu","cc":"gb","latitude":51.509865,"longitude":-0.118092,"reserved":0,"last_update":"0001-01-01T00:00:00Z","name_a2s":"Uncletopia | London | 1 | All Maps","protocol":17,"map":"cp_gorge","folder":"tf","game":"Team Fortress","app_id":440,"player_count":24,"max_players":24,"Bots":0,"server_type":"Dedicated","server_os":"Linux","password":true,"vac":true,"version":"7961495","steam_id":85568392924367362,"keywords":["cp","nocrits","nodmgspread","uncletopia"],"game_id":440,"stv_port":27016,"stv_name":"Uncletopia | London | 1 | All Maps | STV","players":[{"user_id":843,"name":"Henry","steam_id":76561198108018305,"connected_time":1849000000000,"state":"active","ping":79},{"user_id":859,"name":"ashley","steam_id":76561198448551449,"connected_time":510000000000,"state":"active","ping":36},{"user_id":858,"name":"GoblinGaming","steam_id":76561198360395476,"connected_time":518000000000,"state":"active","ping":29},{"user_id":760,"name":"Lark","steam_id":76561198066937447,"connected_time":8506000000000,"state":"active","ping":86},{"user_id":711,"name":"Speed-Dial","steam_id":76561198012428315,"connected_time":10614000000000,"state":"active","ping":45},{"user_id":737,"name":"riku","steam_id":76561198096547662,"connected_time":8899000000000,"state":"active","ping":48},{"user_id":837,"name":"sword machine","steam_id":76561198895235231,"connected_time":2039000000000,"state":"active","ping":59},{"user_id":817,"name":"gibb (heLP HELP HELP)","steam_id":76561198074097655,"connected_time":4103000000000,"state":"active","ping":84},{"user_id":864,"name":"Siegmeyer","steam_id":76561198328543549,"connected_time":12000000000,"state":"spawning","ping":96},{"user_id":821,"name":"SuperBob103","steam_id":76561199175360012,"connected_time":3256000000000,"state":"active","ping":45},{"user_id":833,"name":"Prome","steam_id":76561199050383942,"connected_time":2121000000000,"state":"active","ping":46},{"user_id":834,"name":"swallowed 10 pennies please hel","steam_id":76561198055816412,"connected_time":2105000000000,"state":"active","ping":46},{"user_id":783,"name":"beebo","steam_id":76561199120277007,"connected_time":7070000000000,"state":"active","ping":37},{"user_id":842,"name":"Green Mario","steam_id":76561198094325997,"connected_time":1962000000000,"state":"active","ping":166},{"user_id":853,"name":"BOT Jeremus","steam_id":76561198072981684,"connected_time":1212000000000,"state":"active","ping":26},{"user_id":824,"name":"1 toke 4 mars bars","steam_id":76561198056460000,"connected_time":2909000000000,"state":"active","ping":46},{"user_id":774,"name":"Minimi","steam_id":76561198873850443,"connected_time":7860000000000,"state":"active","ping":46},{"user_id":860,"name":"nappo","steam_id":76561198060105180,"connected_time":500000000000,"state":"active","ping":60},{"user_id":861,"name":"habibi69","steam_id":76561198141989573,"connected_time":476000000000,"state":"active","ping":65},{"user_id":799,"name":"bruhemian","steam_id":76561198191854931,"connected_time":5269000000000,"state":"active","ping":45},{"user_id":862,"name":"Vershal Smershal","steam_id":76561198116223995,"connected_time":461000000000,"state":"active","ping":56},{"user_id":849,"name":"Hamst123","steam_id":76561198957312452,"connected_time":1523000000000,"state":"active","ping":45},{"user_id":863,"name":"agent youppii","steam_id":76561198055264447,"connected_time":400000000000,"state":"active","ping":56},{"user_id":852,"name":"Hardlight","steam_id":76561198128064834,"connected_time":1231000000000,"state":"active","ping":69}]},{"server_id":114,"name":"Uncletopia | London | 2 | All Maps","name_short":"lon-2","host":"lon-1.uk.uncletopia.com","port":27025,"enabled":true,"region":"eu","cc":"gb","latitude":51.509865,"longitude":-0.118092,"reserved":0,"last_update":"0001-01-01T00:00:00Z","name_a2s":"Uncletopia | London | 2 | All Maps","protocol":17,"map":"cp_altitude","folder":"tf","game":"Team Fortress","app_id":440,"player_count":16,"max_players":24,"Bots":0,"server_type":"Dedicated","server_os":"Linux","password":true,"vac":true,"version":"7961495","steam_id":85568392924470941,"keywords":["cp","nocrits","nodmgspread","uncletopia"],"game_id":440,"stv_port":27026,"stv_name":"Uncletopia | London | 2 | All Maps | STV","players":[{"user_id":342,"name":"tiia","steam_id":76561198046196005,"connected_time":309000000000,"state":"active","ping":44},{"user_id":345,"name":"eMcP","steam_id":76561198382509396,"connected_time":130000000000,"state":"active","ping":60},{"user_id":336,"name":"OutOfDucks","steam_id":76561198166376227,"connected_time":559000000000,"state":"active","ping":52},{"user_id":337,"name":"The Thinker","steam_id":76561198174510235,"connected_time":544000000000,"state":"active","ping":52},{"user_id":344,"name":"King Nugget","steam_id":76561198134037464,"connected_time":204000000000,"state":"active","ping":65},{"user_id":338,"name":"Counter Strike 2","steam_id":76561198088339200,"connected_time":442000000000,"state":"active","ping":44},{"user_id":306,"name":"Cryo","steam_id":76561198324132940,"connected_time":2954000000000,"state":"active","ping":45},{"user_id":339,"name":"Joe","steam_id":76561198061717026,"connected_time":426000000000,"state":"active","ping":37},{"user_id":346,"name":"昭和天皇","steam_id":76561198082071538,"connected_time":117000000000,"state":"active","ping":52},{"user_id":335,"name":"Miiukade","steam_id":76561198089157860,"connected_time":770000000000,"state":"active","ping":119},{"user_id":330,"name":"r","steam_id":76561198239927434,"connected_time":1013000000000,"state":"active","ping":60},{"user_id":347,"name":"Hannü","steam_id":76561197969886128,"connected_time":104000000000,"state":"active","ping":42},{"user_id":340,"name":"Liko","steam_id":76561197994660517,"connected_time":402000000000,"state":"active","ping":88},{"user_id":348,"name":"joachym","steam_id":76561198428579761,"connected_time":103000000000,"state":"active","ping":60},{"user_id":349,"name":"DRYG","steam_id":76561197994299134,"connected_time":93000000000,"state":"active","ping":60},{"user_id":350,"name":"Carpetspill","steam_id":76561198240023406,"connected_time":69000000000,"state":"active","ping":156}]},{"server_id":320,"name":"Uncletopia | London | 3 | All Maps","name_short":"lon-3","host":"lon-1.uk.uncletopia.com","port":27035,"enabled":true,"region":"eu","cc":"gb","latitude":51.509865,"longitude":-0.118092,"reserved":0,"last_update":"0001-01-01T00:00:00Z","name_a2s":"Uncletopia | London | 3 | All Maps","protocol":17,"map":"cp_process_final","folder":"tf","game":"Team Fortress","app_id":440,"player_count":4,"max_players":24,"Bots":0,"server_type":"Dedicated","server_os":"Linux","password":true,"vac":true,"version":"7961495","steam_id":85568392924510192,"keywords":["cp","nocrits","nodmgspread","uncletopia"],"game_id":440,"stv_port":27036,"stv_name":"Uncletopia | London | 3 | All Maps | STV","players":[{"user_id":575,"name":"katana on the trains","steam_id":76561198202464032,"connected_time":1742000000000,"state":"active","ping":45},{"user_id":572,"name":"TheDarth27","steam_id":76561198100577805,"connected_time":2658000000000,"state":"active","ping":54},{"user_id":576,"name":"A Table","steam_id":76561198056456470,"connected_time":1509000000000,"state":"active","ping":67},{"user_id":577,"name":"kdhbuilder","steam_id":76561199058095193,"connected_time":1297000000000,"state":"active","ping":159}]},{"server_id":321,"name":"Uncletopia | London | 4 | All Maps","name_short":"lon-4","host":"lon-1.uk.uncletopia.com","port":27045,"enabled":true,"region":"eu","cc":"gb","latitude":51.509865,"longitude":-0.118092,"reserved":0,"last_update":"0001-01-01T00:00:00Z","name_a2s":"Uncletopia | London | 4 | All Maps","protocol":17,"map":"pl_snowycoast","folder":"tf","game":"Team Fortress","app_id":440,"player_count":24,"max_players":24,"Bots":0,"server_type":"Dedicated","server_os":"Linux","password":true,"vac":true,"version":"7961495","steam_id":85568392924510193,"keywords":["nocrits","nodmgspread","payload","uncletopia"],"game_id":440,"stv_port":27046,"stv_name":"Uncletopia | London | 4 | All Maps | STV","players":[{"user_id":657,"name":"Cheshireycat","steam_id":76561198067204908,"connected_time":2471000000000,"state":"active","ping":58},{"user_id":688,"name":"r06u3","steam_id":76561198254099253,"connected_time":1108000000000,"state":"active","ping":179},{"user_id":658,"name":"Windows Vista Cruiser","steam_id":76561198064102233,"connected_time":2457000000000,"state":"active","ping":45},{"user_id":613,"name":"Locke","steam_id":76561198339408300,"connected_time":4098000000000,"state":"active","ping":58},{"user_id":683,"name":"CiVillain","steam_id":76561198059617732,"connected_time":1218000000000,"state":"active","ping":69},{"user_id":686,"name":"GoodleShoes/ttv","steam_id":76561198030993521,"connected_time":1148000000000,"state":"active","ping":142},{"user_id":696,"name":"Metal Gear Solid 2 for PS2","steam_id":76561198110611210,"connected_time":922000000000,"state":"active","ping":59},{"user_id":690,"name":"Leituga","steam_id":76561198051127598,"connected_time":1052000000000,"state":"active","ping":64},{"user_id":697,"name":"H-say","steam_id":76561198177400362,"connected_time":914000000000,"state":"active","ping":88},{"user_id":703,"name":"The Subway Scientist","steam_id":76561198193757646,"connected_time":540000000000,"state":"active","ping":45},{"user_id":701,"name":"Iris","steam_id":76561198430295815,"connected_time":618000000000,"state":"active","ping":60},{"user_id":702,"name":"£blz","steam_id":76561198084804183,"connected_time":603000000000,"state":"active","ping":40},{"user_id":685,"name":"Oaky Leaf","steam_id":76561198162821920,"connected_time":1183000000000,"state":"active","ping":89},{"user_id":628,"name":"sin","steam_id":76561198193416785,"connected_time":3582000000000,"state":"active","ping":95},{"user_id":700,"name":"Edla","steam_id":76561198062815315,"connected_time":655000000000,"state":"active","ping":126},{"user_id":665,"name":"Spongie","steam_id":76561198031719013,"connected_time":2041000000000,"state":"active","ping":48},{"user_id":676,"name":"Coac","steam_id":76561198085265740,"connected_time":1386000000000,"state":"active","ping":72},{"user_id":695,"name":"kurd","steam_id":76561198116530769,"connected_time":939000000000,"state":"active","ping":97},{"user_id":677,"name":"Doloro :3","steam_id":76561198309713613,"connected_time":1375000000000,"state":"active","ping":46},{"user_id":698,"name":"tomydjoh","steam_id":76561198077421906,"connected_time":849000000000,"state":"active","ping":38},{"user_id":669,"name":"Burpman","steam_id":76561198022897937,"connected_time":1752000000000,"state":"active","ping":47},{"user_id":672,"name":"Silver\u003c3 (12k hours and trash)","steam_id":76561198022351828,"connected_time":1505000000000,"state":"active","ping":45},{"user_id":671,"name":"M Nsky","steam_id":76561198011749653,"connected_time":1541000000000,"state":"active","ping":44},{"user_id":694,"name":"syms","steam_id":76561198066679812,"connected_time":1018000000000,"state":"active","ping":77}]},{"server_id":21,"name":"Uncletopia | London | 5 | All Maps","name_short":"lon-5","host":"lon-1.uk.uncletopia.com","port":27055,"enabled":true,"region":"eu","cc":"gb","latitude":51.509865,"longitude":-0.118092,"reserved":0,"last_update":"0001-01-01T00:00:00Z","name_a2s":"Uncletopia | London | 5 | All Maps","protocol":17,"map":"pl_snowycoast","folder":"tf","game":"Team Fortress","app_id":440,"player_count":0,"max_players":24,"Bots":0,"server_type":"Dedicated","server_os":"Linux","password":true,"vac":true,"version":"7961495","steam_id":85568392924742829,"keywords":["nocrits","nodmgspread","payload","uncletopia"],"game_id":440,"stv_port":27056,"stv_name":"Uncletopia | London | 5 | All Maps | STV","players":null},{"server_id":22,"name":"Uncletopia | London | 6 | All Maps","name_short":"lon-6","host":"lon-1.uk.uncletopia.com","port":27065,"enabled":true,"region":"eu","cc":"gb","latitude":51.509865,"longitude":-0.118092,"reserved":0,"last_update":"0001-01-01T00:00:00Z","name_a2s":"Uncletopia | London | 6 | All Maps","protocol":17,"map":"koth_lakeside_final","folder":"tf","game":"Team Fortress","app_id":440,"player_count":0,"max_players":24,"Bots":0,"server_type":"Dedicated","server_os":"Linux","password":true,"vac":true,"version":"7961495","steam_id":85568392924742830,"keywords":["cp","nocrits","nodmgspread","uncletopia"],"game_id":440,"stv_port":27066,"stv_name":"Uncletopia | London | 6 | All Maps | STV","players":null},{"server_id":40,"name":"Uncletopia | London | 7 | Stopwatch","name_short":"lon-7","host":"lon-1.uk.uncletopia.com","port":27075,"enabled":true,"region":"eu","cc":"gb","latitude":51.509865,"longitude":-0.118092,"reserved":0,"last_update":"0001-01-01T00:00:00Z","name_a2s":"Uncletopia | London | 7 | Stopwatch","protocol":17,"map":"koth_highpass","folder":"tf","game":"Team Fortress","app_id":440,"player_count":0,"max_players":24,"Bots":0,"server_type":"Dedicated","server_os":"Linux","password":true,"vac":true,"version":"7961495","steam_id":85568392924964314,"keywords":["cp","nocrits","nodmgspread","uncletopia"],"game_id":440,"stv_port":27076,"stv_name":"Uncletopia | London | 7 | Stopwatch | STV","players":null},{"server_id":41,"name":"Uncletopia | London | 8 | Community","name_short":"lon-8","host":"lon-1.uk.uncletopia.com","port":27085,"enabled":true,"region":"eu","cc":"gb","latitude":51.509865,"longitude":-0.118092,"reserved":0,"last_update":"0001-01-01T00:00:00Z","name_a2s":"Uncletopia | London | 8 | Community","protocol":17,"map":"workshop/pl_divulgence_b4b.ugc2884808746","folder":"tf","game":"Team Fortress","app_id":440,"player_count":0,"max_players":24,"Bots":0,"server_type":"Dedicated","server_os":"Linux","password":true,"vac":true,"version":"7961495","steam_id":85568392924964315,"keywords":["nocrits","nodmgspread","payload","uncletopia"],"game_id":440,"stv_port":27086,"stv_name":"Uncletopia | London | 8 | Community | STV","players":null},{"server_id":300,"name":"Uncletopia | Montréal | 1 | One Thousand Uncles","name_short":"mtl-1","host":"mtl-1.ca.uncletopia.com","port":27015,"enabled":true,"region":"us-east","cc":"ca","latitude":45.50889,"longitude":-73.56167,"reserved":0,"last_update":"0001-01-01T00:00:00Z","name_a2s":"Uncletopia | Montréal | 1 | One Thousand Uncles","protocol":17,"map":"pl_badwater","folder":"tf","game":"Team Fortress","app_id":440,"player_count":26,"max_players":32,"Bots":16,"server_type":"Dedicated","server_os":"Linux","password":true,"vac":true,"version":"7961495","steam_id":85568392924500087,"keywords":["alltalk","bots","danepve","increased_maxplayers","norespawntime","payload","uncletopia"],"game_id":440,"stv_port":0,"stv_name":"","players":[{"user_id":244,"name":"JoeFalco","steam_id":76561198064005012,"connected_time":63000000000,"state":"active","ping":91},{"user_id":214,"name":"Rhutebeer","steam_id":76561198018302761,"connected_time":2711000000000,"state":"active","ping":91},{"user_id":212,"name":"rb_quick","steam_id":76561197992053677,"connected_time":3139000000000,"state":"active","ping":89},{"user_id":221,"name":"Yimberly","steam_id":76561199206923109,"connected_time":1044000000000,"state":"active","ping":82},{"user_id":216,"name":"space paranoids","steam_id":76561198085010959,"connected_time":1702000000000,"state":"active","ping":71},{"user_id":217,"name":"poon","steam_id":76561198049740395,"connected_time":1634000000000,"state":"active","ping":53},{"user_id":87,"name":"heavy jumpscare","steam_id":76561198376752965,"connected_time":11309000000000,"state":"active","ping":59},{"user_id":218,"name":"J21","steam_id":76561198066590783,"connected_time":1571000000000,"state":"active","ping":62},{"user_id":222,"name":"Edfan","steam_id":76561198021299904,"connected_time":926000000000,"state":"active","ping":76},{"user_id":245,"name":"TheTimeLord","steam_id":76561198083715205,"connected_time":18000000000,"state":"active","ping":101}]},{"server_id":301,"name":"Uncletopia | Montréal | 2 | One Thousand Uncles","name_short":"mtl-2","host":"mtl-1.ca.uncletopia.com","port":27025,"enabled":true,"region":"us-east","cc":"ca","latitude":45.50889,"longitude":-73.56167,"reserved":0,"last_update":"0001-01-01T00:00:00Z","name_a2s":"Uncletopia | Montréal | 2 | One Thousand Uncles","protocol":17,"map":"pl_chilly","folder":"tf","game":"Team Fortress","app_id":440,"player_count":0,"max_players":32,"Bots":0,"server_type":"Dedicated","server_os":"Linux","password":true,"vac":true,"version":"7961495","steam_id":85568392924500088,"keywords":["alltalk","danepve","increased_maxplayers","norespawntime","payload","uncletopia"],"game_id":440,"stv_port":0,"stv_name":"","players":null},{"server_id":302,"name":"Uncletopia | Montréal | 3 | One Thousand Uncles","name_short":"mtl-3","host":"mtl-1.ca.uncletopia.com","port":27035,"enabled":true,"region":"us-east","cc":"ca","latitude":45.50889,"longitude":-73.56167,"reserved":0,"last_update":"0001-01-01T00:00:00Z","name_a2s":"Uncletopia | Montréal | 3 | One Thousand Uncles","protocol":17,"map":"cp_dustbowl","folder":"tf","game":"Team Fortress","app_id":440,"player_count":0,"max_players":32,"Bots":0,"server_type":"Dedicated","server_os":"Linux","password":true,"vac":true,"version":"7961495","steam_id":85568392924500089,"keywords":["alltalk","cp","danepve","increased_maxplayers","norespawntime","uncletopia"],"game_id":440,"stv_port":0,"stv_name":"","players":null},{"server_id":13,"name":"Uncletopia | New York City | 1 | All Maps","name_short":"nyc-1","host":"nyc-1.us.uncletopia.com","port":27015,"enabled":true,"region":"us-east","cc":"us","latitude":40.73061,"longitude":-73.93524,"reserved":0,"last_update":"0001-01-01T00:00:00Z","name_a2s":"Uncletopia | New York City | 1 | All Maps","protocol":17,"map":"pl_swiftwater_final1","folder":"tf","game":"Team Fortress","app_id":440,"player_count":24,"max_players":24,"Bots":0,"server_type":"Dedicated","server_os":"Linux","password":true,"vac":true,"version":"7961495","steam_id":85568392924469993,"keywords":["nocrits","nodmgspread","payload","uncletopia"],"game_id":440,"stv_port":27016,"stv_name":"Uncletopia | New York City | 1 | All Maps | STV","players":[{"user_id":277,"name":"jamzine","steam_id":76561198186168293,"connected_time":1346000000000,"state":"active","ping":50},{"user_id":261,"name":"nethersome","steam_id":76561198892225148,"connected_time":2860000000000,"state":"active","ping":95},{"user_id":289,"name":"Novu","steam_id":76561198886997024,"connected_time":869000000000,"state":"active","ping":63},{"user_id":217,"name":"Emotional Cowboy","steam_id":76561198041439581,"connected_time":4496000000000,"state":"active","ping":54},{"user_id":187,"name":"The janitor(El coyote)","steam_id":76561198414300607,"connected_time":5401000000000,"state":"active","ping":104},{"user_id":287,"name":"PK","steam_id":76561198368722500,"connected_time":889000000000,"state":"active","ping":53},{"user_id":297,"name":"Aokuma","steam_id":76561198808387179,"connected_time":268000000000,"state":"active","ping":51},{"user_id":301,"name":"Kalhoun","steam_id":76561197999648122,"connected_time":77000000000,"state":"active","ping":65},{"user_id":295,"name":"Stonks","steam_id":76561199490085068,"connected_time":325000000000,"state":"active","ping":59},{"user_id":280,"name":"Congcrab","steam_id":76561198078687685,"connected_time":1319000000000,"state":"active","ping":100},{"user_id":279,"name":"20 miles for a Quaalude","steam_id":76561198042579477,"connected_time":1329000000000,"state":"active","ping":49},{"user_id":223,"name":"wowisthatleo","steam_id":76561199020860911,"connected_time":4376000000000,"state":"active","ping":166},{"user_id":299,"name":"inphlate","steam_id":76561199016973013,"connected_time":226000000000,"state":"active","ping":62},{"user_id":197,"name":"TheDoorMatt655","steam_id":76561198355672296,"connected_time":5128000000000,"state":"active","ping":114},{"user_id":298,"name":"two_chans","steam_id":76561198837793098,"connected_time":260000000000,"state":"active","ping":92},{"user_id":282,"name":"Pilot","steam_id":76561199097070694,"connected_time":1311000000000,"state":"active","ping":67},{"user_id":270,"name":"apex","steam_id":76561198064146335,"connected_time":2329000000000,"state":"active","ping":78},{"user_id":286,"name":"GooBer","steam_id":76561198402241505,"connected_time":948000000000,"state":"active","ping":61},{"user_id":302,"name":"you forgot the sauce","steam_id":76561198387016713,"connected_time":77000000000,"state":"active","ping":46},{"user_id":291,"name":"Provocator","steam_id":76561197961830410,"connected_time":851000000000,"state":"active","ping":88},{"user_id":300,"name":"eish","steam_id":76561198089463603,"connected_time":188000000000,"state":"active","ping":133},{"user_id":304,"name":"CoconutHead","steam_id":76561198090624456,"connected_time":53000000000,"state":"active","ping":44},{"user_id":285,"name":"That Girl With A K","steam_id":76561198317602350,"connected_time":1124000000000,"state":"active","ping":91},{"user_id":294,"name":"nilftb","steam_id":76561198161952186,"connected_time":566000000000,"state":"active","ping":57}]},{"server_id":14,"name":"Uncletopia | New York City | 2 | All Maps","name_short":"nyc-2","host":"nyc-1.us.uncletopia.com","port":27025,"enabled":true,"region":"us-east","cc":"us","latitude":40.73061,"longitude":-73.93524,"reserved":0,"last_update":"0001-01-01T00:00:00Z","name_a2s":"Uncletopia | New York City | 2 | All Maps","protocol":17,"map":"pl_upward","folder":"tf","game":"Team Fortress","app_id":440,"player_count":24,"max_players":24,"Bots":0,"server_type":"Dedicated","server_os":"Linux","password":true,"vac":true,"version":"7961495","steam_id":85568392924469994,"keywords":["nocrits","nodmgspread","payload","uncletopia"],"game_id":440,"stv_port":27026,"stv_name":"Uncletopia | New York City | 2 | All Maps | STV","players":[{"user_id":350,"name":"Potato57","steam_id":76561198144282089,"connected_time":4362000000000,"state":"active","ping":50},{"user_id":330,"name":"JxyGREED","steam_id":76561198345026653,"connected_time":6204000000000,"state":"active","ping":43},{"user_id":397,"name":"FUSION","steam_id":76561197972659738,"connected_time":25000000000,"state":"active","ping":43},{"user_id":394,"name":"Family Guy Funny Moments","steam_id":76561198847752839,"connected_time":112000000000,"state":"active","ping":118},{"user_id":370,"name":"cift","steam_id":76561198309763491,"connected_time":2087000000000,"state":"active","ping":67},{"user_id":395,"name":"dr peppah chug!","steam_id":76561198068835693,"connected_time":98000000000,"state":"active","ping":92},{"user_id":322,"name":"Mr. Squirt","steam_id":76561198174755679,"connected_time":6497000000000,"state":"active","ping":43},{"user_id":398,"name":"JPMockMan","steam_id":76561198071370876,"connected_time":23000000000,"state":"active","ping":78},{"user_id":381,"name":"The Creepy9","steam_id":76561198039104966,"connected_time":1178000000000,"state":"active","ping":46},{"user_id":312,"name":"Noobert McGlitchington the 3st","steam_id":76561198073176682,"connected_time":6732000000000,"state":"active","ping":75},{"user_id":388,"name":"The gang is what I trust","steam_id":76561198046775352,"connected_time":209000000000,"state":"active","ping":115},{"user_id":380,"name":"CheetoSmoke7","steam_id":76561198095217273,"connected_time":1208000000000,"state":"active","ping":45},{"user_id":392,"name":"Pan Wizard","steam_id":76561198031939694,"connected_time":198000000000,"state":"active","ping":60},{"user_id":345,"name":"Shrebbie","steam_id":76561198875230824,"connected_time":4967000000000,"state":"active","ping":42},{"user_id":387,"name":"Ramblet","steam_id":76561199026783260,"connected_time":210000000000,"state":"active","ping":45},{"user_id":363,"name":"Hacky","steam_id":76561197991372270,"connected_time":3329000000000,"state":"active","ping":67},{"user_id":367,"name":"washed advanced dropout","steam_id":76561198043911582,"connected_time":2510000000000,"state":"active","ping":45},{"user_id":372,"name":"Tethered","steam_id":76561199237582239,"connected_time":1941000000000,"state":"active","ping":64},{"user_id":393,"name":"milk","steam_id":76561198813251405,"connected_time":197000000000,"state":"active","ping":55},{"user_id":382,"name":"jeff","steam_id":76561198059450566,"connected_time":1159000000000,"state":"active","ping":60},{"user_id":376,"name":"Boter","steam_id":76561198035572821,"connected_time":1867000000000,"state":"active","ping":47},{"user_id":390,"name":"YourFriendJessie *REAL*","steam_id":76561198176883097,"connected_time":209000000000,"state":"active","ping":46},{"user_id":386,"name":"Dei Genetrix","steam_id":76561198305678122,"connected_time":221000000000,"state":"active","ping":120},{"user_id":369,"name":"BeerPowder","steam_id":76561198058129400,"connected_time":2314000000000,"state":"active","ping":41}]},{"server_id":15,"name":"Uncletopia | New York City | 3 | Stopwatch","name_short":"nyc-3","host":"nyc-1.us.uncletopia.com","port":27035,"enabled":true,"region":"us-east","cc":"us","latitude":40.73061,"longitude":-73.93524,"reserved":0,"last_update":"0001-01-01T00:00:00Z","name_a2s":"Uncletopia | New York City | 3 | Stopwatch","protocol":17,"map":"workshop/koth_ashville_final.ugc2130459942","folder":"tf","game":"Team Fortress","app_id":440,"player_count":0,"max_players":24,"Bots":0,"server_type":"Dedicated","server_os":"Linux","password":true,"vac":true,"version":"7961495","steam_id":85568392924742820,"keywords":["cp","nocrits","nodmgspread","uncletopia"],"game_id":440,"stv_port":27036,"stv_name":"Uncletopia | New York City | 3 | Stopwatch | STV","players":null},{"server_id":16,"name":"Uncletopia | New York City | 4 | Community","name_short":"nyc-4","host":"nyc-1.us.uncletopia.com","port":27045,"enabled":true,"region":"us-east","cc":"us","latitude":40.73061,"longitude":-73.93524,"reserved":0,"last_update":"0001-01-01T00:00:00Z","name_a2s":"Uncletopia | New York City | 4 | Community","protocol":17,"map":"workshop/cp_overgrown_rc8.ugc503939302","folder":"tf","game":"Team Fortress","app_id":440,"player_count":0,"max_players":24,"Bots":0,"server_type":"Dedicated","server_os":"Linux","password":true,"vac":true,"version":"7961495","steam_id":85568392924742821,"keywords":["cp","nocrits","nodmgspread","uncletopia"],"game_id":440,"stv_port":27046,"stv_name":"Uncletopia | New York City | 4 | Community | STV","players":null},{"server_id":142,"name":"Uncletopia | São Paulo | 1 | All Maps","name_short":"sao-1","host":"sao-1.br.uncletopia.com","port":27015,"enabled":true,"region":"sa","cc":"br","latitude":-23.533773,"longitude":-46.62529,"reserved":0,"last_update":"0001-01-01T00:00:00Z","name_a2s":"Uncletopia | São Paulo | 1 | All Maps","protocol":17,"map":"koth_lakeside_final","folder":"tf","game":"Team Fortress","app_id":440,"player_count":1,"max_players":24,"Bots":0,"server_type":"Dedicated","server_os":"Linux","password":true,"vac":true,"version":"7961495","steam_id":85568392924469996,"keywords":["cp","nocrits","nodmgspread","uncletopia"],"game_id":440,"stv_port":27016,"stv_name":"Uncletopia | São Paulo | 1 | All Maps | STV","players":[{"user_id":13,"name":"haiwa","steam_id":76561198303075273,"connected_time":836000000000,"state":"active","ping":46}]},{"server_id":143,"name":"Uncletopia | São Paulo | 2 | Community","name_short":"sao-2","host":"sao-2.br.uncletopia.com","port":27015,"enabled":true,"region":"sa","cc":"br","latitude":-23.533773,"longitude":-46.62529,"reserved":0,"last_update":"0001-01-01T00:00:00Z","name_a2s":"Uncletopia | São Paulo | 2 | Community","protocol":17,"map":"workshop/pl_boundary_final1.ugc456799153","folder":"tf","game":"Team Fortress","app_id":440,"player_count":0,"max_players":24,"Bots":0,"server_type":"Dedicated","server_os":"Linux","password":true,"vac":true,"version":"7961495","steam_id":85568392924485349,"keywords":["nocrits","nodmgspread","payload","uncletopia"],"game_id":440,"stv_port":27016,"stv_name":"Uncletopia | São Paulo | 2 | Community | STV","players":null},{"server_id":7,"name":"Uncletopia | Seattle | 1 | All Maps","name_short":"sea-1","host":"sea-1.us.uncletopia.com","port":27015,"enabled":true,"region":"us-west","cc":"us","latitude":47.608013,"longitude":-122.33517,"reserved":0,"last_update":"0001-01-01T00:00:00Z","name_a2s":"Uncletopia | Seattle | 1 | All Maps","protocol":17,"map":"koth_nucleus","folder":"tf","game":"Team Fortress","app_id":440,"player_count":24,"max_players":24,"Bots":0,"server_type":"Dedicated","server_os":"Linux","password":true,"vac":true,"version":"7961495","steam_id":85568392924469997,"keywords":["cp","nocrits","nodmgspread","uncletopia"],"game_id":440,"stv_port":27016,"stv_name":"Uncletopia | Seattle | 1 | All Maps | STV","players":[{"user_id":531,"name":"ORANGE","steam_id":76561198000401769,"connected_time":1501000000000,"state":"active","ping":45},{"user_id":533,"name":"Dimple","steam_id":76561198980324190,"connected_time":1418000000000,"state":"active","ping":52},{"user_id":535,"name":"resting neutral face","steam_id":76561197999259502,"connected_time":1314000000000,"state":"active","ping":59},{"user_id":480,"name":"Nom Skirrett","steam_id":76561198014600788,"connected_time":5779000000000,"state":"active","ping":63},{"user_id":498,"name":"soda","steam_id":76561198105924953,"connected_time":4176000000000,"state":"active","ping":55},{"user_id":551,"name":"flishko","steam_id":76561198326489802,"connected_time":84000000000,"state":"active","ping":39},{"user_id":505,"name":"[TrC] Nosy","steam_id":76561197978859310,"connected_time":3657000000000,"state":"active","ping":54},{"user_id":547,"name":"Omega\"Hell's Wall\"EXE","steam_id":76561198395291970,"connected_time":186000000000,"state":"active","ping":75},{"user_id":536,"name":"RobinVista","steam_id":76561198278252510,"connected_time":1307000000000,"state":"active","ping":60},{"user_id":538,"name":"mrthugpug1732","steam_id":76561198881200768,"connected_time":1235000000000,"state":"active","ping":69},{"user_id":544,"name":"Lane (She/Her)","steam_id":76561199048555878,"connected_time":478000000000,"state":"active","ping":45},{"user_id":506,"name":"[TrC] Dackstrus","steam_id":76561197973518509,"connected_time":3654000000000,"state":"active","ping":61},{"user_id":548,"name":"wrongthink","steam_id":76561198830293087,"connected_time":178000000000,"state":"active","ping":89},{"user_id":524,"name":"Hannah!","steam_id":76561198405865400,"connected_time":2732000000000,"state":"active","ping":90},{"user_id":539,"name":"cielael","steam_id":76561198043971956,"connected_time":1228000000000,"state":"active","ping":73},{"user_id":497,"name":"fish (2:3)","steam_id":76561198134331073,"connected_time":4362000000000,"state":"active","ping":50},{"user_id":465,"name":"Aardappel","steam_id":76561198030894676,"connected_time":7521000000000,"state":"active","ping":60},{"user_id":546,"name":"BlazedBunny","steam_id":76561198243610560,"connected_time":316000000000,"state":"active","ping":45},{"user_id":549,"name":"nivekuil","steam_id":76561198043892129,"connected_time":139000000000,"state":"active","ping":30},{"user_id":545,"name":"Mikey Decoy","steam_id":76561198070496601,"connected_time":374000000000,"state":"active","ping":59},{"user_id":525,"name":"Shit (REAL)","steam_id":76561198206490352,"connected_time":2635000000000,"state":"active","ping":78},{"user_id":542,"name":"Bread","steam_id":76561199201106625,"connected_time":830000000000,"state":"active","ping":53},{"user_id":540,"name":"Rommel2007","steam_id":76561198041744631,"connected_time":1111000000000,"state":"active","ping":91},{"user_id":550,"name":"Justinbeiberfan!!1!@aol.com","steam_id":76561199088693762,"connected_time":139000000000,"state":"active","ping":68}]},{"server_id":119,"name":"Uncletopia | Seattle | 2 | All Maps","name_short":"sea-2","host":"sea-1.us.uncletopia.com","port":27025,"enabled":true,"region":"us-west","cc":"us","latitude":47.608013,"longitude":-122.33517,"reserved":0,"last_update":"0001-01-01T00:00:00Z","name_a2s":"Uncletopia | Seattle | 2 | All Maps","protocol":17,"map":"koth_highpass","folder":"tf","game":"Team Fortress","app_id":440,"player_count":0,"max_players":24,"Bots":0,"server_type":"Dedicated","server_os":"Linux","password":true,"vac":true,"version":"7961495","steam_id":85568392924469998,"keywords":["cp","nocrits","nodmgspread","uncletopia"],"game_id":440,"stv_port":27026,"stv_name":"Uncletopia | Seattle | 2 | All Maps | STV","players":null},{"server_id":406,"name":"Uncletopia | Seattle | 3 | Stopwatch","name_short":"sea-3","host":"sea-1.us.uncletopia.com","port":27035,"enabled":true,"region":"us-west","cc":"us","latitude":47.608013,"longitude":-122.33517,"reserved":0,"last_update":"0001-01-01T00:00:00Z","name_a2s":"Uncletopia | Seattle | 3 | Stopwatch","protocol":17,"map":"koth_highpass","folder":"tf","game":"Team Fortress","app_id":440,"player_count":0,"max_players":24,"Bots":0,"server_type":"Dedicated","server_os":"Linux","password":true,"vac":true,"version":"7961495","steam_id":85568392924515217,"keywords":["cp","nocrits","nodmgspread","uncletopia"],"game_id":440,"stv_port":27036,"stv_name":"Uncletopia | Seattle | 3 | Stopwatch | STV","players":null},{"server_id":17,"name":"Uncletopia | San Francisco | 1 | All Maps","name_short":"sfo-1","host":"sfo-1.us.uncletopia.com","port":27015,"enabled":true,"region":"us-west","cc":"us","latitude":37.77397,"longitude":-122.4313,"reserved":0,"last_update":"0001-01-01T00:00:00Z","name_a2s":"Uncletopia | San Francisco | 1 | All Maps","protocol":17,"map":"pl_upward","folder":"tf","game":"Team Fortress","app_id":440,"player_count":24,"max_players":24,"Bots":0,"server_type":"Dedicated","server_os":"Linux","password":true,"vac":true,"version":"7961495","steam_id":85568392924469999,"keywords":["nocrits","nodmgspread","payload","uncletopia"],"game_id":440,"stv_port":27016,"stv_name":"Uncletopia | San Francisco | 1 | All Maps | STV","players":[{"user_id":68,"name":"slowdance","steam_id":76561198097427947,"connected_time":1270000000000,"state":"active","ping":121},{"user_id":82,"name":"dogerich404","steam_id":76561199124102546,"connected_time":558000000000,"state":"active","ping":59},{"user_id":69,"name":"Keamy","steam_id":76561199471434875,"connected_time":1256000000000,"state":"active","ping":62},{"user_id":32,"name":"nanoboosts","steam_id":76561199500861337,"connected_time":3465000000000,"state":"active","ping":53},{"user_id":84,"name":"Gojira19","steam_id":76561198206384351,"connected_time":496000000000,"state":"active","ping":96},{"user_id":45,"name":"Phoysh","steam_id":76561198137111021,"connected_time":3132000000000,"state":"active","ping":62},{"user_id":59,"name":"AngryTexin","steam_id":76561198378566331,"connected_time":2073000000000,"state":"active","ping":136},{"user_id":60,"name":"KissMyAxe","steam_id":76561199202589902,"connected_time":2070000000000,"state":"active","ping":74},{"user_id":58,"name":"noceof","steam_id":76561198043656816,"connected_time":2168000000000,"state":"active","ping":155},{"user_id":79,"name":"Omegaman","steam_id":76561198034579579,"connected_time":589000000000,"state":"active","ping":68},{"user_id":88,"name":"the man","steam_id":76561199103120314,"connected_time":57000000000,"state":"active","ping":51},{"user_id":87,"name":"cactus eater","steam_id":76561199107499844,"connected_time":343000000000,"state":"active","ping":60},{"user_id":21,"name":"Unlimited_Trees","steam_id":76561198299141443,"connected_time":3702000000000,"state":"active","ping":59},{"user_id":74,"name":"Eden","steam_id":76561198081284664,"connected_time":990000000000,"state":"active","ping":60},{"user_id":80,"name":"Zeelidox","steam_id":76561198110613375,"connected_time":588000000000,"state":"active","ping":84},{"user_id":64,"name":"Whoodie","steam_id":76561198027514565,"connected_time":1701000000000,"state":"active","ping":74},{"user_id":77,"name":"Squiggle","steam_id":76561198257197535,"connected_time":751000000000,"state":"active","ping":35},{"user_id":75,"name":"BlazeHX","steam_id":76561198827408017,"connected_time":821000000000,"state":"active","ping":111},{"user_id":86,"name":"Mitsuba","steam_id":76561198034175095,"connected_time":394000000000,"state":"active","ping":153},{"user_id":44,"name":"haileywestbrook123@gmail.com","steam_id":76561199169445769,"connected_time":3187000000000,"state":"active","ping":77},{"user_id":78,"name":"'Oddo","steam_id":76561198090866900,"connected_time":684000000000,"state":"active","ping":105},{"user_id":72,"name":"will (vqinet)","steam_id":76561199055929199,"connected_time":1135000000000,"state":"active","ping":64},{"user_id":73,"name":"ronald_stackerusa55","steam_id":76561198150406851,"connected_time":1119000000000,"state":"active","ping":46},{"user_id":50,"name":"I AM A DINOSAUR","steam_id":76561198039814201,"connected_time":2696000000000,"state":"active","ping":54}]},{"server_id":18,"name":"Uncletopia | San Francisco | 2 | All Maps","name_short":"sfo-2","host":"sfo-1.us.uncletopia.com","port":27025,"enabled":true,"region":"us-west","cc":"us","latitude":37.77397,"longitude":-122.4313,"reserved":0,"last_update":"0001-01-01T00:00:00Z","name_a2s":"Uncletopia | San Francisco | 2 | All Maps","protocol":17,"map":"koth_viaduct","folder":"tf","game":"Team Fortress","app_id":440,"player_count":4,"max_players":24,"Bots":0,"server_type":"Dedicated","server_os":"Linux","password":true,"vac":true,"version":"7961495","steam_id":85568392924470000,"keywords":["cp","nocrits","nodmgspread","uncletopia"],"game_id":440,"stv_port":27026,"stv_name":"Uncletopia | San Francisco | 2 | All Maps | STV","players":[{"user_id":7,"name":"asm_ghost","steam_id":76561199205363547,"connected_time":2382000000000,"state":"active","ping":51},{"user_id":8,"name":"The Gremlin","steam_id":76561198419066993,"connected_time":2270000000000,"state":"active","ping":71},{"user_id":9,"name":"Pyrolimited","steam_id":76561198195455657,"connected_time":2027000000000,"state":"active","ping":61},{"user_id":10,"name":"5oc","steam_id":76561199196300397,"connected_time":2018000000000,"state":"active","ping":51}]},{"server_id":19,"name":"Uncletopia | San Francisco | 3 | Stopwatch","name_short":"sfo-3","host":"sfo-1.us.uncletopia.com","port":27035,"enabled":true,"region":"us-west","cc":"us","latitude":37.77397,"longitude":-122.4313,"reserved":0,"last_update":"0001-01-01T00:00:00Z","name_a2s":"Uncletopia | San Francisco | 3 | Stopwatch","protocol":17,"map":"workshop/koth_product_final.ugc454272353","folder":"tf","game":"Team Fortress","app_id":440,"player_count":0,"max_players":24,"Bots":0,"server_type":"Dedicated","server_os":"Linux","password":true,"vac":true,"version":"7961495","steam_id":85568392924742824,"keywords":["cp","nocrits","nodmgspread","uncletopia"],"game_id":440,"stv_port":27036,"stv_name":"Uncletopia | San Francisco | 3 | Stopwatch | STV","players":null},{"server_id":20,"name":"Uncletopia | San Francisco | 4 | Community","name_short":"sfo-4","host":"sfo-1.us.uncletopia.com","port":27045,"enabled":true,"region":"us-west","cc":"us","latitude":37.77397,"longitude":-122.4313,"reserved":0,"last_update":"0001-01-01T00:00:00Z","name_a2s":"Uncletopia | San Francisco | 4 | Community","protocol":17,"map":"workshop/pl_cactuscanyon_redux_final2.ugc2579644293","folder":"tf","game":"Team Fortress","app_id":440,"player_count":0,"max_players":24,"Bots":0,"server_type":"Dedicated","server_os":"Linux","password":true,"vac":true,"version":"7961495","steam_id":85568392924742826,"keywords":["nocrits","nodmgspread","payload","uncletopia"],"game_id":440,"stv_port":27046,"stv_name":"Uncletopia | San Francisco | 4 | Community | STV","players":null},{"server_id":141,"name":"Uncletopia | Sydney | 1 | All Maps","name_short":"syd-1","host":"syd-1.au.uncletopia.com","port":27015,"enabled":true,"region":"au","cc":"au","latitude":-33.865143,"longitude":151.2099,"reserved":0,"last_update":"0001-01-01T00:00:00Z","name_a2s":"Uncletopia | Sydney | 1 | All Maps","protocol":17,"map":"koth_nucleus","folder":"tf","game":"Team Fortress","app_id":440,"player_count":0,"max_players":24,"Bots":0,"server_type":"Dedicated","server_os":"Linux","password":true,"vac":true,"version":"7961495","steam_id":85568392924470001,"keywords":["cp","nocrits","nodmgspread","uncletopia"],"game_id":440,"stv_port":27016,"stv_name":"Uncletopia | Sydney | 1 | All Maps | STV","players":null},{"server_id":123,"name":"Uncletopia | Sydney | 2 | All Maps","name_short":"syd-2","host":"syd-1.au.uncletopia.com","port":27025,"enabled":true,"region":"au","cc":"au","latitude":-33.865143,"longitude":151.2099,"reserved":0,"last_update":"0001-01-01T00:00:00Z","name_a2s":"Uncletopia | Sydney | 2 | All Maps","protocol":17,"map":"cp_fastlane","folder":"tf","game":"Team Fortress","app_id":440,"player_count":0,"max_players":24,"Bots":0,"server_type":"Dedicated","server_os":"Linux","password":true,"vac":true,"version":"7961495","steam_id":85568392924470002,"keywords":["cp","nocrits","nodmgspread","uncletopia"],"game_id":440,"stv_port":27026,"stv_name":"Uncletopia | Sydney | 2 | All Maps | STV","players":null},{"server_id":395,"name":"Uncletopia | Sydney | 3 | All Maps","name_short":"syd-3","host":"syd-1.au.uncletopia.com","port":27035,"enabled":true,"region":"au","cc":"au","latitude":-33.865143,"longitude":151.2099,"reserved":0,"last_update":"0001-01-01T00:00:00Z","name_a2s":"Uncletopia | Sydney | 3 | All Maps","protocol":17,"map":"cp_metalworks","folder":"tf","game":"Team Fortress","app_id":440,"player_count":0,"max_players":24,"Bots":0,"server_type":"Dedicated","server_os":"Linux","password":true,"vac":true,"version":"7961495","steam_id":85568392925194467,"keywords":["cp","nocrits","nodmgspread","uncletopia"],"game_id":440,"stv_port":27036,"stv_name":"Uncletopia | Sydney | 3 | All Maps | STV","players":null},{"server_id":396,"name":"Uncletopia | Sydney | 4 | All Maps","name_short":"syd-4","host":"syd-1.au.uncletopia.com","port":27045,"enabled":true,"region":"au","cc":"au","latitude":-33.865143,"longitude":151.2099,"reserved":0,"last_update":"0001-01-01T00:00:00Z","name_a2s":"Uncletopia | Sydney | 4 | All Maps","protocol":17,"map":"koth_cascade","folder":"tf","game":"Team Fortress","app_id":440,"player_count":0,"max_players":24,"Bots":0,"server_type":"Dedicated","server_os":"Linux","password":true,"vac":true,"version":"7961495","steam_id":85568392925397958,"keywords":["cp","nocrits","nodmgspread","uncletopia"],"game_id":440,"stv_port":27046,"stv_name":"Uncletopia | Sydney | 4 | All Maps | STV","players":null},{"server_id":58,"name":"Uncletopia | Sydney | 5 | Stopwatch","name_short":"syd-5","host":"syd-1.au.uncletopia.com","port":27055,"enabled":true,"region":"au","cc":"au","latitude":-33.865143,"longitude":151.2099,"reserved":0,"last_update":"0001-01-01T00:00:00Z","name_a2s":"Uncletopia | Sydney | 5 | Stopwatch","protocol":17,"map":"workshop/koth_product_final.ugc454272353","folder":"tf","game":"Team Fortress","app_id":440,"player_count":0,"max_players":24,"Bots":0,"server_type":"Dedicated","server_os":"Linux","password":true,"vac":true,"version":"7961495","steam_id":85568392925397959,"keywords":["cp","nocrits","nodmgspread","uncletopia"],"game_id":440,"stv_port":27056,"stv_name":"Uncletopia | Sydney | 5 | Stopwatch | STV","players":null},{"server_id":59,"name":"Uncletopia | Sydney | 6 | Community","name_short":"syd-6","host":"syd-1.au.uncletopia.com","port":27065,"enabled":true,"region":"au","cc":"au","latitude":-33.865143,"longitude":151.2099,"reserved":0,"last_update":"0001-01-01T00:00:00Z","name_a2s":"Uncletopia | Sydney | 6 | Community","protocol":17,"map":"workshop/koth_trenchfoot_ab1.ugc731436616","folder":"tf","game":"Team Fortress","app_id":440,"player_count":0,"max_players":24,"Bots":0,"server_type":"Dedicated","server_os":"Linux","password":true,"vac":true,"version":"7961495","steam_id":85568392925397960,"keywords":["cp","nocrits","nodmgspread","uncletopia"],"game_id":440,"stv_port":27066,"stv_name":"Uncletopia | Sydney | 6 | Community | STV","players":null},{"server_id":49,"name":"Uncletopia | Warsaw | 1 | One Thousand Uncles","name_short":"waw-1","host":"waw-1.pl.uncletopia.com","port":27015,"enabled":true,"region":"eu","cc":"pl","latitude":52.2297,"longitude":21.017532,"reserved":0,"last_update":"0001-01-01T00:00:00Z","name_a2s":"Uncletopia | Warsaw | 1 | One Thousand Uncles","protocol":17,"map":"pl_barnblitz","folder":"tf","game":"Team Fortress","app_id":440,"player_count":0,"max_players":32,"Bots":0,"server_type":"Dedicated","server_os":"Linux","password":true,"vac":true,"version":"7961495","steam_id":85568392925397850,"keywords":["alltalk","danepve","increased_maxplayers","norespawntime","payload","uncletopia"],"game_id":440,"stv_port":0,"stv_name":"","players":null},{"server_id":50,"name":"Uncletopia | Warsaw | 2 | One Thousand Uncles","name_short":"waw-2","host":"waw-1.pl.uncletopia.com","port":27025,"enabled":true,"region":"eu","cc":"pl","latitude":52.2297,"longitude":21.017532,"reserved":0,"last_update":"0001-01-01T00:00:00Z","name_a2s":"Uncletopia | Warsaw | 2 | One Thousand Uncles","protocol":17,"map":"cp_mossrock","folder":"tf","game":"Team Fortress","app_id":440,"player_count":0,"max_players":32,"Bots":0,"server_type":"Dedicated","server_os":"Linux","password":true,"vac":true,"version":"7961495","steam_id":85568392925397851,"keywords":["alltalk","cp","danepve","increased_maxplayers","norespawntime","uncletopia"],"game_id":440,"stv_port":0,"stv_name":"","players":null},{"server_id":51,"name":"Uncletopia | Warsaw | 3 | All Maps","name_short":"waw-3","host":"waw-1.pl.uncletopia.com","port":27035,"enabled":true,"region":"eu","cc":"pl","latitude":52.2297,"longitude":21.017532,"reserved":0,"last_update":"0001-01-01T00:00:00Z","name_a2s":"Uncletopia | Warsaw | 3 | All Maps","protocol":17,"map":"koth_lakeside_final","folder":"tf","game":"Team Fortress","app_id":440,"player_count":0,"max_players":24,"Bots":0,"server_type":"Dedicated","server_os":"Linux","password":true,"vac":true,"version":"7961495","steam_id":85568392925397852,"keywords":["cp","nocrits","nodmgspread","uncletopia"],"game_id":440,"stv_port":27036,"stv_name":"Uncletopia | Warsaw | 3 | All Maps | STV","players":null},{"server_id":52,"name":"Uncletopia | Warsaw | 4 | All Maps","name_short":"waw-4","host":"waw-1.pl.uncletopia.com","port":27045,"enabled":true,"region":"eu","cc":"pl","latitude":52.2297,"longitude":21.017532,"reserved":0,"last_update":"0001-01-01T00:00:00Z","name_a2s":"Uncletopia | Warsaw | 4 | All Maps","protocol":17,"map":"pl_snowycoast","folder":"tf","game":"Team Fortress","app_id":440,"player_count":0,"max_players":24,"Bots":0,"server_type":"Dedicated","server_os":"Linux","password":true,"vac":true,"version":"7961495","steam_id":85568392925397853,"keywords":["nocrits","nodmgspread","payload","uncletopia"],"game_id":440,"stv_port":27046,"stv_name":"Uncletopia | Warsaw | 4 | All Maps | STV","players":null},{"server_id":53,"name":"Uncletopia | Warsaw | 5 | Stopwatch","name_short":"waw-5","host":"waw-1.pl.uncletopia.com","port":27055,"enabled":true,"region":"eu","cc":"pl","latitude":52.2297,"longitude":21.017532,"reserved":0,"last_update":"0001-01-01T00:00:00Z","name_a2s":"Uncletopia | Warsaw | 5 | Stopwatch","protocol":17,"map":"workshop/koth_ashville_final.ugc2130459942","folder":"tf","game":"Team Fortress","app_id":440,"player_count":0,"max_players":24,"Bots":0,"server_type":"Dedicated","server_os":"Linux","password":true,"vac":true,"version":"7961495","steam_id":85568392925397854,"keywords":["cp","nocrits","nodmgspread","uncletopia"],"game_id":440,"stv_port":27056,"stv_name":"Uncletopia | Warsaw | 5 | Stopwatch | STV","players":null},{"server_id":54,"name":"Uncletopia | Warsaw | 6 | Community","name_short":"waw-6","host":"waw-1.pl.uncletopia.com","port":27065,"enabled":true,"region":"eu","cc":"pl","latitude":52.2297,"longitude":21.017532,"reserved":0,"last_update":"0001-01-01T00:00:00Z","name_a2s":"Uncletopia | Warsaw | 6 | Community","protocol":17,"map":"workshop/koth_jamram_rc1a.ugc2964065613","folder":"tf","game":"Team Fortress","app_id":440,"player_count":0,"max_players":24,"Bots":0,"server_type":"Dedicated","server_os":"Linux","password":true,"vac":true,"version":"7961495","steam_id":85568392925397856,"keywords":["cp","nocrits","nodmgspread","uncletopia"],"game_id":440,"stv_port":27066,"stv_name":"Uncletopia | Warsaw | 6 | Community | STV","players":null}]}